time,x,y,size_inv,roll,pitch,thrust,yaw
0.0008568763732910156,166,46.0,2348.0130817563108,1518.0,1503.0,1350,1506.0
0.02338385581970215,166,45.671,2348.0130817563108,1520,1503.0,1350,1506.0
0.04555702209472656,166,45.671,2348.0130817563108,1520,1503.0,1350,1506.0
0.0677180290222168,166,45.671,2348.0130817563108,1520,1503.0,1350,1506.0
0.08983802795410156,166,45.671,2348.0130817563108,1520,1503.0,1350,1506.0
0.11201190948486328,166,45.671,2348.0130817563108,1520,1503.0,1350,1506.0
0.1341559886932373,166,45.671,2348.0130817563108,1520,1503.0,1350,1506.0
0.15633583068847656,166,45.671,2348.0130817563108,1520,1503.0,1350,1506.0
0.17846894264221191,166,45.671,2348.0130817563108,1520,1503.0,1350,1506.0
0.2006828784942627,167,45.671,2348.0130817563108,1520,1503.0,1350,1507.0
0.22312283515930176,167,45.6945,2348.0130817563108,1520,1503.0,1350,1507.0
0.24563288688659668,166,45.6945,2348.0130817563108,1520,1503.0,1350,1506.0
0.2681148052215576,166,45.671,2361.8249234137011,1520,1503.0,1350,1506.0
0.2907388210296631,166,45.6475,2361.8249234137011,1520,1503.0,1350,1506.0
0.31339097023010254,165,44.6005,2361.8249234137011,1520,1503.0,1350,1505.0
0.33671998977661133,164,43.6005,2375.6367650710908,1520,1503.0,1350,1504.0
0.3613858222961426,161,44.624,2389.4486067284806,1520,1503.0,1350,1501.0
0.38612985610961914,161,46.718,2403.2604483858709,1520,1503.0,1350,1501.0
0.4108409881591797,159,49.812,2403.2604483858709,1520,1503.0,1350,1499.0
0.43556785583496094,159,51.953,2417.0722900432606,1520,1503.0,1350,1499.0
0.4602639675140381,158,53.9765,2430.8841317006509,1520,1503.0,1345.7190000000001,1498.0
0.4851248264312744,156,56.953,2460.2342952226045,1507.0,1503.0,1322.9375600000001,1496.0
0.5099358558654785,156,56.9295,2460.2342952226045,1497.0,1503.0,1309.6851199999999,1496.0
0.5350098609924316,156,57.906,2474.0461368799943,1487.0,1503.0,1302.5216799999998,1496.0
0.5598218441009521,155,58.906,2487.8579785373845,1480,1503.0,1301.3087599999999,1495.0
0.5848798751831055,155,60.9295,2487.8579785373845,1480,1503.0,1302.9796000000001,1495.0
0.6096630096435547,156,64.9765,2487.8579785373845,1480,1503.0,1303.3368,1496.0
0.6342978477478027,155,67.0235,2487.8579785373845,1480,1503.0,1300.2326799999998,1495.0
0.6590049266815186,156,69.0235,2501.6698201947743,1480,1503.0,1292.83132,1496.0
0.68361496925354,156,71.047,2487.8579785373845,1480,1503.0,1282.37616,1496.0
0.7082788944244385,156,72.0235,2487.8579785373845,1480,1503.0,1274.68508,1496.0
0.7332448959350586,156,75.0,2458.5078150154304,1480,1503.0,1267.5914,1496.0
0.758033037185669,156,75.9765,2444.6959733580406,1480,1503.0,1267.25512,1496.0
0.7831368446350098,156,76.9295,2430.8841317006509,1480,1503.0,1269.8466799999999,1496.0
0.8080630302429199,156,76.8825,2417.0722900432606,1480,1503.0,1278.01172,1496.0
0.8332219123840332,156,77.8825,2403.2604483858709,1480,1503.0,1283.4626000000001,1496.0
0.8581500053405762,154,79.8825,2377.0906431402896,1480,1503.0,1287.6637600000001,1494.0
0.883059024810791,155,81.8825,2363.2788014828993,1480,1503.0,1288.9352000000001,1495.0
0.9079728126525879,155,82.8825,2337.108996237318,1480,1503.0,1289.9150400000001,1495.0
0.9330408573150635,155,83.906,2324.7510326491274,1480,1503.0,1286.50928,1495.0
0.9579389095306396,154,86.906,2287.4590601741738,1480,1503.0,1277.8836799999999,1494.0
0.9829049110412598,154,87.9295,2275.1010965859832,1480,1503.0,1271.7079999999999,1494.0
1.007817029953003,154,88.953,2262.7431329977921,1480,1503.0,1268.33044,1494.0
1.0327928066253662,154,89.953,2250.3851694096011,1480,1503.0,1265.0449999999998,1494.0
1.0577518939971924,154,90.953,2238.02720582141,1480,1503.0,1263.24928,1494.0
1.0828008651733398,154,92.953,2214.5470750038467,1480,1503.0,1264.41356,1494.0
1.107832908630371,154,93.953,2203.4249077744748,1480,1503.0,1265.4836399999999,1494.0
1.1331429481506348,154,93.953,2179.9447769569115,1480,1503.0,1267.8995199999999,1494.0
1.1581900119781494,154,94.953,2168.8226097275397,1480,1503.0,1269.1153999999999,1494.0
1.1831979751586914,154,94.9295,2157.7004424981678,1480,1503.0,1273.00136,1494.0
1.2081599235534668,155,95.9295,2157.7004424981678,1480,1503.0,1275.73912,1495.0
1.233464002609253,155,95.9295,2146.578275268796,1480,1503.0,1281.08492,1495.0
1.2583470344543457,155,95.9295,2125.3931948318968,1480,1503.0,1285.0387599999999,1495.0
1.2832629680633545,156,96.9295,2114.271027602525,1480,1503.0,1287.7926,1496.0
1.3082218170166016,156,96.953,2093.0859471656258,1480,1503.0,1290.2585999999999,1496.0
1.333237886428833,157,97.9765,2083.0230339580985,1480,1503.0,1290.13076,1497.0
1.3581299781799316,157,97.9765,2072.9601207505716,1480,1503.0,1289.87112,1497.0
1.3832309246063232,157,99.0,2062.8972075430443,1480,1503.0,1286.9094399999999,1497.0
1.408210039138794,158,99.0,2052.8342943355174,1480,1503.0,1286.6159600000001,1498.0
1.4332318305969238,157,99.0,2042.77138112799,1480,1503.0,1286.4202399999999,1497.0
1.4581239223480225,159,99.0,2032.7084679204629,1480,1503.0,1287.7303200000001,1499.0
1.4830458164215088,157,98.9765,2013.4974517970022,1480,1503.0,1289.1024400000001,1497.0
1.5079448223114014,158,97.953,2013.4974517970022,1480,1503.0,1296.0142000000001,1498.0
1.5329668521881104,159,96.9295,2003.4345385894751,1480,1503.0,1303.0398,1499.0
1.5579988956451416,159,96.9295,2003.4345385894751,1480,1503.0,1308.8052399999999,1499.0
1.583042860031128,159,96.9295,2003.4345385894751,1480,1503.0,1313.1787199999999,1499.0
1.6080210208892822,160,96.953,2003.4345385894751,1483.0,1503.0,1317.42436,1500.0
1.633162021636963,160,96.9765,2003.4345385894751,1486.0,1503.0,1317.3784000000001,1500.0
1.6583478450775146,160,97.0235,2013.4974517970022,1488.0,1503.0,1314.37076,1500.0
1.6833529472351074,161,97.0235,2013.4974517970022,1494.0,1503.0,1311.4195199999999,1501.0
1.7084050178527832,161,97.0235,2013.4974517970022,1496.0,1503.0,1308.46828,1501.0
1.7336030006408691,161,97.0235,2022.6455547129358,1500.0,1503.0,1305.6148000000001,1501.0
1.7587108612060547,161,97.0235,2022.6455547129358,1503.0,1503.0,1304.2190800000001,1501.0
1.7838449478149414,162,97.0235,2032.7084679204629,1508.0,1503.0,1304.34692,1502.0
1.8089559078216553,162,97.0235,2042.77138112799,1511.0,1503.0,1304.4747600000001,1502.0
1.8340458869934082,162,96.0235,2052.8342943355174,1514.0,1503.0,1307.2426,1502.0
1.8592488765716553,163,96.0235,2062.8972075430443,1519.0,1503.0,1308.7784799999999,1503.0
1.8842990398406982,163,95.0235,2084.0822879799434,1520,1503.0,1312.9223999999999,1503.0
1.9092388153076172,163,95.047,2095.2044552093153,1520,1503.0,1315.74036,1503.0
1.9342479705810547,163,95.047,2116.3895356462144,1520,1503.0,1318.5865200000001,1503.0
1.9593219757080078,163,94.0705,2137.5746160831136,1520,1503.0,1321.21064,1503.0
1.9842679500579834,163,94.0705,2158.7596965200128,1520,1503.0,1322.6629600000001,1503.0
2.0092618465423584,163,94.0705,2192.3027405451026,1520,1503.0,1321.31528,1503.0
2.034179925918579,163,94.094,2215.7828713626659,1520,1503.0,1319.97136,1503.0
2.059142827987671,163,94.094,2239.2630021802288,1520,1503.0,1318.6556399999999,1503.0
2.083988904953003,163,94.1175,2262.7431329977917,1520,1503.0,1315.9036799999999,1503.0
2.1089699268341064,163,93.141,2300.0351054727448,1520,1503.0,1315.7578799999999,1503.0
2.1339669227600098,163,93.141,2312.3930690609359,1520,1503.0,1315.8002799999999,1503.0
2.158888816833496,163,93.141,2324.751032649127,1520,1503.0,1315.87652,1503.0
2.1836998462677,163,92.1175,2350.9208378947083,1520,1503.0,1318.6548,1503.0
2.208595037460327,163,92.094,2363.2788014828993,1520,1503.0,1321.66076,1503.0
2.233660936355591,163,91.094,2389.4486067284806,1520,1503.0,1324.54432,1503.0
2.2586989402770996,163,90.0705,2403.2604483858704,1520,1503.0,1328.92992,1503.0
2.283629894256592,163,90.0705,2417.0722900432602,1520,1503.0,1332.0553600000001,1503.0
2.30849289894104,163,90.094,2430.8841317006504,1520,1503.0,1332.25296,1503.0
2.3336338996887207,162,90.094,2444.6959733580402,1520,1503.0,1332.3810000000001,1502.0
2.35868501663208,162,91.1175,2460.234295222604,1520,1503.0,1328.3350399999999,1502.0
2.3837218284606934,162,91.1175,2489.5844587445581,1520,1503.0,1322.65148,1502.0
2.408658981323242,162,91.1175,2518.9346222665117,1520,1503.0,1316.96792,1502.0
2.433940887451172,162,91.141,2534.4729441310756,1520,1503.0,1312.6800799999999,1502.0
2.4589040279388428,162,91.1175,2563.8231076530292,1520,1503.0,1308.5144399999999,1502.0
2.4839389324188232,162,91.1175,2579.361429517593,1520,1503.0,1308.5463999999999,1502.0
2.508898973464966,162,91.094,2594.8997513821569,1520,1503.0,1310.0323599999999,1502.0
2.533756971359253,162,90.0705,2610.4380732467207,1520,1503.0,1314.1921600000001,1502.0
2.5586209297180176,162,90.047,2625.9763951112845,1520,1503.0,1317.21964,1502.0
2.583732843399048,162,90.0235,2641.5147169758484,1520,1503.0,1320.21516,1502.0
2.6086878776550293,162,90.0235,2641.5147169758484,1520,1503.0,1321.79052,1502.0
2.633692979812622,162,90.047,2641.5147169758484,1520,1503.0,1323.23804,1502.0
2.6585159301757812,162,90.047,2641.5147169758484,1520,1503.0,1321.8479600000001,1502.0
2.6835379600524902,160,90.047,2641.5147169758484,1518.0,1503.0,1320.3601200000001,1500.0
2.708737850189209,161,90.0705,2659.124815089021,1519.0,1503.0,1318.7764,1501.0
2.733799934387207,161,90.0705,2676.7349132021932,1518.0,1503.0,1317.2208800000001,1501.0
2.7589378356933594,161,90.094,2694.3450113153658,1517.0,1503.0,1315.70108,1501.0
2.78411602973938,161,90.1175,2711.955109428538,1516.0,1503.0,1315.5393999999999,1501.0
2.8092029094696045,159,91.1175,2729.5652075417102,1509.0,1503.0,1312.7978800000001,1499.0
2.8341689109802246,160,91.141,2747.1753056548828,1509.0,1503.0,1311.2920799999999,1500.0
2.8593358993530273,160,91.141,2764.7854037680549,1507.0,1503.0,1309.81448,1500.0
2.884413957595825,160,91.1175,2782.3955018812276,1505.0,1503.0,1308.4327599999999,1500.0
2.909515857696533,158,91.094,2800.0055999943997,1497.0,1503.0,1307.15068,1498.0
2.9345200061798096,158,90.0705,2817.6156981075719,1495.0,1503.0,1311.3424399999999,1498.0
2.9595859050750732,159,90.0705,2817.6156981075719,1495.0,1503.0,1314.3398400000001,1499.0
2.9845268726348877,158,90.0705,2817.6156981075719,1490.0,1503.0,1317.3372400000001,1498.0
3.009500026702881,159,90.047,2817.6156981075719,1490.0,1503.0,1320.2989200000002,1499.0
3.0346388816833496,158,90.0705,2817.6156981075719,1485.0,1503.0,1323.0726,1498.0
3.0596678256988525,159,90.0705,2817.6156981075719,1487.0,1503.0,1321.64868,1499.0
3.084683895111084,159,91.0705,2817.6156981075719,1486.0,1503.0,1317.5527999999999,1499.0
3.1097159385681152,158,91.0705,2817.6156981075719,1482.0,1503.0,1314.6569200000001,1498.0
3.1347439289093018,158,91.0705,2817.6156981075719,1480.0,1503.0,1311.7272,1498.0
3.1598758697509766,159,91.0705,2800.0055999943997,1483.0,1503.0,1308.8952400000001,1499.0
3.1850979328155518,158,91.047,2782.3955018812276,1481.0,1503.0,1307.51728,1498.0
3.2101218700408936,159,91.0235,2764.7854037680549,1483.0,1503.0,1308.97316,1499.0
3.2355098724365234,159,91.0235,2747.1753056548828,1484.0,1503.0,1310.40084,1499.0
3.2607648372650146,159,91.0235,2729.5652075417102,1484.0,1503.0,1311.8604800000001,1499.0
3.2860169410705566,159,91.0235,2711.955109428538,1485.0,1503.0,1313.2881600000001,1499.0
3.31128191947937,158,91.0235,2694.3450113153658,1482.0,1503.0,1314.65004,1498.0
3.336483955383301,158,91.0235,2661.1965913376293,1481.0,1503.0,1314.5861199999999,1498.0
3.3617289066314697,159,91.0235,2643.5864932244572,1484.0,1503.0,1314.5221999999999,1499.0
3.3870909214019775,158,91.0,2625.9763951112845,1482.0,1503.0,1314.5203200000001,1498.0
3.412285804748535,158,91.0,2625.9763951112845,1481.0,1503.0,1314.4902400000001,1498.0
3.437530040740967,159,91.0,2625.9763951112845,1484.0,1503.0,1314.4921199999999,1499.0
3.462488889694214,158,91.0235,2625.9763951112845,1481.0,1503.0,1314.4639199999999,1498.0
3.4876599311828613,158,91.0235,2610.4380732467207,1480.0,1503.0,1314.4639199999999,1498.0
3.5127618312835693,158,91.0705,2594.8997513821569,1480,1503.0,1314.27404,1498.0
3.5377089977264404,158,92.0705,2579.361429517593,1480,1503.0,1311.50056,1498.0
3.562595844268799,158,92.0705,2563.8231076530292,1480,1503.0,1309.9270799999999,1498.0
3.5875790119171143,158,92.0705,2563.8231076530292,1480,1503.0,1308.4194,1498.0
3.620457887649536,159,92.0705,2548.2847857884653,1480.0,1503.0,1306.9117200000001,1499.0
3.6452629566192627,160,92.0705,2548.2847857884653,1484.0,1503.0,1305.5676000000001,1500.0
3.6697850227355957,159,91.047,2532.7464639239015,1483.0,1503.0,1309.72552,1499.0
3.6943299770355225,159,91.047,2517.2081420593377,1483.0,1503.0,1312.65524,1499.0
3.718791961669922,161,91.047,2501.6698201947738,1490.0,1503.0,1315.5530000000001,1501.0
3.7432329654693604,160,91.047,2501.6698201947738,1490.0,1503.0,1318.4507599999999,1500.0
3.7677769660949707,160,91.047,2501.6698201947738,1492.0,1503.0,1321.2846,1500.0
3.7924089431762695,160,92.047,2487.857978537384,1494.0,1503.0,1317.2526399999999,1500.0
3.817003011703491,162,92.0705,2474.0461368799943,1502.0,1503.0,1314.3586399999999,1502.0
3.8416049480438232,161,92.0705,2460.234295222604,1503.0,1503.0,1311.4928400000001,1501.0
3.866266965866089,161,92.0705,2460.234295222604,1505.0,1503.0,1308.6270400000001,1501.0
3.890997886657715,161,92.094,2444.6959733580402,1506.0,1503.0,1305.6992,1501.0
3.915937900543213,161,93.094,2430.8841317006504,1508.0,1503.0,1304.3515199999999,1501.0
3.94071888923645,162,92.094,2430.8841317006504,1513.0,1503.0,1306.9096400000001,1502.0
3.9654228687286377,163,92.094,2430.8841317006504,1517.0,1503.0,1308.26776,1503.0
3.989886999130249,162,92.0705,2430.8841317006504,1517.0,1503.0,1309.6879200000001,1502.0
4.014514923095703,162,92.0705,2430.8841317006504,1519.0,1503.0,1311.1456800000001,1502.0
4.039094924926758,162,92.047,2460.234295222604,1520,1503.0,1314.1054799999999,1502.0
4.063568830490112,162,91.047,2474.0461368799943,1520,1503.0,1316.84512,1502.0
4.087929010391235,162,91.047,2487.857978537384,1520,1503.0,1318.3847599999999,1502.0
4.112321853637695,162,91.047,2487.857978537384,1520,1503.0,1319.8586,1502.0
4.13683295249939,162,92.0705,2503.3963004019479,1520,1503.0,1318.59844,1502.0
4.161474943161011,162,92.094,2532.7464639239015,1520,1503.0,1317.07864,1502.0
4.186034917831421,162,92.1175,2548.2847857884653,1520,1503.0,1314.085,1502.0
4.210377931594849,162,92.1175,2548.2847857884653,1520,1503.0,1311.1195599999999,1502.0
4.235124826431274,162,92.141,2563.8231076530292,1520,1503.0,1308.1240399999999,1502.0
4.259477853775024,162,92.141,2596.9715276307656,1520,1503.0,1308.02252,1502.0
4.284096956253052,162,92.141,2596.9715276307656,1520,1503.0,1308.0187599999999,1502.0
4.3084869384765625,162,92.141,2612.5098494953295,1520,1503.0,1309.4407999999999,1502.0
4.332932949066162,162,91.1175,2645.6582694730655,1520,1503.0,1313.5648799999999,1502.0
4.357370853424072,162,91.1175,2678.806689450802,1520,1503.0,1316.52656,1502.0
4.381887912750244,162,91.094,2696.4167875639741,1520,1503.0,1318.15832,1502.0
4.4064040184021,162,91.094,2696.4167875639741,1520,1503.0,1319.72992,1502.0
4.431035995483398,162,90.094,2714.0268856771463,1520,1503.0,1323.9095600000001,1502.0
4.455704927444458,162,90.0705,2747.1753056548828,1520,1503.0,1324.0854400000001,1502.0
4.480068922042847,161,90.0705,2764.7854037680549,1520,1503.0,1324.2011600000001,1501.0
4.504619836807251,161,90.0705,2764.7854037680549,1520.0,1503.0,1324.25108,1501.0
4.529083013534546,161,90.0705,2782.3955018812276,1519.0,1503.0,1324.3010000000002,1501.0
4.553627014160156,161,90.0705,2800.0055999943997,1518.0,1503.0,1321.5509200000001,1501.0
4.578169822692871,161,89.094,2800.0055999943997,1517.0,1503.0,1322.70496,1501.0
4.60261082649231,160,89.094,2800.0055999943997,1513.0,1503.0,1322.6872000000001,1500.0
4.627030849456787,160,90.094,2800.0055999943997,1511.0,1503.0,1320.0614,1500.0
4.651723861694336,160,90.094,2817.6156981075719,1509.0,1503.0,1318.6356000000001,1500.0
4.676548004150391,160,90.094,2817.6156981075719,1507.0,1503.0,1318.5698,1500.0
4.701321840286255,160,90.094,2817.6156981075719,1505.0,1503.0,1315.8017600000001,1500.0
4.726001024246216,160,90.094,2837.7415245226262,1504.0,1503.0,1313.0337199999999,1500.0
4.750468015670776,160,90.0705,2837.7415245226262,1503.0,1503.0,1313.12772,1500.0
4.775306940078735,160,89.0705,2837.7415245226262,1502.0,1503.0,1315.8335199999999,1500.0
4.799878835678101,160,89.047,2837.7415245226262,1501.0,1503.0,1317.4013600000001,1500.0
4.8249359130859375,159,89.047,2837.7415245226262,1497.0,1503.0,1320.2690399999999,1499.0
4.849427938461304,159,89.047,2837.7415245226262,1496.0,1503.0,1323.13672,1499.0
4.873873949050903,159,89.047,2837.7415245226262,1495.0,1503.0,1324.5786000000001,1499.0
4.8983659744262695,159,89.0705,2837.7415245226262,1494.0,1503.0,1323.1584399999999,1499.0
4.922919988632202,159,90.0705,2820.1314264094535,1493.0,1503.0,1319.06068,1499.0
4.947486877441406,159,90.094,2820.1314264094535,1492.0,1503.0,1316.10088,1499.0
4.972074031829834,159,90.094,2800.0055999943997,1491.0,1503.0,1313.1692800000001,1499.0
4.996654987335205,159,90.094,2800.0055999943997,1490.0,1503.0,1310.26964,1499.0
5.021358013153076,159,90.094,2800.0055999943997,1489.0,1503.0,1308.7958000000001,1499.0
5.046217918395996,159,90.0705,2782.3955018812276,1488.0,1503.0,1310.21596,1499.0
5.070936918258667,159,89.047,2782.3955018812276,1488.0,1503.0,1314.3757599999999,1499.0
5.0955939292907715,159,89.0235,2782.3955018812276,1488.0,1503.0,1317.3694,1499.0
5.1200549602508545,160,89.0235,2782.3955018812276,1491.0,1503.0,1320.33484,1500.0
5.144866943359375,160,89.0,2764.7854037680549,1492.0,1503.0,1323.3303599999999,1500.0
5.169533014297485,159,89.0,2764.7854037680549,1490.0,1503.0,1324.8718799999999,1499.0
5.194095849990845,160,89.0,2747.1753056548828,1493.0,1503.0,1323.5156400000001,1500.0
5.2185258865356445,160,89.0,2729.5652075417102,1494.0,1503.0,1322.0935999999999,1500.0
5.242981910705566,160,89.0,2711.955109428538,1495.0,1503.0,1320.67156,1500.0
5.267529010772705,160,89.0,2694.3450113153658,1496.0,1503.0,1319.18372,1500.0
5.292208909988403,160,89.0,2694.3450113153658,1497.0,1503.0,1317.72784,1500.0
5.316959857940674,160,89.0,2676.7349132021932,1498.0,1503.0,1317.66392,1500.0
5.341588020324707,160,89.0235,2659.124815089021,1499.0,1503.0,1317.5699199999999,1500.0
5.366261005401611,161,90.0235,2641.5147169758484,1502.0,1503.0,1314.86412,1501.0
5.390980005264282,160,90.0235,2641.5147169758484,1500.0,1503.0,1313.3902800000001,1500.0
5.4157538414001465,159,90.047,2641.5147169758484,1498.0,1503.0,1311.8543999999999,1499.0
5.440445899963379,160,91.0705,2641.5147169758484,1500.0,1503.0,1307.6446800000001,1500.0
5.4652769565582275,159,91.0705,2641.5147169758484,1497.0,1503.0,1304.7289599999999,1499.0
5.489710807800293,159,91.094,2625.9763951112845,1496.0,1503.0,1304.5512000000001,1499.0
5.514248847961426,160,91.094,2643.5864932244572,1498.0,1503.0,1304.40164,1500.0
5.5387959480285645,160,92.094,2643.5864932244572,1498.0,1503.0,1301.67788,1500.0
5.563448905944824,160,92.094,2643.5864932244572,1498.0,1503.0,1303.01992,1500.0
5.587908029556274,160,91.0705,2661.1965913376293,1498.0,1503.0,1307.0320400000001,1500.0
5.612315893173218,160,91.0235,2661.1965913376293,1497.0,1503.0,1308.6458399999999,1500.0
5.636865854263306,160,91.0235,2661.1965913376293,1497.0,1503.0,1310.2032400000001,1500.0
5.6616058349609375,160,90.0,2661.1965913376293,1498.0,1503.0,1317.23072,1500.0
5.686244010925293,160,90.0,2661.1965913376293,1498.0,1503.0,1321.63804,1500.0
5.7108659744262695,160,90.0,2661.1965913376293,1499.0,1503.0,1323.17956,1500.0
5.735563039779663,160,90.0,2676.7349132021932,1500.0,1503.0,1324.5575200000001,1500.0
5.759989023208618,160,90.0,2659.124815089021,1500.0,1503.0,1325.9354799999999,1500.0
5.7848899364471436,161,91.0235,2659.124815089021,1503.0,1503.0,1320.3856000000001,1501.0
5.8093578815460205,160,91.0235,2659.124815089021,1501.0,1503.0,1316.0639200000001,1500.0
5.8338518142700195,161,90.047,2659.124815089021,1504.0,1503.0,1315.71216,1501.0
5.85829496383667,161,91.0235,2659.124815089021,1505.0,1503.0,1311.6745599999999,1501.0
5.882721900939941,161,91.0235,2659.124815089021,1506.0,1503.0,1308.8087600000001,1501.0
5.90744686126709,161,91.0235,2659.124815089021,1507.0,1503.0,1310.20072,1501.0
5.932080030441284,161,90.0235,2676.7349132021932,1508.0,1503.0,1314.2326800000001,1501.0
5.956740856170654,160,90.0235,2694.3450113153658,1506.0,1503.0,1314.33044,1500.0
5.9813690185546875,161,90.0235,2711.955109428538,1509.0,1503.0,1317.1623999999999,1501.0
6.00632381439209,161,90.0235,2729.5652075417102,1510.0,1503.0,1319.9943599999999,1501.0
6.031286001205444,161,90.0235,2747.1753056548828,1510.0,1503.0,1321.43436,1501.0
6.056011915206909,161,91.047,2747.1753056548828,1511.0,1503.0,1317.3723199999999,1501.0
6.080472946166992,160,91.047,2729.5652075417102,1508.0,1503.0,1315.86652,1500.0
6.105284929275513,161,91.047,2747.1753056548828,1510.0,1503.0,1313.03268,1501.0
6.129717826843262,161,91.047,2764.7854037680549,1510.0,1503.0,1310.19884,1501.0
6.154453992843628,161,91.047,2782.3955018812276,1510.0,1503.0,1307.365,1501.0
6.178905010223389,160,91.0235,2764.7854037680549,1507.0,1503.0,1308.819,1500.0
6.203364849090576,161,91.0,2747.1753056548828,1510.0,1503.0,1310.30684,1501.0
6.227813005447388,160,91.0,2729.5652075417102,1507.0,1503.0,1311.76648,1500.0
6.252238035202026,160,91.0,2711.955109428538,1506.0,1503.0,1313.22612,1500.0
6.276670932769775,160,91.0,2694.3450113153658,1505.0,1503.0,1314.6857600000001,1500.0
6.301403999328613,160,91.0,2694.3450113153658,1504.0,1503.0,1314.6876399999999,1500.0
6.326164960861206,160,91.0,2694.3450113153658,1504.0,1503.0,1314.62372,1500.0
6.350800037384033,160,90.0,2694.3450113153658,1503.0,1503.0,1317.1998000000001,1500.0
6.375476837158203,159,90.0,2694.3450113153658,1499.0,1503.0,1318.5758800000001,1499.0
6.399914979934692,159,90.0,2694.3450113153658,1497.0,1503.0,1319.9519600000001,1499.0
6.424599885940552,159,90.0,2711.955109428538,1496.0,1503.0,1321.3599999999999,1499.0
6.449164867401123,159,90.0235,2729.5652075417102,1494.0,1503.0,1322.7379599999999,1499.0
6.473585844039917,159,91.0235,2729.5652075417102,1493.0,1503.0,1318.7041200000001,1499.0
6.498024940490723,160,90.0235,2747.1753056548828,1495.0,1503.0,1318.51028,1500.0
6.5224928855896,160,91.047,2747.1753056548828,1495.0,1503.0,1314.4144000000001,1500.0
6.547026872634888,160,91.047,2747.1753056548828,1495.0,1503.0,1311.5467200000001,1500.0
6.571784973144531,160,91.0705,2764.7854037680549,1495.0,1503.0,1308.6828,1500.0
6.596374034881592,161,91.0705,2764.7854037680549,1498.0,1503.0,1310.0070800000001,1501.0
6.621003866195679,161,92.0705,2747.1753056548828,1500.0,1503.0,1305.8913600000001,1501.0
6.645694971084595,161,92.094,2729.5652075417102,1502.0,1503.0,1305.7794000000001,1501.0
6.670261859893799,161,92.094,2711.955109428538,1504.0,1503.0,1305.6956400000001,1501.0
6.6949849128723145,163,91.0705,2711.955109428538,1512.0,1503.0,1308.3477600000001,1503.0
6.719607830047607,162,91.047,2711.955109428538,1513.0,1503.0,1308.47372,1502.0
6.744257926940918,162,91.0235,2694.3450113153658,1515.0,1503.0,1312.7935199999999,1502.0
6.768852949142456,162,90.0,2694.3450113153658,1517.0,1503.0,1318.461,1502.0
6.79343581199646,162,89.9765,2694.3450113153658,1519.0,1503.0,1322.9623199999999,1502.0
6.818023920059204,163,88.9765,2694.3450113153658,1520,1503.0,1327.17768,1503.0
6.842399835586548,163,88.9765,2694.3450113153658,1520,1503.0,1330.12724,1503.0
6.866788864135742,163,89.0,2711.955109428538,1520,1503.0,1331.58896,1503.0
6.8914289474487305,163,89.0235,2729.5652075417102,1520,1503.0,1330.1190799999999,1503.0
6.916160821914673,163,89.0235,2747.1753056548828,1520,1503.0,1328.6116,1503.0
6.940871953964233,163,90.047,2729.5652075417102,1520,1503.0,1322.99404,1503.0
6.965312957763672,163,90.047,2729.5652075417102,1520,1503.0,1318.6366399999999,1503.0
6.989661931991577,162,89.0705,2747.1753056548828,1520,1503.0,1316.95496,1502.0
7.01409387588501,161,89.0705,2764.7854037680549,1520,1503.0,1315.55924,1501.0
7.038614988327026,162,89.0705,2782.3955018812276,1520,1503.0,1314.1954800000001,1502.0
7.062987804412842,162,90.094,2782.3955018812276,1520,1503.0,1314.3554799999999,1502.0
7.087366819381714,161,90.094,2782.3955018812276,1520,1503.0,1315.74368,1501.0
7.1119139194488525,160,90.0705,2782.3955018812276,1520.0,1503.0,1314.42776,1500.0
7.1365439891815186,160,90.0705,2782.3955018812276,1517.0,1503.0,1313.05168,1500.0
7.161453008651733,158,89.047,2782.3955018812276,1508.0,1503.0,1314.3776399999999,1498.0
7.186430931091309,159,89.047,2800.0055999943997,1506.0,1503.0,1315.9492399999999,1499.0
7.211086988449097,159,89.0235,2837.7415245226262,1502.0,1503.0,1317.5828799999999,1499.0
7.235754013061523,158,89.0235,2857.8673509376799,1496.0,1503.0,1320.45056,1498.0
7.260210990905762,159,89.0235,2877.9931773527342,1496.0,1503.0,1323.3182400000001,1499.0
7.2852559089660645,158,89.047,2898.1190037677879,1490.0,1503.0,1323.2580800000001,1498.0
7.309717893600464,159,89.047,2898.1190037677879,1489.0,1503.0,1321.8341599999999,1499.0
7.334223985671997,157,89.0705,2898.1190037677879,1481.0,1503.0,1320.2824000000001,1497.0
7.3587048053741455,158,89.094,2898.1190037677879,1481.0,1503.0,1318.72876,1498.0
7.383150815963745,157,89.094,2898.1190037677879,1480,1503.0,1317.2033200000001,1497.0
7.407558917999268,159,90.094,2880.5089056546158,1481.0,1503.0,1314.4956400000001,1499.0
7.4321818351745605,159,89.094,2880.5089056546158,1481.0,1503.0,1315.62796,1499.0
7.456820011138916,159,89.094,2860.3830792395615,1481.0,1503.0,1315.65804,1499.0
7.48140287399292,158,89.094,2840.2572528245078,1480,1503.0,1315.7539200000001,1498.0
7.506000995635986,160,89.0705,2802.5213282962814,1484.0,1503.0,1315.91184,1500.0
7.530444860458374,160,89.0705,2764.7854037680549,1486.0,1503.0,1318.8096,1500.0
7.55534291267395,160,89.0705,2747.1753056548828,1487.0,1503.0,1318.9073599999999,1500.0
7.579793930053711,160,89.094,2729.5652075417102,1490.0,1503.0,1318.91112,1500.0
7.604223966598511,160,89.094,2711.955109428538,1492.0,1503.0,1318.91112,1500.0
7.628667831420898,160,89.1175,2694.3450113153658,1495.0,1503.0,1318.7832799999999,1500.0
7.6531078815460205,160,90.1175,2694.3450113153658,1496.0,1503.0,1314.68364,1500.0
7.67767596244812,160,90.1175,2676.7349132021932,1497.0,1503.0,1313.144,1500.0
7.702232837677002,160,90.1175,2659.124815089021,1498.0,1503.0,1311.6701599999999,1500.0
7.726708889007568,159,90.1175,2641.5147169758484,1497.0,1503.0,1310.19632,1499.0
7.751384019851685,160,89.094,2625.9763951112845,1499.0,1503.0,1311.5222799999999,1500.0
7.776023864746094,159,89.094,2625.9763951112845,1496.0,1503.0,1314.42004,1499.0
7.800747871398926,160,89.094,2625.9763951112845,1498.0,1503.0,1317.3178,1500.0
7.82552695274353,160,89.0705,2625.9763951112845,1498.0,1503.0,1320.2456400000001,1500.0
7.849973917007446,159,88.0705,2625.9763951112845,1495.0,1503.0,1325.7852800000001,1499.0
7.874563932418823,160,88.047,2625.9763951112845,1497.0,1503.0,1327.2892000000002,1500.0
7.899093866348267,160,88.047,2625.9763951112845,1497.0,1503.0,1327.4049199999999,1500.0
7.923687934875488,160,88.0705,2625.9763951112845,1497.0,1503.0,1327.4585999999999,1500.0
7.948325872421265,160,88.094,2625.9763951112845,1497.0,1503.0,1327.41264,1500.0
7.9727418422698975,160,88.094,2625.9763951112845,1498.0,1503.0,1324.5948800000001,1500.0
7.997172832489014,160,88.1175,2659.124815089021,1498.0,1503.0,1323.04124,1500.0
8.021893978118896,160,88.1175,2676.7349132021932,1499.0,1503.0,1321.5157999999999,1500.0
8.046676874160767,160,88.1175,2694.3450113153658,1499.0,1503.0,1320.0561599999999,1500.0
8.071554899215698,160,88.094,2694.3450113153658,1499.0,1503.0,1318.75632,1500.0
8.096206903457642,160,88.0705,2694.3450113153658,1500.0,1503.0,1318.85032,1500.0
8.120818853378296,160,87.047,2711.955109428538,1500.0,1503.0,1321.7159200000001,1500.0
8.145615816116333,160,87.0235,2711.955109428538,1500.0,1503.0,1323.41536,1500.0
8.170174837112427,160,87.0235,2711.955109428538,1500.0,1503.0,1325.0546400000001,1500.0
8.195227861404419,161,88.047,2711.955109428538,1503.0,1503.0,1323.8941199999999,1501.0
8.219672918319702,160,88.0705,2711.955109428538,1501.0,1503.0,1323.8339599999999,1500.0
8.244091033935547,161,88.0705,2694.3450113153658,1504.0,1503.0,1320.9042400000001,1501.0
8.268642902374268,161,88.0705,2676.7349132021932,1505.0,1503.0,1317.9087200000001,1501.0
8.293216943740845,161,88.047,2659.124815089021,1506.0,1503.0,1314.97524,1501.0
8.317945957183838,161,88.047,2659.124815089021,1507.0,1503.0,1314.9113199999999,1501.0
8.342408895492554,161,89.047,2659.124815089021,1508.0,1503.0,1312.3051600000001,1501.0
8.367173910140991,162,89.047,2641.5147169758484,1512.0,1503.0,1312.29096,1502.0
8.391920804977417,162,89.0705,2641.5147169758484,1514.0,1503.0,1312.24668,1502.0
8.416648864746094,162,89.047,2641.5147169758484,1516.0,1503.0,1312.22684,1502.0
8.441493034362793,162,89.047,2641.5147169758484,1517.0,1503.0,1310.78684,1502.0
8.46613883972168,162,89.0235,2641.5147169758484,1519.0,1503.0,1312.1769200000001,1502.0
8.490744829177856,162,89.0,2641.5147169758484,1520.0,1503.0,1313.6008400000001,1502.0
8.515482902526855,162,88.0,2625.9763951112845,1520,1503.0,1317.70236,1502.0
8.539974927902222,161,88.0,2610.4380732467207,1519.0,1503.0,1320.5700400000001,1501.0
8.564844846725464,161,89.0,2610.4380732467207,1519.0,1503.0,1320.79772,1501.0
8.589301824569702,161,89.0235,2610.4380732467207,1519.0,1503.0,1320.73756,1501.0
8.613757848739624,160,89.047,2594.8997513821569,1515.0,1503.0,1320.5777599999999,1500.0
8.638309001922607,160,90.047,2594.8997513821569,1513.0,1503.0,1314.9742000000001,1500.0
8.662905931472778,160,90.047,2594.8997513821569,1511.0,1503.0,1310.6025999999999,1500.0
8.687350988388062,160,89.047,2612.5098494953295,1509.0,1503.0,1311.671,1500.0
8.711879968643188,160,89.0235,2630.1199476085017,1507.0,1503.0,1311.6992,1500.0
8.73646092414856,160,89.0235,2630.1199476085017,1505.0,1503.0,1311.7969600000001,1500.0
8.760953903198242,160,89.0,2645.6582694730655,1503.0,1503.0,1316.1167600000001,1500.0
8.785748958587646,160,89.0,2661.1965913376293,1502.0,1503.0,1320.4083599999999,1500.0
8.810199975967407,160,87.9765,2661.1965913376293,1501.0,1503.0,1323.242,1500.0
8.834833860397339,160,87.953,2661.1965913376293,1500.0,1503.0,1324.8117199999999,1500.0
8.859273910522461,160,87.953,2676.7349132021932,1500.0,1503.0,1326.3212799999999,1500.0
8.883885860443115,160,87.9765,2661.1965913376293,1500.0,1503.0,1326.3430000000001,1500.0
8.908996820449829,160,87.9765,2645.6582694730655,1500.0,1503.0,1326.39292,1500.0
8.933591842651367,160,89.0,2628.0481713598933,1500.0,1503.0,1322.2349999999999,1500.0
8.958073854446411,160,89.0235,2610.4380732467207,1500.0,1503.0,1319.2094,1500.0
8.982497930526733,160,89.047,2594.8997513821569,1500.0,1503.0,1316.14996,1500.0
9.006939888000488,160,90.0705,2594.8997513821569,1500.0,1503.0,1310.5144399999999,1500.0
9.031463861465454,160,90.094,2579.361429517593,1500.0,1503.0,1306.0450800000001,1500.0
9.056030988693237,160,90.094,2563.8231076530292,1500.0,1503.0,1305.86168,1500.0
9.080492973327637,161,90.0705,2548.2847857884653,1503.0,1503.0,1305.83808,1501.0
9.105113983154297,161,90.0705,2532.7464639239015,1504.0,1503.0,1305.8520800000001,1501.0
9.129597902297974,161,90.047,2548.2847857884653,1505.0,1503.0,1308.76196,1501.0
9.154075860977173,161,90.047,2548.2847857884653,1506.0,1503.0,1311.7094400000001,1501.0
9.178607940673828,161,90.047,2532.7464639239015,1507.0,1503.0,1313.26496,1501.0
9.20312786102295,161,90.047,2517.2081420593377,1508.0,1503.0,1314.72272,1501.0
9.227612018585205,161,90.047,2517.2081420593377,1509.0,1503.0,1316.14852,1501.0
9.252103805541992,161,90.047,2501.6698201947738,1510.0,1503.0,1316.1165599999999,1501.0
9.27656602859497,161,90.0705,2501.6698201947738,1511.0,1503.0,1315.9906000000001,1501.0
9.301172971725464,161,90.0705,2501.6698201947738,1512.0,1503.0,1315.89284,1501.0
9.32587194442749,161,90.0705,2501.6698201947738,1512.0,1503.0,1315.8270400000001,1501.0
9.350436925888062,161,90.047,2501.6698201947738,1512.0,1503.0,1315.8232800000001,1501.0
9.375423908233643,161,89.0235,2486.13149833021,1512.0,1503.0,1318.52532,1501.0
9.40017294883728,161,89.0,2486.13149833021,1512.0,1503.0,1320.127,1501.0
9.425123929977417,161,89.0,2501.6698201947738,1512.0,1503.0,1321.70048,1501.0
9.449926853179932,161,87.9765,2501.6698201947738,1512.0,1503.0,1325.9759999999999,1501.0
9.474779844284058,161,87.9765,2501.6698201947738,1512.0,1503.0,1328.9575199999999,1501.0
9.499486923217773,160,89.0,2501.6698201947738,1509.0,1503.0,1326.3712,1500.0
9.52423882484436,160,89.0,2501.6698201947738,1508.0,1503.0,1324.9153200000001,1500.0
9.549247026443481,161,89.0,2501.6698201947738,1510.0,1503.0,1323.4594400000001,1501.0
9.574002981185913,160,89.0,2501.6698201947738,1507.0,1503.0,1319.1377600000001,1500.0
9.59870195388794,160,88.953,2501.6698201947738,1506.0,1503.0,1314.9721199999999,1500.0
9.623417854309082,160,87.9295,2501.6698201947738,1505.0,1503.0,1317.7098799999999,1500.0
9.648154020309448,160,87.906,2487.857978537384,1504.0,1503.0,1319.3134399999999,1500.0
9.67289400100708,159,86.8825,2472.3196566728202,1500.0,1503.0,1323.5908400000001,1499.0
9.697674036026001,159,86.859,2472.3196566728202,1498.0,1503.0,1328.0940399999999,1499.0
9.722421884536743,160,86.8825,2472.3196566728202,1499.0,1503.0,1332.3754000000001,1500.0
9.747180938720703,160,87.8825,2458.5078150154304,1499.0,1503.0,1329.7872,1500.0
9.772150993347168,159,87.8825,2444.6959733580402,1496.0,1503.0,1328.3332,1499.0
9.796903848648071,159,87.8825,2430.8841317006504,1494.0,1503.0,1324.0134,1499.0
9.821781873703003,159,87.8825,2430.8841317006504,1493.0,1503.0,1319.6278,1499.0
9.846647024154663,160,88.8825,2417.0722900432602,1495.0,1503.0,1312.7319199999999,1500.0
9.871554851531982,159,88.8825,2403.2604483858704,1492.0,1503.0,1311.2280000000001,1499.0
9.896488904953003,159,88.8825,2403.2604483858704,1491.0,1503.0,1309.75604,1499.0
9.921548843383789,160,88.906,2403.2604483858704,1494.0,1503.0,1309.614,1500.0
9.94641399383545,160,89.9295,2389.4486067284806,1495.0,1503.0,1306.83008,1500.0
9.970929861068726,160,90.953,2375.6367650710904,1495.0,1503.0,1305.3403599999999,1500.0
9.995582818984985,158,92.0235,2375.6367650710904,1489.0,1503.0,1300.8927200000001,1498.0
10.020143985748291,158,93.047,2375.6367650710904,1488.0,1503.0,1295.02764,1498.0
10.045094966888428,159,94.094,2363.2788014828993,1490.0,1503.0,1287.6924799999999,1499.0
10.069531917572021,157,95.1175,2349.4669598255095,1484.0,1503.0,1281.77748,1497.0
10.093969821929932,159,95.141,2337.1089962373185,1487.0,1503.0,1278.5344399999999,1499.0
10.118502855300903,158,96.141,2337.1089962373185,1484.0,1503.0,1275.6769999999999,1498.0
10.143095016479492,158,96.141,2337.1089962373185,1483.0,1503.0,1276.88536,1498.0
10.16774296760559,159,95.1175,2310.9391909917372,1484.0,1503.0,1283.6954000000001,1499.0
10.192189931869507,160,95.094,2310.9391909917372,1486.0,1503.0,1290.81312,1500.0
10.216611862182617,159,95.094,2310.9391909917372,1483.0,1503.0,1296.5764799999999,1499.0
10.241223812103271,159,95.094,2310.9391909917372,1484.0,1503.0,1303.6839600000001,1499.0
10.265903949737549,160,94.094,2298.5812274035461,1488.0,1503.0,1312.0394800000001,1500.0
10.290326833724976,162,94.1175,2298.5812274035461,1495.0,1503.0,1314.8432400000002,1502.0
10.315048933029175,161,94.141,2286.2232638153555,1497.0,1503.0,1316.1554000000001,1501.0
10.339525938034058,163,94.141,2286.2232638153555,1505.0,1503.0,1317.4638,1503.0
10.364015817642212,163,94.1645,2286.2232638153555,1510.0,1503.0,1317.35016,1503.0
10.388751983642578,164,94.141,2286.2232638153555,1518.0,1503.0,1314.52676,1504.0
10.413213968276978,165,93.141,2298.5812274035461,1520,1503.0,1315.7729199999999,1505.0
10.437641859054565,165,92.141,2286.2232638153555,1520,1503.0,1318.55684,1505.0
10.462054014205933,165,92.141,2286.2232638153555,1520,1503.0,1320.14076,1505.0
10.486441850662231,165,91.1175,2286.2232638153555,1520,1503.0,1324.49252,1505.0
10.510833024978638,165,90.094,2286.2232638153555,1520,1503.0,1331.61232,1505.0
10.535334825515747,165,89.0705,2286.2232638153555,1520,1503.0,1337.374,1505.0
10.559800863265991,164,88.0705,2298.5812274035461,1520,1503.0,1341.71552,1504.0
10.584137916564941,164,88.0705,2310.9391909917372,1520,1503.0,1344.8570400000001,1504.0
10.608489036560059,163,87.0705,2310.9391909917372,1520,1503.0,1347.7408,1503.0
10.632938861846924,163,87.0705,2310.9391909917372,1520,1503.0,1346.5907200000001,1503.0
10.657413005828857,162,87.0705,2310.9391909917372,1520,1503.0,1343.9348400000001,1502.0
10.682034015655518,162,86.0705,2323.2971545799282,1520,1503.0,1342.4789599999999,1502.0
10.706475973129272,161,86.094,2323.2971545799282,1520,1503.0,1339.7610400000001,1501.0
10.731220960617065,161,85.094,2337.108996237318,1520,1503.0,1338.3032800000001,1501.0
10.755793809890747,160,85.094,2363.2788014828993,1520,1503.0,1337.03748,1500.0
10.780279874801636,160,85.094,2389.4486067284806,1520.0,1503.0,1337.16364,1500.0
10.80509090423584,159,85.094,2403.2604483858709,1513.0,1503.0,1335.8498,1499.0
10.829564809799194,159,85.094,2417.0722900432606,1508.0,1503.0,1334.60176,1499.0
10.854053020477295,159,85.094,2430.8841317006509,1504.0,1503.0,1331.91372,1499.0
10.878621816635132,159,85.094,2444.6959733580406,1500.0,1503.0,1329.22568,1499.0
10.903210878372192,159,86.0705,2444.6959733580406,1497.0,1503.0,1323.9596799999999,1499.0
10.927670955657959,159,86.0705,2444.6959733580406,1494.0,1503.0,1321.2254800000001,1499.0
10.95209002494812,159,86.0705,2458.5078150154304,1492.0,1503.0,1318.4593199999999,1499.0
10.976533889770508,159,86.0705,2458.5078150154304,1490.0,1503.0,1317.0531599999999,1499.0
11.001031875610352,159,86.0705,2458.5078150154304,1489.0,1503.0,1315.6469999999999,1499.0
11.025893926620483,159,86.0705,2458.5078150154304,1488.0,1503.0,1316.97504,1499.0
11.050351858139038,159,87.0705,2444.6959733580406,1488.0,1503.0,1315.66308,1499.0
11.07495903968811,159,87.0705,2444.6959733580406,1488.0,1503.0,1315.5511200000001,1499.0
11.099392890930176,159,87.0705,2444.6959733580406,1488.0,1503.0,1315.4391600000001,1499.0
11.123862981796265,159,88.0705,2430.8841317006509,1488.0,1503.0,1312.6872000000001,1499.0
11.148317813873291,159,88.0705,2430.8841317006509,1488.0,1503.0,1309.8072,1499.0
11.172837972640991,159,88.0705,2430.8841317006509,1488.0,1503.0,1309.7272,1499.0
11.197353839874268,159,88.0705,2417.0722900432606,1488.0,1503.0,1309.6472000000001,1499.0
11.221923828125,159,88.094,2417.0722900432606,1488.0,1503.0,1309.5051599999999,1499.0
11.246479988098145,159,89.094,2403.2604483858709,1488.0,1503.0,1309.55132,1499.0
11.270972967147827,159,89.1175,2389.4486067284806,1488.0,1503.0,1310.7354399999999,1499.0
11.295639991760254,159,89.141,2403.2604483858709,1488.0,1503.0,1310.5257199999999,1499.0
11.32023286819458,159,90.141,2389.4486067284806,1488.0,1503.0,1307.7041999999999,1499.0
11.344992876052856,159,90.1645,2375.6367650710908,1488.0,1503.0,1306.08644,1499.0
11.369431018829346,158,90.1645,2363.2788014828998,1485.0,1503.0,1305.93688,1498.0
11.393863916397095,160,91.188,2363.2788014828998,1490.0,1503.0,1303.1510799999999,1500.0
11.418383836746216,160,91.1645,2363.2788014828998,1491.0,1503.0,1301.7213199999999,1500.0
11.442957878112793,160,90.1645,2350.9208378947087,1492.0,1503.0,1305.70336,1500.0
11.467375040054321,161,90.141,2337.1089962373189,1496.0,1503.0,1308.5812799999999,1501.0
11.491885900497437,161,90.141,2337.1089962373189,1498.0,1503.0,1310.0709999999999,1501.0
11.516489028930664,161,90.1175,2337.1089962373189,1500.0,1503.0,1314.4566,1501.0
11.541137933731079,160,89.1175,2310.9391909917376,1499.0,1503.0,1321.3562400000001,1500.0
11.565924882888794,160,89.1175,2298.5812274035466,1500.0,1503.0,1322.89588,1500.0
11.590358018875122,160,89.1175,2286.2232638153555,1501.0,1503.0,1324.3377599999999,1500.0
11.61502194404602,161,89.1175,2286.2232638153555,1506.0,1503.0,1325.77964,1501.0
11.639585018157959,160,89.094,2286.2232638153555,1504.0,1503.0,1325.8258000000001,1500.0
11.664171934127808,161,89.094,2286.2232638153555,1507.0,1503.0,1323.07572,1501.0
11.688845872879028,161,88.094,2312.3930690609368,1508.0,1503.0,1324.32564,1501.0
11.713321924209595,161,88.0705,2312.3930690609368,1508.0,1503.0,1324.46956,1501.0
11.737789869308472,161,88.0705,2312.3930690609368,1508.0,1503.0,1324.58528,1501.0
11.762349843978882,162,88.047,2312.3930690609368,1511.0,1503.0,1324.7292,1502.0
11.786921977996826,161,87.047,2324.7510326491279,1510.0,1503.0,1328.84492,1501.0
11.811444997787476,161,87.0235,2337.1089962373189,1511.0,1503.0,1329.02268,1501.0
11.835984945297241,162,87.0235,2349.46695982551,1515.0,1503.0,1329.10644,1502.0
11.860443830490112,161,86.0235,2375.6367650710913,1513.0,1503.0,1331.8301999999999,1501.0
11.885311841964722,161,86.0,2389.4486067284811,1514.0,1503.0,1333.3821599999999,1501.0
11.910656929016113,161,86.0,2389.4486067284811,1514.0,1503.0,1332.10592,1501.0
11.935675859451294,161,85.0,2389.4486067284811,1514.0,1503.0,1334.76388,1501.0
11.960433959960938,161,84.9765,2403.2604483858713,1514.0,1503.0,1336.31584,1501.0
11.98530387878418,160,84.953,2417.0722900432611,1511.0,1503.0,1335.1016399999999,1500.0
12.010145902633667,160,83.9295,2430.8841317006509,1509.0,1503.0,1336.5274399999998,1500.0
12.03518795967102,160,83.906,2444.6959733580411,1508.0,1503.0,1338.14708,1500.0
12.060050964355469,160,83.906,2458.5078150154309,1507.0,1503.0,1336.97048,1500.0
12.084906816482544,160,83.906,2472.3196566728211,1505.0,1503.0,1335.7280799999999,1500.0
12.109640836715698,160,83.906,2472.3196566728211,1504.0,1503.0,1335.77988,1500.0
12.134374856948853,159,84.9295,2458.5078150154309,1500.0,1503.0,1330.2957999999999,1499.0
12.159233808517456,159,84.9295,2472.3196566728211,1498.0,1503.0,1325.9741200000001,1499.0
12.184062004089355,158,84.906,2472.3196566728211,1493.0,1503.0,1323.07448,1498.0
12.208808898925781,158,84.8825,2472.3196566728211,1490.0,1503.0,1320.24064,1498.0
12.23353385925293,158,84.8825,2472.3196566728211,1488.0,1503.0,1317.41056,1498.0
12.2582848072052,158,84.8825,2472.3196566728211,1486.0,1503.0,1318.83824,1498.0
12.283044815063477,158,86.906,2472.3196566728211,1484.0,1503.0,1314.9558400000001,1498.0
12.30782699584961,158,87.9295,2472.3196566728211,1482.0,1503.0,1310.7338,1498.0
12.332599878311157,158,88.9765,2458.5078150154309,1480.0,1503.0,1304.9100799999999,1498.0
12.357367992401123,159,89.0,2458.5078150154309,1481.0,1503.0,1300.28072,1499.0
12.382349014282227,158,90.047,2472.3196566728211,1480,1503.0,1291.52352,1498.0
12.407013893127441,158,92.0705,2458.5078150154309,1480,1503.0,1284.3464799999999,1498.0
12.431743860244751,158,92.0705,2444.6959733580411,1480,1503.0,1282.4954,1498.0
12.45646595954895,158,93.094,2430.8841317006509,1480,1503.0,1280.9058400000001,1498.0
12.481194972991943,158,93.0705,2417.0722900432611,1480,1503.0,1280.6723200000001,1498.0
12.506186962127686,159,93.0705,2403.2604483858713,1480.0,1503.0,1283.3422,1499.0
12.530988931655884,159,93.047,2389.4486067284811,1481.0,1503.0,1288.9879599999999,1499.0
12.555792808532715,160,93.047,2375.6367650710913,1485.0,1503.0,1293.2135599999999,1500.0
12.580502033233643,160,92.0235,2363.2788014829002,1487.0,1503.0,1301.5830800000001,1500.0
12.605471849441528,160,92.0235,2337.1089962373189,1488.0,1503.0,1308.62664,1500.0
12.630340814590454,160,92.0235,2310.9391909917376,1490.0,1503.0,1314.2462800000001,1500.0
12.655369997024536,161,92.047,2298.5812274035466,1495.0,1503.0,1316.98612,1501.0
12.680114030838013,161,93.047,2298.5812274035466,1498.0,1503.0,1317.1141600000001,1501.0
12.705184936523438,161,93.094,2298.5812274035466,1501.0,1503.0,1314.0603599999999,1501.0
12.730096817016602,161,93.094,2298.5812274035466,1504.0,1503.0,1311.09492,1501.0
12.755170822143555,161,93.0705,2298.5812274035466,1506.0,1503.0,1308.1915200000001,1501.0
12.779994010925293,162,91.0235,2298.5812274035466,1511.0,1503.0,1310.7617600000001,1502.0
12.804930925369263,162,91.0,2298.5812274035466,1513.0,1503.0,1313.7376400000001,1502.0
12.829636812210083,162,89.9765,2298.5812274035466,1515.0,1503.0,1320.91092,1502.0
12.854344844818115,162,89.9765,2310.9391909917376,1517.0,1503.0,1326.856,1502.0
12.879088878631592,162,89.9765,2323.2971545799287,1519.0,1503.0,1332.7352799999999,1502.0
12.903807878494263,163,90.0,2335.6551181681198,1520,1503.0,1332.7889599999999,1503.0
12.928467988967896,163,90.0,2349.4669598255095,1520,1503.0,1331.4450400000001,1503.0
12.953092813491821,163,90.0,2363.2788014828993,1520,1503.0,1327.1713999999999,1503.0
12.97745680809021,163,90.0,2363.2788014828993,1520,1503.0,1322.8977600000001,1503.0
13.001955032348633,163,89.9765,2363.2788014828993,1520,1503.0,1318.71812,1503.0
13.026500940322876,163,88.9765,2377.0906431402896,1520,1503.0,1320.0,1503.0
13.050902843475342,164,88.9765,2390.9024847976793,1520,1503.0,1320.11384,1504.0
13.075356006622314,164,88.9765,2417.0722900432606,1520,1503.0,1321.6196399999999,1504.0
13.100050926208496,164,90.0,2417.0722900432606,1520,1503.0,1320.4233999999999,1504.0
13.124681949615479,164,90.0235,2417.0722900432606,1520,1503.0,1320.32752,1504.0
13.1491858959198,164,89.0235,2430.8841317006509,1520,1503.0,1320.0678800000001,1504.0
13.173520803451538,164,89.0235,2430.8841317006509,1520,1503.0,1318.60824,1504.0
13.19785189628601,164,89.0235,2430.8841317006509,1520,1503.0,1317.1486,1504.0
13.222321033477783,165,89.0235,2444.6959733580406,1520,1503.0,1318.55476,1505.0
13.246814012527466,165,88.0235,2458.5078150154304,1520,1503.0,1322.69868,1505.0
13.271430015563965,165,88.0,2458.5078150154304,1520,1503.0,1324.2646400000001,1505.0
13.295886993408203,165,88.0,2458.5078150154304,1520,1503.0,1325.8024,1505.0
13.320242881774902,165,87.0,2458.5078150154304,1520,1503.0,1329.9801600000001,1505.0
13.345026969909668,165,87.0,2472.3196566728207,1520,1503.0,1331.5659599999999,1505.0
13.369539022445679,165,87.0235,2486.1314983302104,1520,1503.0,1330.25776,1505.0
13.393931865692139,165,88.0235,2501.6698201947743,1520,1503.0,1327.6319599999999,1505.0
13.418298959732056,165,88.047,2517.2081420593381,1520,1503.0,1326.1441199999999,1505.0
13.442659854888916,165,88.047,2532.746463923902,1520,1503.0,1321.8844799999999,1505.0
13.467046976089478,165,88.047,2548.2847857884658,1520,1503.0,1317.6248399999999,1505.0
13.491482019424438,165,88.047,2563.8231076530296,1520,1503.0,1314.7909999999999,1505.0
13.516023874282837,164,88.0235,2579.3614295175935,1520,1503.0,1314.8511599999999,1504.0
13.540494918823242,164,87.0,2594.8997513821573,1520,1503.0,1317.6509599999999,1504.0
13.565001964569092,163,87.0,2610.4380732467212,1520,1503.0,1320.5825600000001,1503.0
13.589340925216675,163,86.9765,2625.976395111285,1520,1503.0,1323.5762,1503.0
13.613685846328735,163,87.0,2641.5147169758488,1520,1503.0,1326.4476399999999,1503.0
13.638123989105225,162,87.0235,2641.5147169758488,1520,1503.0,1327.8594399999999,1502.0
13.662591934204102,162,88.047,2659.1248150890215,1520,1503.0,1323.69964,1502.0
13.686930894851685,162,89.094,2659.1248150890215,1520,1503.0,1318.00396,1502.0
13.71135687828064,161,89.094,2676.7349132021936,1520,1503.0,1313.4988800000001,1501.0
13.735913038253784,161,89.094,2694.3450113153658,1520,1503.0,1309.0596,1501.0
13.760442972183228,161,89.0705,2711.9551094285384,1520,1503.0,1304.7801200000001,1501.0
13.784955024719238,161,89.047,2729.5652075417106,1520,1503.0,1304.79224,1501.0
13.80933690071106,160,89.047,2747.1753056548832,1516.0,1503.0,1307.70776,1500.0
13.833757877349854,160,89.047,2764.7854037680554,1513.0,1503.0,1310.65524,1500.0
13.858202934265137,160,89.0235,2782.3955018812276,1510.0,1503.0,1313.6328000000001,1500.0
13.88289999961853,160,89.047,2800.0055999944002,1508.0,1503.0,1316.42236,1500.0
13.907328844070435,159,88.0235,2800.0055999944002,1503.0,1503.0,1320.4844000000001,1499.0
13.931819915771484,160,88.0235,2817.6156981075724,1503.0,1503.0,1321.8943199999999,1500.0
13.956338882446289,160,88.0235,2817.6156981075724,1502.0,1503.0,1323.3042399999999,1500.0
13.980823993682861,160,89.047,2800.0055999944002,1501.0,1503.0,1321.94632,1500.0
14.005323886871338,160,89.094,2800.0055999944002,1500.0,1503.0,1321.7902799999999,1500.0
14.029841899871826,160,89.141,2800.0055999944002,1499.0,1503.0,1318.73272,1500.0
14.054375886917114,160,90.1645,2800.0055999944002,1499.0,1503.0,1313.02952,1500.0
14.078820943832397,159,90.1645,2800.0055999944002,1496.0,1503.0,1308.5545199999999,1499.0
14.103348016738892,159,90.1645,2800.0055999944002,1495.0,1503.0,1306.9772800000001,1499.0
14.127830982208252,159,90.1645,2800.0055999944002,1494.0,1503.0,1305.4996799999999,1499.0
14.152391910552979,159,90.141,2782.3955018812276,1494.0,1503.0,1305.6076799999998,1499.0
14.1769700050354,159,89.141,2782.3955018812276,1493.0,1503.0,1311.19328,1499.0
14.201601028442383,159,89.1175,2782.3955018812276,1492.0,1503.0,1315.6409200000001,1499.0
14.226349830627441,159,89.094,2800.0055999944002,1491.0,1503.0,1318.73044,1499.0
14.25087594985962,159,89.0705,2782.3955018812276,1490.0,1503.0,1321.78988,1499.0
14.275837898254395,159,88.0705,2782.3955018812276,1489.0,1503.0,1327.3314,1499.0
14.3004469871521,159,88.047,2782.3955018812276,1488.0,1503.0,1327.5430000000001,1499.0
14.325062036514282,159,88.047,2764.7854037680554,1488.0,1503.0,1327.6606000000002,1499.0
14.349522829055786,158,87.0235,2764.7854037680554,1485.0,1503.0,1330.41444,1498.0
14.374053955078125,158,87.0,2764.7854037680554,1484.0,1503.0,1331.93632,1498.0
14.39866590499878,158,86.0,2782.3955018812276,1483.0,1503.0,1333.30196,1498.0
14.423199892044067,157,85.9765,2782.3955018812276,1480,1503.0,1334.82384,1497.0
14.447566986083984,157,85.9765,2764.7854037680554,1480,1503.0,1336.3494799999999,1497.0
14.471963882446289,157,84.9765,2764.7854037680554,1480,1503.0,1337.68128,1497.0
14.496562004089355,157,84.953,2782.3955018812276,1480,1503.0,1337.8412799999999,1497.0
14.521193027496338,157,84.953,2764.7854037680554,1480,1503.0,1336.5330799999999,1497.0
14.54594898223877,157,83.9295,2764.7854037680554,1480,1503.0,1337.8930800000001,1497.0
14.57033085823059,157,83.9295,2782.3955018812276,1480,1503.0,1338.0248799999999,1497.0
14.594889879226685,157,83.9295,2782.3955018812276,1480,1503.0,1336.74864,1497.0
14.619403839111328,157,84.953,2764.7854037680554,1480,1503.0,1332.7365199999999,1497.0
14.643921852111816,157,84.953,2747.1753056548832,1480,1503.0,1331.3126,1497.0
14.668329954147339,157,84.9765,2714.0268856771468,1480,1503.0,1326.9928,1497.0
14.692718029022217,157,84.9765,2698.4885638125829,1480,1503.0,1322.7012,1497.0
14.717110872268677,157,86.0,2680.8784656994108,1480,1503.0,1317.06756,1497.0
14.74158000946045,157,86.0,2647.7300457216743,1480,1503.0,1315.55988,1497.0
14.765997886657715,157,87.0235,2647.7300457216743,1480,1503.0,1311.35016,1497.0
14.790454864501953,157,87.047,2614.5816257439383,1480,1503.0,1309.7643600000001,1497.0
14.81507682800293,157,88.0705,2581.4332057662023,1480,1503.0,1305.5047199999999,1497.0
14.839432001113892,157,88.0705,2548.2847857884658,1480,1503.0,1305.33908,1497.0
14.863804817199707,157,89.0705,2548.2847857884658,1480,1503.0,1301.14148,1497.0
14.888168811798096,157,89.0705,2548.2847857884658,1480,1503.0,1301.0096800000001,1497.0
14.912660837173462,157,89.047,2563.8231076530296,1480,1503.0,1300.9737600000001,1497.0
14.937151908874512,157,89.0235,2579.3614295175935,1480,1503.0,1303.8374799999999,1497.0
14.961599826812744,157,88.0,2563.8231076530296,1480,1503.0,1307.98308,1497.0
14.986050844192505,157,88.0,2563.8231076530296,1480,1503.0,1313.70048,1497.0
15.010603904724121,157,89.0,2548.2847857884658,1480,1503.0,1315.3859199999999,1497.0
15.035220861434937,157,89.0,2548.2847857884658,1480,1503.0,1318.1736000000001,1497.0
15.05983591079712,157,89.0,2548.2847857884658,1480,1503.0,1319.50352,1497.0
15.084211826324463,157,89.0,2548.2847857884658,1480,1503.0,1317.9676400000001,1497.0
15.108572959899902,157,89.0,2532.746463923902,1480,1503.0,1315.07176,1497.0
15.132944822311401,157,89.0,2517.2081420593381,1480,1503.0,1314.97588,1497.0
15.157567977905273,158,88.9765,2487.8579785373845,1480,1503.0,1314.9739999999999,1498.0
15.181998014450073,158,88.9765,2458.5078150154304,1480,1503.0,1314.97588,1498.0
15.206425905227661,158,88.9765,2444.6959733580406,1480,1503.0,1316.3697199999999,1498.0
15.230852842330933,158,88.953,2430.8841317006509,1480,1503.0,1317.8255999999999,1498.0
15.255303859710693,159,87.953,2430.8841317006509,1480,1503.0,1320.5332799999999,1499.0
15.279708862304688,159,87.953,2430.8841317006509,1480,1503.0,1321.97516,1499.0
15.304404973983765,159,87.953,2417.0722900432606,1480,1503.0,1323.41704,1499.0
15.329218864440918,160,87.953,2403.2604483858709,1483.0,1503.0,1324.8589199999999,1500.0
15.353732824325562,160,87.953,2377.0906431402896,1486.0,1503.0,1326.2349999999999,1500.0
15.378237009048462,160,87.9765,2350.9208378947083,1489.0,1503.0,1324.7490399999999,1500.0
15.402684926986694,161,88.9765,2350.9208378947083,1494.0,1503.0,1320.6832400000001,1501.0
15.427235841751099,161,89.0,2338.5628743065172,1497.0,1503.0,1317.7554,1501.0
15.451856851577759,161,89.0,2326.2049107183261,1500.0,1503.0,1314.8557599999999,1501.0
15.47671890258789,162,89.0235,2313.846947130135,1506.0,1503.0,1311.9260400000001,1502.0
15.501240968704224,162,90.0235,2300.0351054727453,1509.0,1503.0,1307.81032,1502.0
15.52581787109375,162,90.0235,2286.2232638153555,1512.0,1503.0,1307.6946,1502.0
15.550400018692017,162,90.047,2286.2232638153555,1515.0,1503.0,1307.5826400000001,1502.0
15.575110912322998,162,90.0705,2273.8653002271644,1517.0,1503.0,1307.4368400000001,1502.0
15.599560022354126,162,91.0705,2286.2232638153555,1519.0,1503.0,1304.74504,1502.0
15.623955011367798,163,91.0705,2298.5812274035461,1520,1503.0,1306.0212799999999,1503.0
15.648414850234985,163,91.0705,2298.5812274035461,1520,1503.0,1305.9375199999999,1503.0
15.672852039337158,163,91.094,2310.9391909917372,1520,1503.0,1305.82556,1503.0
15.697415828704834,163,91.094,2323.2971545799282,1520,1503.0,1305.8076000000001,1503.0
15.721899032592773,163,91.094,2335.6551181681193,1520,1503.0,1308.5576800000001,1503.0
15.746399879455566,163,91.094,2335.6551181681193,1520,1503.0,1309.94776,1503.0
15.7709219455719,164,91.094,2335.6551181681193,1520,1503.0,1311.3378399999999,1504.0
15.795509815216064,164,91.094,2335.6551181681193,1520,1503.0,1312.7617600000001,1504.0
15.819880962371826,164,89.094,2361.8249234137006,1520,1503.0,1319.43372,1504.0
15.84456992149353,165,89.0705,2349.4669598255095,1520,1503.0,1322.4077199999999,1505.0
15.868945837020874,165,89.047,2349.4669598255095,1520,1503.0,1325.4155599999999,1505.0
15.893298864364624,165,88.047,2363.2788014828993,1520,1503.0,1331.0352,1505.0
15.917948007583618,165,88.0235,2363.2788014828993,1520,1503.0,1335.4849199999999,1505.0
15.942299842834473,166,86.0235,2377.0906431402896,1520,1503.0,1339.58644,1506.0
15.966661930084229,166,86.0235,2390.9024847976793,1520,1503.0,1341.22216,1506.0
15.991053819656372,166,86.0235,2404.7143264550696,1520,1503.0,1342.7920799999999,1506.0
16.015496969223022,166,86.0235,2434.0644899770232,1520,1503.0,1341.5619999999999,1506.0
16.03983998298645,166,85.047,2447.876331634413,1520,1503.0,1342.8440800000001,1506.0
16.06431484222412,166,85.0235,2447.876331634413,1520,1503.0,1340.1364000000001,1506.0
16.08877396583557,166,84.0235,2474.0461368799943,1520,1503.0,1340.07248,1506.0
16.113133907318115,166,84.0,2503.3963004019483,1520,1503.0,1338.90256,1506.0
16.137502908706665,166,82.9765,2518.9346222665122,1520,1503.0,1341.76648,1506.0
16.162024974822998,166,82.953,2548.2847857884658,1520,1503.0,1340.7619999999999,1506.0
16.186595916748047,166,82.9295,2563.8231076530296,1520,1503.0,1342.4455599999999,1506.0
16.211244821548462,166,81.953,2579.3614295175935,1520,1503.0,1343.87888,1506.0
16.235699892044067,167,81.953,2594.8997513821573,1520,1503.0,1344.0745999999999,1507.0
16.26007390022278,166,82.9765,2594.8997513821573,1520,1503.0,1338.7024799999999,1506.0
16.28474497795105,166,83.0,2610.4380732467212,1520,1503.0,1335.7587599999999,1506.0
16.30927801132202,166,84.0235,2625.976395111285,1520,1503.0,1330.10736,1506.0
16.333688974380493,166,84.047,2625.976395111285,1520,1503.0,1324.24792,1506.0
16.358069896697998,165,84.047,2610.4380732467212,1520,1503.0,1318.4486400000001,1505.0
16.382431030273438,165,85.047,2610.4380732467212,1520,1503.0,1314.26712,1505.0
16.406750917434692,164,85.0235,2610.4380732467212,1520,1503.0,1311.4454000000001,1504.0
16.431154012680054,164,84.0,2610.4380732467212,1520,1503.0,1314.1952800000001,1504.0
16.455606937408447,164,83.953,2610.4380732467212,1520,1503.0,1317.23488,1504.0
16.47996687889099,163,82.906,2610.4380732467212,1520,1503.0,1322.98216,1503.0
16.504464864730835,163,82.906,2610.4380732467212,1520,1503.0,1328.8810799999999,1503.0
16.52886700630188,163,82.906,2610.4380732467212,1520,1503.0,1334.6822399999999,1503.0
16.55324697494507,162,83.906,2610.4380732467212,1520,1503.0,1333.58564,1502.0
16.577713012695312,162,83.9295,2610.4380732467212,1520,1503.0,1333.46344,1502.0
16.602208852767944,162,85.953,2625.976395111285,1520,1503.0,1325.0958000000001,1502.0
16.626561880111694,162,85.9765,2625.976395111285,1520,1503.0,1317.73432,1502.0
16.651270866394043,161,86.9765,2625.976395111285,1520,1503.0,1307.7929999999999,1501.0
16.675830841064453,161,87.0,2625.976395111285,1520,1503.0,1303.1815999999999,1501.0
16.700291872024536,161,87.0,2643.5864932244576,1520,1503.0,1298.72812,1501.0
16.725071907043457,161,88.0,2643.5864932244576,1520.0,1503.0,1298.7243600000002,1501.0
16.75021195411682,161,88.0,2661.1965913376298,1518.0,1503.0,1299.9864,1501.0
16.775736808776855,161,89.0,2661.1965913376298,1516.0,1503.0,1301.4084399999999,1501.0
16.80024480819702,161,89.0,2661.1965913376298,1515.0,1503.0,1302.7362800000001,1501.0
16.824959993362427,161,88.9765,2676.7349132021936,1514.0,1503.0,1304.0942,1501.0
16.849562883377075,161,88.9765,2676.7349132021936,1513.0,1503.0,1305.4719600000001,1501.0
16.87401294708252,161,88.953,2676.7349132021936,1512.0,1503.0,1306.8797999999999,1501.0
16.898505926132202,161,88.953,2676.7349132021936,1512.0,1503.0,1309.6994400000001,1501.0
16.92301297187805,161,88.953,2676.7349132021936,1512.0,1503.0,1312.48712,1501.0
16.947587966918945,161,87.9295,2676.7349132021936,1512.0,1503.0,1317.91104,1501.0
16.972173929214478,162,87.9295,2694.3450113153658,1515.0,1503.0,1320.74676,1502.0
16.996620893478394,162,87.9295,2694.3450113153658,1516.0,1503.0,1323.51668,1502.0
17.021162033081055,162,87.9295,2711.9551094285384,1517.0,1503.0,1324.9266,1502.0
17.045851945877075,162,87.9295,2729.5652075417106,1518.0,1503.0,1326.3365200000001,1502.0
17.070392847061157,162,87.9295,2729.5652075417106,1519.0,1503.0,1324.9125999999999,1502.0
17.09522294998169,162,87.906,2729.5652075417106,1520.0,1503.0,1323.55072,1502.0
17.119668006896973,161,87.906,2729.5652075417106,1518.0,1503.0,1322.1926000000001,1501.0
17.144114017486572,161,87.906,2729.5652075417106,1518.0,1503.0,1320.83448,1501.0
17.1686749458313,161,87.906,2729.5652075417106,1518.0,1503.0,1319.4763599999999,1501.0
17.193256855010986,161,87.9295,2711.9551094285384,1518.0,1503.0,1319.4481599999999,1501.0
17.217721939086914,161,88.953,2694.3450113153658,1517.0,1503.0,1316.6803199999999,1501.0
17.24216389656067,161,89.0235,2694.3450113153658,1516.0,1503.0,1314.9545599999999,1501.0
17.266618967056274,161,90.047,2676.7349132021936,1515.0,1503.0,1310.6113600000001,1501.0
17.29114603996277,161,91.0705,2659.1248150890215,1514.0,1503.0,1304.79432,1501.0
17.315996885299683,161,92.141,2659.1248150890215,1513.0,1503.0,1297.44516,1501.0
17.34048080444336,161,93.1645,2659.1248150890215,1512.0,1503.0,1291.5763200000001,1501.0
17.365128993988037,160,93.2115,2676.7349132021936,1509.0,1503.0,1287.009,1500.0
