time,x,y,size_inv,roll,pitch,thrust,yaw
0.001313924789428711,165,39.0,1761.009811317233,1501.1500000000001,1498.6880784905379,1350,1500.0
0.02589702606201172,165,39.188,1761.009811317233,1501.3,1498.6880784905379,1350,1500.0
0.0502018928527832,165,39.188,1761.009811317233,1501.45,1498.6880784905379,1350,1500.0
0.07440686225891113,165,39.188,1761.009811317233,1501.5999999999999,1498.6880784905379,1350,1500.0
0.09862089157104492,165,39.188,1761.009811317233,1501.75,1498.6880784905379,1350,1500.0
0.12279796600341797,164,39.188,1761.009811317233,1501.6700000000001,1498.6880784905379,1350,1500.0
0.14699101448059082,165,39.188,1761.009811317233,1502.02,1498.6880784905379,1350,1500.0
0.17135095596313477,165,39.188,1761.009811317233,1502.1700000000001,1498.6880784905379,1350,1500.0
0.19554805755615234,165,39.188,1761.009811317233,1502.3199999999999,1498.6880784905379,1350,1500.0
0.21976184844970703,165,39.188,1761.009811317233,1502.47,1498.6880784905379,1350,1500.0
0.24423599243164062,165,39.188,1761.009811317233,1504.6700000000001,1498.6880784905379,1350,1500.0
0.26905393600463867,165,39.2585,1761.009811317233,1504.6700000000001,1498.6880784905379,1350,1500.0
0.293881893157959,163,39.2115,1761.009811317233,1499.8099999999999,1498.6880784905379,1350,1500.0
0.31882286071777344,162,38.188,1768.6663757142646,1492.9200000000001,1499.0555935815953,1350,1500.0
0.3437540531158447,162,38.141,1776.3229401112962,1486.23,1499.7293712485341,1350,1500.0
0.3686540126800537,161,38.1175,1776.3229401112962,1480,1500.3418964002967,1350,1500.0
0.3935120105743408,162,39.1645,1776.3229401112962,1480,1500.9544215520593,1350,1500.0
0.4183669090270996,163,42.2115,1776.3229401112962,1480,1501.5669467038217,1350,1500.0
0.443173885345459,163,44.235,1776.3229401112962,1481.73,1501.5669467038217,1350,1500.0
0.46805286407470703,164,45.2115,1776.3229401112962,1492.9000000000001,1500.9544215520593,1350,1500.0
0.4929468631744385,164,46.188,1769.2789008660275,1508.27,1500.0037825165239,1350,1500.0
0.5178990364074707,164,47.1175,1762.2348616207587,1519.24,1498.7713819111775,1341.7501600000001,1500.0
0.5429320335388184,165,49.0705,1755.1908223754897,1520,1497.2572197360207,1333.6096,1500.0
0.5678000450134277,165,51.0235,1733.9880286606335,1520,1495.0879383523941,1329.7144800000001,1500.0
0.5926949977874756,165,53.0235,1712.7852349457771,1520,1492.3768077960544,1325.6810799999998,1500.0
0.617603063583374,164,56.047,1699.2390056279523,1517.3699999999999,1489.7486037217996,1318.8317999999999,1500.0
0.6426498889923096,163,62.1175,1679.6722299466498,1510.5999999999999,1486.8530873890063,1300.7632800000001,1500.0
0.6676380634307861,163,65.1645,1660.1054542653474,1501.8,1483.7384231685824,1283.2597600000001,1500.0
0.6926820278167725,162,69.188,1640.5386785840449,1490.5699999999999,1481.537311418095,1261.50704,1500.0
0.7176709175109863,162,72.2115,1620.9719029027424,1481.71,1480.249752137544,1250,1500.0
0.7425968647003174,162,75.2115,1608.4491664667087,1480,1479.3195724891289,1250,1500.0
0.7673699855804443,162,81.2115,1590.33592269316,1480,1478.9037195157653,1250,1500.0
0.7922358512878418,162,84.235,1572.2226789196113,1480,1479.0469172761532,1250,1500.0
0.816990852355957,162,87.282,1560.6116252186187,1485.8099999999999,1479.4949207149916,1250,1500.0
0.8419630527496338,161,91.3525,1549.000571517626,1489.8900000000001,1480.1957123117006,1250,1500.0
0.8668279647827148,162,94.3995,1532.1845627092916,1494.4300000000001,1480.642193657387,1250,1500.0
0.8918728828430176,161,101.4465,1526.5940553717767,1494.1700000000001,1481.6212471959711,1250,1500.0
0.9166960716247559,161,104.517,1521.0035480342617,1494.1099999999999,1483.0430689156865,1250,1500.0
0.9416539669036865,160,106.5405,1510.2080855894051,1489.45,1484.1376457655761,1250,1500.0
0.966472864151001,159,109.5875,1504.6175782518899,1486.96,1485.196455231651,1250,1500.0
0.9914488792419434,159,111.611,1499.0270709143749,1480.27,1486.8760156514511,1250,1500.0
1.0163259506225586,158,115.611,1499.0270709143749,1480,1488.3230109660103,1250,1500.0
1.041071891784668,158,117.6345,1499.0270709143749,1480,1489.4927171166289,1250,1500.0
1.0661370754241943,158,118.658,1499.0270709143749,1480,1491.0616181147961,1250,1500.0
1.0909810066223145,157,119.658,1504.6175782518899,1480,1492.8816619041256,1250,1500.0
1.115799903869629,156,122.658,1509.8225333592316,1480,1494.6814197145754,1250,1500.0
1.1405320167541504,156,122.658,1509.8225333592316,1480,1496.2159175906656,1250,1500.0
1.1652469635009766,156,123.658,1509.8225333592316,1480,1497.5267951732553,1250,1500.0
1.189945936203003,155,123.6345,1509.8225333592316,1480,1498.4058542580508,1250,1500.0
1.2146639823913574,155,124.6345,1509.8225333592316,1480,1498.6140524623445,1250,1500.0
1.239393949508667,154,124.611,1509.8225333592316,1480,1498.1822339645503,1250,1500.0
1.264098882675171,154,123.5875,1504.6175782518899,1480,1497.5005776216037,1250,1500.0
1.288809061050415,153,123.564,1504.6175782518899,1480,1496.8605609195158,1250,1500.0
1.3135039806365967,153,122.517,1499.4126231445484,1480,1495.9707063722753,1254.42588,1500.0
1.338413953781128,153,121.4935,1488.6171606996918,1480,1494.8279295620414,1266.94516,1500.0
1.3632709980010986,152,120.47,1483.4122055923501,1480,1493.7298768105072,1276.7924800000001,1500.0
1.3881218433380127,152,120.4465,1473.349292384823,1480,1492.6068402744581,1282.6078400000001,1500.0
1.413011074066162,151,119.4465,1468.1443372774816,1480,1491.3144691989166,1289.6092000000001,1500.0
1.4379708766937256,151,119.47,1463.2863791772959,1480,1490.2469521840123,1292.4488800000001,1500.0
1.4629180431365967,151,118.4935,1458.0814240699542,1480,1489.8320979843459,1293.6689200000001,1500.0
1.4878208637237549,151,117.4935,1452.8764689626128,1480,1489.6254419889729,1293.52332,1500.0
1.5127110481262207,151,117.517,1448.0185108624271,1480,1489.8240784979582,1293.44184,1500.0
1.5376250743865967,151,116.517,1442.8135557550854,1482.48,1490.2281372351799,1293.26052,1500.0
1.5625860691070557,151,116.5405,1437.9555976549,1486.8199999999999,1490.6210920681726,1293.3068800000001,1500.0
1.5875818729400635,151,115.564,1433.0976395547145,1491.1600000000001,1490.8043064879512,1294.61716,1500.0
1.6125669479370117,152,114.564,1428.2396814545289,1495.76,1491.0014007880159,1295.9875999999999,1500.0
1.6375548839569092,152,113.5875,1428.2396814545289,1500.1600000000001,1491.2234788725957,1298.83376,1500.0
1.6625308990478516,152,113.611,1423.3817233543434,1502.3900000000001,1491.4205731726604,1299.0060799999999,1500.0
1.687492847442627,153,112.611,1423.3817233543434,1507.05,1491.8508494615339,1301.8804399999999,1500.0
1.7124650478363037,154,110.611,1418.5237652541578,1513.9400000000001,1492.2283822053198,1307.4286399999999,1500.0
1.7374658584594727,154,109.611,1413.6658071539723,1516.23,1492.5920350688193,1311.77684,1500.0
1.7624139785766602,155,108.611,1413.6658071539723,1520,1492.800233273113,1314.7988799999998,1500.0
1.7872459888458252,155,107.611,1408.8078490537869,1520,1492.9556879323191,1320.6867199999999,1500.0
1.8122138977050781,156,106.611,1408.8078490537869,1520,1492.9556879323191,1325.1825999999999,1500.0
1.8370580673217773,157,104.611,1413.6658071539723,1520,1493.3831882451352,1329.4865199999999,1500.0
1.8620109558105469,157,103.611,1418.5237652541578,1520,1494.1993252059665,1332.5904399999999,1500.0
1.8868460655212402,158,102.611,1423.3817233543434,1520,1495.2097804908051,1335.6623999999999,1500.0
1.911759853363037,158,102.611,1433.4446365618703,1520,1496.8587102688109,1334.7023999999999,1500.0
1.9366190433502197,159,101.611,1443.5075497693974,1520,1498.9101565751178,1334.9423999999999,1500.0
1.9615778923034668,160,100.6345,1453.5704629769243,1520,1500.7811644377034,1333.6803600000001,1500.0
1.9864909648895264,160,99.611,1463.6333761844512,1520,1502.4717338565681,1332.50856,1500.0
2.0115020275115967,160,98.5875,1473.6962893919783,1520,1504.1761831557187,1331.3706,1500.0
2.0363869667053223,161,97.5405,1483.7592025995052,1520,1505.283797602561,1333.12852,1500.0
2.0613930225372314,162,94.4935,1499.4126231445473,1520,1506.257239873303,1340.2341200000001,1500.0
2.0862300395965576,162,93.4465,1504.617578251889,1520,1506.7445778922422,1346.4331999999999,1500.0
2.1114799976348877,162,92.3995,1509.8225333592304,1520,1506.8293993828804,1350,1500.0
2.1362998485565186,163,91.376,1520.6179958040871,1520,1506.7800486974181,1350,1500.0
2.161015033721924,163,90.3525,1526.2085031416023,1520,1506.5101621362969,1350,1500.0
2.1857399940490723,163,90.3525,1526.2085031416023,1520,1505.345794401173,1350,1500.0
2.210484027862549,163,90.329,1526.2085031416023,1520,1504.1675467857629,1350,1500.0
2.2352418899536133,163,90.329,1526.2085031416023,1518.8599999999999,1502.9754192900666,1347.6568400000001,1500.0
2.260197877883911,164,89.3055,1531.7990104791172,1514.78,1501.5905156792837,1342.0589199999999,1500.0
2.2851290702819824,164,89.282,1537.3895178166322,1512.6700000000001,1500.3845083033011,1333.8529599999999,1500.0
2.3100979328155518,164,90.2585,1531.7990104791172,1512.73,1499.4915693382193,1327.1847600000001,1500.0
2.3350560665130615,164,90.235,1531.7990104791172,1512.79,1498.8515526361314,1323.10852,1500.0
2.360010862350464,164,91.235,1531.7990104791172,1512.8499999999999,1498.4197341383372,1317.788,1500.0
2.3849470615386963,164,91.235,1526.2085031416023,1510.6800000000001,1497.7041491991351,1312.19364,1500.0
2.409903049468994,163,92.235,1520.6179958040871,1506.0799999999999,1496.5413236729321,1305.2854399999999,1500.0
2.4348390102386475,163,93.235,1515.4130406967456,1501.6800000000001,1495.620624947278,1299.6714400000001,1500.0
2.4597480297088623,163,94.235,1510.2080855894039,1497.28,1494.4917280173299,1292.5835999999999,1500.0
2.484668016433716,163,95.235,1505.0031304820623,1492.8800000000001,1493.1546328830884,1286.8557599999999,1500.0
2.5095808506011963,162,96.235,1494.2076680372056,1488.22,1492.0118560728545,1281.07988,1500.0
2.5345230102539062,162,98.2585,1483.412205592349,1488.1600000000001,1491.1081216453279,1273.9939200000001,1500.0
2.559471845626831,161,99.2585,1478.2072504850073,1485.6700000000001,1490.2336891872944,1268.16812,1500.0
2.5844340324401855,161,100.282,1473.0022953776656,1483.3800000000001,1489.5674549335547,1263.6722400000001,1500.0
2.609394073486328,161,101.282,1467.7973402703242,1481.0899999999999,1489.1094188841087,1259.2045600000001,1500.0
2.6343510150909424,161,102.282,1462.5923851629825,1483.2,1489.0832013324568,1256.0968800000001,1500.0
2.6593480110168457,160,104.3055,1462.5923851629825,1480.71,1489.7386401237518,1253.1529600000001,1500.0
2.684303045272827,159,105.329,1467.7973402703242,1480.3900000000001,1490.8521149644926,1251.3751999999999,1500.0
2.70918607711792,158,106.3525,1467.7973402703242,1480,1492.1321483686686,1250,1500.0
2.7339179515838623,158,107.3995,1467.7973402703242,1480,1493.6203799771381,1250,1500.0
2.7586870193481445,158,107.423,1467.7973402703242,1480,1495.0931894964006,1250,1500.0
2.783493995666504,157,108.4465,1467.7973402703242,1480,1496.134180517869,1250,1500.0
2.8083300590515137,157,109.4465,1462.9393821701385,1480,1496.3173949376474,1250.7397599999999,1500.0
2.8332128524780273,156,109.47,1458.0814240699531,1480,1496.0980928291247,1254.4782399999999,1500.0
2.858052968978882,155,108.4465,1458.0814240699531,1480,1495.7094561811098,1262.51856,1500.0
2.882981061935425,155,107.4465,1453.2234659697674,1480,1494.8794393399924,1270.6764800000001,1500.0
2.9078938961029053,154,106.4465,1438.6160113136798,1480,1493.3871283401843,1280.38824,1500.0
2.932813882827759,154,105.423,1424.0085566575922,1480,1491.9073540064412,1293.01008,1500.0
2.958158016204834,153,104.423,1414.6060571088462,1480,1490.4817559796218,1305.71756,1500.0
2.9833178520202637,153,103.423,1405.2035575601003,1480,1488.6800579708524,1315.5753199999999,1500.0
3.0082550048828125,152,102.4465,1391.5405504033286,1480,1486.6863922629632,1323.9790800000001,1500.0
3.033200979232788,151,101.47,1382.1380508545826,1480,1485.5193070064749,1329.5970399999999,1500.0
3.0580739974975586,151,101.4935,1373.3330017979965,1480,1484.9790774401404,1329.7553600000001,1500.0
3.0829639434814453,151,100.517,1364.5279527414102,1480,1484.6445275514345,1329.68788,1500.0
3.107846975326538,150,99.564,1355.1254531926643,1480,1484.6812980407412,1329.55648,1500.0
3.133056879043579,150,98.611,1350.5809117441036,1480,1485.4738727854412,1329.4232,1500.0
3.1579840183258057,150,98.658,1346.3204041360782,1480,1486.2662012742007,1326.64804,1500.0
3.182878017425537,149,98.6815,1342.0598965280526,1480,1487.0082151969225,1325.325,1500.0
3.207766056060791,150,97.7285,1333.797093894306,1480,1487.7160025966659,1325.1718800000001,1500.0
3.2326819896698,149,97.7755,1329.5365862862805,1480,1488.6614880342438,1322.4426799999999,1500.0
3.257556915283203,149,96.7755,1325.5342912605597,1481.5999999999999,1489.2659904010652,1321.06952,1500.0
3.2825119495391846,150,96.799,1321.2737836525341,1483.97,1489.6627473895994,1319.8939599999999,1500.0
3.307471990585327,149,95.799,1317.2714886268132,1488.1099999999999,1489.8901169241419,1321.4204399999999,1500.0
3.3324780464172363,150,94.7755,1313.2691936010922,1490.48,1490.2662169060918,1323.1086,1500.0
3.3574318885803223,149,93.7755,1301.2395250607847,1492.45,1490.0616517850049,1327.63624,1500.0
3.3824000358581543,149,92.752,1292.9767224270381,1494.6199999999999,1489.6951114299357,1332.162,1500.0
3.4073879718780518,149,92.752,1285.2075614947562,1492.3900000000001,1489.1921740755081,1335.46144,1500.0
3.432363986968994,150,91.752,1281.2052664690352,1494.8199999999999,1488.7090431450408,1338.5689199999999,1500.0
3.457345962524414,150,91.7755,1281.2052664690352,1494.8199999999999,1488.2476020714871,1338.84464,1500.0
3.4823110103607178,150,91.799,1277.2029714433143,1497.05,1488.3860040156023,1336.2226000000001,1500.0
3.507219076156616,151,91.8225,1277.2029714433143,1501.71,1489.0573567295942,1332.0609199999999,1500.0
3.532439947128296,151,91.8225,1273.2006764175935,1508.3399999999999,1489.9877118526131,1327.8954799999999,1500.0
3.557555913925171,151,92.8225,1269.4338105110323,1508.4000000000001,1490.9293675733516,1319.65004,1500.0
3.5825719833374023,152,92.8225,1269.4338105110323,1513.0599999999999,1491.7410664203137,1314.0623599999999,1500.0
3.6076228618621826,152,92.8225,1273.2006764175935,1515.3499999999999,1492.5725716912361,1309.90048,1500.0
3.6325979232788086,153,92.8225,1273.2006764175935,1515.6700000000001,1493.0434299295564,1307.1963599999999,1500.0
3.6575560569763184,153,92.799,1276.9675423241545,1515.79,1493.7045148961577,1304.5542800000001,1500.0
3.6824989318847656,154,93.799,1280.9698373498754,1520,1494.6688325682373,1303.404,1500.0
3.7073678970336914,154,93.799,1280.9698373498754,1520,1495.6011318801113,1303.4217599999999,1500.0
3.732236862182617,155,93.7755,1280.9698373498754,1520,1496.0719901184314,1303.4696000000001,1500.0
3.7570009231567383,156,94.7755,1284.9721323755962,1520,1496.7349585179861,1300.81728,1500.0
3.781893014907837,156,94.7755,1288.9744274013171,1520,1497.0965776450159,1299.29916,1500.0
3.806725025177002,157,94.705,1296.7435883335991,1520,1497.3282398982694,1299.40716,1500.0
3.831676959991455,158,93.6815,1305.0063909673456,1520,1497.8943633904844,1302.1326000000001,1500.0
3.8564670085906982,158,93.6345,1313.269193601092,1520,1498.9416736243118,1303.68812,1500.0
3.88161301612854,159,93.611,1321.5319962348385,1520,1499.9993123614313,1308.04928,1500.0
3.906480073928833,159,93.5875,1329.7947988685851,1520,1501.2179542381054,1312.47624,1500.0
3.9315478801727295,160,92.564,1334.0553064766104,1520,1502.1135569853411,1318.01964,1500.0
3.9567179679870605,160,92.5405,1342.3181091103572,1520,1502.7106659874328,1319.53108,1500.0
3.9816720485687256,160,92.517,1350.5809117441036,1520,1502.9772628841747,1320.9767200000001,1500.0
4.00652289390564,160,92.4935,1354.8414193521292,1520,1502.8813293153607,1321.0304000000001,1500.0
4.031555891036987,160,92.47,1354.8414193521292,1519.53,1502.2503792760119,1321.0521200000001,1500.0
4.056468963623047,161,92.47,1354.8414193521292,1515.45,1501.589355065312,1318.2757200000001,1500.0
4.081480026245117,160,92.4465,1346.5786167183826,1510.9100000000001,1500.2012042228425,1316.88752,1500.0
4.106394052505493,161,92.4465,1338.315814084636,1509.0,1498.1520291696736,1315.4692399999999,1500.0
4.131404876708984,161,92.423,1330.0530114508897,1509.0599999999999,1495.7620135078623,1314.07916,1500.0
4.1566550731658936,161,92.423,1321.7902088171431,1509.1199999999999,1493.3719978460513,1312.6270399999999,1500.0
4.181726932525635,160,93.3995,1309.7605402768356,1504.52,1490.6410808196963,1309.98892,1500.0
4.206645965576172,160,93.376,1297.7308717365281,1504.52,1488.4205133677785,1308.5508,1500.0
4.231688976287842,160,93.3525,1285.7012031962208,1500.1199999999999,1486.7102954902982,1307.17848,1500.0
4.256618022918701,159,93.3525,1273.6715346559133,1493.29,1485.3503353862263,1305.7441200000001,1500.0
4.281657934188843,159,94.3525,1265.9023737236314,1486.6600000000001,1484.3747171164271,1301.70172,1500.0
4.306598901748657,159,95.3995,1254.5815963651635,1486.5999999999999,1483.8802283041041,1298.82944,1500.0
4.331639051437378,158,96.4465,1247.2631140324165,1481.9400000000001,1483.7568799365517,1294.4156399999999,1500.0
4.356555938720703,158,98.517,1239.9446316996696,1480,1483.9726536535645,1285.72632,1500.0
4.381556034088135,158,99.564,1232.6261493669228,1481.76,1484.5275494551418,1276.7894800000001,1500.0
4.4065940380096436,157,102.611,1225.3076670341759,1481.4400000000001,1485.0807267326422,1263.8649600000001,1500.0
4.431614875793457,157,103.658,1218.401746205481,1480,1485.7854431160922,1253.43632,1500.0
4.456435918807983,156,103.658,1214.850129779295,1480,1486.4792211227223,1250,1500.0
4.481245994567871,156,104.6815,1207.9442089505999,1480,1486.974219705992,1250,1500.0
4.5059850215911865,156,104.6815,1197.8652974708828,1480,1487.1449697498724,1250,1500.0
4.5307440757751465,155,104.705,1187.7863859911656,1480,1487.1872754838923,1253.41272,1500.0
4.555546045303345,155,104.705,1181.2590909376345,1480,1487.0965449191376,1263.1366,1500.0
4.580327987670898,155,105.705,1171.7258047410301,1480,1486.5918249981589,1268.79656,1500.0
4.60517692565918,154,104.7285,1159.3406807933045,1480,1485.8286197902482,1278.2844,1500.0
4.630051851272583,155,103.7285,1146.9555568455789,1480.0799999999999,1485.0835832494959,1287.8165200000001,1500.0
4.65495491027832,154,102.752,1131.8611870342884,1481.99,1484.2266715744508,1294.6484800000001,1500.0
4.679842948913574,154,101.7755,1117.54403409675,1484.0999999999999,1483.0492382880291,1301.4626800000001,1500.0
4.7047460079193115,154,100.799,1099.8725767567025,1484.04,1481.758710511466,1312.4830400000001,1500.0
4.730047941207886,154,99.799,1085.5554238191639,1488.3800000000001,1480.6369041352918,1320.8454400000001,1500.0
4.755300045013428,154,98.846,1071.9568924576411,1488.3199999999999,1479.5645589338944,1327.7237599999999,1500.0
4.780281066894531,155,97.8695,1058.358361096118,1492.9200000000001,1478.7526656037505,1333.27028,1500.0
4.805222988128662,154,96.94,1042.4196173607513,1494.8900000000001,1478.1687812580631,1337.3646799999999,1500.0
4.830150842666626,154,95.9635,1029.4868647684584,1497.0599999999999,1478.1240198771679,1338.82744,1500.0
4.855088949203491,153,95.0105,1019.4059499272864,1494.6300000000001,1478.3488038817291,1340.16236,1500.0
4.8800129890441895,153,93.034,1004.9566386549399,1494.5699999999999,1478.5531458149599,1344.26324,1500.0
4.9049859046936035,153,92.0575,993.2165732461583,1487.9400000000001,1478.7936668152181,1347.1641199999999,1500.0
4.929904937744141,153,91.081,984.05359536613355,1485.71,1479.3906987818332,1350,1500.0
4.954730033874512,153,90.128,974.89061748610891,1483.48,1479.9489735470288,1350,1500.0
4.979568004608154,153,89.1515,963.68588910020912,1485.6500000000001,1480.2765122425335,1350,1500.0
5.004436016082764,153,88.175,956.97728029519112,1487.8199999999999,1480.9836791898115,1350,1500.0
5.029301881790161,152,88.222,948.22692098429798,1489.73,1481.7197617388483,1350,1500.0
5.054125070571899,152,88.2455,941.81677404724837,1489.6700000000001,1482.313648590381,1350,1500.0
5.0789618492126465,152,87.2455,933.45175960457368,1489.6099999999999,1482.7730240508722,1347.59148,1500.0
5.103899002075195,152,87.269,923.21333046900838,1487.3800000000001,1483.3010167056229,1342.30584,1500.0
5.128825902938843,152,87.269,917.34329776461766,1485.1500000000001,1483.5878714771547,1337.00224,1500.0
5.153707981109619,152,87.2455,909.67631627316837,1487.3199999999999,1483.7840975272522,1333.2203199999999,1500.0
5.17920184135437,152,87.2455,902.00933478171919,1489.49,1483.819936957455,1330.80404,1500.0
5.204222917556763,151,88.269,892.61728245469385,1489.23,1483.7689757681051,1324.1818000000001,1500.0
5.229174852371216,151,89.269,883.60955963465676,1489.1700000000001,1483.7316654974186,1317.5416,1500.0
5.254065036773682,152,90.269,872.56008630874476,1491.54,1483.4373005537993,1310.78944,1500.0
5.278980016708374,151,91.269,861.95868945131656,1489.1099999999999,1482.9858084945113,1302.46756,1500.0
5.303889036178589,152,92.2455,851.35729259388847,1489.3099999999999,1482.4672132027597,1292.73576,1500.0
5.328855991363525,152,93.222,842.71076324208536,1493.71,1482.0351592854361,1285.8235999999999,1500.0
5.353757858276367,152,94.1985,834.40411318870213,1498.1099999999999,1481.5846390605448,1280.27332,1500.0
5.378713846206665,152,95.1985,824.62072534805088,1498.1099999999999,1481.3801259776269,1276.05484,1500.0
5.403704881668091,153,96.222,816.63428629445798,1504.9400000000001,1481.4119634117978,1273.1662800000001,1500.0
5.428688049316406,153,97.222,808.64784724086508,1507.1700000000001,1481.6657757727614,1271.6001200000001,1500.0
5.453673839569092,154,98.2455,800.96344079148082,1509.6600000000001,1481.9306683916463,1269.8741600000001,1500.0
5.478672027587891,154,99.2455,796.35949357235086,1511.95,1482.3402698870775,1268.1106,1500.0
5.5036680698394775,155,100.2455,791.75554635322089,1518.8399999999999,1482.9064055879589,1266.3470399999999,1500.0
5.528701066970825,155,100.2455,787.32223494011453,1518.96,1483.5114331687548,1267.28928,1500.0
5.553679943084717,156,101.269,784.31196175837567,1520,1484.2222933781222,1267.00144,1500.0
5.578547954559326,157,101.269,782.77842636390494,1520,1485.1525174158876,1269.47956,1500.0
5.603440046310425,157,101.269,782.77842636390494,1520,1486.1310595122038,1273.4296399999998,1500.0
5.628314018249512,158,101.2925,784.25516415117306,1520,1487.1574652862134,1278.7576799999999,1500.0
5.6531829833984375,158,101.2925,787.26543733291192,1520,1488.3517576215529,1282.7219600000001,1500.0
5.678056001663208,159,100.2925,788.74217512018004,1520,1489.5142154776227,1290.83204,1500.0
5.702940940856934,160,99.269,793.17548653328629,1520,1490.6929649528058,1299.0522000000001,1500.0
5.72780704498291,160,98.2455,796.18575971502514,1520,1491.7965831606423,1307.3861999999999,1500.0
5.752688884735107,160,96.2455,800.78970693415511,1520,1492.7948117377966,1318.4777999999999,1500.0
5.7775609493255615,161,95.222,806.81669238465258,1520,1493.6273497277584,1329.8714400000001,1500.0
5.802497863769531,162,92.1985,811.42063960378255,1520,1494.3941113503834,1343.8269600000001,1500.0
5.82738184928894,163,91.175,814.54784903564439,1520,1494.8581411191574,1350,1500.0
5.852167844772339,163,89.1045,817.67505846750623,1520,1495.2064374106667,1350,1500.0
5.87690806388855,163,88.081,822.45968889825485,1520,1495.4501320213574,1350,1500.0
5.9017839431762695,164,86.034,825.71078393453286,1520,1495.4498542415731,1350,1500.0
5.92653489112854,164,82.987,830.49541436528159,1520,1495.343983696135,1350,1500.0
5.951376914978027,163,81.94,833.74650940155948,1520,1495.2830443709674,1350,1500.0
5.976088047027588,164,80.9165,836.99760443783748,1520,1495.2223830199716,1350,1500.0
6.00082802772522,164,79.893,838.65502543672426,1517.1300000000001,1495.0166565709376,1350,1500.0
6.0257110595703125,164,79.8695,840.31244643561115,1510.6199999999999,1494.8582187769766,1350,1500.0
6.050525903701782,164,78.846,841.96986743449793,1506.28,1494.5674652772764,1350,1500.0
6.075417995452881,164,78.8225,843.62728843338482,1508.51,1494.2080093919039,1350,1500.0
6.100254058837891,163,78.799,845.28470943227171,1503.9100000000001,1493.7798511208591,1350,1500.0
6.12509298324585,163,78.7755,845.28470943227171,1499.51,1493.3972250191423,1350,1500.0
6.149909019470215,162,78.752,847.00978026784776,1494.8499999999999,1493.0948524390731,1349.7689600000001,1500.0
6.174885034561157,161,79.7285,848.73485110342392,1487.96,1492.9202742297462,1341.6946,1500.0
6.200135946273804,161,80.7285,850.45992193899997,1480,1492.8121489753823,1333.51016,1500.0
6.225013017654419,161,81.7285,852.18499277457613,1480,1492.7704766759819,1325.2118800000001,1500.0
6.249834060668945,161,83.7285,855.70701239721052,1480,1492.9503575917386,1314.15976,1500.0
6.274692058563232,159,86.752,859.22903201984502,1480,1493.19941046551,1297.4917600000001,1500.0
6.299499988555908,158,87.752,864.62446633537024,1480,1493.607559202555,1285.93812,1500.0
6.324347019195557,158,89.7285,870.01990065089535,1480,1494.1598164853303,1273.19848,1500.0
6.349143028259277,157,91.7285,877.37020247204566,1480,1494.9500159541062,1260.3825999999999,1500.0
6.373973846435547,156,92.7285,886.762254799071,1480,1495.8504699501993,1252.95868,1500.0
6.398782968521118,155,95.7285,894.42923629052018,1480,1496.831043902878,1250,1500.0
6.423513889312744,154,96.705,906.46461421314393,1480,1497.9653482320921,1250,1500.0
6.44825291633606,153,97.6815,918.4999921357678,1480,1499.2184357663921,1250,1500.0
6.4730260372161865,152,98.658,928.30153097426808,1480,1500.3266928292903,1250,1500.0
6.49788498878479,152,98.6345,938.53996010983337,1480,1501.2374987787309,1250,1500.0
6.522786855697632,150,98.611,948.77838924539867,1480,1502.0853641591837,1258.0749599999999,1500.0
6.547688007354736,149,98.5875,957.14340368807336,1480,1502.5058299386112,1267.56844,1500.0
6.5726048946380615,149,98.564,965.50841813074805,1480,1502.5138834345571,1277.14192,1500.0
6.597568988800049,148,98.5405,974.2587774416412,1480,1502.3849230276501,1286.7634399999999,1500.0
6.623028039932251,147,97.5405,978.62717387281577,1480,1501.9522505371883,1297.57096,1500.0
6.648159027099609,146,96.517,982.99557030399023,1480,1501.1819188327861,1305.7347199999999,1500.0
6.673105955123901,145,95.517,982.99557030399023,1480,1500.1888539184256,1313.91644,1500.0
6.698073863983154,145,95.517,985.33578267783378,1480,1499.1203331595007,1319.50432,1500.0
6.723031997680664,145,94.5405,989.90983413580068,1480,1497.9446779802358,1326.2763199999999,1500.0
6.747959852218628,144,92.517,994.70441558465086,1480,1497.0226357497809,1334.4505200000001,1500.0
6.772897005081177,144,91.517,999.49899703350093,1480,1496.3524422282082,1340.0026800000001,1500.0
6.797868013381958,143,90.4935,1004.293578482351,1480,1496.2086325422968,1344.2888399999999,1500.0
6.822886943817139,143,89.47,1006.6337908561945,1480,1496.2861799865386,1350,1500.0
6.8477020263671875,143,87.47,1009.0881599312012,1480,1496.4469057031883,1350,1500.0
6.87255597114563,143,86.4465,1013.8827413800512,1480,1496.6093057181217,1350,1500.0
6.897423028945923,142,85.47,1018.6773228289014,1480,1496.7546583323481,1350,1500.0
6.9222939014434814,143,85.47,1026.0489918065084,1480,1496.8319278900008,1350,1500.0
6.947041988372803,143,85.47,1031.0804484102721,1480.5899999999999,1496.9981255178595,1350,1500.0
6.9720399379730225,143,85.47,1036.1119050140355,1484.9300000000001,1497.3521939421871,1350,1500.0
6.996916055679321,143,84.47,1041.3982384063575,1487.0999999999999,1497.7279714585618,1350,1500.0
7.021991968154907,144,84.47,1046.6845717986794,1496.0999999999999,1498.1234190526757,1343.6479999999999,1500.0
7.046915054321289,143,84.4465,1051.9709051910011,1495.9000000000001,1498.3323697222277,1338.31808,1500.0
7.0719709396362305,143,84.423,1059.7116076583295,1495.9000000000001,1498.5616754097255,1334.4139600000001,1500.0
7.09695291519165,144,84.3995,1064.9979410506514,1498.3299999999999,1498.6784577150152,1333.26368,1500.0
7.122139930725098,144,84.376,1070.2842744429731,1500.5599999999999,1498.7755699425661,1330.7392,1500.0
7.1470818519592285,145,85.3525,1078.4224455864162,1498.6500000000001,1498.989900304432,1326.9366,1500.0
7.17215895652771,144,85.3525,1081.1316914499812,1500.6800000000001,1499.1411291863201,1324.24,1500.0
7.197094917297363,145,86.3525,1083.8409373135462,1505.3399999999999,1498.982729969515,1318.8375999999998,1500.0
7.222254991531372,146,88.3525,1089.4020209282321,1507.8299999999999,1498.847940392071,1309.2893999999999,1500.0
7.247197866439819,147,89.3525,1092.2538586793532,1512.55,1498.5940970220706,1300.7954,1500.0
7.272572994232178,147,89.3055,1098.1116875735479,1514.8399999999999,1498.1590143812,1296.35968,1500.0
7.297642946243286,148,90.282,1103.9695164677426,1520,1497.9529585627047,1289.3215600000001,1500.0
7.322641849517822,148,91.282,1109.8273453619372,1520,1498.0741043295852,1283.6472000000001,1500.0
7.3475658893585205,149,93.2585,1118.8581649071537,1520,1498.3484334500006,1279.5868400000002,1500.0
7.372464895248413,149,93.2585,1131.2432888548792,1520,1499.1283082791483,1280.7302400000001,1500.0
7.397407054901123,149,94.2585,1140.7765750514839,1520,1500.1236003883535,1277.7740000000001,1500.0
7.422374963760376,150,95.235,1153.1616989992094,1520,1501.2768556804833,1276.174,1500.0
7.4472198486328125,150,96.235,1169.098439373121,1518.6900000000001,1502.7357370419863,1274.5458000000001,1500.0
7.4722888469696045,151,97.2115,1182.1833419959116,1516.8399999999999,1504.1951775873622,1274.35384,1500.0
7.497225046157837,151,97.188,1195.2682446187023,1516.96,1505.3012778318764,1274.0357200000001,1500.0
7.522389888763428,151,97.188,1209.1140220049801,1517.0799999999999,1506.4389464299888,1276.55332,1500.0
7.5474159717559814,153,97.188,1222.959799391258,1519.8299999999999,1507.3739493635026,1280.4770799999999,1500.0
7.572434902191162,154,97.188,1236.8055767775361,1520,1507.8221573183218,1285.8408400000001,1500.0
7.597373008728027,153,97.1645,1247.4783635127919,1520,1507.9863333893288,1291.3127999999999,1500.0
7.622354984283447,154,97.141,1254.7968458455389,1520,1507.8650270665114,1296.7528,1500.0
7.647165060043335,155,97.1175,1266.1176232040068,1520,1507.5022394552002,1300.86664,1500.0
7.6721038818359375,155,96.0705,1273.4361055367538,1520,1506.7879155440003,1306.38832,1500.0
7.69692587852478,156,95.047,1281.2052664690357,1520,1505.9177709229418,1311.9956400000001,1500.0
7.722024917602539,156,94.047,1284.9721323755966,1520,1504.8358557440313,1317.6209200000001,1500.0
7.7468650341033936,156,94.047,1292.7412933078785,1520,1504.0346428809096,1322.0123599999999,1500.0
7.771903038024902,157,93.047,1292.7412933078785,1520,1502.8194456371034,1328.9780000000001,1500.0
7.796884059906006,157,92.047,1292.7412933078785,1520,1501.5726009021287,1334.4520400000001,1500.0
7.821969032287598,157,92.047,1292.7412933078785,1520,1500.2580543880224,1335.8602800000001,1500.0
7.846822023391724,157,92.0705,1296.7435883335995,1515.8,1499.2611802320362,1334.4384400000001,1500.0
7.8718788623809814,157,92.0705,1300.7458833593205,1513.6900000000001,1498.095604295806,1333.0767599999999,1500.0
7.896815061569214,157,91.094,1296.7435883335995,1509.3499999999999,1497.1587309324741,1331.5250000000001,1500.0
7.922010898590088,157,91.094,1296.7435883335995,1505.01,1496.5466152226579,1327.42536,1500.0
7.946928024291992,157,91.1175,1292.7412933078785,1502.8399999999999,1496.0531557888985,1324.6556399999999,1500.0
7.972014904022217,156,91.1175,1296.7435883335995,1498.24,1495.6143159107842,1323.3399199999999,1500.0
7.996935844421387,156,91.1175,1292.7412933078785,1493.8399999999999,1494.9419303464631,1322.0242000000001,1500.0
8.022148847579956,156,92.141,1296.7435883335995,1491.6099999999999,1494.81385690564,1316.6322399999999,1500.0
8.047103881835938,156,92.141,1300.7458833593205,1489.3800000000001,1494.8458752658457,1313.8284799999999,1500.0
8.072169065475464,155,93.1645,1304.7481783850412,1484.72,1495.358169029138,1308.3884799999998,1500.0
8.09709906578064,155,93.188,1304.7481783850412,1484.6600000000001,1495.6783526311956,1304.08268,1500.0
8.122323989868164,155,94.188,1304.7481783850412,1484.5999999999999,1496.4788116363397,1297.16508,1500.0
8.147335052490234,154,94.2115,1313.0109810187878,1482.1099999999999,1497.1956097648174,1295.5792799999999,1500.0
8.172311067581177,154,94.2115,1321.2737836525343,1480,1497.922736396587,1294.0216800000001,1500.0
8.197134971618652,154,94.2115,1329.5365862862807,1481.9300000000001,1498.5000997306201,1295.29792,1500.0
8.22256088256836,153,94.2115,1333.7970938943063,1480,1499.3759568097971,1296.63996,1500.0
8.24751901626587,153,95.2115,1346.6044379766133,1480,1500.672390543032,1298.1420000000001,1500.0
8.272723913192749,152,95.2115,1355.4094870331996,1480,1501.7880754686537,1299.5178800000001,1500.0
8.297706842422485,152,94.188,1369.0724941899712,1480,1502.9882119356769,1303.5958000000001,1500.0
8.32266902923584,151,94.188,1377.8775432465575,1480,1504.0007542904909,1305.0535600000001,1500.0
8.347574949264526,151,94.188,1386.6825923031436,1480,1505.0246579989266,1306.47936,1500.0
8.372495889663696,149,94.188,1395.4876413597299,1480,1505.376176143041,1309.3451600000001,1500.0
8.397438049316406,149,93.188,1395.4876413597299,1480,1505.2833620755257,1314.819,1500.0
8.422420978546143,148,93.188,1400.0321828082904,1480,1504.6461575303495,1316.22704,1500.0
8.447319984436035,147,93.188,1404.5767242568511,1480,1503.8168428239387,1317.63508,1500.0
8.472255945205688,147,93.188,1409.1212657054116,1480,1502.6353261552645,1319.04312,1500.0
8.497091054916382,145,92.188,1404.5767242568511,1480,1501.0072050042361,1321.73116,1500.0
8.522093057632446,145,92.188,1404.5767242568511,1480,1499.7676421470596,1320.4192,1500.0
8.546917915344238,144,91.1645,1395.1742247081049,1480,1498.2597162819295,1323.2012400000001,1500.0
8.571882009506226,144,91.1645,1390.6296832595442,1480,1496.5975110700372,1324.7550799999999,1500.0
8.596740961074829,144,91.188,1386.0851418109837,1480,1494.7421628465809,1326.2468799999999,1500.0
8.621847867965698,142,91.188,1381.540600362423,1480,1493.4207982433304,1324.9668799999999,1500.0
8.646677017211914,142,91.2115,1381.540600362423,1480,1492.1357899716684,1324.9848400000001,1500.0
8.671625852584839,141,91.2115,1376.9960589138623,1480,1491.5666253323175,1322.1651999999999,1500.0
8.696476936340332,141,91.235,1372.4515174653018,1480,1491.3610240088517,1319.28352,1500.0
8.721585988998413,140,92.2585,1363.6464684087155,1480,1491.3144816360852,1313.7937999999999,1500.0
8.746437072753906,139,93.282,1359.3859608006901,1480,1491.3156569485288,1308.1902400000001,1500.0
8.771409034729004,139,93.3055,1350.5809117441038,1480,1490.9282739671205,1303.81864,1500.0
8.796267032623291,138,93.3055,1342.3181091103572,1480,1490.2021801856802,1300.8672000000001,1500.0
8.821112871170044,138,94.329,1338.0576015023316,1480,1489.5194661180669,1295.27952,1500.0
8.845937967300415,137,94.329,1329.7947988685851,1480,1488.9968438514825,1293.75388,1500.0
8.870725870132446,137,94.3525,1321.5319962348385,1480,1488.3027684302476,1295.0319999999999,1500.0
8.895540952682495,137,95.376,1313.269193601092,1480,1487.9825848281901,1293.67012,1500.0
8.920331001281738,137,95.3995,1305.0063909673456,1480,1487.8111316735396,1293.4744000000001,1500.0
8.945178985595703,137,96.423,1296.7435883335991,1480,1487.4682253642393,1293.43868,1500.0
8.969969987869263,137,97.4465,1288.9744274013171,1480,1487.1273239996956,1290.5371599999999,1500.0
8.9947829246521,137,97.47,1284.9721323755962,1480,1487.1470696677541,1287.4756399999999,1500.0
9.019597053527832,137,97.4935,1280.9698373498754,1484.1600000000001,1487.3155457832202,1287.2141200000001,1500.0
9.044509887695312,137,98.517,1277.2029714433145,1486.3299999999999,1487.665742800727,1284.34456,1500.0
9.069390058517456,136,98.5405,1269.4338105110326,1486.0699999999999,1488.1637589271152,1284.115,1500.0
9.094316959381104,137,99.5875,1265.6669446044718,1486.27,1488.8341395466798,1284.0153600000001,1500.0
9.119210958480835,138,99.5875,1261.9000786979109,1488.7,1489.3435170266896,1285.20596,1500.0
9.144109964370728,138,99.611,1254.5815963651639,1490.9300000000001,1489.5214137786877,1285.00836,1500.0
9.16897988319397,138,99.6345,1247.263114032417,1493.1600000000001,1489.377408404551,1287.61076,1500.0
9.193883895874023,139,99.658,1239.9446316996703,1502.22,1489.2316845063374,1288.8531599999999,1500.0
9.218772888183594,139,99.658,1236.3930152734843,1506.6800000000001,1488.9646137135621,1291.6633999999999,1500.0
9.24369502067566,140,98.658,1229.0745329407373,1509.1700000000001,1488.5159261717206,1297.08168,1500.0
9.268630027770996,141,98.6345,1221.7560506079903,1513.8900000000001,1488.1998861221603,1301.3958399999999,1500.0
9.293617963790894,142,97.6345,1218.2044341818043,1520,1488.2067202931621,1306.9956400000001,1500.0
9.323704957962036,143,96.6345,1214.6528177556183,1520,1488.3462019564449,1314.0692799999999,1500.0
9.348696947097778,143,96.6345,1211.1012013294323,1520,1488.4770736405128,1318.519,1500.0
9.373592853546143,144,96.658,1211.1012013294323,1520,1489.0711622063477,1320.1066800000001,1500.0
9.39852786064148,144,96.658,1214.6528177556183,1520,1490.1284676539492,1321.6248000000001,1500.0
9.423511981964111,146,95.705,1221.9713000883653,1520,1491.5000373428982,1322.8268800000001,1500.0
9.44835090637207,146,95.705,1225.5229165145513,1520,1492.974926782427,1320.0534,1500.0
9.473228931427002,147,95.752,1229.0745329407373,1520,1494.7339455360507,1317.1558400000001,1500.0
9.498128890991211,148,94.752,1236.3930152734843,1520,1496.523099216927,1318.38048,1500.0
9.523078918457031,149,93.752,1243.711497606231,1520,1498.0281235837083,1321.07708,1500.0
9.547945976257324,150,93.752,1247.263114032417,1520,1498.9175344366174,1321.2652800000001,1500.0
9.57283091545105,151,92.7285,1250.8147304586032,1520,1499.5228159754317,1325.5155199999999,1500.0
9.597784042358398,151,91.705,1254.3663468847892,1520,1499.843968200151,1331.3712,1500.0
9.622753858566284,152,90.658,1254.3663468847892,1520,1499.5512289068413,1335.9308000000001,1500.0
9.647624969482422,154,87.611,1258.1332127913502,1520,1498.995885247474,1344.4780799999999,1500.0
9.672491073608398,155,86.5875,1254.3663468847892,1520,1498.2382070765543,1350,1500.0
9.697203874588013,156,85.5405,1258.1332127913502,1520,1497.5494087393547,1350,1500.0
9.722174882888794,157,85.517,1258.1332127913502,1520,1496.6884108178549,1350,1500.0
9.746896982192993,158,84.4935,1254.3663468847892,1520,1495.9393426261502,1350,1500.0
9.771770000457764,159,82.4935,1247.0478645520423,1520,1494.8605122305112,1350,1500.0
9.796525001525879,160,82.47,1243.4962481258563,1520,1494.1131660346496,1350,1500.0
9.821570873260498,160,82.47,1239.9446316996703,1520,1493.064470566263,1350,1500.0
9.84629201889038,161,83.4935,1233.0387108709751,1520,1491.8547684865559,1350,1500.0
9.870983839035034,161,83.4935,1226.1327900422802,1520,1490.670178846226,1347.5016000000001,1500.0
9.895796060562134,162,83.4935,1212.2870126560024,1520,1489.6123924808667,1339.1017999999999,1500.0
9.920570850372314,162,84.4935,1202.2081011762853,1520,1488.3150392614032,1329.38816,1500.0
9.94540286064148,163,84.4935,1188.3623237900072,1520,1486.8685239695938,1322.29844,1500.0
9.970183849334717,163,85.517,1178.28341231029,1520,1485.6014608121436,1315.40444,1500.0
9.995015859603882,164,87.517,1165.1985096874994,1520,1484.1887526506703,1305.8506,1500.0
10.019834995269775,164,88.564,1152.8133857397738,1520,1483.1011606582811,1298.6526799999999,1500.0
10.044694900512695,164,89.5875,1140.4282617920485,1520,1482.1824119693126,1292.8410799999999,1500.0
10.0695059299469,164,91.611,1128.0431378443229,1520,1481.7338558562901,1282.9156399999999,1500.0
10.094316005706787,163,93.658,1116.3030724355413,1519.0999999999999,1481.350933680457,1271.4881599999999,1500.0
10.119221925735474,163,96.6815,1104.5630070267598,1510.3599999999999,1481.2689642649484,1260.1350399999999,1500.0
10.144160032272339,162,97.705,1095.9959322690004,1501.3599999999999,1481.3066746047048,1252.63968,1500.0
10.169124841690063,162,99.7285,1087.4288575112409,1492.5599999999999,1481.5893554107797,1250,1500.0
10.193954944610596,162,99.752,1076.2846952247244,1485.9300000000001,1481.8426318455311,1250,1500.0
10.218778848648071,162,100.7755,1065.140532938208,1483.7,1482.1861905623355,1250,1500.0
10.243599891662598,162,102.799,1057.002361794765,1483.6400000000001,1482.6440794903378,1250,1500.0
10.268458843231201,161,103.8225,1051.7160284024433,1485.55,1483.103290807368,1250,1500.0
10.293381929397583,160,103.846,1046.4296950101213,1485.23,1483.5410098114169,1251.51424,1500.0
10.318367958068848,160,104.8695,1041.1433616177997,1485.1099999999999,1484.1634035047853,1253.9885999999999,1500.0
10.343400001525879,159,104.9165,1038.5662740890425,1480.3900000000001,1485.1263180304818,1257.64896,1500.0
10.368381977081299,158,104.94,1035.9891865602856,1480,1486.1676001301523,1262.85752,1500.0
10.39357304573059,157,104.9635,1033.4120990315287,1480,1487.1860224097481,1269.5060800000001,1500.0
10.418500900268555,157,103.987,1030.8350115027717,1480,1488.1815848692688,1276.07464,1500.0
10.443413019180298,156,104.0105,1028.380642427765,1480,1489.0570944933443,1284.2432000000001,1500.0
10.468338966369629,154,101.0105,1023.5860609789149,1480,1489.4824996713151,1299.0996,1500.0
10.493237018585205,154,100.0105,1018.7914795300649,1480,1489.5967617478946,1310.3098400000001,1500.0
10.518107891082764,152,98.0105,1011.7630589970915,1480,1489.40672995709,1324.2739200000001,1500.0
10.543048858642578,152,95.987,1004.7346384641181,1480,1488.9302750115739,1338.4138800000001,1500.0
10.567930936813354,151,93.987,995.57166058409348,1480,1488.0551206823884,1350,1500.0
10.592771053314209,150,89.987,984.36693219819369,1480,1486.9959262284774,1350,1500.0
10.617630958557129,148,87.987,973.16220381229391,1480,1485.7690256538881,1350,1500.0
10.642472982406616,147,85.987,961.95747542639424,1480,1484.5531260853506,1350,1500.0
10.667198896408081,147,83.9635,950.75274704049446,1480,1483.3482275228646,1350,1500.0
10.692069053649902,146,81.9635,938.17410553108562,1480,1482.2640554624159,1350,1500.0
10.716852903366089,145,77.9635,927.93567639552043,1480,1481.4936629484532,1350,1500.0
10.741760015487671,144,76.987,917.69724725995513,1480,1481.018328281986,1350,1500.0
10.766494989395142,143,74.987,907.89570842145474,1480,1480.7696686339082,1350,1500.0
10.791364908218384,143,74.0105,898.09416958295446,1480,1480.7441888818437,1350,1500.0
10.816155910491943,142,73.034,890.42718809150517,1480,1481.0688785344491,1350,1500.0
10.840942859649658,141,72.0575,883.07688627035498,1480,1481.4729747469803,1350,1500.0
10.865712881088257,141,71.0575,874.06916345031789,1480,1481.8743878741279,1350,1500.0
10.890467882156372,140,71.1045,865.0614406302808,1480,1482.2514260601183,1350,1500.0
10.915225982666016,140,71.1045,854.4600437728526,1480,1482.5275929511565,1350,1500.0
10.939990997314453,139,71.128,847.68692911394032,1480,1482.6736743723657,1350,1500.0
10.964727878570557,138,71.175,839.38027906055709,1480,1482.6537084885535,1350,1500.0
10.989428997039795,137,72.1985,829.59689121990573,1480,1482.5416738489973,1350,1500.0
11.01417589187622,137,72.1985,820.18741393494543,1480,1482.3848076745512,1349.44236,1500.0
11.03899884223938,137,72.1985,810.77793664998512,1480,1482.3076126037608,1343.9148399999999,1500.0
11.063828945159912,136,73.1985,798.67217640032857,1480,1481.9597867723216,1337.1411600000001,1500.0
11.088676929473877,136,74.175,787.01307695988339,1480,1481.519690181163,1330.4491600000001,1500.0
11.113584995269775,136,75.175,775.77632442505762,1480,1481.0558643783068,1326.51476,1500.0
11.138458013534546,135,76.175,763.34566693340662,1480,1480.4777103061256,1321.07644,1500.0
11.1633460521698,135,77.175,751.3539229471354,1480,1479.752100091036,1314.19812,1500.0
11.188247919082642,134,80.1985,737.16263509036639,1480,1479.138778244328,1303.3058000000001,1500.0
11.213182926177979,134,83.222,723.45666250228419,1480,1478.5815619693465,1290.72992,1500.0
11.238039016723633,134,84.269,710.21146050263326,1480,1478.0058284682461,1280.4261999999999,1500.0
11.262940883636475,134,87.2925,697.40411642032609,1480,1477.5393775751259,1266.1968399999998,1500.0
11.287883043289185,135,89.2925,684.59677233801904,1480,1477.1435933462169,1253.1156799999999,1500.0
11.312808990478516,135,93.316,672.60227826712776,1480,1476.9256047731187,1250,1500.0
11.33757495880127,135,95.316,660.98542194059723,1485.21,1476.8760768783429,1250,1500.0
11.36247706413269,136,97.3395,649.72860377624488,1494.21,1476.9893026208695,1250,1500.0
11.387346982955933,136,98.3395,638.81530353709582,1500.8399999999999,1477.1961057241504,1250,1500.0
11.412265062332153,136,99.363,629.05676382995807,1503.0699999999999,1477.5667230905356,1250,1500.0
11.437105894088745,138,102.41,620.67100282368551,1507.99,1478.0048002576773,1250,1500.0
11.46211290359497,139,102.4335,612.52934787410254,1514.9400000000001,1478.5002736778881,1250,1500.0
11.487213850021362,140,103.4335,605.4036601233563,1519.72,1479.0895846988221,1250,1500.0
11.512192010879517,140,103.457,599.2631526866337,1520,1479.801927120639,1250,1500.0
11.536948919296265,142,103.4805,592.34026399349466,1520,1480.499484357958,1251.7111600000001,1500.0
11.561935901641846,143,102.4805,588.08318951005253,1520,1481.2391662472828,1265.1774800000001,1500.0
11.586750030517578,145,101.504,584.7268873086141,1520,1482.0384603697116,1277.3675599999999,1500.0
11.611718893051147,146,100.504,582.24562103826497,1520,1482.8652864222606,1291.0738799999999,1500.0
11.636550903320312,147,98.504,580.6147417995378,1520,1483.6883889868855,1307.566,1500.0
11.661515951156616,150,94.504,578.98386256081062,1520,1484.6097458891268,1330.8919599999999,1500.0
11.686316013336182,152,92.504,578.98386256081062,1520,1485.5492853437024,1347.7539999999999,1500.0
11.711120843887329,153,89.504,578.98386256081062,1520,1486.4316627764097,1350,1500.0
11.735859870910645,154,86.504,578.98386256081062,1520,1487.2275140007152,1350,1500.0
11.7605619430542,156,83.504,578.98386256081062,1520,1487.9082152666499,1350,1500.0
11.785330057144165,158,77.4805,579.76624381722706,1520,1488.4800256242652,1350,1500.0
11.810091018676758,160,74.4805,579.76624381722706,1520,1488.8752939524916,1350,1500.0
11.834825038909912,161,71.457,579.76624381722706,1520,1489.1363101926606,1350,1500.0
11.859564065933228,163,69.4335,580.57035788632163,1520,1489.336673257332,1350,1500.0
11.884307861328125,164,66.41,581.37447195541631,1520,1489.5039657152181,1350,1500.0
11.909056901931763,166,62.3865,582.17858602451088,1520,1489.5755970658056,1350,1500.0
11.933795928955078,167,59.363,583.00535119414337,1520,1489.6804802319825,1350,1500.0
11.958554983139038,168,58.3395,584.63623043287043,1520,1489.8570314802614,1350,1500.0
11.983332872390747,169,56.316,586.26710967159761,1520,1490.0344887725619,1350,1500.0
12.008116960525513,170,55.2925,587.89798891032478,1520,1490.2128521088837,1350,1500.0
12.032944917678833,172,53.269,588.70210297941935,1520,1490.3837320113414,1350,1500.0
12.057708978652954,172,52.222,589.50621704851403,1520,1490.5206352629923,1350,1500.0
12.082499027252197,173,51.1985,590.3103311176086,1520,1490.559232738309,1350,1500.0
12.107197046279907,173,50.1515,589.50621704851403,1520,1490.4544940494218,1350,1500.0
12.132051944732666,173,49.1515,588.70210297941935,1520,1490.2192850214365,1350,1500.0
12.156767845153809,174,49.128,586.35408989766313,1520,1489.8456397153157,1350,1500.0
12.181643009185791,174,50.128,582.43783383098275,1520,1489.2715397039062,1350,1500.0
12.206434965133667,174,50.1045,578.52157776430249,1520,1488.5416954938512,1350,1500.0
12.23128890991211,173,50.1045,573.88310304636434,1520,1487.7500988409452,1350,1500.0
12.256042003631592,173,52.081,567.18630517234101,1517.53,1486.8037279829059,1350,1500.0
12.280915021896362,173,52.081,560.66404661190677,1510.96,1485.8178687062625,1350,1500.0
12.3057279586792,173,54.0575,553.50547014313759,1504.3900000000001,1484.8860408756998,1350,1500.0
12.330620050430298,172,56.0575,545.11970913686514,1497.5599999999999,1483.9544301766841,1350,1500.0
12.355473041534424,171,57.0575,536.94612612865626,1492.9000000000001,1483.0364869959963,1338.92776,1500.0
12.380400896072388,169,62.1045,526.53781817812808,1483.5799999999999,1482.1879129649064,1322.42164,1500.0
12.40532398223877,168,66.128,517.14576585110285,1480,1481.3996470472885,1301.38184,1500.0
12.430150032043457,167,69.1515,507.47431608643149,1480,1480.6383238344167,1281.3624,1500.0
12.454941034317017,166,72.175,497.30889442517747,1480,1479.9806426177565,1262.6210799999999,1500.0
12.479773998260498,164,76.1985,487.38222955895151,1480,1479.396152512747,1250,1500.0
12.504502058029175,161,83.222,478.12331199429389,1480,1479.0114404046449,1250,1500.0
12.52925705909729,160,87.222,469.07201440022197,1480,1478.7568111962892,1250,1500.0
12.553972959518433,159,90.2455,460.22141076610734,1480,1478.6371363166716,1250,1500.0
12.578752040863037,157,93.269,451.75262242313903,1480,1478.6595677183138,1250,1500.0
12.60385799407959,156,96.316,443.87577015120166,1480,1478.8388503866167,1250,1500.0
12.628690958023071,153,101.3395,437.42110344887169,1480,1479.0957049585343,1250,1500.0
12.653478860855103,151,103.363,431.09952976722008,1480,1479.4491830417962,1250,1500.0
12.678230047225952,150,104.3865,425.41179621513959,1480,1479.9014128041538,1250,1500.0
12.7030348777771,148,105.41,419.83830198577277,1480,1480.4025029129059,1250,1500.0
12.727833032608032,147,105.41,414.3756348438859,1480,1480.9190545397882,1250,1500.0
12.752636909484863,144,104.3865,409.93780943163176,1480,1481.4123085176175,1250,1500.0
12.777447938919067,143,102.3865,405.23307078915161,1480,1481.858911634675,1250,1500.0
12.8022940158844,141,101.3865,400.96395609504918,1480,1482.2392296943572,1269.20236,1500.0
12.827157020568848,140,98.3865,397.19406621264682,1480,1482.5798739618676,1299.42796,1500.0
12.852138996124268,137,93.3865,393.08421304620629,1480,1482.8753436769216,1335.1096399999999,1500.0
12.876965999603271,135,90.3865,389.78689925247778,1480,1483.1422605200951,1350,1500.0
12.90186595916748,134,86.41,386.55018959246655,1480,1483.4037099540703,1350,1500.0
12.926606893539429,132,82.41,383.70051505582171,1480,1483.6682885210118,1350,1500.0
12.951465845108032,131,78.41,381.23057309304579,1480,1483.9157586914505,1350,1500.0
12.97619891166687,129,70.41,379.13326589901982,1480,1484.1925992199181,1350,1500.0
13.000925064086914,128,66.41,377.40169282987802,1480,1484.489374785627,1350,1500.0
13.025711059570312,127,63.3865,376.38163887641991,1480,1484.8217875732248,1350,1500.0
13.050420999526978,126,59.3865,375.36158492296181,1480,1485.1706075778518,1350,1500.0
13.075129985809326,125,57.3865,375.0216216389237,1480,1485.5580695381987,1350,1500.0
13.099854946136475,124,54.3865,377.15761736693651,1480,1486.0541694486269,1350,1500.0
13.124565839767456,123,53.363,380.06038079218467,1480,1486.6791473314254,1350,1500.0
13.149298906326294,122,52.3395,384.09392747089151,1480,1487.4266492772756,1350,1500.0
13.174000024795532,122,51.316,388.95618464904175,1480,1488.3428885290584,1350,1500.0
13.198853015899658,121,50.269,394.68097724498,1480,1489.423419152233,1350,1500.0
13.223612070083618,121,49.269,401.30424423444748,1480,1490.5212963041326,1350,1500.0
13.248406887054443,121,48.269,408.39093485847212,1480,1491.6048644732839,1350,1500.0
13.27321195602417,121,48.269,415.47762548249676,1480,1492.6084143749615,1350,1500.0
13.298049926757812,122,49.269,422.10089247196419,1480,1493.4434048347509,1350,1500.0
13.32292890548706,122,49.269,428.39021322666861,1480,1494.0557146158139,1350,1500.0
13.347800970077515,123,50.2455,431.64506385983094,1481.1400000000001,1494.329521131194,1350,1500.0
13.372686862945557,124,50.222,433.69752284738013,1492.3699999999999,1494.2249821599994,1350,1500.0
13.397629022598267,125,51.175,434.10777556987688,1503.6600000000001,1493.7181222648103,1350,1500.0
13.422621965408325,126,52.1515,432.87677842021822,1512.78,1492.8135214126262,1350,1500.0
13.447552919387817,126,53.128,430.38869548429119,1519.53,1491.5251866001763,1350,1500.0
13.47242784500122,128,55.081,425.13797815696915,1520,1490.0092646484279,1350,1500.0
13.497159957885742,129,57.0575,418.38523376770763,1520,1488.3304876105706,1341.0503999999999,1500.0
13.522316932678223,130,58.034,410.64807395597052,1520,1486.5849962640252,1333.9538,1500.0
13.54713487625122,131,60.034,402.13899293489987,1520,1484.8563767585138,1324.1232,1500.0
13.57210087776184,133,67.0575,392.75656361230807,1520,1483.1960927587488,1300.8847599999999,1500.0
13.596904993057251,135,71.0575,383.99095977299879,1520,1481.7403706207901,1279.65488,1500.0
13.621928930282593,137,77.081,375.38387369617948,1520,1480.5639510925012,1252.88912,1500.0
13.646735906600952,138,82.081,367.34948437880342,1520,1479.7061204594318,1250,1500.0
13.671635866165161,140,88.128,359.85929008193864,1520,1479.1845222103511,1250,1500.0
13.696354866027832,143,99.1515,352.23953609066217,1520,1479.0081683524343,1250,1500.0
13.72105097770691,144,104.1985,346.48394209725149,1520,1479.1077236288158,1250,1500.0
13.74573802947998,145,109.2455,341.76695153122319,1520,1479.4453652205507,1250,1500.0
13.77077603340149,146,113.269,338.29436799367193,1520,1479.9873234799315,1250,1500.0
13.795568943023682,148,117.2925,336.32124775690193,1520,1480.7212049391544,1250,1500.0
13.82030200958252,151,122.2925,335.76249266076741,1520,1481.6783342620554,1250,1500.0
13.845036029815674,152,123.2925,335.48538647487953,1520,1482.7364558947033,1250,1500.0
13.869765996932983,153,124.2925,335.76249266076741,1520,1483.8431712759705,1250,1500.0
13.894507884979248,155,125.316,336.03516514768103,1520,1484.9171891974313,1250,1500.0
13.919206857681274,156,125.316,337.42124134706489,1520,1485.9137992436345,1250,1500.0
13.943942070007324,158,125.316,339.62250361121147,1520,1486.7448915169614,1250,1500.0
13.968685865402222,159,122.316,341.53268987348736,1520,1487.4420073678987,1250,1500.0
13.99343490600586,160,120.316,343.15657187162827,1520,1487.9909399471364,1250,1500.0
14.018234968185425,161,117.316,344.80676652790265,1520,1488.4453736734354,1272.9665600000001,1500.0
14.043125867843628,162,114.2925,346.77988676467265,1520,1488.7915047084273,1303.3805600000001,1500.0
14.068016052246094,163,106.269,348.21199016232833,1520,1488.9921405596351,1344.5483999999999,1500.0
14.09287405014038,164,102.2455,349.94507800288108,1520,1489.1006086515911,1350,1500.0
14.117645978927612,165,96.222,351.70718913365505,1520,1489.160967062684,1350,1500.0
14.142410039901733,166,91.1985,354.05781402084159,1520,1489.1989499062902,1350,1500.0
14.167140007019043,167,86.175,355.88020290211847,1520,1489.2031958461339,1350,1500.0
14.191974878311157,167,77.175,357.73389744034716,1520,1489.2553222315157,1350,1500.0
14.21669888496399,167,72.175,360.88066502813763,1520,1489.3814243280526,1350,1500.0
14.241605997085571,167,68.1515,364.31373688006312,1520,1489.5711261222432,1350,1500.0
14.266337871551514,167,64.1515,367.80664890251052,1520,1489.778980913972,1350,1500.0
14.291046857833862,167,57.128,371.42403600325554,1520,1490.0656606893256,1350,1500.0
14.315773010253906,166,54.1045,375.77979199763456,1514.0899999999999,1490.4414662284514,1350,1500.0
14.340584993362427,167,52.081,380.99588161483223,1507.78,1490.8503801278464,1350,1500.0
14.365401983261108,164,50.0575,387.56375037498975,1496.1500000000001,1491.3286617078684,1350,1500.0
14.390207052230835,163,49.034,395.15430990652953,1484.8599999999999,1491.9333392290148,1350,1500.0
14.415057897567749,161,47.0105,404.34218718296728,1480,1492.7018149703695,1350,1500.0
14.439815998077393,159,46.0105,414.2285580535202,1480,1493.5970207972775,1350,1500.0
14.464639902114868,156,44.987,424.18021054990749,1480,1494.5993985111838,1350,1500.0
14.489559888839722,156,43.9635,435.24878258835651,1480,1495.6653478362291,1350,1500.0
14.514340877532959,154,42.94,447.1413163790703,1480,1496.7460619252956,1350,1500.0
14.539140939712524,149,40.9165,460.18583349993867,1480,1497.767437867753,1350,1500.0
14.563912868499756,148,40.893,473.14420758321648,1480,1498.6897801993719,1350,1500.0
14.588717937469482,145,39.8695,485.61000150381039,1480,1499.5193250314896,1350,1500.0
14.613529920578003,143,39.846000000000004,496.41788680533546,1480,1500.1451509940462,1350,1500.0
14.638434886932373,141,39.846000000000004,505.89167376495351,1480,1500.4914753262569,1350,1500.0
14.663347005844116,137,40.8225,512.13035586623835,1480,1500.3854198250403,1350,1500.0
14.68813705444336,134,41.8225,516.71184480625072,1480,1499.8081512442939,1350,1500.0
14.712947845458984,132,42.799,518.99887053523412,1480,1498.7048105732267,1350,1500.0
14.737753868103027,130,43.7755,518.99887053523412,1480,1497.1612857537434,1350,1500.0
14.76258397102356,129,43.752,517.26388549945364,1480,1495.2522800474019,1350,1500.0
14.787436962127686,123,46.705,511.02520339816886,1480,1493.080383597217,1350,1500.0
14.812301874160767,120,47.658,502.68357797613982,1480,1490.7098144317147,1350,1500.0
14.837048053741455,118,49.6345,491.87569267461475,1480,1488.2028694736209,1346.02756,1500.0
14.862036943435669,116,53.611,480.64089590367951,1480,1485.6754327649951,1332.43676,1500.0
14.886893033981323,114,56.6345,468.98764135579756,1480,1483.1962684934858,1315.5699200000001,1500.0
14.912221908569336,110,65.6345,457.84281119427897,1480,1481.024020262761,1285.5116399999999,1500.0
14.93709397315979,107,70.6815,446.55271344924859,1480,1479.2495955729296,1254.23768,1500.0
14.96207594871521,106,76.7285,436.1100676678526,1480,1478.0203565208328,1250,1500.0
14.986827850341797,104,81.7755,426.46489330462845,1480,1477.3104740072272,1250,1500.0
15.011718988418579,100,93.8225,417.01886366537894,1480,1477.0872044282426,1250,1500.0
15.036457061767578,98,98.8695,410.21302864579536,1480,1477.2548621343021,1250,1500.0
15.061241865158081,96,102.9165,405.22364521579675,1480,1477.8070189185996,1250,1500.0
15.085998058319092,94,106.9635,402.03178376226225,1480,1478.6489776710182,1250,1500.0
15.110825061798096,92,110.987,398.90109965325382,1480,1479.6884205560532,1250,1500.0
15.135555028915405,89,116.034,396.18887332119209,1480,1480.912274239246,1250,1500.0
15.160285949707031,87,118.081,394.65492048672644,1480,1482.1828695921467,1250,1500.0
15.185019969940186,85,119.128,393.90255314410763,1480,1483.3771696998765,1250,1500.0
15.209739923477173,84,120.1515,393.52991837535768,1480,1484.397245362474,1250,1500.0
