time,x,y,size_inv,roll,pitch,thrust,yaw
0.0008151531219482422,165,28.0,1845.9280709933998,1501.1500000000001,1496.5161763194703,1350,1500.0
0.02344202995300293,165,28.5405,1845.9280709933998,1501.3,1496.5161763194703,1350,1500.0
0.04587817192077637,165,28.5405,1845.9280709933998,1501.45,1496.5161763194703,1350,1500.0
0.06826305389404297,165,28.5405,1845.9280709933998,1501.5999999999999,1496.5161763194703,1350,1500.0
0.09065699577331543,165,28.5405,1845.9280709933998,1501.75,1496.5161763194703,1350,1500.0
0.11310195922851562,165,28.5405,1845.9280709933998,1501.9000000000001,1496.5161763194703,1350,1500.0
0.135498046875,165,28.5405,1845.9280709933998,1502.05,1496.5161763194703,1350,1500.0
0.15795612335205078,165,28.5405,1845.9280709933998,1502.2,1496.5161763194703,1350,1500.0
0.18039298057556152,165,28.5405,1854.2806866992523,1502.3499999999999,1496.5537630901467,1350,1500.0
0.20293807983398438,165,28.5405,1854.2806866992523,1502.5,1496.5537630901467,1350,1500.0
0.22566914558410645,165,28.5405,1845.9280709933998,1502.5,1497.0173332618215,1350,1500.0
0.24860095977783203,165,28.5405,1845.9280709933998,1502.5,1497.0173332618215,1350,1500.0
0.27146005630493164,166,28.5405,1845.9280709933998,1504.9300000000001,1497.0173332618215,1350,1500.0
0.29435300827026367,166,29.5405,1854.2806866992523,1507.1600000000001,1496.8043415613222,1350,1500.0
0.31708598136901855,166,29.5405,1862.6333024051048,1509.3900000000001,1496.8419283319986,1350,1500.0
0.33982110023498535,165,28.47,1870.9859181109573,1509.1900000000001,1497.6312505162016,1350,1500.0
0.36257410049438477,165,27.423000000000002,1879.3385338168096,1509.1900000000001,1498.6711511715803,1350,1500.0
0.385343074798584,164,27.4465,1879.3385338168096,1502.3599999999999,1499.6734650562826,1350,1500.0
0.40812015533447266,164,29.5405,1870.9859181109573,1495.73,1500.1370352279573,1350,1500.0
0.431002140045166,163,31.6345,1870.9859181109573,1486.6700000000001,1500.1370352279573,1350,1500.0
0.45384907722473145,162,34.6815,1870.9859181109573,1480,1499.3852998144307,1350,1500.0
0.47656917572021484,163,39.6815,1879.3385338168096,1480,1498.4205727004046,1350,1500.0
0.49927806854248047,163,40.611,1887.691149522662,1480,1497.7064240575544,1350,1500.0
0.521975040435791,164,41.5405,1887.691149522662,1482.1700000000001,1497.7064240575542,1332.9087200000001,1500.0
0.544788122177124,164,41.4465,1879.3385338168096,1490.9100000000001,1497.668837286878,1321.7400799999998,1500.0
0.5675959587097168,164,42.3525,1870.9859181109573,1501.8800000000001,1497.6312505162016,1318.0542800000001,1500.0
0.5903820991516113,164,43.329,1862.6333024051048,1508.45,1497.092506803174,1328.3016400000001,1500.0
0.6133041381835938,164,46.329,1854.9767380080732,1512.8499999999999,1495.8260414467743,1334.3714400000001,1500.0
0.6361241340637207,165,48.3525,1840.2761343657726,1515.28,1493.836281333326,1338.4539600000001,1500.0
0.6589291095733643,165,51.376,1825.5755307234722,1515.3399999999999,1491.90666005296,1333.8716000000002,1500.0
0.6817591190338135,165,58.3995,1810.8749270811718,1513.23,1490.0371776056761,1312.7682799999998,1500.0
0.7045509815216064,164,60.376,1787.8217077330187,1510.8599999999999,1488.190247220798,1290.8093999999999,1500.0
0.7274610996246338,164,63.3525,1764.7684883848658,1508.6900000000001,1486.3616925904728,1270.5002399999998,1500.0
0.750359058380127,163,66.329,1741.7152690367129,1501.8599999999999,1484.7235775982408,1250.3065999999999,1500.0
0.7732281684875488,163,68.3055,1727.0146653944125,1495.23,1483.313489014779,1250,1500.0
0.7959861755371094,163,72.3055,1705.8118716795561,1488.5999999999999,1481.8695145119073,1250,1500.0
0.818770170211792,163,75.329,1684.6090779646997,1486.3699999999999,1480.9220708873033,1250,1500.0
0.8415870666503906,163,78.3525,1665.0423022833972,1484.1400000000001,1480.5484823023896,1250,1500.0
0.864415168762207,163,82.423,1652.5195658473635,1488.48,1480.7730848526187,1250,1500.0
0.8871619701385498,162,90.4935,1639.9968294113301,1490.3900000000001,1481.063023419036,1250,1500.0
0.9099991321563721,161,94.5405,1627.4740929752963,1490.0699999999999,1481.8084294059945,1250,1500.0
0.9330980777740479,161,97.5875,1614.9513565392626,1487.78,1482.7587243423188,1250,1500.0
0.9558801651000977,161,101.658,1608.4491664667066,1485.49,1484.0234559955356,1250,1500.0
0.9786200523376465,160,104.705,1601.9469763941506,1480,1485.1528895522931,1250,1500.0
1.0014231204986572,159,107.7285,1595.4447863215946,1480,1486.3976034837672,1250,1500.0
1.0242619514465332,159,109.752,1595.4447863215946,1480,1487.7868576452838,1250,1500.0
1.0470020771026611,159,111.752,1589.4242399581169,1480,1489.083683331977,1250,1500.0
1.0697131156921387,158,113.752,1589.4242399581169,1480,1490.2107296112199,1250,1500.0
1.0924391746520996,157,117.752,1595.4447863215946,1480,1491.5599340512754,1250,1500.0
1.115117073059082,157,118.752,1601.4653326850723,1480,1493.1042041935073,1250,1500.0
1.1377661228179932,156,119.752,1601.4653326850723,1480,1494.2456997840227,1250,1500.0
1.1604440212249756,156,120.752,1601.4653326850723,1480,1495.3727460632658,1250,1500.0
1.1832389831542969,155,121.7285,1595.4447863215946,1480,1496.0970177907921,1250,1500.0
1.2059299945831299,155,122.7285,1589.4242399581169,1480,1496.0843746434289,1250,1500.0
1.2286450862884521,154,123.705,1583.4036935946392,1480,1495.3348166211758,1250,1500.0
1.2513911724090576,154,123.705,1577.3831472311617,1480,1494.4046422080187,1250,1500.0
1.274165153503418,153,124.658,1583.4036935946392,1480,1493.5286527121325,1250,1500.0
1.2969701290130615,153,124.6345,1583.4036935946392,1480,1492.9868035394195,1250,1500.0
1.3198440074920654,152,124.611,1577.3831472311617,1480,1492.7790946898797,1250,1500.0
1.3425841331481934,151,124.5875,1577.3831472311617,1480,1493.1403274716884,1250,1500.0
1.365278959274292,151,124.5875,1577.3831472311617,1480,1493.8627930353057,1250,1500.0
1.3879599571228027,151,124.564,1577.3831472311617,1480,1494.2240258171144,1251.8995199999999,1500.0
1.4116501808166504,150,124.564,1577.3831472311617,1480,1494.4046422080187,1255.9531999999999,1500.0
1.436885118484497,150,124.5875,1577.3831472311617,1480,1494.7658749898274,1258.5190400000001,1500.0
1.4620301723480225,149,124.5875,1577.3831472311617,1480,1494.9464913807317,1259.7192399999999,1500.0
1.4871940612792969,148,123.5875,1577.3831472311617,1480,1494.9464913807317,1263.55944,1500.0
1.512321949005127,148,123.564,1577.3831472311617,1480,1495.1271077716358,1264.8998000000001,1500.0
1.537471055984497,148,122.564,1577.3831472311617,1480,1495.3077241625401,1268.88392,1500.0
1.5625159740447998,147,121.5405,1577.3831472311617,1480,1495.3077241625401,1274.46784,1500.0
1.5875000953674316,146,120.5405,1577.3831472311617,1480,1495.3077241625401,1281.4955200000002,1500.0
1.6125330924987793,146,118.517,1577.3831472311617,1480,1495.3077241625401,1289.8652400000001,1500.0
1.6375200748443604,145,118.4935,1583.4036935946392,1480,1495.5154330120802,1295.8349599999999,1500.0
1.6625289916992188,145,117.4935,1589.4242399581169,1480,1495.9037582525245,1301.6164799999999,1500.0
1.6875231266021729,144,116.4935,1589.4242399581169,1480,1496.2649910343332,1305.9402400000001,1500.0
1.712522029876709,143,114.4935,1589.4242399581169,1480,1496.6262238161419,1311.5440000000001,1500.0
1.737502098083496,142,113.4935,1589.4242399581169,1480,1496.9874565979505,1313.08196,1500.0
1.7625370025634766,141,112.517,1583.4036935946392,1480,1496.7797477484105,1315.9640400000001,1500.0
1.7874720096588135,141,111.517,1583.4036935946392,1480,1496.2378985756975,1318.8743200000001,1500.0
1.8125369548797607,139,109.4935,1583.4036935946392,1480,1495.6960494029845,1324.5185999999999,1500.0
1.8375580310821533,139,109.4935,1583.4036935946392,1480,1495.1542002302715,1323.49468,1500.0
1.862534999847412,138,108.4935,1589.4242399581169,1480,1494.8200599070985,1325.0627199999999,1500.0
1.8874590396881104,137,107.47,1589.4242399581169,1480,1495.0006762980029,1325.43056,1500.0
1.912520170211792,136,106.47,1583.4036935946392,1480,1495.1542002302715,1325.7701999999999,1500.0
1.9375669956207275,134,105.4935,1589.4242399581169,1480,1495.5425254707159,1323.182,1500.0
1.9625470638275146,134,104.4935,1589.4242399581169,1480,1495.9037582525245,1324.7819999999999,1500.0
1.9877820014953613,133,104.4935,1595.4447863215946,1480,1496.1114671020646,1323.742,1500.0
2.0128159523010254,134,103.4935,1595.4447863215946,1480,1496.1114671020646,1323.8042399999999,1500.0
2.037806987762451,132,101.47,1595.4447863215946,1480,1496.4726998838732,1326.56852,1500.0
2.0627810955047607,131,101.47,1595.4447863215946,1480,1496.4726998838732,1326.92236,1500.0
2.0877389907836914,131,100.47,1589.4242399581169,1480,1496.2649910343332,1327.1161999999999,1500.0
2.1127071380615234,130,100.47,1583.4036935946392,1480,1495.6960494029845,1327.4700399999999,1500.0
2.1376800537109375,130,100.47,1577.3831472311617,1480,1494.9464913807315,1326.4158399999999,1500.0
2.1626570224761963,129,100.47,1583.4036935946392,1480,1494.2511182757498,1321.05584,1500.0
2.187657117843628,129,99.47,1577.3831472311617,1480,1493.501560253497,1319.6638800000001,1500.0
2.212628126144409,129,99.4935,1577.3831472311617,1480,1493.1403274716884,1315.56988,1500.0
2.237645149230957,129,99.4935,1571.362600867684,1480,1493.1132350130526,1311.5040799999999,1500.0
2.2626421451568604,129,99.4935,1571.362600867684,1480,1493.4744677948613,1308.79828,1500.0
2.287621021270752,129,100.4935,1571.362600867684,1480,1493.4744677948613,1306.20444,1500.0
2.3126020431518555,129,100.4935,1577.3831472311617,1480,1494.04340942621,1302.0106000000001,1500.0
2.3376080989837646,128,100.4935,1577.3831472311617,1480,1494.4046422080187,1299.2425599999999,1500.0
2.362600088119507,129,100.517,1577.3831472311617,1480.0999999999999,1494.9464913807315,1296.41248,1500.0
2.3876590728759766,129,101.517,1577.3831472311617,1482.27,1495.3077241625401,1290.9706000000001,1500.0
2.41274094581604,129,101.517,1571.362600867684,1482.27,1495.6418644857133,1289.52872,1500.0
2.4378039836883545,130,101.4935,1571.362600867684,1484.7,1495.461248094809,1289.5088800000001,1500.0
2.462862968444824,130,101.47,1571.362600867684,1491.3299999999999,1495.2806317039046,1289.49092,1500.0
2.487913131713867,131,101.423,1577.3831472311617,1495.99,1495.1271077716358,1289.63464,1500.0
2.5129811763763428,131,101.3995,1577.3831472311617,1500.45,1494.9464913807315,1292.5840000000001,1500.0
2.5380120277404785,132,101.3995,1577.3831472311617,1507.3399999999999,1495.1271077716358,1294.14516,1500.0
2.5630760192871094,133,102.3995,1577.3831472311617,1512.0599999999999,1495.4883405534445,1293.0005200000001,1500.0
2.588153123855591,133,102.3995,1583.4036935946392,1514.4100000000001,1496.0572821847932,1292.99008,1500.0
2.613281011581421,134,103.3995,1589.4242399581169,1516.96,1496.4456074252375,1290.17608,1500.0
2.638482093811035,135,103.3995,1601.9469763941506,1520,1497.2388746140894,1287.1362799999999,1500.0
2.6636760234832764,136,103.3995,1614.4697128301843,1520,1498.2272075051178,1284.0964799999999,1500.0
2.6886701583862305,136,104.376,1626.992449266218,1520,1499.5912224892272,1281.31068,1500.0
2.713639974594116,136,104.3525,1639.5151857022515,1520,1500.9696867846092,1279.7906800000001,1500.0
2.7386419773101807,137,104.329,1646.0173757748075,1520,1502.3355079326277,1281.1684399999999,1500.0
2.7636051177978516,137,104.329,1665.58415145611,1520,1503.5957588001627,1282.5499600000001,1500.0
2.7885520458221436,138,104.3055,1685.1509271374125,1516.8499999999999,1504.6916487519748,1283.99352,1500.0
2.813632011413574,138,104.282,1698.6971564552375,1514.8,1505.4154689385239,1286.84512,1500.0
2.8387200832366943,138,104.282,1712.2433857730625,1512.75,1505.9749282093501,1289.6027200000001,1500.0
2.863837957382202,139,104.282,1725.7896150908878,1510.9000000000001,1506.731259346262,1290.93452,1500.0
2.8888821601867676,139,104.282,1732.8336543361565,1511.02,1506.8713273574083,1292.26632,1500.0
2.9139301776885986,139,103.2585,1747.5342579784569,1508.9100000000001,1506.6885435698132,1296.2343599999999,1500.0
2.9390320777893066,139,103.2585,1754.5782972237259,1506.8,1506.2455347538009,1297.5803599999999,1500.0
2.964081048965454,140,102.235,1769.2789008660263,1507.1199999999999,1505.8409069208558,1301.6603600000001,1500.0
2.9891421794891357,140,102.2115,1776.3229401112953,1505.01,1504.9954376685894,1304.60616,1500.0
3.0145039558410645,140,101.188,1776.3229401112953,1502.9000000000001,1504.282631155442,1310.2257999999999,1500.0
3.0396361351013184,140,101.1645,1776.3229401112953,1502.96,1503.274791694196,1311.8454400000001,1500.0
3.0647330284118652,141,100.1645,1776.3229401112953,1505.45,1502.2506967577683,1316.1088399999999,1500.0
3.089794158935547,141,99.141,1776.3229401112953,1503.3399999999999,1500.7509524823374,1319.00848,1500.0
3.114880084991455,142,99.141,1776.3229401112953,1505.8299999999999,1499.2349527317253,1320.61412,1500.0
3.1399381160736084,142,98.141,1783.979504508327,1508.1199999999999,1498.1944256301688,1321.99396,1500.0
3.1651711463928223,142,98.141,1776.3229401112953,1510.4100000000001,1497.2963106263969,1323.4999599999999,1500.0
3.190235137939453,143,98.1645,1776.3229401112953,1510.73,1496.6439713397699,1322.14392,1500.0
3.2155041694641113,144,98.1645,1776.3229401112953,1515.45,1496.4326501624118,1319.3422399999999,1500.0
3.240571975708008,144,98.188,1783.979504508327,1515.5699999999999,1496.6968016341093,1316.5104799999999,1500.0
3.265777111053467,145,98.188,1791.6360689053586,1518.1199999999999,1496.7312561738961,1312.2988800000001,1500.0
3.291100025177002,145,98.188,1799.2926333023902,1520,1497.4548015094156,1308.11924,1500.0
3.3164010047912598,146,99.188,1799.2926333023902,1520,1498.1438923051483,1302.7254,1500.0
3.3415629863739014,147,99.188,1806.9491976994218,1520,1499.0971345725789,1299.9235200000001,1500.0
3.3666889667510986,147,99.2115,1814.6057620964534,1520,1499.8206799080983,1297.1253999999999,1500.0
3.3918299674987793,148,100.235,1814.6057620964534,1520,1500.2800737719201,1293.0134399999999,1500.0
3.417073965072632,148,101.235,1822.262326493485,1520,1500.3145283117069,1287.4896799999999,1500.0
3.4421281814575195,149,101.235,1829.9188908905166,1520,1500.5786797834044,1285.9339600000001,1500.0
3.467180013656616,149,101.2115,1829.9188908905166,1520,1500.3489828514935,1284.44028,1500.0
3.492263078689575,149,101.188,1829.9188908905166,1520,1499.8895889876715,1283.0142800000001,1500.0
3.5174500942230225,150,101.141,1829.9188908905166,1520,1499.6598920557606,1284.5499600000001,1500.0
3.542428970336914,150,101.141,1838.2715065963689,1518.6900000000001,1499.4886634337906,1288.82924,1500.0
3.567486047744751,150,101.1175,1854.280686699253,1514.4100000000001,1499.3727708908718,1291.8105599999999,1500.0
3.5925841331481934,150,101.1175,1862.6333024051055,1512.3,1499.702699211253,1294.6978799999999,1500.0
3.6177010536193848,150,101.1175,1870.985918110958,1510.1900000000001,1500.5129029347206,1297.4874399999999,1500.0
3.6427559852600098,150,102.1175,1879.3385338168105,1505.8499999999999,1501.5736851293639,1296.1134399999999,1500.0
3.6678049564361572,150,102.1175,1887.6911495226627,1501.51,1502.6135857847426,1294.57944,1500.0
3.692821979522705,150,102.1175,1896.0437652285152,1499.3399999999999,1503.1732110370347,1292.97964,1500.0
3.717879056930542,150,102.141,1904.3963809343677,1497.1700000000001,1503.4822578181513,1291.3497600000001,1500.0
3.7429800033569336,150,102.141,1912.7489966402202,1495.0,1503.5407261280923,1289.7800400000001,1500.0
3.7680671215057373,150,102.141,1921.1016123460727,1495.0,1503.3486159668576,1291.0742399999999,1500.0
3.7931060791015625,150,102.141,1921.1016123460727,1495.0,1502.8683405637712,1292.36844,1500.0
3.818169116973877,150,102.141,1921.1016123460727,1495.0,1502.3671836214201,1293.6946,1500.0
3.8431899547576904,150,102.141,1921.1016123460727,1495.0,1501.6154482078932,1295.08656,1500.0
3.8682751655578613,150,102.1645,1921.1016123460727,1495.0,1500.6131343231909,1296.4164800000001,1500.0
3.8932690620422363,150,102.1645,1921.1016123460727,1495.0,1499.360241967313,1296.4146000000001,1500.0
3.9182920455932617,150,102.1645,1921.1016123460727,1495.0,1498.3579280826107,1296.41272,1500.0
3.9433021545410156,150,102.188,1912.7489966402202,1495.0,1497.3180274272322,1296.3488,1500.0
3.968330144882202,151,102.188,1912.7489966402202,1497.4300000000001,1496.5662920137054,1296.2811200000001,1500.0
4.000023126602173,151,101.188,1904.3963809343677,1499.6600000000001,1495.7769698295024,1298.9192399999999,1500.0
4.025537967681885,151,101.1645,1896.0437652285152,1501.8900000000001,1494.9876476452994,1300.4194,1500.0
4.050631046295166,151,101.1645,1887.6911495226627,1504.1199999999999,1493.9477469899207,1301.8913600000001,1500.0
4.075862169265747,152,101.1645,1879.3385338168105,1508.78,1493.1584248057177,1303.42912,1500.0
4.101048946380615,152,101.188,1870.985918110958,1508.8399999999999,1492.118524150339,1304.9048399999999,1500.0
4.126214027404785,152,101.2115,1862.6333024051055,1508.9000000000001,1491.329201966136,1303.51476,1500.0
4.151432037353516,153,102.235,1862.6333024051055,1511.3900000000001,1491.0786234949603,1299.3850400000001,1500.0
4.17665696144104,153,102.2585,1854.280686699253,1513.6800000000001,1491.0410367242839,1296.42148,1500.0
4.201897144317627,153,103.3055,1862.6333024051055,1511.5699999999999,1491.5797804373115,1290.6900800000001,1500.0
4.227168083190918,153,103.329,1854.280686699253,1511.6300000000001,1492.2939290801619,1286.21884,1500.0
4.252377986907959,153,103.3525,1854.280686699253,1511.6900000000001,1493.2962429648642,1283.1395600000001,1500.0
4.277620077133179,154,103.3525,1854.280686699253,1509.78,1494.047978378391,1282.98624,1500.0
4.302685022354126,154,103.3525,1862.6333024051055,1507.6700000000001,1495.3384575049452,1282.8987199999999,1500.0
4.327717065811157,154,103.329,1870.985918110958,1507.73,1496.1277796891482,1285.80484,1500.0
4.35275411605835,155,103.329,1879.3385338168105,1510.22,1497.4182588157023,1288.7166,1500.0
4.377784013748169,155,102.3055,1879.3385338168105,1512.51,1498.4205727004046,1294.3642400000001,1500.0
4.402857065200806,155,101.3055,1870.985918110958,1512.5699999999999,1499.134721343255,1300.03172,1500.0
4.42790412902832,156,101.282,1879.3385338168105,1515.0599999999999,1499.4228865851069,1304.52928,1500.0
4.4529640674591064,156,100.2585,1870.985918110958,1517.3499999999999,1499.134721343255,1310.2109600000001,1500.0
4.477981090545654,156,100.2585,1879.3385338168105,1515.24,1498.4205727004046,1314.63248,1500.0
4.503031015396118,157,99.235,1879.3385338168105,1515.5599999999999,1497.668837286878,1318.8582799999999,1500.0
4.528064966201782,158,98.235,1879.3385338168105,1520,1497.4182588157023,1321.69588,1500.0
4.5529890060424805,158,98.235,1870.985918110958,1520,1496.6289366314993,1323.2676799999999,1500.0
4.577927112579346,159,98.235,1870.985918110958,1520,1496.6289366314993,1322.0056400000001,1500.0
4.602864027023315,159,98.235,1870.985918110958,1520,1496.3783581603238,1320.7436,1500.0
4.627802133560181,161,98.235,1879.3385338168105,1520,1496.415944931,1318.0077200000001,1500.0
4.652698993682861,162,98.235,1887.6911495226627,1520,1496.4535317016764,1313.8318400000001,1500.0
4.677587985992432,162,97.2585,1879.3385338168105,1520,1496.9171018733512,1312.2658799999999,1500.0
4.702555179595947,163,98.282,1887.6911495226627,1520,1497.4558455863787,1308.21804,1500.0
4.727664947509766,164,98.282,1887.6911495226627,1520,1498.2075809999053,1305.3984,1500.0
4.752766132354736,165,97.3055,1896.0437652285152,1520,1498.7463247129328,1306.5486800000001,1500.0
4.777672052383423,165,97.282,1904.3963809343677,1520,1499.0344899547849,1307.9492,1500.0
4.802628993988037,166,97.282,1912.7489966402202,1520,1499.8238121389879,1306.5873200000001,1500.0
4.827574014663696,167,96.2585,1912.7489966402202,1520,1500.0743906101634,1310.7932800000001,1500.0
4.8525390625,167,96.2115,1912.7489966402202,1520,1500.3249690813391,1313.8951199999999,1500.0
4.877462148666382,168,95.188,1912.7489966402202,1520,1500.3249690813391,1316.9084,1500.0
4.902507066726685,168,94.188,1904.3963809343677,1520,1499.7862253683115,1321.2676799999999,1500.0
4.927551031112671,168,94.188,1904.3963809343677,1520,1498.5333330124336,1325.7549999999999,1500.0
4.952522039413452,168,94.188,1896.0437652285152,1520,1497.2428538858794,1325.9845599999999,1500.0
4.977452993392944,169,94.188,1887.6911495226627,1520,1495.7017962881496,1326.0825199999999,1500.0
5.002577066421509,169,94.188,1879.3385338168105,1520,1494.16073869042,1324.6427200000001,1500.0
5.028017044067383,169,95.2115,1879.3385338168105,1519.5699999999999,1493.4090032768931,1317.7328399999999,1500.0
5.053112030029297,169,95.2115,1870.985918110958,1517.46,1492.6196810926901,1312.05116,1500.0
5.078134059906006,168,95.2115,1862.6333024051055,1515.0899999999999,1492.0809373796626,1307.76144,1500.0
5.103204965591431,168,96.2115,1854.280686699253,1508.52,1491.7927721378107,1300.89564,1500.0
5.128237009048462,167,97.235,1838.2715065963689,1501.6900000000001,1491.4910338954369,1293.91976,1500.0
5.15325403213501,167,97.235,1838.2715065963689,1495.0599999999999,1491.0107584923503,1292.39788,1500.0
5.178274154663086,166,98.2585,1838.2715065963689,1486.0,1491.0316400316149,1288.1739600000001,1500.0
5.203300952911377,165,100.282,1830.6149421993373,1480,1491.0389485703574,1279.8362,1500.0
5.228253126144409,164,100.282,1830.6149421993373,1480,1491.3312901200622,1276.7266400000001,1500.0
5.253223180770874,164,100.282,1830.6149421993373,1480,1492.3336040047645,1276.48288,1500.0
5.2781500816345215,163,100.2585,1822.262326493485,1480,1493.047752647615,1274.9092000000001,1500.0
5.30311918258667,163,100.2585,1822.262326493485,1480,1493.5489095899661,1276.1731199999999,1500.0
5.328061103820801,161,100.235,1822.262326493485,1480,1494.2588819249636,1283.16488,1500.0
5.352497100830078,161,101.235,1814.6057620964534,1480,1494.4541243170879,1286.12844,1500.0
5.377493143081665,160,101.2585,1822.262326493485,1480,1494.4676973176099,1288.838,1500.0
5.40254807472229,159,101.282,1822.262326493485,1480,1494.9479727206965,1291.4479200000001,1500.0
5.427572965621948,159,102.282,1814.6057620964534,1480,1495.1640966520854,1290.0540799999999,1500.0
5.452558994293213,157,102.3055,1814.6057620964534,1480,1495.18497819135,1286.98044,1500.0
5.477480173110962,157,102.3055,1806.9491976994218,1480,1495.4011021227391,1286.7350000000001,1500.0
5.502560138702393,156,102.3055,1799.2926333023902,1480,1494.9281352583951,1286.5553600000001,1500.0
5.527563095092773,156,102.282,1791.6360689053586,1480,1493.9748929909647,1286.5355200000001,1500.0
5.552545070648193,155,101.282,1783.979504508327,1480,1493.2513476554452,1291.9274800000001,1500.0
5.577486991882324,155,101.282,1776.3229401112953,1480,1492.2981053880146,1296.2172,1500.0
5.602449178695679,154,101.3055,1776.3229401112953,1480,1491.6090145922819,1299.0848800000001,1500.0
5.6273980140686035,154,100.3055,1761.6223364689947,1480,1491.1018437666226,1304.5888,1500.0
5.652559995651245,154,100.3525,1746.9217328266943,1480,1490.613048695516,1308.6708799999999,1500.0
5.67755913734436,152,101.3995,1739.8776935814253,1480,1490.1770839187491,1305.88528,1500.0
5.702563047409058,152,101.423,1732.8336543361565,1480,1489.9891918284459,1304.26208,1500.0
5.727679014205933,152,101.47,1725.7896150908878,1480,1489.3602816288737,1302.6088,1500.0
5.752796173095703,150,101.4935,1718.7455758456188,1480,1489.1723895385705,1298.1498799999999,1500.0
5.7779340744018555,151,101.4935,1711.70153660035,1480,1489.4255155575365,1293.8827200000001,1500.0
5.803436040878296,150,100.4935,1704.657497355081,1480,1489.6602658219495,1296.5471600000001,1500.0
5.828420162200928,149,99.47,1697.6134581098122,1480,1489.8766403318098,1300.77944,1500.0
5.853372097015381,148,99.47,1690.5694188645434,1480,1490.3043360190279,1303.8831600000001,1500.0
5.878313064575195,148,99.4935,1697.6134581098122,1480,1490.9883734822586,1308.3506400000001,1500.0
5.903280019760132,146,99.517,1691.1112680372564,1480,1491.3980114568296,1312.72036,1500.0
5.92820405960083,146,99.5405,1691.1112680372564,1480,1492.0482304640852,1312.83232,1500.0
5.953145980834961,145,99.564,1691.1112680372564,1480,1492.9097706486989,1310.01268,1500.0
5.978070020675659,144,99.564,1691.1112680372564,1480,1493.9826320106706,1307.15732,1500.0
6.00316596031189,144,99.5875,1691.1112680372564,1480,1494.4215298405682,1304.27376,1500.0
6.028620958328247,142,98.564,1691.1112680372564,1480,1495.0392378974609,1304.18624,1500.0
6.05363917350769,142,98.564,1684.6090779647006,1480,1495.2212992194925,1304.2963199999999,1500.0
6.078850030899048,141,98.5405,1678.1068878921446,1480,1494.9969736619894,1305.9262000000001,1500.0
6.103839159011841,141,97.5405,1678.1068878921446,1480,1494.5905867824547,1310.16788,1500.0
6.128777980804443,139,97.517,1664.5606585743196,1480,1493.928176168813,1313.3054400000001,1500.0
6.15372896194458,139,97.517,1664.5606585743196,1480,1493.1316578849248,1313.51704,1500.0
6.178624153137207,138,96.517,1658.0584685017639,1480,1492.5009454478868,1316.3366800000001,1500.0
6.203598976135254,138,96.4935,1651.5562784292081,1480,1492.0652987130256,1317.9205999999999,1500.0
6.228569030761719,137,95.4935,1645.0540883566523,1480,1491.4345862759878,1319.3163199999999,1500.0
6.253533124923706,136,95.4935,1638.5518982840963,1480,1491.4215818958426,1319.41428,1500.0
6.278450965881348,136,94.4935,1632.0497082115403,1480,1491.2135118135209,1323.5442,1500.0
6.303393125534058,135,94.4935,1632.0497082115403,1480,1491.2297672887023,1323.6741199999999,1500.0
6.328322172164917,135,93.4935,1626.0291618480628,1480,1491.2333796165203,1326.4102,1500.0
6.3533079624176025,135,94.4935,1619.5269717755068,1480,1491.4298902498242,1323.86628,1500.0
6.3782639503479,134,93.4935,1613.5064254120291,1480,1491.4316964137333,1325.1943200000001,1500.0
6.403254985809326,134,93.4935,1607.4858790485514,1480,1491.6430175910914,1322.5223599999999,1500.0
6.42822003364563,134,94.4935,1607.4858790485514,1480,1491.6863655249083,1318.5704000000001,1500.0
6.453164100646973,134,94.4935,1595.8748253475587,1480,1491.4952991856733,1313.0504000000001,1500.0
6.478094100952148,134,94.517,1589.854278984081,1480,1491.3438394407292,1311.6283599999999,1500.0
6.503057956695557,134,95.517,1578.2432252830883,1480,1490.9850578813684,1304.7945199999999,1500.0
6.5280210971832275,134,95.517,1572.2226789196106,1480.49,1490.6369842937543,1300.5206800000001,1500.0
6.553071022033691,134,96.517,1560.611625218618,1482.6600000000001,1489.9154218120914,1296.4068400000001,1500.0
6.578102111816406,135,96.4935,1555.021117881103,1487.26,1489.569283400094,1294.9150400000001,1500.0
6.603178024291992,136,97.517,1543.4100641801103,1494.0899999999999,1489.0138879980632,1289.3987999999999,1500.0
6.628241062164307,137,98.5405,1537.8195568425954,1500.98,1488.8339166656979,1286.56872,1500.0
6.653259038925171,137,98.5405,1532.2290495050804,1507.6700000000001,1488.6668465041114,1284.96684,1500.0
6.678261041641235,138,99.564,1520.6179958040877,1516.79,1488.821015494919,1282.10292,1500.0
6.703305006027222,139,100.5875,1520.6179958040877,1520,1489.0145330566022,1277.6993600000001,1500.0
6.728379964828491,140,101.5875,1515.0274884665728,1520,1489.5312249462963,1274.71784,1500.0
6.753509998321533,140,101.5875,1515.0274884665728,1520,1490.0601729482305,1274.4421199999999,1500.0
6.7784459590911865,140,100.5875,1515.0274884665728,1520,1490.7439349995111,1276.8063999999999,1500.0
6.803441047668457,140,101.5875,1526.6385421675654,1520,1492.176610014506,1276.8364799999999,1500.0
6.828427076339722,141,101.611,1532.2290495050804,1520,1493.5821925708649,1280.90228,1500.0
6.853393077850342,141,102.611,1543.8401032060731,1514.1900000000001,1495.3502980261105,1283.76432,1500.0
6.8784120082855225,141,102.611,1555.4511569070658,1509.9100000000001,1497.2990198722605,1286.4343999999999,1500.0
6.903475999832153,141,102.611,1567.0622106080584,1505.6300000000001,1499.4283581093148,1286.30448,1500.0
6.92853307723999,141,102.611,1578.6732643090511,1503.52,1500.8610331243094,1287.5826,1500.0
6.953646183013916,140,101.5875,1596.7865080825998,1496.75,1502.5309348675862,1290.2366,1500.0
6.978713035583496,140,101.564,1608.3975617835924,1492.3499999999999,1503.6555299243812,1293.16444,1500.0
7.0037901401519775,140,100.5405,1626.5108055571411,1487.95,1504.6561189276497,1298.76612,1500.0
7.028870105743408,139,99.4935,1639.0335419931748,1481.1199999999999,1505.3105695189208,1307.26368,1500.0
7.0539469718933105,138,98.47,1639.0335419931748,1480,1505.5603361852,1315.8468800000001,1500.0
7.078888177871704,138,97.4465,1645.0540883566525,1480,1505.0987322947315,1323.0061600000001,1500.0
7.1041669845581055,138,96.423,1645.0540883566525,1480,1504.2617043345979,1330.2134800000001,1500.0
7.1291539669036865,137,96.3995,1645.0540883566525,1480,1502.686213359081,1333.3888400000001,1500.0
7.154137134552002,137,95.3995,1645.0540883566525,1480,1500.7076898084317,1336.2444,1500.0
7.179119110107422,136,93.376,1639.0335419931748,1480,1498.8697890192723,1340.3761999999999,1500.0
7.204113960266113,136,92.376,1626.5108055571411,1480,1496.8091108131032,1343.24596,1500.0
7.229067087173462,135,92.3525,1620.4902591936634,1480,1494.9454076823861,1342.14392,1500.0
7.254032135009766,136,92.3525,1602.3770154201147,1480,1493.0272874133236,1342.3398399999999,1500.0
7.278993129730225,135,91.3525,1589.854278984081,1480,1491.13432442728,1343.7996799999999,1500.0
7.303959131240845,134,91.3525,1583.8337326206033,1480,1489.4512376874673,1339.78568,1500.0
7.328896999359131,133,91.3525,1577.8131862571258,1480,1488.5195151338164,1334.36364,1500.0
7.353288173675537,133,92.376,1566.2021325561332,1480,1487.5755364679258,1327.5657200000001,1500.0
7.37873911857605,133,92.423,1560.1815861926555,1480,1487.5628933205626,1321.9038800000001,1500.0
7.404158115386963,132,94.4465,1548.5705324916628,1480,1487.9281254653126,1309.5164,1500.0
7.429562091827393,131,95.47,1542.9800251541478,1480,1488.3333512394772,1299.6070400000001,1500.0
7.455214977264404,131,96.517,1537.3895178166326,1480,1488.5564124822442,1289.5218,1500.0
7.480545997619629,131,97.5405,1531.7990104791177,1480,1489.1278053360409,1280.88868,1500.0
7.506395101547241,130,99.564,1531.7990104791177,1480,1489.5421909414583,1268.27332,1500.0
7.531931161880493,129,99.5405,1521.003548034261,1480,1489.9051142215071,1265.174,1500.0
7.5574791431427,129,100.5405,1515.4130406967461,1480,1490.2785586287598,1262.2722800000001,1500.0
7.582836151123047,128,100.517,1509.8225333592311,1480,1490.6391018652339,1263.5642,1500.0
7.608251094818115,127,100.517,1504.6175782518894,1480,1490.8323302627443,1266.3017600000001,1500.0
7.633648157119751,126,101.517,1499.0270709143745,1480,1490.6754920641895,1272.0011999999999,1500.0
7.659723997116089,126,101.5405,1493.8221158070328,1480,1490.6636363331115,1276.0208399999999,1500.0
7.685644149780273,125,101.5405,1488.6171606996911,1480,1490.663347168939,1281.4767200000001,1500.0
7.711074113845825,124,102.564,1483.4122055923494,1480,1490.6746245716715,1282.7408399999999,1500.0
7.736566066741943,123,102.5875,1478.207250485008,1480,1490.6743354074988,1283.77916,1500.0
7.7621071338653564,122,102.611,1473.0022953776663,1480,1490.8533280303568,1284.83168,1500.0
7.78765606880188,122,102.611,1473.0022953776663,1480,1491.0441763842928,1286.01016,1500.0
7.813004016876221,121,102.6345,1467.7973402703246,1480,1491.2000358733403,1285.7665999999999,1500.0
7.838711977005005,119,102.6345,1462.592385162983,1480,1491.3443287954829,1288.4489999999998,1500.0
7.864331007003784,118,101.6345,1462.592385162983,1480,1491.6681926688284,1293.8371999999999,1500.0
7.889767169952393,118,101.6345,1457.3874300556413,1480,1491.957067677286,1296.7311999999999,1500.0
7.915130138397217,117,101.611,1452.5294719554558,1480,1491.9456167760497,1299.6552799999999,1500.0
7.940543174743652,115,99.5875,1452.5294719554558,1480,1492.1121753394846,1307.9590000000001,1500.0
7.966046094894409,114,99.5875,1452.5294719554558,1480,1492.4348825561399,1312.44256,1500.0
7.9916181564331055,113,98.564,1452.5294719554558,1480,1492.6014411195747,1316.7962,1500.0
8.017235040664673,113,98.5875,1452.5294719554558,1480,1492.92414833623,1319.82764,1500.0
8.042902946472168,111,98.5875,1457.7344270627975,1480,1493.7179039900996,1322.8214800000001,1500.0
8.06851601600647,110,98.611,1462.9393821701392,1480,1494.5116596439691,1320.0555199999999,1500.0
8.093937158584595,109,98.6345,1468.1443372774806,1480,1495.3054152978389,1317.2557200000001,1500.0
8.119685173034668,108,97.6345,1468.1443372774806,1480,1496.0757486537254,1315.61832,1500.0
8.145123958587646,107,96.611,1468.1443372774806,1480,1496.6899333563917,1315.5487599999999,1500.0
8.170511960983276,106,95.5875,1473.0022953776663,1480,1497.0136815640683,1316.9849999999999,1500.0
8.19669795036316,105,95.564,1468.1443372774806,1480,1496.8356720993972,1320.07284,1500.0
8.22246503829956,104,94.564,1468.1443372774806,1480,1496.3672261397364,1325.8382799999999,1500.0
8.247838020324707,103,93.564,1468.1443372774806,1480,1495.8987801800756,1331.6356800000001,1500.0
8.273190021514893,103,93.564,1463.2863791772952,1480,1495.2627346659585,1333.3353200000001,1500.0
8.29879117012024,102,92.5405,1458.0814240699535,1480,1494.333650179298,1334.8712,1500.0
8.324165105819702,102,92.5405,1448.0185108624266,1480,1493.5284436241923,1335.0811200000001,1500.0
8.349584102630615,101,91.5405,1442.813555755085,1480,1492.7450978805375,1335.09908,1500.0
8.374989032745361,101,91.5405,1442.813555755085,1480,1491.9851744348655,1332.47704,1500.0
8.400374174118042,101,91.517,1442.813555755085,1480,1491.5167284752049,1331.309,1500.0
8.426253080368042,100,91.517,1442.813555755085,1480,1491.5063185649901,1328.6389200000001,1500.0
8.451318979263306,100,91.517,1447.6715138552704,1480,1492.1215442586779,1326.0008,1500.0
8.476340055465698,100,92.517,1442.813555755085,1480,1492.8596068928989,1319.28268,1500.0
8.501398086547852,100,92.517,1442.813555755085,1480,1493.6195303385709,1315.12456,1500.0
8.526523113250732,101,93.5405,1442.813555755085,1480,1494.2337150412372,1308.1985999999999,1500.0
8.55157208442688,101,93.5405,1442.813555755085,1480,1494.6917510906833,1303.8928000000001,1500.0
8.576635122299194,101,95.5405,1442.813555755085,1480,1494.5564222578923,1294.307,1500.0
8.60169005393982,102,95.564,1442.813555755085,1480,1494.5564222578923,1291.2191600000001,1500.0
8.626811981201172,102,96.5405,1442.813555755085,1483.8399999999999,1494.5564222578923,1285.5815600000001,1500.0
8.65192699432373,102,96.5405,1442.813555755085,1486.0699999999999,1494.5564222578923,1284.01352,1500.0
8.677050113677979,103,96.4935,1442.813555755085,1488.5599999999999,1494.5564222578923,1282.5695599999999,1500.0
8.702250003814697,104,96.47,1442.813555755085,1493.28,1494.7021610008978,1286.7312400000001,1500.0
8.727559089660645,104,96.423,1447.6715138552704,1493.4000000000001,1494.8697605553543,1289.6946,1500.0
8.752772092819214,105,97.3995,1452.8764689626121,1495.95,1495.1950702495631,1292.7577999999999,1500.0
8.777837991714478,105,97.3995,1457.7344270627977,1500.47,1495.6645572002453,1295.6008400000001,1500.0
8.802909135818481,107,98.376,1457.7344270627977,1505.45,1496.1121833394768,1295.73432,1500.0
8.827989101409912,107,99.376,1467.7973402703246,1505.6300000000001,1496.9069799843678,1291.6137999999999,1500.0
8.853003978729248,107,99.376,1473.0022953776663,1507.98,1497.5445869850171,1288.52972,1500.0
8.87805700302124,108,100.376,1478.207250485008,1508.3599999999999,1498.0260453324463,1284.2118,1500.0
8.903088092803955,109,101.376,1483.4122055923494,1510.97,1498.3721748470844,1278.45388,1500.0
8.92815899848938,109,101.376,1488.6171606996911,1506.75,1498.8744530149429,1276.69408,1500.0
8.953184127807617,109,102.376,1493.8221158070328,1504.7,1498.92910504357,1275.1262400000001,1500.0
8.978214979171753,110,102.3525,1499.0270709143745,1505.0799999999999,1498.9733471619825,1274.88436,1500.0
9.003350019454956,110,102.329,1499.0270709143745,1503.03,1498.8380183291915,1276.1482800000001,1500.0
9.028449058532715,111,101.282,1499.0270709143745,1499.01,1498.5361309329658,1282.9480800000001,1500.0
9.053567171096802,111,101.2585,1499.0270709143745,1499.1300000000001,1497.9219462302995,1287.2254800000001,1500.0
9.078569173812866,112,101.2585,1499.0270709143745,1501.6800000000001,1497.2973516174184,1292.9146800000001,1500.0
9.103614091873169,112,101.2585,1499.0270709143745,1499.6300000000001,1496.5166083513172,1298.53808,1500.0
9.12865400314331,113,100.2585,1493.8221158070328,1502.1800000000001,1495.7124427872329,1305.3756800000001,1500.0
9.15369701385498,113,100.2585,1488.6171606996911,1502.3,1494.9082772231486,1306.7216800000001,1500.0
9.178856134414673,114,100.2585,1488.6171606996911,1504.8499999999999,1494.2836826102675,1308.00188,1500.0
9.204492092132568,115,100.282,1488.6171606996911,1505.23,1493.8152366506069,1307.86004,1500.0
9.234877109527588,116,100.282,1488.6171606996911,1510.01,1493.5029393441664,1307.77836,1500.0
9.260101079940796,117,99.3055,1483.4122055923494,1512.6199999999999,1493.3233683929632,1307.5065999999999,1500.0
9.285304069519043,118,99.3055,1483.4122055923494,1519.6300000000001,1493.4795170461832,1307.48696,1500.0
9.310328960418701,119,99.329,1483.4122055923494,1520,1493.6356656994035,1307.43724,1500.0
9.335482120513916,121,100.3525,1483.4122055923494,1520,1493.7918143526238,1304.7794799999999,1500.0
9.360440969467163,122,100.376,1483.4122055923494,1520,1493.947963005844,1303.2878800000001,1500.0
9.385502099990845,123,100.3995,1488.6171606996911,1520,1494.4398312634878,1300.38824,1500.0
9.41047215461731,124,100.3995,1493.8221158070328,1520,1494.9316995211316,1297.5167999999999,1500.0
9.435646057128906,125,100.3995,1493.8221158070328,1520,1495.4001454807924,1294.7111599999998,1500.0
9.460642099380493,128,99.3995,1499.4126231445478,1520,1496.0614639435973,1297.3793599999999,1500.0
9.485811948776245,130,99.3995,1505.0031304820627,1520,1496.8904976265278,1298.91336,1500.0
9.510765075683594,131,99.376,1515.7985929269194,1520,1497.5983715211264,1301.9032399999999,1500.0
9.535834074020386,132,99.376,1532.6146017352537,1520,1498.5255208321701,1304.86492,1500.0
9.560785055160522,135,98.376,1543.4100641801103,1520,1499.7494415579235,1310.4346399999999,1500.0
9.585873126983643,136,98.376,1549.0005715176253,1520,1500.7822247655688,1310.6124,1500.0
9.61080813407898,137,98.3525,1560.611625218618,1520,1501.8550016026286,1310.82024,1500.0
9.635914087295532,139,97.3525,1566.2021325561332,1520,1502.5768221077069,1313.5421200000001,1500.0
9.660974025726318,140,97.329,1577.8131862571258,1520,1502.821254807171,1315.1260400000001,1500.0
9.68600606918335,143,96.282,1589.4242399581185,1520,1502.7662913709732,1316.6458400000001,1500.0
9.710987091064453,144,95.282,1601.946976394152,1520,1502.923397380039,1320.90924,1500.0
9.736037015914917,145,95.282,1607.9675227576297,1520,1502.7029119227484,1323.9068400000001,1500.0
9.761125087738037,146,95.282,1613.9880691211074,1520,1502.6514762894567,1324.1364000000001,1500.0
9.786170959472656,147,95.282,1613.9880691211074,1520,1502.3807652397199,1324.30016,1500.0
9.811187982559204,150,95.282,1620.0086154845851,1520,1501.9449636908093,1322.8923199999999,1500.0
9.836251974105835,151,95.282,1626.0291618480628,1520,1501.1061295667666,1318.6844800000001,1500.0
9.86123013496399,152,94.282,1632.5313519206188,1520,1500.4516273708125,1317.1486,1500.0
9.88623309135437,153,94.282,1645.0540883566523,1520,1500.0063821648916,1315.7727199999999,1500.0
9.91124415397644,155,95.282,1645.0540883566523,1520,1499.8531162560387,1311.7888,1500.0
9.93628716468811,155,95.282,1651.5562784292081,1520,1499.9112747339097,1310.4287999999999,1500.0
9.96124815940857,156,95.282,1651.5562784292081,1520,1499.9546226677269,1310.4287999999999,1500.0
9.98625898361206,157,95.2585,1658.0584685017639,1520,1500.012781145598,1307.69084,1500.0
10.011289119720459,158,95.2585,1664.5606585743196,1520,1499.6952575303883,1304.9246800000001,1500.0
10.036375999450684,159,96.235,1671.0628486468754,1520,1499.572799617355,1302.3805600000001,1500.0
10.06137204170227,159,96.2115,1677.5650387194314,1520,1499.4358923930495,1301.0702799999999,1500.0
10.086389064788818,160,96.2115,1684.0672287919872,1520,1499.6746672618251,1299.7318,1500.0
10.111386060714722,160,97.188,1684.0672287919872,1520,1499.6891165730974,1297.1095599999999,1500.0
10.136420965194702,162,98.188,1684.0672287919872,1520,1499.6891165730974,1293.0191199999999,1500.0
10.161425113677979,162,98.188,1690.569418864543,1520,1499.5233107262472,1291.50288,1500.0
10.186442136764526,162,99.1645,1684.0672287919872,1520,1498.9088537643906,1287.3428799999999,1500.0
10.211501121520996,163,99.1645,1684.0672287919872,1520,1497.9335252535075,1284.3546799999999,1500.0
10.236646175384521,163,100.1645,1677.5650387194314,1520,1496.9289368872976,1281.4926399999999,1500.0
10.261659145355225,163,100.141,1677.5650387194314,1520,1496.1486740785908,1282.69264,1500.0
10.286967039108276,163,101.141,1677.5650387194314,1520,1495.1733455677074,1279.8964000000001,1500.0
10.312016010284424,163,101.1175,1677.5650387194314,1520,1494.7832141633542,1281.1283599999999,1500.0
10.337069034576416,163,102.1175,1677.5650387194314,1514.52,1494.5881484611773,1279.6921199999999,1500.0
10.362213134765625,163,102.1175,1677.5650387194314,1508.01,1494.7832141633542,1280.9278400000001,1500.0
10.387357950210571,163,103.1175,1677.5650387194314,1505.8399999999999,1494.9782798655308,1278.0977599999999,1500.0
10.41248106956482,163,104.141,1677.5650387194314,1503.6700000000001,1495.3684112698841,1276.56564,1500.0
10.437551975250244,163,105.141,1677.5650387194314,1501.5,1495.5634769720607,1272.2278799999999,1500.0
10.46263313293457,163,105.141,1677.5650387194314,1501.5,1495.7585426742373,1271.89012,1500.0
10.487702131271362,163,106.141,1684.0672287919872,1501.5,1495.9828682317407,1267.5523599999999,1500.0
10.512757062911987,163,106.141,1684.0672287919872,1501.5,1496.1779339339173,1267.24656,1500.0
10.538002967834473,162,106.141,1684.0672287919872,1499.0699999999999,1496.3729996360939,1268.4465600000001,1500.0
10.563305139541626,162,107.141,1684.0672287919872,1496.8399999999999,1496.5680653382706,1269.83852,1500.0
10.58840799331665,162,108.141,1684.0672287919872,1494.6099999999999,1496.7631310404472,1268.43048,1500.0
10.61348295211792,161,108.141,1684.0672287919872,1489.95,1496.5680653382706,1271.02244,1500.0
