time,frame,x,y,size_inv,roll,pitch,thrust,yaw
0.00025391578674316406,1,,,,1500.0,1490.0,1400.0,1500
0.021986007690429688,2,,,,1500.0,1490.0,1400.0,1500
0.04328107833862305,3,,,,1500.0,1490.0,1400.0,1500
0.06448101997375488,4,,,,1500.0,1490.0,1400.0,1500
0.08565998077392578,5,,,,1500.0,1490.0,1400.0,1500
0.10665512084960938,6,,,,1500.0,1490.0,1400.0,1500
0.1277151107788086,7,,,,1500.0,1490.0,1400.0,1500
0.1487751007080078,8,,,,1500.0,1490.0,1400.0,1500
0.1699819564819336,9,,,,1500.0,1490.0,1400.0,1500
0.19122910499572754,10,,,,1500.0,1490.0,1400.0,1500
0.21249794960021973,11,,,,1500.0,1490.0,1400.0,1500
0.2339620590209961,12,,,,1500.0,1490.0,1400.0,1500
0.25534796714782715,13,,,,1500.0,1490.0,1400.0,1500
0.27681803703308105,14,,,,1500.0,1490.0,1400.0,1500
0.2982370853424072,15,,,,1500.0,1490.0,1400.0,1500
0.3196558952331543,16,,,,1500.0,1490.0,1400.0,1500
0.3413529396057129,17,,,,1500.0,1490.0,1400.0,1500
0.36287689208984375,18,,,,1500.0,1490.0,1400.0,1500
0.3844749927520752,19,177,9,0.05,1501.7,1530,1415,1500
0.40607690811157227,20,177,21,0.011111111111111112,1501.7,1450,1415,1500
0.42770910263061523,21,183,19,0.002976190476190476,1502.3,1450,1415,1500
0.4493870735168457,22,186,18,0.002288329519450801,1502.5999999999999,1450,1415,1500
0.471235990524292,23,188,20,0.001277139208173691,1502.8,1450,1415,1500
0.4928250312805176,24,191,20,0.0011494252873563218,1503.0999999999999,1450,1415,1500
0.51444411277771,25,194,20,0.001040582726326743,1503.4000000000001,1450,1415,1500
0.5359768867492676,26,196,19,0.0009765625,1503.5999999999999,1450,1415,1500
0.5576269626617432,27,199,18,0.00089126559714795,1503.9000000000001,1450,1415,1500
0.579272985458374,28,204,16,0.0008771929824561404,1504.4000000000001,1450,1415,1500
0.600944995880127,29,204,15,0.00102880658436214,1504.4000000000001,1450,1415,1500
0.6225159168243408,30,206,15,0.0012626262626262627,1504.5999999999999,1450,1415,1500
0.6441740989685059,31,207,13,0.0014285714285714286,1504.7,1450,1415,1500
0.6657650470733643,32,207,13,0.001443001443001443,1504.7,1450,1415,1500
0.6874079704284668,33,209,12,0.001221001221001221,1504.9000000000001,1450,1415,1500
0.7090110778808594,34,210,13,0.0010570824524312897,1505.0,1450,1415,1500
0.730633020401001,35,211,14,0.0008888888888888889,1505.0999999999999,1450,1415,1500
0.7522130012512207,36,209,15,0.0008695652173913044,1504.9000000000001,1450,1415,1500
0.773853063583374,37,207,15,0.0008695652173913044,1504.7,1450,1415,1500
0.7955360412597656,38,205,13,0.0008116883116883117,1504.5,1450,1415,1500
0.8171451091766357,39,203,14,0.0009380863039399625,1504.3,1450,1415,1500
0.8386969566345215,40,200,14,0.0008928571428571428,1504.0,1450,1415,1500
0.860327959060669,41,198,14,0.0008928571428571428,1503.8,1450,1415,1500
0.8818850517272949,42,197,15,0.000949667616334283,1503.7,1450,1415,1500
0.9035420417785645,43,195,15,0.000925925925925926,1503.5,1450,1415,1500
0.9251439571380615,44,193,14,0.0010395010395010396,1503.3,1450,1415,1500
0.9467740058898926,45,191,15,0.0011111111111111111,1503.0999999999999,1450,1415,1500
0.9683630466461182,46,190,15,0.00125,1503.0,1450,1415,1500
0.9899590015411377,47,188,15,0.0013736263736263737,1502.8,1450,1415,1500
1.011620044708252,48,187,15,0.0014792899408284023,1502.7,1450,1415,1500
1.0333359241485596,49,185,16,0.0018115942028985507,1502.5,1450,1415,1500
1.0549559593200684,50,184,17,0.0028011204481792717,1502.4000000000001,1450,1415,1500
1.0765619277954102,51,182,19,0.0034602076124567475,1502.2,1450,1415,1500
1.0981600284576416,52,180,18,0.0030864197530864196,1502.0,1450,1415,1500
1.119884967803955,53,179,21,0.008264462809917356,1501.9000000000001,1450,1415,1500
1.1415901184082031,54,178,24,0.05555555555555555,1501.8,1530,1415,1500
1.163079023361206,55,,,,1500.0,1490.0,1400.0,1500
1.1845629215240479,56,,,,1500.0,1490.0,1400.0,1500
1.2059900760650635,57,,,,1500.0,1490.0,1400.0,1500
1.2274270057678223,58,,,,1500.0,1490.0,1400.0,1500
1.2488980293273926,59,,,,1500.0,1490.0,1400.0,1500
1.270414113998413,60,,,,1500.0,1490.0,1400.0,1500
1.2918260097503662,61,,,,1500.0,1490.0,1400.0,1500
1.313554048538208,62,,,,1500.0,1490.0,1400.0,1500
1.3350939750671387,63,,,,1500.0,1490.0,1400.0,1500
1.3565690517425537,64,,,,1500.0,1490.0,1400.0,1500
1.378061056137085,65,,,,1500.0,1490.0,1400.0,1500
1.3995261192321777,66,,,,1500.0,1490.0,1400.0,1500
1.4209990501403809,67,,,,1500.0,1490.0,1400.0,1500
1.442486047744751,68,,,,1500.0,1490.0,1400.0,1500
1.463886022567749,69,,,,1500.0,1490.0,1400.0,1500
1.4853510856628418,70,,,,1500.0,1490.0,1400.0,1500
1.5068180561065674,71,,,,1500.0,1490.0,1400.0,1500
1.5283620357513428,72,,,,1500.0,1490.0,1400.0,1500
1.5499160289764404,73,,,,1500.0,1490.0,1400.0,1500
1.571666955947876,74,,,,1500.0,1490.0,1400.0,1500
1.5932979583740234,75,,,,1500.0,1490.0,1400.0,1500
1.6147730350494385,76,,,,1500.0,1490.0,1400.0,1500
1.6362109184265137,77,,,,1500.0,1490.0,1400.0,1500
1.6576950550079346,78,,,,1500.0,1490.0,1400.0,1500
1.6791388988494873,79,,,,1500.0,1490.0,1400.0,1500
1.70066499710083,80,,,,1500.0,1490.0,1400.0,1500
1.7221190929412842,81,,,,1500.0,1490.0,1400.0,1500
1.7435998916625977,82,,,,1500.0,1490.0,1400.0,1500
1.765058994293213,83,,,,1500.0,1490.0,1400.0,1500
1.7865428924560547,84,,,,1500.0,1490.0,1400.0,1500
1.8079450130462646,85,,,,1500.0,1490.0,1400.0,1500
1.8294079303741455,86,,,,1500.0,1490.0,1400.0,1500
1.850874900817871,87,,,,1500.0,1490.0,1400.0,1500
1.8723819255828857,88,,,,1500.0,1490.0,1400.0,1500
1.8938989639282227,89,,,,1500.0,1490.0,1400.0,1500
1.9154629707336426,90,,,,1500.0,1490.0,1400.0,1500
1.9369349479675293,91,,,,1500.0,1490.0,1400.0,1500
1.958467960357666,92,,,,1500.0,1490.0,1400.0,1500
1.9800410270690918,93,,,,1500.0,1490.0,1400.0,1500
2.001612901687622,94,,,,1500.0,1490.0,1400.0,1500
2.0230300426483154,95,,,,1500.0,1490.0,1400.0,1500
2.0445001125335693,96,,,,1500.0,1490.0,1400.0,1500
2.0659000873565674,97,,,,1500.0,1490.0,1400.0,1500
2.087369918823242,98,,,,1500.0,1490.0,1400.0,1500
2.1088240146636963,99,,,,1500.0,1490.0,1400.0,1500
2.130345106124878,100,,,,1500.0,1490.0,1400.0,1500
2.151746988296509,101,,,,1500.0,1490.0,1400.0,1500
2.173240900039673,102,,,,1500.0,1490.0,1400.0,1500
2.19474196434021,103,,,,1500.0,1490.0,1400.0,1500
2.2163009643554688,104,,,,1500.0,1490.0,1400.0,1500
2.237790107727051,105,,,,1500.0,1490.0,1400.0,1500
2.2592780590057373,106,,,,1500.0,1490.0,1400.0,1500
2.2807130813598633,107,,,,1500.0,1490.0,1400.0,1500
2.302186965942383,108,,,,1500.0,1490.0,1400.0,1500
2.323591947555542,109,,,,1500.0,1490.0,1400.0,1500
2.3450698852539062,110,,,,1500.0,1490.0,1400.0,1500
2.3665459156036377,111,,,,1500.0,1490.0,1400.0,1500
2.3879880905151367,112,,,,1500.0,1490.0,1400.0,1500
2.409390926361084,113,,,,1500.0,1490.0,1400.0,1500
2.430962085723877,114,,,,1500.0,1490.0,1400.0,1500
2.4524290561676025,115,,,,1500.0,1490.0,1400.0,1500
2.4739201068878174,116,,,,1500.0,1490.0,1400.0,1500
2.495388984680176,117,,,,1500.0,1490.0,1400.0,1500
2.5169339179992676,118,,,,1500.0,1490.0,1400.0,1500
2.5386080741882324,119,,,,1500.0,1490.0,1400.0,1500
2.5600879192352295,120,,,,1500.0,1490.0,1400.0,1500
2.581557035446167,121,,,,1500.0,1490.0,1400.0,1500
2.60298490524292,122,,,,1500.0,1490.0,1400.0,1500
2.624419927597046,123,,,,1500.0,1490.0,1400.0,1500
2.6458420753479004,124,,,,1500.0,1490.0,1400.0,1500
2.6672489643096924,125,,,,1500.0,1490.0,1400.0,1500
2.6887240409851074,126,,,,1500.0,1490.0,1400.0,1500
2.710124969482422,127,,,,1500.0,1490.0,1400.0,1500
2.731590986251831,128,,,,1500.0,1490.0,1400.0,1500
2.7530179023742676,129,,,,1500.0,1490.0,1400.0,1500
2.774519920349121,130,,,,1500.0,1490.0,1400.0,1500
2.795974016189575,131,,,,1500.0,1490.0,1400.0,1500
2.8174989223480225,132,,,,1500.0,1490.0,1400.0,1500
2.838942050933838,133,,,,1500.0,1490.0,1400.0,1500
2.8604650497436523,134,,,,1500.0,1490.0,1400.0,1500
2.8819310665130615,135,,,,1500.0,1490.0,1400.0,1500
2.903470039367676,136,,,,1500.0,1490.0,1400.0,1500
2.9253311157226562,137,,,,1500.0,1490.0,1400.0,1500
2.9482789039611816,138,,,,1500.0,1490.0,1400.0,1500
2.971008062362671,139,,,,1500.0,1490.0,1400.0,1500
2.9937589168548584,140,,,,1500.0,1490.0,1400.0,1500
3.016757011413574,141,,,,1500.0,1490.0,1400.0,1500
3.0395100116729736,142,,,,1500.0,1490.0,1400.0,1500
3.062822103500366,143,,,,1500.0,1490.0,1400.0,1500
3.0856170654296875,144,,,,1500.0,1490.0,1400.0,1500
3.108412981033325,145,,,,1500.0,1490.0,1400.0,1500
3.1311919689178467,146,,,,1500.0,1490.0,1400.0,1500
3.153938055038452,147,,,,1500.0,1490.0,1400.0,1500
3.1766369342803955,148,,,,1500.0,1490.0,1400.0,1500
3.1994500160217285,149,,,,1500.0,1490.0,1400.0,1500
3.222656011581421,150,,,,1500.0,1490.0,1400.0,1500
3.2454710006713867,151,,,,1500.0,1490.0,1400.0,1500
3.268141031265259,152,,,,1500.0,1490.0,1400.0,1500
3.290950059890747,153,,,,1500.0,1490.0,1400.0,1500
3.3137130737304688,154,,,,1500.0,1490.0,1400.0,1500
3.3366150856018066,155,,,,1500.0,1490.0,1400.0,1500
3.3594770431518555,156,,,,1500.0,1490.0,1400.0,1500
3.3827550411224365,157,,,,1500.0,1490.0,1400.0,1500
3.405647039413452,158,,,,1500.0,1490.0,1400.0,1500
3.4285449981689453,159,,,,1500.0,1490.0,1400.0,1500
3.4512441158294678,160,,,,1500.0,1490.0,1400.0,1500
3.4740469455718994,161,,,,1500.0,1490.0,1400.0,1500
3.496906042098999,162,,,,1500.0,1490.0,1400.0,1500
3.519943952560425,163,,,,1500.0,1490.0,1400.0,1500
3.5428640842437744,164,,,,1500.0,1490.0,1400.0,1500
3.565706968307495,165,,,,1500.0,1490.0,1400.0,1500
3.5885701179504395,166,,,,1500.0,1490.0,1400.0,1500
3.6113970279693604,167,,,,1500.0,1490.0,1400.0,1500
3.6340770721435547,168,,,,1500.0,1490.0,1400.0,1500
3.656780958175659,169,,,,1500.0,1490.0,1400.0,1500
3.679490089416504,170,,,,1500.0,1490.0,1400.0,1500
3.7026820182800293,171,,,,1500.0,1490.0,1400.0,1500
3.7254199981689453,172,,,,1500.0,1490.0,1400.0,1500
3.748157024383545,173,,,,1500.0,1490.0,1400.0,1500
3.7708001136779785,174,,,,1500.0,1490.0,1400.0,1500
3.793536901473999,175,,,,1500.0,1490.0,1400.0,1500
3.8161981105804443,176,,,,1500.0,1490.0,1400.0,1500
3.8390328884124756,177,,,,1500.0,1490.0,1400.0,1500
3.861886978149414,178,,,,1500.0,1490.0,1400.0,1500
3.8846371173858643,179,,,,1500.0,1490.0,1400.0,1500
3.9074459075927734,180,,,,1500.0,1490.0,1400.0,1500
3.930227041244507,181,,,,1500.0,1490.0,1400.0,1500
3.9529919624328613,182,,,,1500.0,1490.0,1400.0,1500
3.975825071334839,183,,,,1500.0,1490.0,1400.0,1500
3.9984829425811768,184,,,,1500.0,1490.0,1400.0,1500
4.021334886550903,185,,,,1500.0,1490.0,1400.0,1500
4.044087886810303,186,,,,1500.0,1490.0,1400.0,1500
4.066939115524292,187,,,,1500.0,1490.0,1400.0,1500
4.089898109436035,188,,,,1500.0,1490.0,1400.0,1500
4.112900972366333,189,,,,1500.0,1490.0,1400.0,1500
4.135677099227905,190,,,,1500.0,1490.0,1400.0,1500
4.158453941345215,191,,,,1500.0,1490.0,1400.0,1500
4.181174039840698,192,,,,1500.0,1490.0,1400.0,1500
4.20393705368042,193,,,,1500.0,1490.0,1400.0,1500
4.226608991622925,194,,,,1500.0,1490.0,1400.0,1500
4.249314069747925,195,,,,1500.0,1490.0,1400.0,1500
4.272237062454224,196,,,,1500.0,1490.0,1400.0,1500
4.294910907745361,197,,,,1500.0,1490.0,1400.0,1500
4.317785024642944,198,,,,1500.0,1490.0,1400.0,1500
4.340590000152588,199,,,,1500.0,1490.0,1400.0,1500
4.363234996795654,200,,,,1500.0,1490.0,1400.0,1500
4.38606595993042,201,,,,1500.0,1490.0,1400.0,1500
4.408833980560303,202,,,,1500.0,1490.0,1400.0,1500
4.431634902954102,203,,,,1500.0,1490.0,1400.0,1500
4.4542930126190186,204,,,,1500.0,1490.0,1400.0,1500
4.476970911026001,205,,,,1500.0,1490.0,1400.0,1500
4.4998719692230225,206,,,,1500.0,1490.0,1400.0,1500
4.5227320194244385,207,,,,1500.0,1490.0,1400.0,1500
4.545464992523193,208,,,,1500.0,1490.0,1400.0,1500
4.568203926086426,209,,,,1500.0,1490.0,1400.0,1500
4.59083104133606,210,,,,1500.0,1490.0,1400.0,1500
4.613637924194336,211,,,,1500.0,1490.0,1400.0,1500
4.636328935623169,212,,,,1500.0,1490.0,1400.0,1500
4.6591339111328125,213,,,,1500.0,1490.0,1400.0,1500
4.682060956954956,214,,,,1500.0,1490.0,1400.0,1500
4.704750061035156,215,,,,1500.0,1490.0,1400.0,1500
4.727536916732788,216,,,,1500.0,1490.0,1400.0,1500
4.750415086746216,217,,,,1500.0,1490.0,1400.0,1500
4.773269891738892,218,,,,1500.0,1490.0,1400.0,1500
4.796329021453857,219,,,,1500.0,1490.0,1400.0,1500
4.819004058837891,220,,,,1500.0,1490.0,1400.0,1500
4.841806888580322,221,,,,1500.0,1490.0,1400.0,1500
4.8645501136779785,222,,,,1500.0,1490.0,1400.0,1500
4.887527942657471,223,,,,1500.0,1490.0,1400.0,1500
4.910430908203125,224,,,,1500.0,1490.0,1400.0,1500
4.933236122131348,225,,,,1500.0,1490.0,1400.0,1500
4.956054925918579,226,,,,1500.0,1490.0,1400.0,1500
4.978738069534302,227,,,,1500.0,1490.0,1400.0,1500
5.001619100570679,228,,,,1500.0,1490.0,1400.0,1500
5.024418115615845,229,,,,1500.0,1490.0,1400.0,1500
5.047131061553955,230,,,,1500.0,1490.0,1400.0,1500
5.070044994354248,231,,,,1500.0,1490.0,1400.0,1500
5.092997074127197,232,,,,1500.0,1490.0,1400.0,1500
5.1157920360565186,233,,,,1500.0,1490.0,1400.0,1500
5.138526916503906,234,,,,1500.0,1490.0,1400.0,1500
5.161281108856201,235,,,,1500.0,1490.0,1400.0,1500
5.184118986129761,236,,,,1500.0,1490.0,1400.0,1500
5.206816911697388,237,,,,1500.0,1490.0,1400.0,1500
5.229904890060425,238,,,,1500.0,1490.0,1400.0,1500
5.252810955047607,239,,,,1500.0,1490.0,1400.0,1500
5.275584936141968,240,,,,1500.0,1490.0,1400.0,1500
5.298271894454956,241,,,,1500.0,1490.0,1400.0,1500
5.3210930824279785,242,,,,1500.0,1490.0,1400.0,1500
5.3438239097595215,243,,,,1500.0,1490.0,1400.0,1500
5.366601943969727,244,,,,1500.0,1490.0,1400.0,1500
5.389338970184326,245,,,,1500.0,1490.0,1400.0,1500
5.412523031234741,246,,,,1500.0,1490.0,1400.0,1500
5.435214042663574,247,,,,1500.0,1490.0,1400.0,1500
5.458003997802734,248,,,,1500.0,1490.0,1400.0,1500
5.480664968490601,249,,,,1500.0,1490.0,1400.0,1500
5.503488063812256,250,,,,1500.0,1490.0,1400.0,1500
5.526189088821411,251,,,,1500.0,1490.0,1400.0,1500
5.549087047576904,252,,,,1500.0,1490.0,1400.0,1500
5.572632074356079,253,,,,1500.0,1490.0,1400.0,1500
5.595598936080933,254,,,,1500.0,1490.0,1400.0,1500
5.618335008621216,255,,,,1500.0,1490.0,1400.0,1500
5.641094923019409,256,,,,1500.0,1490.0,1400.0,1500
5.663847923278809,257,,,,1500.0,1490.0,1400.0,1500
5.686660051345825,258,,,,1500.0,1490.0,1400.0,1500
5.7092978954315186,259,,,,1500.0,1490.0,1400.0,1500
5.732312917709351,260,,,,1500.0,1490.0,1400.0,1500
5.7550599575042725,261,,,,1500.0,1490.0,1400.0,1500
5.777965068817139,262,,,,1500.0,1490.0,1400.0,1500
5.8007519245147705,263,,,,1500.0,1490.0,1400.0,1500
5.823508024215698,264,,,,1500.0,1490.0,1400.0,1500
5.8463029861450195,265,,,,1500.0,1490.0,1400.0,1500
5.868948936462402,266,,,,1500.0,1490.0,1400.0,1500
5.891910076141357,267,,,,1500.0,1490.0,1400.0,1500
5.914635896682739,268,,,,1500.0,1490.0,1400.0,1500
5.937401056289673,269,,,,1500.0,1490.0,1400.0,1500
5.960350036621094,270,,,,1500.0,1490.0,1400.0,1500
5.983264923095703,271,,,,1500.0,1490.0,1400.0,1500
6.006069898605347,272,,,,1500.0,1490.0,1400.0,1500
6.0288450717926025,273,,,,1500.0,1490.0,1400.0,1500
6.051778078079224,274,,,,1500.0,1490.0,1400.0,1500
6.074589014053345,275,,,,1500.0,1490.0,1400.0,1500
6.097261905670166,276,,,,1500.0,1490.0,1400.0,1500
6.120198011398315,277,,,,1500.0,1490.0,1400.0,1500
6.143034934997559,278,,,,1500.0,1490.0,1400.0,1500
6.1658220291137695,279,,,,1500.0,1490.0,1400.0,1500
6.188554048538208,280,,,,1500.0,1490.0,1400.0,1500
6.211302042007446,281,,,,1500.0,1490.0,1400.0,1500
6.234086036682129,282,,,,1500.0,1490.0,1400.0,1500
6.256897926330566,283,,,,1500.0,1490.0,1400.0,1500
6.2795679569244385,284,,,,1500.0,1490.0,1400.0,1500
6.302613019943237,285,,,,1500.0,1490.0,1400.0,1500
6.325272083282471,286,,,,1500.0,1490.0,1400.0,1500
6.348088026046753,287,,,,1500.0,1490.0,1400.0,1500
6.370734930038452,288,,,,1500.0,1490.0,1400.0,1500
6.39341402053833,289,,,,1500.0,1490.0,1400.0,1500
6.416414022445679,290,,,,1500.0,1490.0,1400.0,1500
6.439332008361816,291,,,,1500.0,1490.0,1400.0,1500
6.4625608921051025,292,,,,1500.0,1490.0,1400.0,1500
6.485629081726074,293,,,,1500.0,1490.0,1400.0,1500
6.508517026901245,294,,,,1500.0,1490.0,1400.0,1500
6.531491041183472,295,,,,1500.0,1490.0,1400.0,1500
6.5543999671936035,296,,,,1500.0,1490.0,1400.0,1500
6.577307939529419,297,,,,1500.0,1490.0,1400.0,1500
6.6005539894104,298,,,,1500.0,1490.0,1400.0,1500
6.62355899810791,299,,,,1500.0,1490.0,1400.0,1500
6.646483898162842,300,,,,1500.0,1490.0,1400.0,1500
6.669497966766357,301,,,,1500.0,1490.0,1400.0,1500
6.692774057388306,302,,,,1500.0,1490.0,1400.0,1500
6.715727090835571,303,,,,1500.0,1490.0,1400.0,1500
6.738606929779053,304,,,,1500.0,1490.0,1400.0,1500
6.761631011962891,305,,,,1500.0,1490.0,1400.0,1500
6.784532070159912,306,,,,1500.0,1490.0,1400.0,1500
6.807471036911011,307,,,,1500.0,1490.0,1400.0,1500
6.830564022064209,308,,,,1500.0,1490.0,1400.0,1500
6.85379695892334,309,,,,1500.0,1490.0,1400.0,1500
6.876845121383667,310,,,,1500.0,1490.0,1400.0,1500
6.899919033050537,311,,,,1500.0,1490.0,1400.0,1500
6.9230101108551025,312,,,,1500.0,1490.0,1400.0,1500
6.946041107177734,313,,,,1500.0,1490.0,1400.0,1500
6.9690101146698,314,,,,1500.0,1490.0,1400.0,1500
6.992321014404297,315,,,,1500.0,1490.0,1400.0,1500
7.0153539180755615,316,,,,1500.0,1490.0,1400.0,1500
7.038512945175171,317,,,,1500.0,1490.0,1400.0,1500
7.061372995376587,318,,,,1500.0,1490.0,1400.0,1500
7.08447003364563,319,,,,1500.0,1490.0,1400.0,1500
7.107338905334473,320,,,,1500.0,1490.0,1400.0,1500
7.130521059036255,321,,,,1500.0,1490.0,1400.0,1500
7.153394937515259,322,,,,1500.0,1490.0,1400.0,1500
7.17657995223999,323,,,,1500.0,1490.0,1400.0,1500
7.199470043182373,324,,,,1500.0,1490.0,1400.0,1500
7.222875118255615,325,,,,1500.0,1490.0,1400.0,1500
7.245805025100708,326,,,,1500.0,1490.0,1400.0,1500
7.268774032592773,327,,,,1500.0,1490.0,1400.0,1500
7.291601896286011,328,,,,1500.0,1490.0,1400.0,1500
7.31454610824585,329,,,,1500.0,1490.0,1400.0,1500
7.337369918823242,330,,,,1500.0,1490.0,1400.0,1500
7.360450983047485,331,,,,1500.0,1490.0,1400.0,1500
7.383361101150513,332,,,,1500.0,1490.0,1400.0,1500
7.406186103820801,333,,,,1500.0,1490.0,1400.0,1500
7.4289350509643555,334,,,,1500.0,1490.0,1400.0,1500
7.451711893081665,335,,,,1500.0,1490.0,1400.0,1500
7.474406003952026,336,,,,1500.0,1490.0,1400.0,1500
7.497230052947998,337,,,,1500.0,1490.0,1400.0,1500
7.52015495300293,338,,,,1500.0,1490.0,1400.0,1500
7.543026924133301,339,,,,1500.0,1490.0,1400.0,1500
7.565753936767578,340,,,,1500.0,1490.0,1400.0,1500
7.588749885559082,341,,,,1500.0,1490.0,1400.0,1500
7.611480951309204,342,,,,1500.0,1490.0,1400.0,1500
7.634299039840698,343,,,,1500.0,1490.0,1400.0,1500
7.656977891921997,344,,,,1500.0,1490.0,1400.0,1500
7.679959058761597,345,,,,1500.0,1490.0,1400.0,1500
7.7027809619903564,346,,,,1500.0,1490.0,1400.0,1500
7.725466012954712,347,,,,1500.0,1490.0,1400.0,1500
7.748312950134277,348,,,,1500.0,1490.0,1400.0,1500
7.771152973175049,349,,,,1500.0,1490.0,1400.0,1500
7.793885946273804,350,,,,1500.0,1490.0,1400.0,1500
7.816629886627197,351,,,,1500.0,1490.0,1400.0,1500
7.839339017868042,352,,,,1500.0,1490.0,1400.0,1500
7.862450122833252,353,,,,1500.0,1490.0,1400.0,1500
7.8850860595703125,354,,,,1500.0,1490.0,1400.0,1500
7.907761096954346,355,,,,1500.0,1490.0,1400.0,1500
7.930593967437744,356,,,,1500.0,1490.0,1400.0,1500
7.953533887863159,357,,,,1500.0,1490.0,1400.0,1500
7.97631311416626,358,,,,1500.0,1490.0,1400.0,1500
7.99904990196228,359,,,,1500.0,1490.0,1400.0,1500
8.021719932556152,360,,,,1500.0,1490.0,1400.0,1500
8.0454580783844,361,,,,1500.0,1490.0,1400.0,1500
8.068809986114502,362,,,,1500.0,1490.0,1400.0,1500
8.092314958572388,363,,,,1500.0,1490.0,1400.0,1500
8.115586996078491,364,,,,1500.0,1490.0,1400.0,1500
8.138983964920044,365,,,,1500.0,1490.0,1400.0,1500
8.162589073181152,366,,,,1500.0,1490.0,1400.0,1500
8.185832977294922,367,,,,1500.0,1490.0,1400.0,1500
8.209224939346313,368,,,,1500.0,1490.0,1400.0,1500
8.232850074768066,369,,,,1500.0,1490.0,1400.0,1500
8.256117105484009,370,,,,1500.0,1490.0,1400.0,1500
8.279366970062256,371,,,,1500.0,1490.0,1400.0,1500
8.302803993225098,372,,,,1500.0,1490.0,1400.0,1500
8.326101064682007,373,,,,1500.0,1490.0,1400.0,1500
8.349746942520142,374,,,,1500.0,1490.0,1400.0,1500
8.373109102249146,375,,,,1500.0,1490.0,1400.0,1500
8.401607990264893,376,,,,1500.0,1490.0,1400.0,1500
8.4251549243927,377,,,,1500.0,1490.0,1400.0,1500
8.448612928390503,378,,,,1500.0,1490.0,1400.0,1500
8.471960067749023,379,,,,1500.0,1490.0,1400.0,1500
8.495394945144653,380,,,,1500.0,1490.0,1400.0,1500
8.518839120864868,381,,,,1500.0,1490.0,1400.0,1500
8.542407035827637,382,,,,1500.0,1490.0,1400.0,1500
8.565859079360962,383,,,,1500.0,1490.0,1400.0,1500
8.589095115661621,384,,,,1500.0,1490.0,1400.0,1500
8.612567901611328,385,,,,1500.0,1490.0,1400.0,1500
8.636039018630981,386,,,,1500.0,1490.0,1400.0,1500
8.659307956695557,387,,,,1500.0,1490.0,1400.0,1500
8.682899951934814,388,,,,1500.0,1490.0,1400.0,1500
8.706125020980835,389,,,,1500.0,1490.0,1400.0,1500
8.729449033737183,390,,,,1500.0,1490.0,1400.0,1500
8.75298810005188,391,,,,1500.0,1490.0,1400.0,1500
8.776309967041016,392,,,,1500.0,1490.0,1400.0,1500
8.799568891525269,393,,,,1500.0,1490.0,1400.0,1500
8.823180913925171,394,,,,1500.0,1490.0,1400.0,1500
8.846638917922974,395,,,,1500.0,1490.0,1400.0,1500
8.870484113693237,396,,,,1500.0,1490.0,1400.0,1500
8.894105911254883,397,,,,1500.0,1490.0,1400.0,1500
8.916997909545898,398,,,,1500.0,1490.0,1400.0,1500
8.93998098373413,399,,,,1500.0,1490.0,1400.0,1500
8.962999105453491,400,,,,1500.0,1490.0,1400.0,1500
8.985933065414429,401,,,,1500.0,1490.0,1400.0,1500
9.00874400138855,402,,,,1500.0,1490.0,1400.0,1500
9.031532049179077,403,,,,1500.0,1490.0,1400.0,1500
9.054322004318237,404,,,,1500.0,1490.0,1400.0,1500
9.077045917510986,405,,,,1500.0,1490.0,1400.0,1500
9.100187063217163,406,,,,1500.0,1490.0,1400.0,1500
9.1231050491333,407,,,,1500.0,1490.0,1400.0,1500
9.145922899246216,408,,,,1500.0,1490.0,1400.0,1500
9.168649911880493,409,,,,1500.0,1490.0,1400.0,1500
9.191437005996704,410,,,,1500.0,1490.0,1400.0,1500
9.21422004699707,411,,,,1500.0,1490.0,1400.0,1500
9.237185001373291,412,,,,1500.0,1490.0,1400.0,1500
9.260098934173584,413,,,,1500.0,1490.0,1400.0,1500
9.282974004745483,414,,,,1500.0,1490.0,1400.0,1500
9.305612087249756,415,,,,1500.0,1490.0,1400.0,1500
9.32835602760315,416,,,,1500.0,1490.0,1400.0,1500
9.351037979125977,417,,,,1500.0,1490.0,1400.0,1500
9.373852968215942,418,,,,1500.0,1490.0,1400.0,1500
9.396619081497192,419,,,,1500.0,1490.0,1400.0,1500
9.419348955154419,420,,,,1500.0,1490.0,1400.0,1500
9.442369937896729,421,,,,1500.0,1490.0,1400.0,1500
9.465102910995483,422,,,,1500.0,1490.0,1400.0,1500
9.487834930419922,423,,,,1500.0,1490.0,1400.0,1500
9.510663032531738,424,,,,1500.0,1490.0,1400.0,1500
9.533313989639282,425,,,,1500.0,1490.0,1400.0,1500
9.556173086166382,426,,,,1500.0,1490.0,1400.0,1500
9.579169034957886,427,,,,1500.0,1490.0,1400.0,1500
9.602102041244507,428,,,,1500.0,1490.0,1400.0,1500
9.624927997589111,429,,,,1500.0,1490.0,1400.0,1500
9.647711992263794,430,,,,1500.0,1490.0,1400.0,1500
9.67054796218872,431,,,,1500.0,1490.0,1400.0,1500
9.69328498840332,432,,,,1500.0,1490.0,1400.0,1500
9.71591591835022,433,,,,1500.0,1490.0,1400.0,1500
9.738676071166992,434,,,,1500.0,1490.0,1400.0,1500
9.761323928833008,435,,,,1500.0,1490.0,1400.0,1500
9.78402304649353,436,,,,1500.0,1490.0,1400.0,1500
9.806855916976929,437,,,,1500.0,1490.0,1400.0,1500
9.82961106300354,438,,,,1500.0,1490.0,1400.0,1500
9.852843999862671,439,,,,1500.0,1490.0,1400.0,1500
9.875691890716553,440,,,,1500.0,1490.0,1400.0,1500
9.898415088653564,441,,,,1500.0,1490.0,1400.0,1500
9.921145915985107,442,,,,1500.0,1490.0,1400.0,1500
9.943924903869629,443,,,,1500.0,1490.0,1400.0,1500
9.966694116592407,444,,,,1500.0,1490.0,1400.0,1500
9.9894859790802,445,147,49,0.02857142857142857,1498.7,1461.4285714285713,1415,1500
10.012985944747925,446,149,51,0.0625,1498.9000000000001,1530,1415,1500
10.035866022109985,447,149,46,0.023809523809523808,1498.9000000000001,1450,1415,1500
10.058939933776855,448,151,41,0.006535947712418301,1499.0999999999999,1450,1415,1500
10.0819571018219,449,152,39,0.0058823529411764705,1499.2,1450,1415,1500
10.10497498512268,450,154,36,0.004166666666666667,1499.4000000000001,1450,1415,1500
10.127855062484741,451,156,34,0.0033333333333333335,1499.5999999999999,1450,1415,1500
10.151283979415894,452,157,32,0.0029411764705882353,1499.7,1450,1415,1500
10.174206018447876,453,158,32,0.0030959752321981426,1499.8,1450,1415,1500
10.197196006774902,454,159,29,0.0025,1499.9000000000001,1450,1415,1500
10.220345973968506,455,161,28,0.002380952380952381,1500.0999999999999,1450,1415,1500
10.243432998657227,456,163,27,0.0020833333333333333,1500.3,1450,1415,1500
10.26650094985962,457,164,27,0.002105263157894737,1500.4000000000001,1450,1415,1500
10.289434909820557,458,164,26,0.002136752136752137,1500.4000000000001,1450,1415,1500
10.312700033187866,459,164,26,0.002136752136752137,1500.4000000000001,1450,1415,1500
10.335758924484253,460,164,26,0.00205761316872428,1500.4000000000001,1450,1415,1500
10.358699083328247,461,163,26,0.002136752136752137,1500.3,1450,1415,1500
10.38173794746399,462,163,27,0.0018796992481203006,1500.3,1450,1415,1500
10.404737949371338,463,163,27,0.002136752136752137,1500.3,1450,1415,1500
10.427781105041504,464,163,28,0.0020242914979757085,1500.3,1450,1415,1500
10.450756072998047,465,162,29,0.0018796992481203006,1500.2,1450,1415,1500
10.473700046539307,466,162,30,0.001949317738791423,1500.2,1450,1415,1500
10.496807098388672,467,161,30,0.001851851851851852,1500.0999999999999,1450,1415,1500
10.519903898239136,468,161,31,0.001851851851851852,1500.0999999999999,1450,1415,1500
10.543101072311401,469,161,32,0.001763668430335097,1500.0999999999999,1450,1415,1500
10.56600308418274,470,160,33,0.001610305958132045,1500.0,1450,1415,1500
10.588958024978638,471,159,34,0.0015527950310559005,1499.9000000000001,1450,1415,1500
10.612054109573364,472,158,34,0.0016722408026755853,1499.8,1450,1415,1500
10.635119915008545,473,157,35,0.0016025641025641025,1499.7,1450,1415,1500
10.658071041107178,474,158,35,0.001326259946949602,1499.8,1450,1415,1500
10.681003093719482,475,157,35,0.001326259946949602,1499.7,1450,1415,1500
10.70395302772522,476,157,35,0.001282051282051282,1499.7,1450,1415,1500
10.726928949356079,477,157,35,0.0014992503748125937,1499.7,1450,1415,1500
10.750056028366089,478,157,35,0.0013333333333333333,1499.7,1450,1415,1500
10.773236989974976,479,157,33,0.001201923076923077,1499.7,1450,1415,1500
10.79616093635559,480,158,32,0.0011655011655011655,1499.8,1450,1415,1500
10.81917405128479,481,158,30,0.0013020833333333333,1499.8,1450,1415,1500
10.842397928237915,482,158,29,0.0012903225806451613,1499.8,1450,1415,1500
10.865428924560547,483,159,28,0.001402524544179523,1499.9000000000001,1450,1415,1500
10.888372898101807,484,159,26,0.0014492753623188406,1499.9000000000001,1450,1415,1500
10.911473035812378,485,159,25,0.0015625,1499.9000000000001,1450,1415,1500
10.934469938278198,486,160,23,0.0015360983102918587,1500.0,1450,1415,1500
10.957396984100342,487,160,22,0.001644736842105263,1500.0,1450,1415,1500
10.98061203956604,488,159,21,0.001736111111111111,1499.9000000000001,1450,1415,1500
11.003703117370605,489,160,19,0.002028397565922921,1500.0,1450,1415,1500
11.026633024215698,490,160,18,0.0021551724137931034,1500.0,1450,1415,1500
11.049628973007202,491,159,17,0.0020833333333333333,1499.9000000000001,1450,1415,1500
11.072977066040039,492,160,17,0.0022988505747126436,1500.0,1450,1415,1500
11.095839977264404,493,159,17,0.0022222222222222222,1499.9000000000001,1450,1415,1500
11.119024991989136,494,159,17,0.002380952380952381,1499.9000000000001,1450,1415,1500
11.141927003860474,495,159,17,0.0022988505747126436,1499.9000000000001,1450,1415,1500
11.165008068084717,496,159,17,0.0024630541871921183,1499.9000000000001,1450,1415,1500
11.187999963760376,497,159,17,0.0024630541871921183,1499.9000000000001,1450,1415,1500
11.211138010025024,498,159,18,0.0021551724137931034,1499.9000000000001,1450,1415,1500
11.234080076217651,499,158,19,0.002232142857142857,1499.8,1450,1415,1500
11.257086038589478,500,158,20,0.0021551724137931034,1499.8,1450,1415,1500
11.280194997787476,501,158,21,0.002028397565922921,1499.8,1450,1415,1500
11.303477048873901,502,158,22,0.0019157088122605363,1499.8,1450,1415,1500
11.326534986495972,503,156,23,0.001984126984126984,1499.5999999999999,1450,1415,1500
11.35019302368164,504,156,24,0.001949317738791423,1499.5999999999999,1450,1415,1500
11.373482942581177,505,154,24,0.002136752136752137,1499.4000000000001,1450,1415,1500
11.39651107788086,506,154,26,0.00205761316872428,1499.4000000000001,1450,1415,1500
11.419410943984985,507,153,27,0.0020242914979757085,1499.3,1450,1415,1500
11.442845106124878,508,153,27,0.002136752136752137,1499.3,1450,1415,1500
11.465943098068237,509,153,28,0.001949317738791423,1499.3,1450,1415,1500
11.48904299736023,510,152,28,0.002136752136752137,1499.2,1450,1415,1500
11.511958122253418,511,154,28,0.0018148820326678765,1499.4000000000001,1450,1415,1500
11.535059928894043,512,152,28,0.0022624434389140274,1499.2,1450,1415,1500
11.55811095237732,513,153,28,0.0021008403361344537,1499.3,1450,1415,1500
11.581487894058228,514,152,28,0.0021008403361344537,1499.2,1450,1415,1500
11.604476928710938,515,152,28,0.0023148148148148147,1499.2,1450,1415,1500
11.627537965774536,516,152,28,0.0023148148148148147,1499.2,1450,1415,1500
11.650646924972534,517,151,28,0.0023148148148148147,1499.0999999999999,1450,1415,1500
11.673737049102783,518,151,28,0.0023148148148148147,1499.0999999999999,1450,1415,1500
11.696850061416626,519,150,28,0.0023148148148148147,1499.0,1450,1415,1500
11.719990015029907,520,150,29,0.0024691358024691358,1499.0,1450,1415,1500
11.743268966674805,521,149,29,0.002403846153846154,1498.9000000000001,1450,1415,1500
11.766371965408325,522,147,31,0.0022624434389140274,1498.7,1450,1415,1500
11.789484024047852,523,147,32,0.0020242914979757085,1498.7,1450,1415,1500
11.81291389465332,524,146,32,0.001851851851851852,1498.5999999999999,1450,1415,1500
11.835942029953003,525,145,33,0.0017482517482517483,1498.5,1450,1415,1500
11.858935117721558,526,145,34,0.0015151515151515152,1498.5,1450,1415,1500
11.881846904754639,527,144,34,0.001388888888888889,1498.4000000000001,1450,1415,1500
11.904834032058716,528,144,35,0.001282051282051282,1498.4000000000001,1450,1415,1500
11.927724123001099,529,143,36,0.001736111111111111,1498.3,1450,1415,1500
11.950956106185913,530,141,37,0.001976284584980237,1498.0999999999999,1450,1415,1500
11.973978042602539,531,140,37,0.001976284584980237,1498.0,1450,1415,1500
11.99697208404541,532,137,39,0.001976284584980237,1497.7,1450,1415,1500
12.020056962966919,533,137,40,0.0016666666666666668,1497.7,1450,1415,1500
12.043195962905884,534,136,41,0.001610305958132045,1497.5999999999999,1450,1415,1500
12.06616497039795,535,135,41,0.001984126984126984,1497.5,1450,1415,1500
12.08919906616211,536,135,42,0.0022727272727272726,1497.5,1450,1415,1500
12.112243890762329,537,134,41,0.0020833333333333333,1497.4000000000001,1450,1415,1500
12.135422945022583,538,133,42,0.002173913043478261,1497.3,1450,1415,1500
12.158482074737549,539,132,45,0.00267379679144385,1497.2,1450,1415,1500
12.181462049484253,540,130,43,0.001976284584980237,1497.0,1450,1415,1500
12.204422950744629,541,130,44,0.0018115942028985507,1497.0,1450,1415,1500
12.227519035339355,542,129,46,0.0021929824561403508,1496.9000000000001,1450,1415,1500
12.250581979751587,543,129,44,0.0018115942028985507,1496.9000000000001,1450,1415,1500
12.273847103118896,544,127,44,0.001893939393939394,1496.7,1450,1415,1500
12.296818971633911,545,128,44,0.001736111111111111,1496.8,1450,1415,1500
12.319880962371826,546,126,44,0.0018181818181818182,1496.5999999999999,1450,1415,1500
12.342960119247437,547,126,44,0.0019047619047619048,1496.5999999999999,1450,1415,1500
12.366038084030151,548,125,44,0.0018181818181818182,1496.5,1450,1415,1500
12.388982057571411,549,125,44,0.001976284584980237,1496.5,1450,1415,1500
12.411926031112671,550,124,43,0.002,1496.4000000000001,1450,1415,1500
12.43504810333252,551,126,45,0.001890359168241966,1496.5999999999999,1450,1415,1500
12.457984924316406,552,124,42,0.002105263157894737,1496.4000000000001,1450,1415,1500
12.480969905853271,553,124,44,0.001890359168241966,1496.4000000000001,1450,1415,1500
12.503973007202148,554,122,42,0.0018181818181818182,1496.2,1450,1415,1500
12.527064085006714,555,122,42,0.001610305958132045,1496.2,1450,1415,1500
12.550663948059082,556,123,44,0.0016666666666666668,1496.3,1450,1415,1500
12.573725938796997,557,123,44,0.0018181818181818182,1496.3,1450,1415,1500
12.596817016601562,558,123,43,0.0014814814814814814,1496.3,1450,1415,1500
12.619908094406128,559,121,42,0.0016233766233766235,1496.0999999999999,1450,1415,1500
12.643064975738525,560,122,43,0.001984126984126984,1496.2,1450,1415,1500
12.66598105430603,561,122,42,0.0017482517482517483,1496.2,1450,1415,1500
12.689142942428589,562,122,43,0.0021645021645021645,1496.2,1450,1415,1500
12.712253093719482,563,124,42,0.0016666666666666668,1496.4000000000001,1450,1415,1500
12.735266923904419,564,124,41,0.0016666666666666668,1496.4000000000001,1450,1415,1500
12.758129119873047,565,123,42,0.001890359168241966,1496.3,1450,1415,1500
12.781146049499512,566,124,40,0.0014245014245014246,1496.4000000000001,1450,1415,1500
12.804142951965332,567,123,40,0.0016025641025641025,1496.3,1450,1415,1500
12.827213048934937,568,124,43,0.001890359168241966,1496.4000000000001,1450,1415,1500
12.850353002548218,569,124,41,0.0016722408026755853,1496.4000000000001,1450,1415,1500
12.873516082763672,570,124,42,0.001893939393939394,1496.4000000000001,1450,1415,1500
12.896460056304932,571,127,42,0.0015432098765432098,1496.7,1450,1415,1500
12.919389963150024,572,128,42,0.0016722408026755853,1496.8,1450,1415,1500
12.9427330493927,573,128,43,0.0014814814814814814,1496.8,1450,1415,1500
12.965662956237793,574,127,45,0.0016666666666666668,1496.7,1450,1415,1500
12.988539934158325,575,127,45,0.0016,1496.7,1450,1415,1500
13.011625051498413,576,127,45,0.0017482517482517483,1496.7,1450,1415,1500
13.034516096115112,577,127,45,0.002066115702479339,1496.7,1450,1415,1500
13.057468891143799,578,125,46,0.0020833333333333333,1496.5,1450,1415,1500
13.080666065216064,579,124,48,0.0023923444976076554,1496.4000000000001,1450,1415,1500
13.103928089141846,580,123,48,0.0025252525252525255,1496.3,1450,1415,1500
13.126914024353027,581,123,51,0.002288329519450801,1496.3,1450,1415,1500
13.150109052658081,582,122,51,0.002840909090909091,1496.2,1450,1415,1500
13.173265933990479,583,122,52,0.0024154589371980675,1496.2,1450,1415,1500
13.196157932281494,584,122,54,0.0025575447570332483,1496.2,1450,1415,1500
13.21908688545227,585,121,54,0.0024154589371980675,1496.0999999999999,1450,1415,1500
13.24238395690918,586,121,55,0.002898550724637681,1496.0999999999999,1450,1415,1500
13.265314102172852,587,118,57,0.003246753246753247,1495.8,1450,1415,1500
13.288402080535889,588,118,58,0.003105590062111801,1495.8,1450,1415,1500
13.311352014541626,589,116,59,0.003246753246753247,1495.5999999999999,1450,1415,1500
13.334465980529785,590,114,60,0.0033333333333333335,1495.4000000000001,1450,1415,1500
13.357855081558228,591,114,61,0.0033333333333333335,1495.4000000000001,1450,1415,1500
13.380928039550781,592,113,61,0.003968253968253968,1495.3,1450,1415,1500
13.403857946395874,593,112,61,0.004464285714285714,1495.2,1450,1415,1500
13.426937103271484,594,113,61,0.004464285714285714,1495.3,1450,1415,1500
13.4499831199646,595,113,62,0.00392156862745098,1495.3,1450,1415,1500
13.473257064819336,596,115,62,0.005494505494505495,1495.5,1450,1415,1500
13.496119022369385,597,114,62,0.005917159763313609,1495.4000000000001,1450,1415,1500
13.519146919250488,598,115,62,0.00641025641025641,1495.5,1450,1415,1500
13.542382955551147,599,117,62,0.007575757575757576,1495.7,1450,1415,1500
13.565438032150269,600,116,62,0.011363636363636364,1495.5999999999999,1450,1415,1500
13.588742017745972,601,118,60,0.02040816326530612,1495.8,1450,1415,1500
13.611862897872925,602,119,58,0.03571428571428571,1495.9000000000001,1530,1415,1500
13.634838104248047,603,122,58,0.0625,1496.2,1530,1415,1500
13.657963037490845,604,121,58,0.041666666666666664,1496.0999999999999,1530,1415,1500
13.680756092071533,605,,,,1500.0,1490.0,1400.0,1500
13.703496932983398,606,,,,1500.0,1490.0,1400.0,1500
13.726201057434082,607,,,,1500.0,1490.0,1400.0,1500
13.749176025390625,608,125,57,0.03571428571428571,1496.5,1530,1415,1500
13.772767066955566,609,126,58,0.017857142857142856,1496.5999999999999,1450,1415,1500
13.795897960662842,610,127,58,0.017857142857142856,1496.7,1450,1415,1500
13.819031000137329,611,128,58,0.0125,1496.8,1450,1415,1500
13.84200406074524,612,130,58,0.011363636363636364,1497.0,1450,1415,1500
13.864912033081055,613,132,58,0.011904761904761904,1497.2,1450,1415,1500
13.887911081314087,614,135,57,0.006493506493506494,1497.5,1450,1415,1500
13.910789966583252,615,136,57,0.006944444444444444,1497.5999999999999,1450,1415,1500
13.933876991271973,616,139,56,0.005494505494505495,1497.9000000000001,1450,1415,1500
13.956983089447021,617,140,56,0.00510204081632653,1498.0,1450,1415,1500
13.980118036270142,618,143,56,0.0044444444444444444,1498.3,1450,1415,1500
14.00333309173584,619,144,56,0.00510204081632653,1498.4000000000001,1450,1415,1500
14.026401042938232,620,145,58,0.003472222222222222,1498.5,1450,1415,1500
14.049402952194214,621,147,58,0.003125,1498.7,1450,1415,1500
14.072801113128662,622,149,58,0.002976190476190476,1498.9000000000001,1450,1415,1500
14.095705032348633,623,149,58,0.0030959752321981426,1498.9000000000001,1450,1415,1500
14.11875605583191,624,150,58,0.002840909090909091,1499.0,1450,1415,1500
14.141693115234375,625,151,58,0.002777777777777778,1499.0999999999999,1450,1415,1500
14.164802074432373,626,152,58,0.003076923076923077,1499.2,1450,1415,1500
14.187730073928833,627,153,58,0.003076923076923077,1499.3,1450,1415,1500
14.210654973983765,628,153,57,0.003472222222222222,1499.3,1450,1415,1500
14.233643054962158,629,154,57,0.003472222222222222,1499.4000000000001,1450,1415,1500
14.256556034088135,630,155,57,0.0036231884057971015,1499.5,1450,1415,1500
14.279444932937622,631,154,57,0.003472222222222222,1499.4000000000001,1450,1415,1500
14.30290699005127,632,154,58,0.003787878787878788,1499.4000000000001,1450,1415,1500
14.325906991958618,633,154,57,0.003472222222222222,1499.4000000000001,1450,1415,1500
14.349477052688599,634,153,57,0.003472222222222222,1499.3,1450,1415,1500
14.37282395362854,635,153,58,0.0036363636363636364,1499.3,1450,1415,1500
14.396028995513916,636,149,58,0.0033444816053511705,1498.9000000000001,1450,1415,1500
14.419169902801514,637,149,58,0.003401360544217687,1498.9000000000001,1450,1415,1500
14.44311809539795,638,146,59,0.0035087719298245615,1498.5999999999999,1450,1415,1500
14.466742038726807,639,143,59,0.0033444816053511705,1498.3,1450,1415,1500
14.490094900131226,640,141,59,0.0033444816053511705,1498.0999999999999,1450,1415,1500
14.51344895362854,641,140,59,0.0033444816053511705,1498.0,1450,1415,1500
14.536678075790405,642,138,59,0.0033444816053511705,1497.8,1450,1415,1500
14.559897899627686,643,135,59,0.0029585798816568047,1497.5,1450,1415,1500
14.583235025405884,644,133,59,0.002976190476190476,1497.3,1450,1415,1500
14.606306076049805,645,131,59,0.003246753246753247,1497.0999999999999,1450,1415,1500
14.629525899887085,646,130,60,0.0034965034965034965,1497.0,1450,1415,1500
14.652786016464233,647,130,60,0.004048582995951417,1497.0,1450,1415,1500
14.67596697807312,648,128,60,0.004273504273504274,1496.8,1450,1415,1500
14.69913101196289,649,127,60,0.004901960784313725,1496.7,1450,1415,1500
14.722784996032715,650,127,61,0.006993006993006993,1496.7,1450,1415,1500
14.746018886566162,651,125,62,0.006993006993006993,1496.5,1450,1415,1500
14.769256114959717,652,125,62,0.009615384615384616,1496.5,1450,1415,1500
14.792570114135742,653,125,62,0.010101010101010102,1496.5,1450,1415,1500
14.815651893615723,654,,,,1500.0,1490.0,1400.0,1500
14.838675022125244,655,,,,1500.0,1490.0,1400.0,1500
14.861921072006226,656,,,,1500.0,1490.0,1400.0,1500
14.884974956512451,657,,,,1500.0,1490.0,1400.0,1500
14.907893896102905,658,,,,1500.0,1490.0,1400.0,1500
14.930927038192749,659,,,,1500.0,1490.0,1400.0,1500
14.953938961029053,660,,,,1500.0,1490.0,1400.0,1500
14.976880073547363,661,,,,1500.0,1490.0,1400.0,1500
14.999907970428467,662,,,,1500.0,1490.0,1400.0,1500
15.023054122924805,663,,,,1500.0,1490.0,1400.0,1500
15.046082973480225,664,,,,1500.0,1490.0,1400.0,1500
15.06951093673706,665,127,58,0.05555555555555555,1496.7,1530,1415,1500
15.092994928359985,666,127,57,0.03333333333333333,1496.7,1530,1415,1500
15.1162109375,667,127,56,0.05,1496.7,1530,1415,1500
15.139458894729614,668,129,61,0.041666666666666664,1496.9000000000001,1530,1415,1500
15.16277003288269,669,129,61,0.05,1496.9000000000001,1530,1415,1500
15.185920000076294,670,129,61,0.014285714285714285,1496.9000000000001,1450,1415,1500
15.209043979644775,671,129,60,0.011904761904761904,1496.9000000000001,1450,1415,1500
15.232556104660034,672,128,60,0.009615384615384616,1496.8,1450,1415,1500
15.255693912506104,673,128,60,0.009615384615384616,1496.8,1450,1415,1500
15.278860092163086,674,128,61,0.0125,1496.8,1450,1415,1500
15.302160024642944,675,129,63,0.047619047619047616,1496.9000000000001,1530,1415,1500
15.325237035751343,676,,,,1500.0,1490.0,1400.0,1500
15.348148107528687,677,,,,1500.0,1490.0,1400.0,1500
15.37130093574524,678,,,,1500.0,1490.0,1400.0,1500
15.394153118133545,679,,,,1500.0,1490.0,1400.0,1500
15.417120933532715,680,,,,1500.0,1490.0,1400.0,1500
15.440161943435669,681,,,,1500.0,1490.0,1400.0,1500
15.463316917419434,682,,,,1500.0,1490.0,1400.0,1500
15.486227989196777,683,,,,1500.0,1490.0,1400.0,1500
15.509035110473633,684,,,,1500.0,1490.0,1400.0,1500
15.531901121139526,685,,,,1500.0,1490.0,1400.0,1500
15.554718971252441,686,,,,1500.0,1490.0,1400.0,1500
15.577692031860352,687,,,,1500.0,1490.0,1400.0,1500
15.600481033325195,688,,,,1500.0,1490.0,1400.0,1500
15.623275995254517,689,,,,1500.0,1490.0,1400.0,1500
15.646037101745605,690,,,,1500.0,1490.0,1400.0,1500
15.668684959411621,691,,,,1500.0,1490.0,1400.0,1500
15.69152307510376,692,,,,1500.0,1490.0,1400.0,1500
15.714298009872437,693,,,,1500.0,1490.0,1400.0,1500
15.737065076828003,694,,,,1500.0,1490.0,1400.0,1500
15.75990891456604,695,127,58,0.05,1496.7,1530,1415,1500
15.783010005950928,696,127,58,0.03333333333333333,1496.7,1530,1415,1500
15.806073904037476,697,129,62,0.014285714285714285,1496.9000000000001,1450,1415,1500
15.829010009765625,698,128,61,0.006993006993006993,1496.8,1450,1415,1500
15.851912021636963,699,127,60,0.005952380952380952,1496.7,1450,1415,1500
15.87502908706665,700,129,60,0.004273504273504274,1496.9000000000001,1450,1415,1500
15.897965908050537,701,131,59,0.004048582995951417,1497.0999999999999,1450,1415,1500
15.920953035354614,702,131,58,0.003968253968253968,1497.0999999999999,1450,1415,1500
15.943872928619385,703,132,58,0.0038461538461538464,1497.2,1450,1415,1500
15.966798067092896,704,133,57,0.0035714285714285713,1497.3,1450,1415,1500
15.989918947219849,705,135,57,0.003401360544217687,1497.5,1450,1415,1500
16.01291298866272,706,136,57,0.003246753246753247,1497.5999999999999,1450,1415,1500
16.036001920700073,707,138,57,0.002976190476190476,1497.8,1450,1415,1500
16.05894708633423,708,139,57,0.003105590062111801,1497.9000000000001,1450,1415,1500
16.081942081451416,709,140,56,0.002976190476190476,1498.0,1450,1415,1500
16.10502004623413,710,141,56,0.002777777777777778,1498.0999999999999,1450,1415,1500
16.127933979034424,711,141,56,0.002976190476190476,1498.0999999999999,1450,1415,1500
16.1510488986969,712,142,56,0.003076923076923077,1498.2,1450,1415,1500
16.17396903038025,713,143,54,0.0023148148148148147,1498.3,1450,1415,1500
16.196932077407837,714,143,53,0.002403846153846154,1498.3,1450,1415,1500
16.21990203857422,715,143,54,0.0026666666666666666,1498.3,1450,1415,1500
16.242913007736206,716,143,52,0.0026041666666666665,1498.3,1450,1415,1500
16.265872955322266,717,143,51,0.002976190476190476,1498.3,1450,1415,1500
16.288816928863525,718,144,51,0.003076923076923077,1498.4000000000001,1450,1415,1500
16.311723947525024,719,144,50,0.0033333333333333335,1498.4000000000001,1450,1415,1500
16.334747076034546,720,143,50,0.0029585798816568047,1498.3,1450,1415,1500
16.357742071151733,721,142,49,0.003105590062111801,1498.2,1450,1415,1500
16.380681037902832,722,142,49,0.003105590062111801,1498.2,1450,1415,1500
16.403608083724976,723,143,49,0.002564102564102564,1498.3,1450,1415,1500
16.426647901535034,724,144,49,0.0024691358024691358,1498.4000000000001,1450,1415,1500
16.450026988983154,725,144,49,0.002564102564102564,1498.4000000000001,1450,1415,1500
16.473103046417236,726,144,49,0.0027472527472527475,1498.4000000000001,1450,1415,1500
16.496159076690674,727,143,49,0.002717391304347826,1498.3,1450,1415,1500
16.51908802986145,728,143,49,0.0026041666666666665,1498.3,1450,1415,1500
16.541996955871582,729,144,49,0.002403846153846154,1498.4000000000001,1450,1415,1500
16.56506109237671,730,144,49,0.0023148148148148147,1498.4000000000001,1450,1415,1500
16.58796501159668,731,142,49,0.002898550724637681,1498.2,1450,1415,1500
16.610908031463623,732,142,49,0.002898550724637681,1498.2,1450,1415,1500
16.63392210006714,733,142,49,0.002564102564102564,1498.2,1450,1415,1500
16.656836986541748,734,141,49,0.002898550724637681,1498.0999999999999,1450,1415,1500
16.679841995239258,735,141,49,0.002564102564102564,1498.0999999999999,1450,1415,1500
16.702842950820923,736,140,49,0.0026041666666666665,1498.0,1450,1415,1500
16.72576403617859,737,140,49,0.002403846153846154,1498.0,1450,1415,1500
16.748836994171143,738,140,49,0.002352941176470588,1498.0,1450,1415,1500
16.77175807952881,739,139,49,0.0025575447570332483,1497.9000000000001,1450,1415,1500
16.79470205307007,740,138,49,0.0024509803921568627,1497.8,1450,1415,1500
16.817864894866943,741,138,49,0.0023148148148148147,1497.8,1450,1415,1500
16.8408260345459,742,137,50,0.0024509803921568627,1497.7,1450,1415,1500
16.863768100738525,743,138,49,0.002136752136752137,1497.8,1450,1415,1500
16.886812925338745,744,138,49,0.002136752136752137,1497.8,1450,1415,1500
16.909908056259155,745,138,50,0.0022624434389140274,1497.8,1450,1415,1500
16.933175086975098,746,138,50,0.0025575447570332483,1497.8,1450,1415,1500
16.956125020980835,747,138,50,0.0022624434389140274,1497.8,1450,1415,1500
16.979063034057617,748,139,50,0.0022624434389140274,1497.9000000000001,1450,1415,1500
17.002116918563843,749,139,50,0.0022624434389140274,1497.9000000000001,1450,1415,1500
17.025110006332397,750,140,50,0.0022624434389140274,1498.0,1450,1415,1500
17.048135995864868,751,141,50,0.0023148148148148147,1498.0999999999999,1450,1415,1500
17.071155071258545,752,141,51,0.0022624434389140274,1498.0999999999999,1450,1415,1500
17.094072103500366,753,142,51,0.0022624434389140274,1498.2,1450,1415,1500
17.11701011657715,754,142,51,0.0023148148148148147,1498.2,1450,1415,1500
17.140079021453857,755,142,51,0.002403846153846154,1498.2,1450,1415,1500
17.16330599784851,756,143,51,0.002403846153846154,1498.3,1450,1415,1500
17.186357021331787,757,143,51,0.0023148148148148147,1498.3,1450,1415,1500
17.209350109100342,758,144,52,0.002178649237472767,1498.4000000000001,1450,1415,1500
17.232625007629395,759,144,52,0.0022624434389140274,1498.4000000000001,1450,1415,1500
17.255638122558594,760,145,52,0.002178649237472767,1498.5,1450,1415,1500
17.278621912002563,761,145,52,0.0023148148148148147,1498.5,1450,1415,1500
17.301640033721924,762,145,52,0.002403846153846154,1498.5,1450,1415,1500
17.32454490661621,763,146,53,0.0022624434389140274,1498.5999999999999,1450,1415,1500
17.34753108024597,764,146,53,0.0022624434389140274,1498.5999999999999,1450,1415,1500
17.37058401107788,765,147,53,0.002178649237472767,1498.7,1450,1415,1500
17.393821954727173,766,147,53,0.002178649237472767,1498.7,1450,1415,1500
17.41671895980835,767,148,53,0.002178649237472767,1498.8,1450,1415,1500
17.43987202644348,768,149,53,0.002136752136752137,1498.9000000000001,1450,1415,1500
17.46297001838684,769,150,54,0.002178649237472767,1499.0,1450,1415,1500
17.486053943634033,770,150,54,0.0022624434389140274,1499.0,1450,1415,1500
17.508918046951294,771,151,54,0.002178649237472767,1499.0999999999999,1450,1415,1500
17.53202795982361,772,152,55,0.002178649237472767,1499.2,1450,1415,1500
17.555207014083862,773,152,55,0.0022624434389140274,1499.2,1450,1415,1500
17.578541040420532,774,153,56,0.002178649237472767,1499.3,1450,1415,1500
17.60158610343933,775,153,56,0.002136752136752137,1499.3,1450,1415,1500
17.62463903427124,776,154,58,0.002403846153846154,1499.4000000000001,1450,1415,1500
17.647928953170776,777,155,59,0.002178649237472767,1499.5,1450,1415,1500
17.670841932296753,778,155,60,0.00205761316872428,1499.5,1450,1415,1500
17.69394302368164,779,155,60,0.002136752136752137,1499.5,1450,1415,1500
17.716847896575928,780,155,61,0.002136752136752137,1499.5,1450,1415,1500
17.739975929260254,781,156,62,0.001949317738791423,1499.5999999999999,1450,1415,1500
17.763322114944458,782,156,62,0.0020242914979757085,1499.5999999999999,1450,1415,1500
17.78635597229004,783,157,62,0.00205761316872428,1499.7,1450,1415,1500
17.80930495262146,784,157,62,0.001949317738791423,1499.7,1450,1415,1500
17.832528114318848,785,158,61,0.00205761316872428,1499.8,1450,1415,1500
17.855613946914673,786,158,61,0.00205761316872428,1499.8,1450,1415,1500
17.87853693962097,787,158,61,0.002178649237472767,1499.8,1450,1415,1500
17.901598930358887,788,158,61,0.002178649237472767,1499.8,1450,1415,1500
17.92447304725647,789,158,61,0.0022624434389140274,1499.8,1450,1415,1500
17.947475910186768,790,158,61,0.002178649237472767,1499.8,1450,1415,1500
17.970622062683105,791,159,61,0.002178649237472767,1499.9000000000001,1450,1415,1500
17.993947982788086,792,158,60,0.002232142857142857,1499.8,1450,1415,1500
18.016841888427734,793,158,61,0.0022624434389140274,1499.8,1450,1415,1500
18.04002594947815,794,158,61,0.0021008403361344537,1499.8,1450,1415,1500
18.06308889389038,795,158,61,0.0022624434389140274,1499.8,1450,1415,1500
18.086108922958374,796,158,61,0.002403846153846154,1499.8,1450,1415,1500
18.109110116958618,797,158,61,0.002178649237472767,1499.8,1450,1415,1500
18.13242197036743,798,158,61,0.0023148148148148147,1499.8,1450,1415,1500
18.15543794631958,799,157,61,0.0022624434389140274,1499.7,1450,1415,1500
18.178571939468384,800,157,61,0.0023148148148148147,1499.7,1450,1415,1500
18.201637029647827,801,156,61,0.0021008403361344537,1499.5999999999999,1450,1415,1500
18.224618911743164,802,156,61,0.002178649237472767,1499.5999999999999,1450,1415,1500
18.247581958770752,803,156,61,0.002178649237472767,1499.5999999999999,1450,1415,1500
18.27066397666931,804,155,61,0.0021008403361344537,1499.5,1450,1415,1500
18.29371404647827,805,155,61,0.002178649237472767,1499.5,1450,1415,1500
18.316633939743042,806,154,61,0.0021008403361344537,1499.4000000000001,1450,1415,1500
18.339597940444946,807,155,61,0.002178649237472767,1499.5,1450,1415,1500
18.362947940826416,808,154,61,0.002178649237472767,1499.4000000000001,1450,1415,1500
18.385886907577515,809,154,61,0.002178649237472767,1499.4000000000001,1450,1415,1500
18.408790111541748,810,154,61,0.002178649237472767,1499.4000000000001,1450,1415,1500
18.431735038757324,811,153,61,0.0022624434389140274,1499.3,1450,1415,1500
18.454814910888672,812,153,61,0.002178649237472767,1499.3,1450,1415,1500
18.477756023406982,813,153,61,0.002178649237472767,1499.3,1450,1415,1500
18.50075888633728,814,153,61,0.002178649237472767,1499.3,1450,1415,1500
18.52376699447632,815,152,61,0.002178649237472767,1499.2,1450,1415,1500
18.546847105026245,816,152,60,0.002178649237472767,1499.2,1450,1415,1500
18.57014799118042,817,151,60,0.0021008403361344537,1499.0999999999999,1450,1415,1500
18.593390941619873,818,152,60,0.0023148148148148147,1499.2,1450,1415,1500
18.61641812324524,819,151,61,0.0022624434389140274,1499.0999999999999,1450,1415,1500
18.639394998550415,820,151,61,0.0022624434389140274,1499.0999999999999,1450,1415,1500
18.66261601448059,821,151,61,0.0022624434389140274,1499.0999999999999,1450,1415,1500
18.68567991256714,822,151,61,0.002178649237472767,1499.0999999999999,1450,1415,1500
18.708606004714966,823,150,61,0.002403846153846154,1499.0,1450,1415,1500
18.731631994247437,824,150,61,0.0023148148148148147,1499.0,1450,1415,1500
18.754596948623657,825,150,61,0.002403846153846154,1499.0,1450,1415,1500
18.777831077575684,826,150,62,0.0024691358024691358,1499.0,1450,1415,1500
18.800861120224,827,150,62,0.002403846153846154,1499.0,1450,1415,1500
18.823991060256958,828,149,62,0.002403846153846154,1498.9000000000001,1450,1415,1500
18.846899032592773,829,149,62,0.002403846153846154,1498.9000000000001,1450,1415,1500
18.870244026184082,830,149,62,0.002403846153846154,1498.9000000000001,1450,1415,1500
18.89326000213623,831,149,63,0.002564102564102564,1498.9000000000001,1450,1415,1500
18.916208028793335,832,149,63,0.002403846153846154,1498.9000000000001,1450,1415,1500
18.939209938049316,833,149,63,0.002403846153846154,1498.9000000000001,1450,1415,1500
18.96243190765381,834,149,64,0.002564102564102564,1498.9000000000001,1450,1415,1500
18.985313892364502,835,149,64,0.002403846153846154,1498.9000000000001,1450,1415,1500
19.008327960968018,836,149,64,0.002403846153846154,1498.9000000000001,1450,1415,1500
19.03121304512024,837,149,64,0.002403846153846154,1498.9000000000001,1450,1415,1500
19.054189920425415,838,149,65,0.002564102564102564,1498.9000000000001,1450,1415,1500
19.077075958251953,839,149,65,0.002564102564102564,1498.9000000000001,1450,1415,1500
19.10015892982483,840,149,65,0.002564102564102564,1498.9000000000001,1450,1415,1500
19.123271942138672,841,150,65,0.0024691358024691358,1499.0,1450,1415,1500
19.14625906944275,842,150,65,0.002564102564102564,1499.0,1450,1415,1500
19.16921591758728,843,150,65,0.002564102564102564,1499.0,1450,1415,1500
19.192452907562256,844,150,65,0.002564102564102564,1499.0,1450,1415,1500
19.215338945388794,845,150,65,0.002564102564102564,1499.0,1450,1415,1500
19.238357067108154,846,150,65,0.002403846153846154,1499.0,1450,1415,1500
19.261226892471313,847,150,65,0.002403846153846154,1499.0,1450,1415,1500
19.28418803215027,848,150,65,0.002717391304347826,1499.0,1450,1415,1500
19.307039976119995,849,151,65,0.002403846153846154,1499.0999999999999,1450,1415,1500
19.3301260471344,850,150,65,0.002717391304347826,1499.0,1450,1415,1500
19.353135108947754,851,151,65,0.002403846153846154,1499.0999999999999,1450,1415,1500
19.37609601020813,852,151,65,0.002403846153846154,1499.0999999999999,1450,1415,1500
19.398952960968018,853,151,65,0.002717391304347826,1499.0999999999999,1450,1415,1500
19.422014951705933,854,151,65,0.002717391304347826,1499.0999999999999,1450,1415,1500
19.44493794441223,855,151,66,0.002898550724637681,1499.0999999999999,1450,1415,1500
19.46795392036438,856,151,65,0.002717391304347826,1499.0999999999999,1450,1415,1500
19.490832090377808,857,151,66,0.002777777777777778,1499.0999999999999,1450,1415,1500
19.513899087905884,858,152,66,0.0026041666666666665,1499.2,1450,1415,1500
19.536864042282104,859,151,66,0.002777777777777778,1499.0999999999999,1450,1415,1500
19.560138940811157,860,151,66,0.0026041666666666665,1499.0999999999999,1450,1415,1500
19.58346199989319,861,152,66,0.0025,1499.2,1450,1415,1500
19.606401920318604,862,151,66,0.0026041666666666665,1499.0999999999999,1450,1415,1500
19.629431009292603,863,151,66,0.0026041666666666665,1499.0999999999999,1450,1415,1500
19.65260601043701,864,151,66,0.002717391304347826,1499.0999999999999,1450,1415,1500
19.67554211616516,865,151,67,0.002898550724637681,1499.0999999999999,1450,1415,1500
19.698604106903076,866,151,67,0.002898550724637681,1499.0999999999999,1450,1415,1500
19.72152805328369,867,151,67,0.002898550724637681,1499.0999999999999,1450,1415,1500
19.744498014450073,868,150,67,0.002777777777777778,1499.0,1450,1415,1500
19.76735496520996,869,150,67,0.002777777777777778,1499.0,1450,1415,1500
19.79039692878723,870,150,67,0.003105590062111801,1499.0,1450,1415,1500
19.81359601020813,871,150,67,0.003105590062111801,1499.0,1450,1415,1500
19.83651304244995,872,150,67,0.003105590062111801,1499.0,1450,1415,1500
19.85937809944153,873,150,67,0.003105590062111801,1499.0,1450,1415,1500
19.882612943649292,874,150,68,0.002898550724637681,1499.0,1450,1415,1500
19.90553092956543,875,150,68,0.003105590062111801,1499.0,1450,1415,1500
19.92851495742798,876,150,68,0.003105590062111801,1499.0,1450,1415,1500
19.951585054397583,877,150,68,0.003105590062111801,1499.0,1450,1415,1500
19.974647045135498,878,150,68,0.003105590062111801,1499.0,1450,1415,1500
19.997538089752197,879,150,68,0.003105590062111801,1499.0,1450,1415,1500
20.020628929138184,880,150,68,0.0033444816053511705,1499.0,1450,1415,1500
20.043874979019165,881,150,67,0.003105590062111801,1499.0,1450,1415,1500
20.066834926605225,882,150,67,0.003105590062111801,1499.0,1450,1415,1500
20.090020895004272,883,150,67,0.003105590062111801,1499.0,1450,1415,1500
20.113027095794678,884,150,67,0.003105590062111801,1499.0,1450,1415,1500
20.135947942733765,885,150,67,0.003105590062111801,1499.0,1450,1415,1500
20.159040927886963,886,150,67,0.003105590062111801,1499.0,1450,1415,1500
20.182022094726562,887,149,67,0.003246753246753247,1498.9000000000001,1450,1415,1500
20.20493197441101,888,150,67,0.003105590062111801,1499.0,1450,1415,1500
20.227862119674683,889,150,67,0.003105590062111801,1499.0,1450,1415,1500
20.250881910324097,890,150,67,0.003105590062111801,1499.0,1450,1415,1500
20.273823022842407,891,150,67,0.003105590062111801,1499.0,1450,1415,1500
20.296737909317017,892,150,67,0.003105590062111801,1499.0,1450,1415,1500
20.31966996192932,893,150,67,0.003105590062111801,1499.0,1450,1415,1500
20.34280800819397,894,150,67,0.003105590062111801,1499.0,1450,1415,1500
20.365708112716675,895,150,67,0.003105590062111801,1499.0,1450,1415,1500
20.38861107826233,896,150,67,0.003105590062111801,1499.0,1450,1415,1500
20.41165590286255,897,150,67,0.003105590062111801,1499.0,1450,1415,1500
20.434582948684692,898,150,68,0.0034965034965034965,1499.0,1450,1415,1500
20.457429885864258,899,150,67,0.003246753246753247,1499.0,1450,1415,1500
20.480531930923462,900,150,68,0.003246753246753247,1499.0,1450,1415,1500
20.50348210334778,901,150,68,0.003246753246753247,1499.0,1450,1415,1500
20.526379108428955,902,150,68,0.003246753246753247,1499.0,1450,1415,1500
20.549209117889404,903,151,68,0.003105590062111801,1499.0999999999999,1450,1415,1500
20.572577953338623,904,150,69,0.0030303030303030303,1499.0,1450,1415,1500
20.59557294845581,905,151,69,0.002898550724637681,1499.0999999999999,1450,1415,1500
20.618483066558838,906,151,69,0.003105590062111801,1499.0999999999999,1450,1415,1500
20.641387939453125,907,151,69,0.003105590062111801,1499.0999999999999,1450,1415,1500
20.66439199447632,908,151,70,0.002898550724637681,1499.0999999999999,1450,1415.0,1500
20.68754506111145,909,151,70,0.0030303030303030303,1499.0999999999999,1450,1415.0,1500
20.71065902709961,910,151,69,0.003246753246753247,1499.0999999999999,1450,1415,1500
20.733673095703125,911,151,70,0.0030303030303030303,1499.0999999999999,1450,1415.0,1500
20.75671911239624,912,151,70,0.003246753246753247,1499.0999999999999,1450,1415.0,1500
20.78002095222473,913,151,70,0.003246753246753247,1499.0999999999999,1450,1415.0,1500
