time,frame,x,y,size_inv,roll,pitch,thrust,yaw
0.00028586387634277344,1,166,81,0.002898550724637681,1505.25,1490.0,1379.75,1500
0.02212977409362793,2,166,81,0.002898550724637681,1506.0,1490.0,1379.75,1500
0.043553829193115234,3,166,81,0.002898550724637681,1506.75,1490.0,1379.75,1500
0.06488990783691406,4,165,81,0.0030303030303030303,1506.625,1492.7667984189723,1379.75,1500
0.08617281913757324,5,165,81,0.0030303030303030303,1507.25,1492.7667984189723,1379.75,1500
0.10736584663391113,6,166,81,0.002898550724637681,1508.75,1490.0,1379.75,1500
0.12860584259033203,7,165,81,0.0030303030303030303,1508.625,1492.7667984189723,1379.75,1500
0.15008282661437988,8,165,81,0.0030303030303030303,1509.25,1492.7667984189723,1379.75,1500
0.17150497436523438,9,167,81,0.0026666666666666666,1511.625,1485.1304347826087,1379.75,1500
0.1928408145904541,10,166,81,0.002898550724637681,1511.625,1490.0,1379.75,1500
0.21432185173034668,11,165,81,0.0030303030303030303,1510.75,1492.7667984189723,1379.75,1500
0.23590898513793945,12,165,81,0.0030303030303030303,1510.625,1492.7667984189723,1379.75,1500
0.25751781463623047,13,165,81,0.0030303030303030303,1510.5,1492.7667984189723,1379.75,1500
0.2790827751159668,14,165,81,0.0030303030303030303,1510.5,1492.7667984189723,1379.75,1500
0.30067992210388184,15,166,81,0.002777777777777778,1511.375,1487.463768115942,1379.75,1500
0.32225680351257324,16,165,81,0.0030303030303030303,1510.5,1492.7667984189723,1379.75,1500
0.34385085105895996,17,166,81,0.002898550724637681,1511.375,1490.0,1379.75,1500
0.36541295051574707,18,165,81,0.0030303030303030303,1510.625,1492.7667984189723,1379.75,1500
0.38701391220092773,19,165,81,0.0030303030303030303,1510.375,1492.7667984189723,1379.75,1500
0.40862584114074707,20,166,81,0.002777777777777778,1511.125,1487.463768115942,1379.75,1500
0.4302687644958496,21,166,81,0.002898550724637681,1511.25,1490.0,1379.75,1500
0.4518239498138428,22,165,81,0.0030303030303030303,1510.5,1492.7667984189723,1379.75,1500
0.4734339714050293,23,166,81,0.002898550724637681,1511.375,1490.0,1379.75,1500
0.495006799697876,24,165,81,0.0030303030303030303,1510.625,1492.7667984189723,1379.75,1500
0.5166079998016357,25,165,81,0.0030303030303030303,1510.5,1492.7667984189723,1379.75,1500
0.5381898880004883,26,166,81,0.002898550724637681,1511.375,1490.0,1379.75,1500
0.5599157810211182,27,167,81,0.0026666666666666666,1512.25,1485.1304347826087,1379.75,1500
0.5815129280090332,28,166,81,0.002898550724637681,1511.625,1490.0,1379.75,1500
0.6031088829040527,29,166,81,0.002777777777777778,1511.75,1487.463768115942,1379.75,1500
0.6246938705444336,30,166,81,0.002898550724637681,1511.75,1490.0,1379.75,1500
0.6462669372558594,31,166,81,0.002898550724637681,1511.75,1490.0,1379.75,1500
0.6678299903869629,32,165,81,0.0030303030303030303,1511.0,1492.7667984189723,1379.75,1500
0.6894369125366211,33,166,81,0.002898550724637681,1511.75,1490.0,1379.75,1500
0.7110168933868408,34,166,81,0.002898550724637681,1511.875,1490.0,1379.75,1500
0.732611894607544,35,165,81,0.0030303030303030303,1511.125,1492.7667984189723,1379.75,1500
0.7541837692260742,36,167,81,0.0026666666666666666,1512.75,1485.1304347826087,1379.75,1500
0.7757799625396729,37,166,81,0.002777777777777778,1511.875,1487.463768115942,1379.75,1500
0.7973558902740479,38,166,81,0.002898550724637681,1511.875,1490.0,1379.75,1500
0.8189637660980225,39,166,81,0.002898550724637681,1511.875,1490.0,1379.75,1500
0.8405249118804932,40,165,81,0.0030303030303030303,1511.0,1492.7667984189723,1379.75,1500
0.8621277809143066,41,166,81,0.002898550724637681,1511.75,1490.0,1379.75,1500
0.8836829662322998,42,166,81,0.002898550724637681,1511.875,1490.0,1379.75,1500
0.9052579402923584,43,166,81,0.002898550724637681,1511.875,1490.0,1379.75,1500
0.9268138408660889,44,165,81,0.0030303030303030303,1511.0,1492.7667984189723,1379.75,1500
0.948415994644165,45,165,81,0.0030303030303030303,1511.0,1492.7667984189723,1379.75,1500
0.9700918197631836,46,165,81,0.0030303030303030303,1510.75,1492.7667984189723,1379.75,1500
0.9917018413543701,47,166,81,0.002898550724637681,1511.5,1490.0,1379.75,1500
1.0134999752044678,48,166,81,0.002898550724637681,1511.5,1490.0,1379.75,1500
1.03511381149292,49,166,81,0.002777777777777778,1511.5,1487.463768115942,1379.75,1500
1.0567028522491455,50,165,81,0.0030303030303030303,1510.75,1492.7667984189723,1379.75,1500
1.0785279273986816,51,165,81,0.0030303030303030303,1510.625,1492.7667984189723,1379.75,1500
1.1002919673919678,52,166,81,0.002898550724637681,1511.375,1490.0,1379.75,1500
1.1220479011535645,53,166,81,0.002898550724637681,1511.375,1490.0,1379.75,1500
1.1438119411468506,54,165,81,0.0030303030303030303,1510.625,1492.7667984189723,1379.75,1500
1.165583848953247,55,166,81,0.002777777777777778,1511.5,1487.463768115942,1379.75,1500
1.1871788501739502,56,166,81,0.002898550724637681,1511.625,1490.0,1379.75,1500
1.2088699340820312,57,165,81,0.0030303030303030303,1510.75,1492.7667984189723,1379.75,1500
1.2306549549102783,58,166,81,0.002898550724637681,1511.5,1490.0,1379.75,1500
1.252253770828247,59,165,81,0.0030303030303030303,1510.625,1492.7667984189723,1379.75,1500
1.2738227844238281,60,165,81,0.0030303030303030303,1510.625,1492.7667984189723,1379.75,1500
1.2954339981079102,61,165,81,0.0030303030303030303,1510.625,1492.7667984189723,1379.75,1500
1.3169889450073242,62,165,81,0.0030303030303030303,1510.5,1492.7667984189723,1379.75,1500
1.3386077880859375,63,166,81,0.002898550724637681,1511.25,1490.0,1379.75,1500
1.360205888748169,64,166,81,0.002898550724637681,1511.375,1490.0,1379.75,1500
1.3817918300628662,65,165,81,0.0030303030303030303,1510.5,1492.7667984189723,1379.75,1500
1.4033617973327637,66,165,81,0.0030303030303030303,1510.375,1492.7667984189723,1379.75,1500
1.4249539375305176,67,166,81,0.002898550724637681,1511.25,1490.0,1379.75,1500
1.4465038776397705,68,165,81,0.0030303030303030303,1510.375,1492.7667984189723,1379.75,1500
1.4680888652801514,69,166,81,0.002898550724637681,1511.25,1490.0,1379.75,1500
1.4897339344024658,70,165,81,0.0030303030303030303,1510.5,1492.7667984189723,1379.75,1500
1.5113418102264404,71,166,81,0.002898550724637681,1511.375,1490.0,1379.75,1500
1.53293776512146,72,166,81,0.002898550724637681,1511.5,1490.0,1379.75,1500
1.5546419620513916,73,166,81,0.002898550724637681,1511.5,1490.0,1379.75,1500
1.5762348175048828,74,166,81,0.002777777777777778,1511.5,1487.463768115942,1379.75,1500
1.597855806350708,75,166,81,0.002898550724637681,1511.625,1490.0,1379.75,1500
1.6193978786468506,76,166,81,0.002898550724637681,1511.75,1490.0,1379.75,1500
1.6409847736358643,77,166,81,0.002898550724637681,1511.75,1490.0,1379.75,1500
1.6625487804412842,78,165,81,0.0030303030303030303,1511.0,1492.7667984189723,1379.75,1500
1.684147834777832,79,166,81,0.002898550724637681,1511.75,1490.0,1379.75,1500
1.7056949138641357,80,166,81,0.002777777777777778,1511.875,1487.463768115942,1379.75,1500
1.7272977828979492,81,165,81,0.0030303030303030303,1511.0,1492.7667984189723,1379.75,1500
1.7489039897918701,82,166,81,0.002898550724637681,1511.75,1490.0,1379.75,1500
1.7705028057098389,83,166,81,0.002898550724637681,1511.75,1490.0,1379.75,1500
1.7920668125152588,84,166,81,0.002898550724637681,1511.75,1490.0,1379.75,1500
1.8136799335479736,85,165,81,0.0030303030303030303,1510.875,1492.7667984189723,1379.75,1500
1.835251808166504,86,166,81,0.002898550724637681,1511.625,1490.0,1379.75,1500
1.856825828552246,87,166,81,0.002777777777777778,1511.625,1487.463768115942,1379.75,1500
1.8783748149871826,88,165,81,0.0030303030303030303,1510.875,1492.7667984189723,1379.75,1500
1.9001719951629639,89,166,81,0.002898550724637681,1511.625,1490.0,1379.75,1500
1.9217357635498047,90,166,81,0.002898550724637681,1511.625,1490.0,1379.75,1500
1.943314790725708,91,165,81,0.0030303030303030303,1510.875,1492.7667984189723,1379.75,1500
1.9649019241333008,92,166,81,0.002777777777777778,1511.625,1487.463768115942,1379.75,1500
1.9865758419036865,93,166,81,0.002898550724637681,1511.625,1490.0,1379.75,1500
2.008157968521118,94,166,81,0.002777777777777778,1511.625,1487.463768115942,1379.75,1500
2.029831886291504,95,165,81,0.0030303030303030303,1510.875,1492.7667984189723,1379.75,1500
2.0516419410705566,96,165,81,0.0030303030303030303,1510.75,1492.7667984189723,1379.75,1500
2.0732309818267822,97,166,81,0.002898550724637681,1511.5,1490.0,1379.75,1500
2.0948097705841064,98,165,81,0.0030303030303030303,1510.75,1492.7667984189723,1379.75,1500
2.1163737773895264,99,165,81,0.0030303030303030303,1510.625,1492.7667984189723,1379.75,1500
2.1379587650299072,100,166,81,0.002777777777777778,1511.375,1487.463768115942,1379.75,1500
2.159512996673584,101,166,81,0.002898550724637681,1511.5,1490.0,1379.75,1500
2.181128978729248,102,165,81,0.0030303030303030303,1510.625,1492.7667984189723,1379.75,1500
2.202868938446045,103,165,81,0.0030303030303030303,1510.5,1492.7667984189723,1379.75,1500
2.2245938777923584,104,166,81,0.002777777777777778,1511.25,1487.463768115942,1379.75,1500
2.246177911758423,105,166,81,0.002898550724637681,1511.375,1490.0,1379.75,1500
2.2677559852600098,106,165,81,0.0030303030303030303,1510.625,1492.7667984189723,1379.75,1500
2.289310932159424,107,165,81,0.0030303030303030303,1510.5,1492.7667984189723,1379.75,1500
2.310900926589966,108,166,81,0.002898550724637681,1511.375,1490.0,1379.75,1500
2.3324599266052246,109,165,81,0.0030303030303030303,1510.625,1492.7667984189723,1379.75,1500
2.354057788848877,110,165,81,0.0030303030303030303,1510.5,1492.7667984189723,1379.75,1500
2.3756208419799805,111,166,81,0.002898550724637681,1511.25,1490.0,1379.75,1500
2.3971879482269287,112,166,81,0.002777777777777778,1511.375,1487.463768115942,1379.75,1500
2.4188339710235596,113,165,81,0.0030303030303030303,1510.625,1492.7667984189723,1379.75,1500
2.4405369758605957,114,165,81,0.0030303030303030303,1510.5,1492.7667984189723,1379.75,1500
2.462122917175293,115,165,81,0.0030303030303030303,1510.375,1492.7667984189723,1379.75,1500
2.4837279319763184,116,165,81,0.0030303030303030303,1510.375,1492.7667984189723,1379.75,1500
2.5053539276123047,117,165,81,0.0030303030303030303,1510.375,1492.7667984189723,1379.75,1500
2.5269618034362793,118,165,81,0.0030303030303030303,1510.25,1492.7667984189723,1379.75,1500
2.5486128330230713,119,165,81,0.0030303030303030303,1510.25,1492.7667984189723,1379.75,1500
2.5703318119049072,120,165,81,0.0030303030303030303,1510.25,1492.7667984189723,1379.75,1500
2.591909885406494,121,166,81,0.002777777777777778,1511.0,1487.463768115942,1379.75,1500
2.6134958267211914,122,166,81,0.002898550724637681,1511.0,1490.0,1379.75,1500
2.63504695892334,123,165,81,0.0030303030303030303,1510.25,1492.7667984189723,1379.75,1500
2.6566457748413086,124,165,81,0.0030303030303030303,1510.25,1492.7667984189723,1379.75,1500
2.6781928539276123,125,165,81,0.0030303030303030303,1510.25,1492.7667984189723,1379.75,1500
2.699903964996338,126,165,81,0.0030303030303030303,1510.25,1492.7667984189723,1379.75,1500
2.7214808464050293,127,166,81,0.002898550724637681,1511.125,1490.0,1379.75,1500
2.743060827255249,128,166,81,0.002898550724637681,1511.25,1490.0,1379.75,1500
2.7646138668060303,129,166,81,0.002898550724637681,1511.375,1490.0,1379.75,1500
2.786190986633301,130,166,81,0.002898550724637681,1511.5,1490.0,1379.75,1500
2.80774188041687,131,167,81,0.0026666666666666666,1512.375,1485.1304347826087,1379.75,1500
2.8293609619140625,132,166,81,0.002777777777777778,1511.625,1487.463768115942,1379.75,1500
2.850925922393799,133,166,81,0.002777777777777778,1511.75,1487.463768115942,1379.75,1500
2.8725178241729736,134,165,81,0.0030303030303030303,1511.0,1492.7667984189723,1379.75,1500
2.8940768241882324,135,166,81,0.002898550724637681,1511.875,1490.0,1379.75,1500
2.9156429767608643,136,166,81,0.002898550724637681,1512.0,1490.0,1379.75,1500
2.9371728897094727,137,165,81,0.002777777777777778,1511.125,1487.463768115942,1379.75,1500
2.9587907791137695,138,166,81,0.002898550724637681,1511.875,1490.0,1379.75,1500
2.980397939682007,139,165,81,0.0030303030303030303,1511.0,1492.7667984189723,1379.75,1500
3.00199294090271,140,166,81,0.002898550724637681,1511.75,1490.0,1379.75,1500
3.0235447883605957,141,165,81,0.0030303030303030303,1510.75,1492.7667984189723,1379.75,1500
3.0453338623046875,142,166,81,0.002898550724637681,1511.5,1490.0,1379.75,1500
3.066912889480591,143,166,81,0.002898550724637681,1511.5,1490.0,1379.75,1500
3.0885188579559326,144,165,81,0.0030303030303030303,1510.75,1492.7667984189723,1379.75,1500
3.110125780105591,145,165,81,0.0030303030303030303,1510.625,1492.7667984189723,1379.75,1500
3.131711959838867,146,166,81,0.002898550724637681,1511.375,1490.0,1379.75,1500
3.1532559394836426,147,166,81,0.002777777777777778,1511.5,1487.463768115942,1379.75,1500
3.1748499870300293,148,166,81,0.002898550724637681,1511.5,1490.0,1379.75,1500
3.1963908672332764,149,166,81,0.002898550724637681,1511.625,1490.0,1379.75,1500
3.2180449962615967,150,166,81,0.002898550724637681,1511.625,1490.0,1379.75,1500
3.2398948669433594,151,166,81,0.0026041666666666665,1511.75,1483.8179347826087,1379.75,1500
3.261530876159668,152,165,81,0.0030303030303030303,1510.875,1492.7667984189723,1379.75,1500
3.2831008434295654,153,166,81,0.002777777777777778,1511.625,1487.463768115942,1379.75,1500
3.304703950881958,154,166,81,0.002898550724637681,1511.75,1490.0,1379.75,1500
3.326288938522339,155,165,81,0.0030303030303030303,1511.0,1492.7667984189723,1379.75,1500
3.3478989601135254,156,166,81,0.002898550724637681,1511.75,1490.0,1379.75,1500
3.3694868087768555,157,165,81,0.0030303030303030303,1510.875,1492.7667984189723,1379.75,1500
3.391091823577881,158,166,81,0.002777777777777778,1511.625,1487.463768115942,1379.75,1500
3.412646770477295,159,167,81,0.0026666666666666666,1512.5,1485.1304347826087,1379.75,1500
3.4342269897460938,160,165,81,0.0030303030303030303,1510.875,1492.7667984189723,1379.75,1500
3.4557888507843018,161,166,81,0.002898550724637681,1511.625,1490.0,1379.75,1500
3.47737193107605,162,166,81,0.002898550724637681,1511.75,1490.0,1379.75,1500
3.4989748001098633,163,165,81,0.0030303030303030303,1510.875,1492.7667984189723,1379.75,1500
3.5206069946289062,164,166,81,0.002898550724637681,1511.625,1490.0,1379.75,1500
3.5421829223632812,165,166,81,0.002898550724637681,1511.75,1490.0,1379.75,1500
3.564145803451538,166,165,81,0.0030303030303030303,1510.875,1492.7667984189723,1379.75,1500
3.587049961090088,167,165,81,0.0030303030303030303,1510.875,1492.7667984189723,1379.75,1500
3.609928846359253,168,166,81,0.002898550724637681,1511.625,1490.0,1379.75,1500
3.6327707767486572,169,166,81,0.002898550724637681,1511.5,1490.0,1379.75,1500
3.6556389331817627,170,166,81,0.002898550724637681,1511.625,1490.0,1379.75,1500
3.6785778999328613,171,165,81,0.002898550724637681,1510.75,1490.0,1379.75,1500
3.7015597820281982,172,166,81,0.002777777777777778,1511.5,1487.463768115942,1379.75,1500
3.724421977996826,173,166,81,0.002777777777777778,1511.625,1487.463768115942,1379.75,1500
3.74731183052063,174,166,81,0.002898550724637681,1511.625,1490.0,1379.75,1500
3.7701058387756348,175,165,81,0.0030303030303030303,1510.75,1492.7667984189723,1379.75,1500
3.7930078506469727,176,166,81,0.002898550724637681,1511.625,1490.0,1379.75,1500
3.8158559799194336,177,166,81,0.002898550724637681,1511.75,1490.0,1379.75,1500
3.8388848304748535,178,166,81,0.002898550724637681,1511.75,1490.0,1379.75,1500
3.8619158267974854,179,166,81,0.002898550724637681,1511.75,1490.0,1379.75,1500
3.884856939315796,180,165,81,0.0030303030303030303,1510.875,1492.7667984189723,1379.75,1500
3.9077348709106445,181,166,81,0.002898550724637681,1511.75,1490.0,1379.75,1500
3.9305098056793213,182,165,81,0.0030303030303030303,1510.875,1492.7667984189723,1379.75,1500
3.953338861465454,183,165,81,0.0030303030303030303,1510.75,1492.7667984189723,1379.75,1500
3.976242780685425,184,166,81,0.002898550724637681,1511.5,1490.0,1379.75,1500
3.9991888999938965,185,166,81,0.002898550724637681,1511.625,1490.0,1379.75,1500
4.022065877914429,186,165,81,0.0030303030303030303,1510.75,1492.7667984189723,1379.75,1500
4.0449748039245605,187,166,81,0.002777777777777778,1511.5,1487.463768115942,1379.75,1500
4.067821979522705,188,165,81,0.002777777777777778,1510.625,1487.463768115942,1379.75,1500
4.090937852859497,189,165,81,0.0030303030303030303,1510.5,1492.7667984189723,1379.75,1500
4.114261865615845,190,165,81,0.002898550724637681,1510.5,1490.0,1379.75,1500
4.137330770492554,191,166,81,0.002898550724637681,1511.25,1490.0,1379.75,1500
4.160178899765015,192,165,79,0.003787878787878788,1510.5,1508.6758893280632,1380.25,1500
4.183084964752197,193,166,81,0.002898550724637681,1511.375,1490.0,1379.75,1500
4.205897808074951,194,166,81,0.002777777777777778,1511.375,1487.463768115942,1379.75,1500
4.228909969329834,195,165,81,0.0030303030303030303,1510.5,1492.7667984189723,1379.75,1500
4.251925945281982,196,166,81,0.002777777777777778,1511.375,1487.463768115942,1379.75,1500
4.274805784225464,197,165,81,0.002898550724637681,1510.5,1490.0,1379.75,1500
4.2975969314575195,198,165,81,0.0030303030303030303,1510.5,1492.7667984189723,1379.75,1500
4.320467948913574,199,165,81,0.0030303030303030303,1510.5,1492.7667984189723,1379.75,1500
4.343294858932495,200,166,81,0.002898550724637681,1511.375,1490.0,1379.75,1500
4.366131782531738,201,166,81,0.002898550724637681,1511.375,1490.0,1379.75,1500
4.389124870300293,202,166,81,0.002898550724637681,1511.5,1490.0,1379.75,1500
4.412160873413086,203,166,81,0.002898550724637681,1511.5,1490.0,1379.75,1500
4.434961795806885,204,166,81,0.002898550724637681,1511.5,1490.0,1379.75,1500
4.4577789306640625,205,166,81,0.002777777777777778,1511.625,1487.463768115942,1379.75,1500
4.480602979660034,206,166,81,0.002898550724637681,1511.625,1490.0,1379.75,1500
4.503465890884399,207,166,81,0.002777777777777778,1511.75,1487.463768115942,1379.75,1500
4.526302814483643,208,165,81,0.0030303030303030303,1511.0,1492.7667984189723,1379.75,1500
4.549362897872925,209,166,81,0.002898550724637681,1511.875,1490.0,1379.75,1500
4.572406768798828,210,166,81,0.002898550724637681,1511.875,1490.0,1379.75,1500
4.595271825790405,211,165,81,0.0030303030303030303,1511.0,1492.7667984189723,1379.75,1500
4.618102788925171,212,165,81,0.0030303030303030303,1510.875,1492.7667984189723,1379.75,1500
4.641326904296875,213,165,79,0.003787878787878788,1510.75,1508.6758893280632,1380.25,1500
4.664174795150757,214,166,81,0.002777777777777778,1511.5,1487.463768115942,1379.75,1500
4.68705677986145,215,166,81,0.002777777777777778,1511.5,1487.463768115942,1379.75,1500
4.709874868392944,216,166,81,0.002898550724637681,1511.5,1490.0,1379.75,1500
4.732754945755005,217,165,81,0.0030303030303030303,1510.625,1492.7667984189723,1379.75,1500
4.755605936050415,218,165,81,0.0030303030303030303,1510.625,1492.7667984189723,1379.75,1500
4.778662919998169,219,166,81,0.002898550724637681,1511.375,1490.0,1379.75,1500
4.801692962646484,220,166,81,0.002898550724637681,1511.375,1490.0,1379.75,1500
4.8245649337768555,221,166,81,0.002898550724637681,1511.5,1490.0,1379.75,1500
4.847371816635132,222,166,81,0.002898550724637681,1511.625,1490.0,1379.75,1500
4.870210886001587,223,166,81,0.002898550724637681,1511.75,1490.0,1379.75,1500
4.893018960952759,224,166,81,0.002777777777777778,1511.75,1487.463768115942,1379.75,1500
4.91589879989624,225,166,81,0.002777777777777778,1511.75,1487.463768115942,1379.75,1500
4.938885927200317,226,166,81,0.002898550724637681,1511.75,1490.0,1379.75,1500
4.961899995803833,227,166,81,0.002898550724637681,1511.875,1490.0,1379.75,1500
4.984720945358276,228,166,81,0.002898550724637681,1512.0,1490.0,1379.75,1500
5.007553815841675,229,165,81,0.0030303030303030303,1511.125,1492.7667984189723,1379.75,1500
5.0303778648376465,230,166,81,0.002898550724637681,1511.875,1490.0,1379.75,1500
5.053202867507935,231,165,81,0.0030303030303030303,1511.0,1492.7667984189723,1379.75,1500
5.076067924499512,232,166,81,0.002898550724637681,1511.75,1490.0,1379.75,1500
5.099059820175171,233,165,81,0.0030303030303030303,1510.875,1492.7667984189723,1379.75,1500
5.122068881988525,234,166,81,0.002898550724637681,1511.625,1490.0,1379.75,1500
5.144915819168091,235,165,81,0.0030303030303030303,1510.75,1492.7667984189723,1379.75,1500
5.16777491569519,236,165,81,0.0030303030303030303,1510.625,1492.7667984189723,1379.75,1500
5.190698862075806,237,166,81,0.002898550724637681,1511.375,1490.0,1379.75,1500
5.213897943496704,238,165,81,0.0030303030303030303,1510.5,1492.7667984189723,1379.75,1500
5.236978769302368,239,166,81,0.002898550724637681,1511.375,1490.0,1379.75,1500
5.259812831878662,240,166,81,0.002898550724637681,1511.375,1490.0,1379.75,1500
5.282668828964233,241,166,79,0.0036231884057971015,1511.5,1505.2173913043478,1380.25,1500
5.305499792098999,242,166,81,0.002898550724637681,1511.5,1490.0,1379.75,1500
5.3283538818359375,243,165,81,0.0030303030303030303,1510.75,1492.7667984189723,1379.75,1500
5.351337909698486,244,166,81,0.002898550724637681,1511.5,1490.0,1379.75,1500
5.374212980270386,245,165,81,0.002777777777777778,1510.75,1487.463768115942,1379.75,1500
5.3970417976379395,246,166,81,0.002898550724637681,1511.625,1490.0,1379.75,1500
5.419883966445923,247,166,81,0.002777777777777778,1511.625,1487.463768115942,1379.75,1500
5.442701816558838,248,166,81,0.002898550724637681,1511.75,1490.0,1379.75,1500
5.465561866760254,249,165,81,0.0030303030303030303,1510.875,1492.7667984189723,1379.75,1500
5.488426923751831,250,166,81,0.002898550724637681,1511.625,1490.0,1379.75,1500
5.511591911315918,251,165,81,0.0030303030303030303,1510.75,1492.7667984189723,1379.75,1500
5.5344398021698,252,166,81,0.002898550724637681,1511.5,1490.0,1379.75,1500
5.557313919067383,253,166,81,0.002898550724637681,1511.625,1490.0,1379.75,1500
5.580157995223999,254,165,81,0.0030303030303030303,1510.75,1492.7667984189723,1379.75,1500
5.603032827377319,255,166,81,0.002777777777777778,1511.625,1487.463768115942,1379.75,1500
5.625865936279297,256,165,81,0.002777777777777778,1510.75,1487.463768115942,1379.75,1500
5.6489479541778564,257,166,81,0.002898550724637681,1511.5,1490.0,1379.75,1500
5.672006845474243,258,165,81,0.0030303030303030303,1510.625,1492.7667984189723,1379.75,1500
5.694852828979492,259,165,81,0.0030303030303030303,1510.625,1492.7667984189723,1379.75,1500
5.71773099899292,260,165,81,0.0030303030303030303,1510.5,1492.7667984189723,1379.75,1500
5.740562915802002,261,165,81,0.0030303030303030303,1510.5,1492.7667984189723,1379.75,1500
5.763443946838379,262,165,81,0.0030303030303030303,1510.375,1492.7667984189723,1379.75,1500
5.786296844482422,263,165,81,0.0030303030303030303,1510.25,1492.7667984189723,1379.75,1500
5.809321880340576,264,166,81,0.002898550724637681,1511.125,1490.0,1379.75,1500
5.83230185508728,265,165,81,0.0030303030303030303,1510.25,1492.7667984189723,1379.75,1500
5.855232000350952,266,166,81,0.002898550724637681,1511.125,1490.0,1379.75,1500
5.878173828125,267,166,81,0.002898550724637681,1511.125,1490.0,1379.75,1500
5.901362895965576,268,165,81,0.0030303030303030303,1510.375,1492.7667984189723,1379.75,1500
5.924198865890503,269,166,81,0.002777777777777778,1511.25,1487.463768115942,1379.75,1500
5.947088956832886,270,166,81,0.002898550724637681,1511.375,1490.0,1379.75,1500
5.969899892807007,271,166,81,0.002898550724637681,1511.5,1490.0,1379.75,1500
5.992753982543945,272,166,81,0.002898550724637681,1511.625,1490.0,1379.75,1500
6.015556812286377,273,165,81,0.0030303030303030303,1510.875,1492.7667984189723,1379.75,1500
6.038408994674683,274,165,81,0.0030303030303030303,1510.75,1492.7667984189723,1379.75,1500
6.061373949050903,275,166,81,0.002898550724637681,1511.625,1490.0,1379.75,1500
6.084234952926636,276,165,81,0.0030303030303030303,1510.75,1492.7667984189723,1379.75,1500
6.107055902481079,277,165,81,0.0030303030303030303,1510.625,1492.7667984189723,1379.75,1500
6.129915952682495,278,166,81,0.002898550724637681,1511.5,1490.0,1379.75,1500
6.152720928192139,279,165,81,0.0030303030303030303,1510.625,1492.7667984189723,1379.75,1500
6.175599813461304,280,166,81,0.002898550724637681,1511.375,1490.0,1379.75,1500
6.198399782180786,281,165,81,0.0030303030303030303,1510.5,1492.7667984189723,1379.75,1500
6.221609830856323,282,165,81,0.0030303030303030303,1510.375,1492.7667984189723,1379.75,1500
6.24444580078125,283,166,81,0.002898550724637681,1511.25,1490.0,1379.75,1500
6.267294883728027,284,166,81,0.002898550724637681,1511.375,1490.0,1379.75,1500
6.290102958679199,285,166,81,0.002898550724637681,1511.375,1490.0,1379.75,1500
6.313272953033447,286,166,81,0.002898550724637681,1511.5,1490.0,1379.75,1500
6.336126804351807,287,166,81,0.002898550724637681,1511.625,1490.0,1379.75,1500
6.359137773513794,288,166,81,0.002898550724637681,1511.625,1490.0,1379.75,1500
6.382130861282349,289,165,81,0.0030303030303030303,1510.875,1492.7667984189723,1379.75,1500
6.405000925064087,290,166,81,0.002898550724637681,1511.625,1490.0,1379.75,1500
6.42779278755188,291,165,81,0.0030303030303030303,1510.875,1492.7667984189723,1379.75,1500
6.450662851333618,292,165,81,0.0030303030303030303,1510.875,1492.7667984189723,1379.75,1500
6.473521947860718,293,165,81,0.0030303030303030303,1510.75,1492.7667984189723,1379.75,1500
6.4964189529418945,294,165,81,0.0030303030303030303,1510.625,1492.7667984189723,1379.75,1500
6.51933479309082,295,165,81,0.0030303030303030303,1510.5,1492.7667984189723,1379.75,1500
6.5422468185424805,296,165,81,0.0030303030303030303,1510.375,1492.7667984189723,1379.75,1500
6.565130949020386,297,165,81,0.0030303030303030303,1510.25,1492.7667984189723,1379.75,1500
6.588184833526611,298,165,81,0.0030303030303030303,1510.125,1492.7667984189723,1379.75,1500
6.611207962036133,299,166,81,0.002898550724637681,1511.0,1490.0,1379.75,1500
6.634068965911865,300,166,81,0.002777777777777778,1511.0,1487.463768115942,1379.75,1500
6.6568779945373535,301,165,81,0.0030303030303030303,1510.25,1492.7667984189723,1379.75,1500
6.679743766784668,302,166,81,0.002898550724637681,1511.125,1490.0,1379.75,1500
6.702563762664795,303,166,81,0.002777777777777778,1511.25,1487.463768115942,1379.75,1500
6.7254478931427,304,166,81,0.002898550724637681,1511.375,1490.0,1379.75,1500
6.7482428550720215,305,165,81,0.0030303030303030303,1510.625,1492.7667984189723,1379.75,1500
6.771525859832764,306,166,81,0.002898550724637681,1511.5,1490.0,1379.75,1500
6.794357776641846,307,166,81,0.002898550724637681,1511.625,1490.0,1379.75,1500
6.817240953445435,308,166,81,0.002898550724637681,1511.75,1490.0,1379.75,1500
6.8400559425354,309,165,81,0.0030303030303030303,1510.875,1492.7667984189723,1379.75,1500
6.8629138469696045,310,165,81,0.0030303030303030303,1510.75,1492.7667984189723,1379.75,1500
6.885743856430054,311,165,81,0.0030303030303030303,1510.75,1492.7667984189723,1379.75,1500
6.9087817668914795,312,166,81,0.002898550724637681,1511.5,1490.0,1379.75,1500
6.931781768798828,313,166,81,0.002898550724637681,1511.5,1490.0,1379.75,1500
6.954673767089844,314,165,79,0.003787878787878788,1510.625,1508.6758893280632,1380.25,1500
6.977704763412476,315,165,81,0.0030303030303030303,1510.625,1492.7667984189723,1379.75,1500
7.000626802444458,316,165,81,0.0030303030303030303,1510.5,1492.7667984189723,1379.75,1500
7.023465871810913,317,167,81,0.0025,1512.125,1481.6304347826087,1379.75,1500
7.046324968338013,318,166,81,0.002717391304347826,1511.375,1486.195652173913,1379.75,1500
7.069324970245361,319,167,81,0.0026666666666666666,1512.375,1485.1304347826087,1379.75,1500
7.092375993728638,320,167,81,0.0025,1512.625,1481.6304347826087,1379.75,1500
7.115180969238281,321,167,81,0.0025,1512.875,1481.6304347826087,1379.75,1500
7.138030767440796,322,167,81,0.0025,1513.0,1481.6304347826087,1379.75,1500
7.16103196144104,323,167,81,0.0025,1513.125,1481.6304347826087,1379.75,1500
7.183908939361572,324,166,84,0.002564102564102564,1512.5,1482.9765886287626,1379.0,1500
7.206838846206665,325,166,85,0.002403846153846154,1512.625,1479.611204013378,1378.75,1500
7.229918956756592,326,165,87,0.0030303030303030303,1511.875,1492.7667984189723,1378.25,1500
7.252816915512085,327,166,89,0.002898550724637681,1512.5,1490.0,1377.75,1500
7.275697946548462,328,166,90,0.002717391304347826,1512.5,1486.195652173913,1377.5,1500
7.298689842224121,329,167,91,0.0025,1513.25,1481.6304347826087,1377.25,1500
7.321727991104126,330,167,92,0.002898550724637681,1513.25,1490.0,1377.0,1500
7.344546794891357,331,167,92,0.002898550724637681,1513.25,1490.0,1377.0,1500
7.367401838302612,332,169,91,0.0025,1515.0,1481.6304347826087,1377.25,1500
7.390216827392578,333,170,89,0.002717391304347826,1516.125,1486.195652173913,1377.75,1500
7.413372993469238,334,171,88,0.002840909090909091,1517.5,1488.7895256916995,1378.0,1500
7.436219930648804,335,173,88,0.0026666666666666666,1519.875,1485.1304347826087,1378.0,1500
7.459265947341919,336,174,87,0.002898550724637681,1521.75,1490.0,1378.25,1500
7.4823219776153564,337,174,87,0.002777777777777778,1522.75,1487.463768115942,1378.25,1500
7.5052149295806885,338,176,86,0.0025,1525.5,1481.6304347826087,1378.5,1500
7.528011798858643,339,175,85,0.003952569169960474,1525.75,1510,1378.75,1500
7.550956964492798,340,175,87,0.0026041666666666665,1526.75,1483.8179347826087,1378.25,1500
7.57384181022644,341,175,87,0.0026041666666666665,1527.75,1483.8179347826087,1378.25,1500
7.596728801727295,342,175,87,0.002717391304347826,1528.5,1486.195652173913,1378.25,1500
7.6196129322052,343,175,87,0.002898550724637681,1529.125,1490.0,1378.25,1500
7.642622947692871,344,176,87,0.0026666666666666666,1530.5,1485.1304347826087,1378.25,1500
7.6655189990997314,345,174,86,0.002717391304347826,1529.125,1486.195652173913,1378.5,1500
7.688407897949219,346,173,87,0.003105590062111801,1528.25,1494.3478260869565,1378.25,1500
7.711566925048828,347,172,87,0.002840909090909091,1527.25,1488.7895256916995,1378.25,1500
7.734457969665527,348,173,86,0.003076923076923077,1527.625,1493.7458193979933,1378.5,1500
7.757296800613403,349,172,87,0.0026666666666666666,1526.5,1485.1304347826087,1378.25,1500
7.780181884765625,350,170,86,0.002898550724637681,1524.375,1490.0,1378.5,1500
7.802981853485107,351,169,85,0.002777777777777778,1522.875,1487.463768115942,1378.75,1500
7.825865983963013,352,168,84,0.002898550724637681,1521.25,1490.0,1379.0,1500
7.8488709926605225,353,169,84,0.0026666666666666666,1521.25,1485.1304347826087,1379.0,1500
7.872069835662842,354,167,84,0.002777777777777778,1518.625,1487.463768115942,1379.0,1500
7.894965887069702,355,168,84,0.0026666666666666666,1518.625,1485.1304347826087,1379.0,1500
7.917810916900635,356,166,83,0.003205128205128205,1516.25,1496.4381270903009,1379.25,1500
7.940852880477905,357,164,83,0.004132231404958678,1513.75,1510,1379.25,1500
7.963589906692505,358,163,85,0.002898550724637681,1511.75,1490.0,1378.75,1500
7.98645281791687,359,161,84,0.0025,1508.875,1481.6304347826087,1379.0,1500
8.009314775466919,360,159,84,0.0026666666666666666,1506.0,1485.1304347826087,1379.0,1500
8.032205820083618,361,158,83,0.0025,1503.875,1481.6304347826087,1379.25,1500
8.055011987686157,362,155,83,0.002717391304347826,1500.0,1486.195652173913,1379.25,1500
8.077875852584839,363,156,84,0.0026666666666666666,1499.125,1485.1304347826087,1379.0,1500
8.100857973098755,364,155,83,0.0025,1496.875,1481.6304347826087,1379.25,1500
8.12372899055481,365,153,83,0.002717391304347826,1493.5,1486.195652173913,1379.25,1500
8.146556854248047,366,153,84,0.002898550724637681,1491.875,1490.0,1379.0,1500
8.169405937194824,367,152,84,0.002840909090909091,1489.625,1488.7895256916995,1379.0,1500
8.192225933074951,368,153,85,0.002717391304347826,1489.125,1486.195652173913,1378.75,1500
8.21507978439331,369,153,86,0.0026041666666666665,1488.125,1483.8179347826087,1378.5,1500
8.237894773483276,370,156,87,0.002976190476190476,1490.0,1491.6304347826087,1378.25,1500
8.260918855667114,371,154,88,0.002898550724637681,1488.0,1490.0,1378.0,1500
8.283732891082764,372,154,88,0.002840909090909091,1487.875,1488.7895256916995,1378.0,1500
8.306604862213135,373,154,88,0.002840909090909091,1487.625,1488.7895256916995,1378.0,1500
8.329432964324951,374,155,88,0.002777777777777778,1488.375,1487.463768115942,1378.0,1500
8.352291822433472,375,155,87,0.0026041666666666665,1488.625,1483.8179347826087,1378.25,1500
8.37511396408081,376,153,86,0.0030303030303030303,1487.125,1492.7667984189723,1378.5,1500
8.397993803024292,377,152,84,0.0035087719298245615,1486.375,1502.8146453089246,1379.0,1500
8.42100977897644,378,149,83,0.002898550724637681,1483.625,1490.0,1379.25,1500
8.443882942199707,379,147,82,0.003472222222222222,1481.375,1502.0471014492753,1379.5,1500
8.466721773147583,380,143,82,0.0030303030303030303,1476.75,1492.7667984189723,1379.5,1500
8.489954948425293,381,141,82,0.002898550724637681,1473.625,1490.0,1379.5,1500
8.512791872024536,382,138,82,0.0030303030303030303,1469.375,1492.7667984189723,1379.5,1500
8.53566598892212,383,136,82,0.002840909090909091,1465.625,1488.7895256916995,1379.5,1500
8.558660984039307,384,135,83,0.002717391304347826,1462.375,1486.195652173913,1379.25,1500
8.5817289352417,385,134,84,0.003289473684210526,1460,1498.2093821510298,1379.0,1500
8.60448694229126,386,131,85,0.002898550724637681,1460,1490.0,1378.75,1500
8.627238988876343,387,130,85,0.002777777777777778,1460,1487.463768115942,1378.75,1500
8.649976968765259,388,129,84,0.002840909090909091,1460,1488.7895256916995,1379.0,1500
8.672762870788574,389,129,84,0.0026041666666666665,1460,1483.8179347826087,1379.0,1500
8.695515871047974,390,128,84,0.002840909090909091,1460,1488.7895256916995,1379.0,1500
8.718301773071289,391,128,84,0.002717391304347826,1460,1486.195652173913,1379.0,1500
8.741424798965454,392,128,85,0.002717391304347826,1460,1486.195652173913,1378.75,1500
8.764273881912231,393,128,86,0.002898550724637681,1460,1490.0,1378.5,1500
8.78705096244812,394,128,88,0.002898550724637681,1460,1490.0,1378.0,1500
8.809794902801514,395,128,89,0.002898550724637681,1460,1490.0,1377.75,1500
8.832574844360352,396,127,89,0.002840909090909091,1460,1488.7895256916995,1377.75,1500
8.855325937271118,397,127,90,0.002840909090909091,1460,1488.7895256916995,1377.5,1500
8.8781099319458,398,128,91,0.002717391304347826,1460,1486.195652173913,1377.25,1500
8.901042938232422,399,127,92,0.002840909090909091,1460,1488.7895256916995,1377.0,1500
8.923807859420776,400,129,92,0.002717391304347826,1460,1486.195652173913,1377.0,1500
8.946557998657227,401,129,92,0.002717391304347826,1460,1486.195652173913,1377.0,1500
8.96935486793518,402,129,92,0.002717391304347826,1460,1486.195652173913,1377.0,1500
8.992093801498413,403,130,90,0.002717391304347826,1460,1486.195652173913,1377.5,1500
9.014862775802612,404,130,89,0.002898550724637681,1460,1490.0,1377.75,1500
9.037580966949463,405,131,87,0.002717391304347826,1460,1486.195652173913,1378.25,1500
9.060353994369507,406,131,86,0.0026041666666666665,1460,1483.8179347826087,1378.5,1500
9.083114862442017,407,131,85,0.002840909090909091,1460,1488.7895256916995,1378.75,1500
9.105890989303589,408,131,85,0.0030303030303030303,1460,1492.7667984189723,1378.75,1500
9.128787994384766,409,132,85,0.002898550724637681,1460,1490.0,1378.75,1500
9.151721000671387,410,132,85,0.002898550724637681,1460,1490.0,1378.75,1500
9.174455881118774,411,132,85,0.0026041666666666665,1460,1483.8179347826087,1378.75,1500
9.197236776351929,412,131,85,0.002840909090909091,1460,1488.7895256916995,1378.75,1500
9.220063924789429,413,131,86,0.0031746031746031746,1460,1495.7971014492753,1378.5,1500
9.243062973022461,414,133,86,0.0033333333333333335,1460,1499.1304347826087,1378.5,1500
9.265885829925537,415,132,86,0.002717391304347826,1460,1486.195652173913,1378.5,1500
9.288843870162964,416,131,87,0.0030303030303030303,1460,1492.7667984189723,1378.25,1500
9.311766862869263,417,133,88,0.002898550724637681,1460,1490.0,1378.0,1500
9.334521770477295,418,133,88,0.002840909090909091,1460,1488.7895256916995,1378.0,1500
9.35725998878479,419,136,88,0.002717391304347826,1460,1486.195652173913,1378.0,1500
9.38005781173706,420,137,88,0.002840909090909091,1460,1488.7895256916995,1378.0,1500
9.402783870697021,421,141,88,0.0033333333333333335,1460,1499.1304347826087,1378.0,1500
9.425558805465698,422,143,86,0.003289473684210526,1460,1498.2093821510298,1378.5,1500
9.448283910751343,423,142,85,0.002840909090909091,1460,1488.7895256916995,1378.75,1500
9.471620798110962,424,143,84,0.002840909090909091,1460,1488.7895256916995,1379.0,1500
9.494751930236816,425,144,83,0.002717391304347826,1460.875,1486.195652173913,1379.25,1500
9.517671823501587,426,144,82,0.002717391304347826,1462.5,1486.195652173913,1379.5,1500
9.540515899658203,427,145,82,0.0035087719298245615,1464.75,1502.8146453089246,1379.5,1500
9.563455820083618,428,142,81,0.002840909090909091,1463.625,1488.7895256916995,1379.75,1500
9.586676836013794,429,143,81,0.003703703703703704,1465.25,1506.9082125603866,1379.75,1500
9.609588861465454,430,141,80,0.002840909090909091,1464.25,1488.7895256916995,1380.0,1500
9.632423877716064,431,141,80,0.0026041666666666665,1464.25,1483.8179347826087,1380.0,1500
9.655292987823486,432,140,80,0.0030303030303030303,1463.125,1492.7667984189723,1380.0,1500
9.678136825561523,433,141,80,0.002898550724637681,1463.75,1490.0,1380.0,1500
9.70133090019226,434,141,79,0.002717391304347826,1463.5,1486.195652173913,1380.25,1500
9.724206924438477,435,140,79,0.0030303030303030303,1462.25,1492.7667984189723,1380.25,1500
9.74707579612732,436,141,79,0.002898550724637681,1462.625,1490.0,1380.25,1500
9.769906997680664,437,140,79,0.0026041666666666665,1461.25,1483.8179347826087,1380.25,1500
9.792799949645996,438,140,79,0.002717391304347826,1461.0,1486.195652173913,1380.25,1500
9.815672874450684,439,140,81,0.002898550724637681,1460.625,1490.0,1379.75,1500
9.838724851608276,440,138,81,0.002840909090909091,1460,1488.7895256916995,1379.75,1500
9.861807823181152,441,139,82,0.002898550724637681,1460,1490.0,1379.5,1500
9.884592771530151,442,139,82,0.002898550724637681,1460,1490.0,1379.5,1500
9.907329797744751,443,138,82,0.002898550724637681,1460,1490.0,1379.5,1500
9.9301278591156,444,137,81,0.0026041666666666665,1460,1483.8179347826087,1379.75,1500
9.95290994644165,445,136,81,0.002717391304347826,1460,1486.195652173913,1379.75,1500
9.975701808929443,446,136,81,0.002898550724637681,1460,1490.0,1379.75,1500
9.998514890670776,447,135,80,0.002717391304347826,1460,1486.195652173913,1380.0,1500
10.021531820297241,448,133,80,0.002840909090909091,1460,1488.7895256916995,1380.0,1500
10.044281959533691,449,133,80,0.002840909090909091,1460,1488.7895256916995,1380.0,1500
10.067065954208374,450,134,81,0.002898550724637681,1460,1490.0,1379.75,1500
10.089829921722412,451,134,81,0.002898550724637681,1460,1490.0,1379.75,1500
10.112590789794922,452,134,81,0.002840909090909091,1460,1488.7895256916995,1379.75,1500
10.135342836380005,453,135,82,0.002898550724637681,1460,1490.0,1379.5,1500
10.158116817474365,454,135,82,0.002777777777777778,1460,1487.463768115942,1379.5,1500
10.181272983551025,455,136,82,0.002898550724637681,1460,1490.0,1379.5,1500
10.204081773757935,456,136,82,0.002717391304347826,1460,1486.195652173913,1379.5,1500
10.226867914199829,457,136,82,0.0026041666666666665,1460,1483.8179347826087,1379.5,1500
10.24967098236084,458,137,82,0.002717391304347826,1460,1486.195652173913,1379.5,1500
10.27242398262024,459,137,82,0.002717391304347826,1460,1486.195652173913,1379.5,1500
10.2951979637146,460,138,83,0.002777777777777778,1460,1487.463768115942,1379.25,1500
10.317946910858154,461,138,82,0.0026041666666666665,1460,1483.8179347826087,1379.5,1500
10.340885877609253,462,139,82,0.002717391304347826,1460,1486.195652173913,1379.5,1500
10.363630771636963,463,139,81,0.002898550724637681,1460,1490.0,1379.75,1500
10.386406898498535,464,139,80,0.0030303030303030303,1460,1492.7667984189723,1380.0,1500
10.40930986404419,465,139,79,0.002840909090909091,1460,1488.7895256916995,1380.25,1500
10.432277917861938,466,139,79,0.002898550724637681,1460,1490.0,1380.25,1500
10.455017805099487,467,138,79,0.002717391304347826,1460,1486.195652173913,1380.25,1500
10.477829933166504,468,137,81,0.0030303030303030303,1460,1492.7667984189723,1379.75,1500
10.500602960586548,469,137,83,0.002898550724637681,1460,1490.0,1379.25,1500
10.523362874984741,470,135,85,0.002777777777777778,1460,1487.463768115942,1378.75,1500
10.54609489440918,471,134,87,0.002898550724637681,1460,1490.0,1378.25,1500
10.569024801254272,472,132,89,0.0030303030303030303,1460,1492.7667984189723,1377.75,1500
10.59203290939331,473,132,90,0.002717391304347826,1460,1486.195652173913,1377.5,1500
10.614859819412231,474,131,91,0.002898550724637681,1460,1490.0,1377.25,1500
10.63761591911316,475,130,90,0.0026041666666666665,1460,1483.8179347826087,1377.5,1500
10.660407781600952,476,129,90,0.002898550724637681,1460,1490.0,1377.5,1500
10.683429956436157,477,128,89,0.0030303030303030303,1460,1492.7667984189723,1377.75,1500
10.706249952316284,478,129,87,0.002717391304347826,1460,1486.195652173913,1378.25,1500
10.729156970977783,479,129,86,0.002840909090909091,1460,1488.7895256916995,1378.5,1500
10.752095937728882,480,129,86,0.0030303030303030303,1460,1492.7667984189723,1378.5,1500
10.774842977523804,481,130,85,0.002717391304347826,1460,1486.195652173913,1378.75,1500
10.79764986038208,482,130,85,0.0030303030303030303,1460,1492.7667984189723,1378.75,1500
10.820445775985718,483,131,84,0.002840909090909091,1460,1488.7895256916995,1379.0,1500
10.843244791030884,484,134,85,0.0026666666666666666,1460,1485.1304347826087,1378.75,1500
10.866013765335083,485,132,84,0.002840909090909091,1460,1488.7895256916995,1379.0,1500
10.888921976089478,486,133,84,0.002717391304347826,1460,1486.195652173913,1379.0,1500
10.91175889968872,487,133,84,0.002717391304347826,1460,1486.195652173913,1379.0,1500
10.934549808502197,488,133,84,0.002717391304347826,1460,1486.195652173913,1379.0,1500
10.957295894622803,489,132,85,0.002840909090909091,1460,1488.7895256916995,1378.75,1500
10.980093955993652,490,132,86,0.002717391304347826,1460,1486.195652173913,1378.5,1500
11.002845764160156,491,130,87,0.002717391304347826,1460,1486.195652173913,1378.25,1500
11.025637865066528,492,128,88,0.002840909090909091,1460,1488.7895256916995,1378.0,1500
11.048370838165283,493,127,89,0.002717391304347826,1460,1486.195652173913,1377.75,1500
11.07155179977417,494,125,90,0.0030303030303030303,1460,1492.7667984189723,1377.5,1500
11.094321966171265,495,124,90,0.0030303030303030303,1460,1492.7667984189723,1377.5,1500
11.117100954055786,496,123,89,0.002840909090909091,1460,1488.7895256916995,1377.75,1500
11.13985300064087,497,122,89,0.002840909090909091,1460,1488.7895256916995,1377.75,1500
11.162640810012817,498,121,89,0.002840909090909091,1460,1488.7895256916995,1377.75,1500
11.185398817062378,499,121,89,0.002717391304347826,1460,1486.195652173913,1377.75,1500
11.208256959915161,500,120,89,0.002717391304347826,1460,1486.195652173913,1377.75,1500
11.231490850448608,501,119,90,0.0030303030303030303,1460,1492.7667984189723,1377.5,1500
11.254357814788818,502,118,90,0.002840909090909091,1460,1488.7895256916995,1377.5,1500
11.27713680267334,503,118,91,0.0030303030303030303,1460,1492.7667984189723,1377.25,1500
11.299945831298828,504,119,91,0.002717391304347826,1460,1486.195652173913,1377.25,1500
11.322696924209595,505,119,91,0.002717391304347826,1460,1486.195652173913,1377.25,1500
11.345479965209961,506,119,91,0.002717391304347826,1460,1486.195652173913,1377.25,1500
11.368220806121826,507,120,91,0.002717391304347826,1460,1486.195652173913,1377.25,1500
11.39135479927063,508,120,90,0.002717391304347826,1460,1486.195652173913,1377.5,1500
11.414124965667725,509,121,90,0.002898550724637681,1460,1490.0,1377.5,1500
11.436898946762085,510,122,89,0.002717391304347826,1460,1486.195652173913,1377.75,1500
11.459661960601807,511,122,88,0.002717391304347826,1460,1486.195652173913,1378.0,1500
11.4824697971344,512,122,88,0.002840909090909091,1460,1488.7895256916995,1378.0,1500
11.505216836929321,513,123,89,0.002777777777777778,1460,1487.463768115942,1377.75,1500
11.528014898300171,514,123,89,0.002717391304347826,1460,1486.195652173913,1377.75,1500
11.55093789100647,515,123,89,0.002840909090909091,1460,1488.7895256916995,1377.75,1500
11.573765993118286,516,124,89,0.0026041666666666665,1460,1483.8179347826087,1377.75,1500
11.596536874771118,517,124,89,0.002840909090909091,1460,1488.7895256916995,1377.75,1500
11.619348764419556,518,125,89,0.002777777777777778,1460,1487.463768115942,1377.75,1500
11.642096996307373,519,126,88,0.002717391304347826,1460,1486.195652173913,1378.0,1500
11.664888858795166,520,127,88,0.002898550724637681,1460,1490.0,1378.0,1500
11.687635898590088,521,127,88,0.0030303030303030303,1460,1492.7667984189723,1378.0,1500
11.710446834564209,522,128,87,0.002717391304347826,1460,1486.195652173913,1378.25,1500
11.733212947845459,523,128,87,0.002840909090909091,1460,1488.7895256916995,1378.25,1500
11.756303787231445,524,129,86,0.002840909090909091,1460,1488.7895256916995,1378.5,1500
11.779247999191284,525,130,86,0.002898550724637681,1460,1490.0,1378.5,1500
11.802257776260376,526,131,85,0.002717391304347826,1460,1486.195652173913,1378.75,1500
11.825169801712036,527,130,84,0.002840909090909091,1460,1488.7895256916995,1379.0,1500
11.847962856292725,528,131,84,0.0024509803921568627,1460,1480.6010230179029,1379.0,1500
11.870957851409912,529,130,83,0.002717391304347826,1460,1486.195652173913,1379.25,1500
11.893769979476929,530,130,83,0.002717391304347826,1460,1486.195652173913,1379.25,1500
11.916514873504639,531,129,84,0.002840909090909091,1460,1488.7895256916995,1379.0,1500
11.939303874969482,532,129,84,0.002840909090909091,1460,1488.7895256916995,1379.0,1500
11.962064981460571,533,129,84,0.0026041666666666665,1460,1483.8179347826087,1379.0,1500
11.984936952590942,534,128,84,0.002840909090909091,1460,1488.7895256916995,1379.0,1500
12.00787878036499,535,129,84,0.002717391304347826,1460,1486.195652173913,1379.0,1500
12.030879974365234,536,128,83,0.002840909090909091,1460,1488.7895256916995,1379.25,1500
12.053671836853027,537,128,83,0.002840909090909091,1460,1488.7895256916995,1379.25,1500
12.076499938964844,538,128,83,0.002717391304347826,1460,1486.195652173913,1379.25,1500
12.099318981170654,539,128,83,0.002717391304347826,1460,1486.195652173913,1379.25,1500
12.122150897979736,540,128,83,0.002717391304347826,1460,1486.195652173913,1379.25,1500
12.144884824752808,541,128,83,0.002717391304347826,1460,1486.195652173913,1379.25,1500
12.167672872543335,542,128,84,0.0024509803921568627,1460,1480.6010230179029,1379.0,1500
12.190444946289062,543,127,84,0.002840909090909091,1460,1488.7895256916995,1379.0,1500
12.213244915008545,544,127,84,0.002898550724637681,1460,1490.0,1379.0,1500
12.235972881317139,545,127,84,0.002898550724637681,1460,1490.0,1379.0,1500
12.258906841278076,546,126,83,0.002717391304347826,1460,1486.195652173913,1379.25,1500
12.28186297416687,547,123,84,0.002717391304347826,1460,1486.195652173913,1379.0,1500
12.30465292930603,548,122,84,0.002717391304347826,1460,1486.195652173913,1379.0,1500
12.327408790588379,549,121,85,0.002717391304347826,1460,1486.195652173913,1378.75,1500
12.350194931030273,550,119,85,0.002840909090909091,1460,1488.7895256916995,1378.75,1500
12.372988939285278,551,119,86,0.002717391304347826,1460,1486.195652173913,1378.5,1500
12.395970821380615,552,117,86,0.002840909090909091,1460,1488.7895256916995,1378.5,1500
12.418869972229004,553,116,86,0.002840909090909091,1460,1488.7895256916995,1378.5,1500
12.441767930984497,554,116,86,0.002840909090909091,1460,1488.7895256916995,1378.5,1500
12.46455192565918,555,116,87,0.002717391304347826,1460,1486.195652173913,1378.25,1500
12.487381935119629,556,115,87,0.002717391304347826,1460,1486.195652173913,1378.25,1500
12.510142803192139,557,115,87,0.0026041666666666665,1460,1483.8179347826087,1378.25,1500
12.53294587135315,558,115,87,0.002717391304347826,1460,1486.195652173913,1378.25,1500
12.555704832077026,559,115,87,0.002717391304347826,1460,1486.195652173913,1378.25,1500
12.57867693901062,560,115,87,0.002717391304347826,1460,1486.195652173913,1378.25,1500
12.601606845855713,561,115,87,0.002717391304347826,1460,1486.195652173913,1378.25,1500
12.624408960342407,562,115,87,0.002717391304347826,1460,1486.195652173913,1378.25,1500
12.647171974182129,563,116,88,0.002717391304347826,1460,1486.195652173913,1378.0,1500
12.669957876205444,564,115,88,0.002840909090909091,1460,1488.7895256916995,1378.0,1500
12.692720890045166,565,117,89,0.002717391304347826,1460,1486.195652173913,1377.75,1500
12.715522766113281,566,117,89,0.002717391304347826,1460,1486.195652173913,1377.75,1500
12.738263845443726,567,117,89,0.002717391304347826,1460,1486.195652173913,1377.75,1500
12.761400938034058,568,117,89,0.002717391304347826,1460,1486.195652173913,1377.75,1500
12.784190893173218,569,117,88,0.002717391304347826,1460,1486.195652173913,1378.0,1500
12.806988954544067,570,118,87,0.002717391304347826,1460,1486.195652173913,1378.25,1500
12.830062866210938,571,118,87,0.002717391304347826,1460,1486.195652173913,1378.25,1500
12.852898836135864,572,118,87,0.0030303030303030303,1460,1492.7667984189723,1378.25,1500
12.875667810440063,573,118,86,0.002840909090909091,1460,1488.7895256916995,1378.5,1500
12.898534774780273,574,120,85,0.002717391304347826,1460,1486.195652173913,1378.75,1500
12.921364784240723,575,120,85,0.002717391304347826,1460,1486.195652173913,1378.75,1500
12.944142818450928,576,120,85,0.002840909090909091,1460,1488.7895256916995,1378.75,1500
12.966880798339844,577,121,85,0.002717391304347826,1460,1486.195652173913,1378.75,1500
12.98966383934021,578,121,85,0.002717391304347826,1460,1486.195652173913,1378.75,1500
13.012473821640015,579,121,85,0.002717391304347826,1460,1486.195652173913,1378.75,1500
13.035448789596558,580,121,86,0.002717391304347826,1460,1486.195652173913,1378.5,1500
13.05826997756958,581,120,86,0.0026041666666666665,1460,1483.8179347826087,1378.5,1500
13.0814208984375,582,120,86,0.002717391304347826,1460,1486.195652173913,1378.5,1500
13.104188919067383,583,120,84,0.002717391304347826,1460,1486.195652173913,1379.0,1500
13.126961946487427,584,119,83,0.002840909090909091,1460,1488.7895256916995,1379.25,1500
13.14970588684082,585,119,82,0.002717391304347826,1460,1486.195652173913,1379.5,1500
13.172502994537354,586,119,81,0.002898550724637681,1460,1490.0,1379.75,1500
13.195228815078735,587,118,79,0.002717391304347826,1460,1486.195652173913,1380.25,1500
13.218068838119507,588,118,79,0.002898550724637681,1460,1490.0,1380.25,1500
13.241386890411377,589,118,77,0.002717391304347826,1460,1486.195652173913,1380.75,1500
13.264256954193115,590,118,77,0.002717391304347826,1460,1486.195652173913,1380.75,1500
13.28705096244812,591,118,77,0.0026041666666666665,1460,1483.8179347826087,1380.75,1500
13.309851884841919,592,118,78,0.002717391304347826,1460,1486.195652173913,1380.5,1500
13.33259391784668,593,118,79,0.002717391304347826,1460,1486.195652173913,1380.25,1500
13.355374813079834,594,117,80,0.002840909090909091,1460,1488.7895256916995,1380.0,1500
13.378126859664917,595,118,80,0.002717391304347826,1460,1486.195652173913,1380.0,1500
13.401248931884766,596,118,81,0.0025575447570332483,1460,1482.8388746803068,1379.75,1500
13.424006938934326,597,118,81,0.0026041666666666665,1460,1483.8179347826087,1379.75,1500
13.446797847747803,598,118,81,0.002840909090909091,1460,1488.7895256916995,1379.75,1500
13.46955394744873,599,119,81,0.0026041666666666665,1460,1483.8179347826087,1379.75,1500
13.492370843887329,600,120,80,0.0026041666666666665,1460,1483.8179347826087,1380.0,1500
13.515135765075684,601,121,80,0.002717391304347826,1460,1486.195652173913,1380.0,1500
13.537922859191895,602,121,80,0.002717391304347826,1460,1486.195652173913,1380.0,1500
13.560853958129883,603,122,81,0.0025575447570332483,1460,1482.8388746803068,1379.75,1500
13.583688974380493,604,122,81,0.002717391304347826,1460,1486.195652173913,1379.75,1500
13.606452941894531,605,123,81,0.0025575447570332483,1460,1482.8388746803068,1379.75,1500
13.629241943359375,606,123,80,0.002840909090909091,1460,1488.7895256916995,1380.0,1500
13.651977777481079,607,124,80,0.0026041666666666665,1460,1483.8179347826087,1380.0,1500
13.674755811691284,608,125,80,0.002717391304347826,1460,1486.195652173913,1380.0,1500
13.697489976882935,609,126,80,0.0025575447570332483,1460,1482.8388746803068,1380.0,1500
13.720282793045044,610,126,80,0.002898550724637681,1460,1490.0,1380.0,1500
13.742998838424683,611,126,80,0.002840909090909091,1460,1488.7895256916995,1380.0,1500
13.765812873840332,612,127,81,0.002898550724637681,1460,1490.0,1379.75,1500
13.788765907287598,613,127,81,0.0026041666666666665,1460,1483.8179347826087,1379.75,1500
13.811661958694458,614,128,81,0.002717391304347826,1460,1486.195652173913,1379.75,1500
13.83444094657898,615,128,81,0.002717391304347826,1460,1486.195652173913,1379.75,1500
13.857221841812134,616,127,81,0.002840909090909091,1460,1488.7895256916995,1379.75,1500
13.879997968673706,617,128,81,0.002717391304347826,1460,1486.195652173913,1379.75,1500
13.903099775314331,618,128,81,0.0026041666666666665,1460,1483.8179347826087,1379.75,1500
13.925882816314697,619,129,80,0.00267379679144385,1460,1485.2801674029295,1380.0,1500
13.948839902877808,620,130,79,0.002717391304347826,1460,1486.195652173913,1380.25,1500
13.971783876419067,621,130,78,0.002840909090909091,1460,1488.7895256916995,1380.5,1500
13.994565963745117,622,131,78,0.002717391304347826,1460,1486.195652173913,1380.5,1500
14.017319917678833,623,131,78,0.0026041666666666665,1460,1483.8179347826087,1380.5,1500
14.04009485244751,624,131,79,0.0026041666666666665,1460,1483.8179347826087,1380.25,1500
14.062841892242432,625,130,79,0.002840909090909091,1460,1488.7895256916995,1380.25,1500
14.085643768310547,626,130,80,0.002717391304347826,1460,1486.195652173913,1380.0,1500
14.108384847640991,627,129,81,0.0026041666666666665,1460,1483.8179347826087,1379.75,1500
14.131523847579956,628,127,82,0.0026041666666666665,1460,1483.8179347826087,1379.5,1500
14.1543128490448,629,125,82,0.002840909090909091,1460,1488.7895256916995,1379.5,1500
14.17709994316101,630,125,83,0.0024509803921568627,1460,1480.6010230179029,1379.25,1500
14.199846982955933,631,124,82,0.0026041666666666665,1460,1483.8179347826087,1379.5,1500
14.22262191772461,632,123,82,0.002717391304347826,1460,1486.195652173913,1379.5,1500
14.245352983474731,633,122,83,0.0025575447570332483,1460,1482.8388746803068,1379.25,1500
14.268173933029175,634,121,83,0.0025575447570332483,1460,1482.8388746803068,1379.25,1500
14.291062831878662,635,121,84,0.0025575447570332483,1460,1482.8388746803068,1379.0,1500
14.3138427734375,636,120,85,0.002717391304347826,1460,1486.195652173913,1378.75,1500
14.336587905883789,637,120,88,0.0025,1460,1481.6304347826087,1378.0,1500
14.359370946884155,638,119,89,0.002717391304347826,1460,1486.195652173913,1377.75,1500
14.382117986679077,639,119,90,0.002717391304347826,1460,1486.195652173913,1377.5,1500
14.404897928237915,640,119,90,0.002717391304347826,1460,1486.195652173913,1377.5,1500
14.427631855010986,641,119,90,0.002840909090909091,1460,1488.7895256916995,1377.5,1500
14.45041298866272,642,120,90,0.0026041666666666665,1460,1483.8179347826087,1377.5,1500
14.473159790039062,643,121,90,0.002717391304347826,1460,1486.195652173913,1377.5,1500
14.495983839035034,644,123,90,0.0025,1460,1481.6304347826087,1377.5,1500
14.518882989883423,645,122,91,0.002717391304347826,1460,1486.195652173913,1377.25,1500
14.541847944259644,646,123,93,0.002840909090909091,1460,1488.7895256916995,1376.75,1500
14.564616918563843,647,124,95,0.002840909090909091,1460,1488.7895256916995,1376.25,1500
14.587435960769653,648,126,97,0.0026041666666666665,1460,1483.8179347826087,1375.75,1500
14.610195875167847,649,126,98,0.002840909090909091,1460,1488.7895256916995,1375.5,1500
14.63297986984253,650,129,100,0.0025,1460,1481.6304347826087,1375.0,1500
14.655688762664795,651,130,101,0.0025,1460,1481.6304347826087,1374.75,1500
14.678603887557983,652,132,102,0.002840909090909091,1460,1488.7895256916995,1374.5,1500
14.701538801193237,653,130,102,0.0026041666666666665,1460,1483.8179347826087,1374.5,1500
14.724369764328003,654,133,103,0.002352941176470588,1460,1478.542199488491,1374.25,1500
14.747121810913086,655,134,103,0.0025,1460,1481.6304347826087,1374.25,1500
14.76988697052002,656,136,103,0.002717391304347826,1460,1486.195652173913,1374.25,1500
14.792622804641724,657,139,103,0.0025,1460,1481.6304347826087,1374.25,1500
14.815385818481445,658,141,103,0.002403846153846154,1460,1479.611204013378,1374.25,1500
14.838204860687256,659,141,104,0.002840909090909091,1460,1488.7895256916995,1374.0,1500
14.86133885383606,660,144,105,0.0025575447570332483,1460,1482.8388746803068,1373.75,1500
14.884095907211304,661,147,105,0.002403846153846154,1462.375,1479.611204013378,1373.75,1500
14.906946897506714,662,147,106,0.002840909090909091,1464.25,1488.7895256916995,1373.5,1500
14.92978286743164,663,150,105,0.002403846153846154,1469.0,1479.611204013378,1373.75,1500
14.952713966369629,664,151,105,0.002717391304347826,1472.0,1486.195652173913,1373.75,1500
14.97953486442566,665,153,104,0.002403846153846154,1475.875,1479.611204013378,1374.0,1500
15.002554893493652,666,153,104,0.0022624434389140274,1478.0,1476.6417469998032,1374.0,1500
15.025404930114746,667,153,104,0.002403846153846154,1479.75,1479.611204013378,1374.0,1500
15.048268795013428,668,153,105,0.002403846153846154,1481.25,1479.611204013378,1373.75,1500
15.071318864822388,669,152,106,0.0025575447570332483,1481.875,1482.8388746803068,1373.5,1500
15.094217777252197,670,152,106,0.002564102564102564,1482.875,1482.9765886287626,1373.5,1500
15.117047786712646,671,152,106,0.0025,1483.5,1481.6304347826087,1373.5,1500
15.139904975891113,672,151,105,0.0024509803921568627,1483.25,1480.6010230179029,1373.75,1500
15.162767887115479,673,151,103,0.002717391304347826,1483.375,1486.195652173913,1374.25,1500
15.185632944107056,674,151,102,0.002717391304347826,1483.375,1486.195652173913,1374.5,1500
15.20862889289856,675,152,102,0.0026041666666666665,1484.0,1483.8179347826087,1374.5,1500
15.231827974319458,676,153,101,0.0026041666666666665,1484.75,1483.8179347826087,1374.75,1500
15.254725933074951,677,156,101,0.0026666666666666666,1487.375,1485.1304347826087,1374.75,1500
15.277647972106934,678,155,100,0.002840909090909091,1486.875,1488.7895256916995,1375.0,1500
15.300503969192505,679,157,100,0.0026041666666666665,1489.0,1483.8179347826087,1375.0,1500
15.32339096069336,680,158,97,0.002840909090909091,1490.5,1488.7895256916995,1375.75,1500
15.346272945404053,681,158,95,0.0030303030303030303,1491.25,1492.7667984189723,1376.25,1500
15.369280815124512,682,158,91,0.004545454545454545,1492.125,1510,1377.25,1500
15.392180919647217,683,157,93,0.002840909090909091,1492.125,1488.7895256916995,1376.75,1500
15.415039777755737,684,156,92,0.0026041666666666665,1492.0,1483.8179347826087,1377.0,1500
15.437869787216187,685,155,92,0.0026041666666666665,1491.625,1483.8179347826087,1377.0,1500
15.460901975631714,686,154,92,0.002898550724637681,1491.0,1490.0,1377.0,1500
15.483727931976318,687,153,92,0.002898550724637681,1489.875,1490.0,1377.0,1500
15.506597995758057,688,152,92,0.002717391304347826,1488.75,1486.195652173913,1377.0,1500
15.5294349193573,689,149,93,0.002840909090909091,1485.5,1488.7895256916995,1376.75,1500
15.552308797836304,690,149,95,0.002717391304347826,1484.375,1486.195652173913,1376.25,1500
15.575183868408203,691,149,98,0.002898550724637681,1483.25,1490.0,1375.5,1500
15.598017930984497,692,149,102,0.002898550724637681,1482.125,1490.0,1374.5,1500
15.620942831039429,693,149,105,0.002898550724637681,1481.125,1490.0,1373.75,1500
