time,frame,x,y,size_inv,roll,pitch,thrust,yaw
0.0003731250762939453,1,158,66,0.0012285012285012285,1499.75,1490.0,1358.5,1500
0.022390127182006836,2,157,66,0.0013227513227513227,1499.575,1491.036751036751,1358.5,1500
0.04421401023864746,3,157,66,0.0012626262626262627,1499.5,1490.4696254696255,1358.5,1500
0.06593012809753418,4,157,66,0.0012626262626262627,1499.425,1490.5037505037506,1358.5,1500
0.08759212493896484,5,158,66,0.0012285012285012285,1499.4749999999999,1490.1625001625002,1358.5,1500
0.10937619209289551,6,157,66,0.0012626262626262627,1499.3,1490.5378755378756,1358.5,1500
0.13103103637695312,7,157,66,0.0012626262626262627,1499.2249999999999,1490.5720005720007,1358.5,1500
0.15273499488830566,8,157,66,0.0012626262626262627,1499.1500000000001,1490.6061256061257,1358.5,1500
0.17438507080078125,9,157,66,0.0012987012987012987,1499.075,1491.0370760370761,1358.5,1500
0.19572901725769043,10,157,66,0.0012626262626262627,1499.0,1490.7104507104507,1358.5,1500
0.21752309799194336,11,157,66,0.0012077294685990338,1499.0050000000001,1490.1407110102762,1358.5,1500
0.2395801544189453,12,157,66,0.0012626262626262627,1499.0050000000001,1490.6295538904235,1358.5,1500
0.26151204109191895,13,157,66,0.0012626262626262627,1499.0050000000001,1490.6295538904235,1358.5,1500
0.28347301483154297,14,157,66,0.0012626262626262627,1499.0050000000001,1490.6295538904235,1358.5,1500
0.30539608001708984,15,157,66,0.0012987012987012987,1498.95,1491.0605043213739,1358.5,1500
0.32736706733703613,16,157,66,0.0013227513227513227,1498.95,1491.3611296219992,1358.5,1500
0.3493621349334717,17,157,66,0.0012626262626262627,1498.95,1490.7598790207485,1358.5,1500
0.37136411666870117,18,157,66,0.0012626262626262627,1498.95,1490.7598790207485,1358.5,1500
0.39345812797546387,19,157,66,0.0012626262626262627,1498.95,1490.7238039846736,1358.5,1500
0.41557812690734863,20,157,66,0.0012626262626262627,1498.95,1490.7238039846736,1358.5,1500
0.43796515464782715,21,157,66,0.0012987012987012987,1498.95,1491.1755261755261,1358.5,1500
0.46157217025756836,22,157,66,0.0012987012987012987,1498.95,1491.2116012116012,1358.5,1500
0.48496317863464355,23,157,66,0.0012987012987012987,1498.95,1491.2476762476763,1358.5,1500
0.5084550380706787,24,157,66,0.0012626262626262627,1498.95,1490.8869258869258,1358.5,1500
0.531947135925293,25,157,66,0.0012626262626262627,1498.95,1490.8508508508507,1358.5,1500
0.5554471015930176,26,157,66,0.0013227513227513227,1498.95,1491.4521014521015,1358.5,1500
0.5788500308990479,27,157,66,0.0012077294685990338,1498.95,1490.2469861165514,1358.5,1500
0.6024031639099121,28,157,66,0.0012077294685990338,1498.95,1490.192089322524,1358.5,1500
0.625791072845459,29,158,66,0.0011750881316098707,1499.0450000000001,1489.7781378216162,1358.5,1500
0.6493639945983887,30,157,66,0.0012626262626262627,1498.9449999999999,1490.6535191317801,1358.5,1500
0.6727700233459473,31,157,66,0.0012626262626262627,1498.9449999999999,1490.617444095705,1358.5,1500
0.6962130069732666,32,157,66,0.0012987012987012987,1498.9449999999999,1490.9781944564554,1358.5,1500
0.719588041305542,33,158,66,0.0012285012285012285,1499.04,1490.2059936842545,1358.5,1500
0.7430670261383057,34,157,66,0.0012077294685990338,1499.0,1489.9433792912055,1358.5,1500
0.7664451599121094,35,157,66,0.0012626262626262627,1499.0,1490.4923472314777,1358.5,1500
0.7899131774902344,36,157,66,0.0012422360248447205,1499.0,1490.2079295557558,1358.5,1500
0.8132781982421875,37,157,66,0.0012987012987012987,1499.0,1490.8635541244237,1358.5,1500
0.8367781639099121,38,157,66,0.0012626262626262627,1499.0599999999999,1490.5577005577006,1358.5,1500
0.860572099685669,39,157,66,0.0012626262626262627,1499.0050000000001,1490.645238688717,1358.5,1500
0.8842301368713379,40,157,66,0.0013227513227513227,1499.0050000000001,1491.3066143500926,1358.5,1500
0.9077579975128174,41,157,66,0.0012626262626262627,1499.0050000000001,1490.705363748842,1358.5,1500
0.9313311576843262,42,157,66,0.0012077294685990338,1499.0050000000001,1490.0654239784674,1358.5,1500
0.9548051357269287,43,157,66,0.0012626262626262627,1498.95,1490.6485169528648,1358.5,1500
0.9785821437835693,44,157,66,0.0012626262626262627,1498.95,1490.703413746892,1358.5,1500
1.0021350383758545,45,157,66,0.0012626262626262627,1498.95,1490.703413746892,1358.5,1500
1.0255300998687744,46,157,66,0.0012987012987012987,1498.95,1491.1206293814989,1358.5,1500
1.0490200519561768,47,157,66,0.0012626262626262627,1498.95,1490.7238039846736,1358.5,1500
1.0724411010742188,48,157,66,0.0012626262626262627,1498.95,1490.7238039846736,1358.5,1500
1.0958821773529053,49,157,66,0.0012626262626262627,1498.95,1490.7238039846736,1358.5,1500
1.1192572116851807,50,157,66,0.0012626262626262627,1498.95,1490.6636789245485,1358.5,1500
1.1427052021026611,51,158,66,0.0012285012285012285,1499.0450000000001,1490.2883035491732,1358.5,1500
1.166086196899414,52,157,66,0.0012626262626262627,1498.9449999999999,1490.6844506844507,1358.5,1500
1.1895442008972168,53,157,66,0.0012626262626262627,1498.9449999999999,1490.6844506844507,1358.5,1500
1.2129402160644531,54,158,66,0.0012285012285012285,1499.04,1490.3090753090753,1358.5,1500
1.236457109451294,55,158,63,0.0019047619047619048,1499.0350000000001,1497.7138177138177,1359.25,1500
1.2601580619812012,56,157,66,0.0012987012987012987,1498.9949999999999,1491.6532116532117,1358.5,1500
1.283682107925415,57,158,66,0.0012285012285012285,1499.0899999999999,1490.9170859170858,1358.5,1500
1.3071000576019287,58,157,66,0.0012626262626262627,1498.99,1491.2583362583362,1358.5,1500
1.3307011127471924,59,157,66,0.0012077294685990338,1499.05,1490.6544715240368,1358.5,1500
1.354126214981079,60,157,66,0.0012626262626262627,1499.1099999999999,1491.203439464309,1358.5,1500
1.3775889873504639,61,157,66,0.0012626262626262627,1499.0550000000001,1491.237564498434,1358.5,1500
1.401158094406128,62,157,66,0.0012987012987012987,1499.115,1491.6343898952596,1358.5,1500
1.4246420860290527,63,157,66,0.0012626262626262627,1499.115,1491.2736395345091,1358.5,1500
1.4481451511383057,64,157,66,0.0012987012987012987,1499.0599999999999,1491.7045899654595,1358.5,1500
1.4716792106628418,65,157,66,0.0012626262626262627,1499.0050000000001,1490.7017039625734,1358.5,1500
1.4950611591339111,66,157,66,0.0012626262626262627,1499.0050000000001,1490.6656289264986,1358.5,1500
1.5186491012573242,67,157,66,0.0012626262626262627,1498.95,1490.6997539606236,1358.5,1500
1.5422041416168213,68,157,66,0.0012626262626262627,1498.95,1490.6997539606236,1358.5,1500
1.565683126449585,69,157,66,0.0012626262626262627,1498.95,1490.7546507546508,1358.5,1500
1.5890750885009766,70,157,66,0.0012987012987012987,1498.95,1491.1514761514761,1358.5,1500
1.6125061511993408,71,157,66,0.0012626262626262627,1498.95,1490.7907257907259,1358.5,1500
1.635883092880249,72,157,66,0.0012987012987012987,1498.95,1491.1514761514761,1358.5,1500
1.6593902111053467,73,157,66,0.0012626262626262627,1498.95,1490.7907257907259,1358.5,1500
1.6827731132507324,74,157,66,0.0012987012987012987,1498.95,1491.1514761514761,1358.5,1500
1.706282138824463,75,157,66,0.0012626262626262627,1498.95,1490.7907257907259,1358.5,1500
1.7297801971435547,76,157,66,0.0012987012987012987,1498.95,1491.1875511875512,1358.5,1500
1.7532939910888672,77,157,66,0.0012077294685990338,1498.95,1490.2229360925014,1358.5,1500
1.7767560482025146,78,158,66,0.0012285012285012285,1499.0450000000001,1490.3965286573982,1358.5,1500
1.8002262115478516,79,157,66,0.0012626262626262627,1498.9449999999999,1490.7377789986485,1358.5,1500
1.8237671852111816,80,157,66,0.0012626262626262627,1498.9449999999999,1490.7017039625734,1358.5,1500
1.847480058670044,81,157,66,0.0012626262626262627,1498.9449999999999,1490.7017039625734,1358.5,1500
1.8710660934448242,82,157,66,0.0012987012987012987,1498.9449999999999,1491.0624543233239,1358.5,1500
1.8945591449737549,83,157,66,0.0012077294685990338,1499.0050000000001,1490.0978392282741,1358.5,1500
1.9180622100830078,84,157,66,0.0012987012987012987,1499.0050000000001,1491.0075575292967,1358.5,1500
1.9416730403900146,85,157,66,0.0012626262626262627,1499.0050000000001,1490.6468071685463,1358.5,1500
1.9650671482086182,86,157,66,0.0012077294685990338,1499.0050000000001,1490.0068673981718,1358.5,1500
1.9887821674346924,87,157,66,0.0012626262626262627,1499.0050000000001,1490.6107321324712,1358.5,1500
2.012230157852173,88,157,66,0.0012077294685990338,1498.95,1490.0409924322969,1358.5,1500
2.0357131958007812,89,157,66,0.0012987012987012987,1498.95,1490.9867857693944,1358.5,1500
2.0591351985931396,90,157,66,0.0012987012987012987,1498.95,1491.0228608054695,1358.5,1500
2.0825819969177246,91,157,66,0.0012987012987012987,1498.95,1491.0589358415446,1358.5,1500
2.1059741973876953,92,157,66,0.0012626262626262627,1498.95,1490.6621104447192,1358.5,1500
2.1294050216674805,93,157,66,0.0012987012987012987,1498.95,1491.1138326355717,1358.5,1500
2.1527981758117676,94,157,66,0.0012987012987012987,1498.95,1491.1138326355717,1358.5,1500
2.1762351989746094,95,158,66,0.0012285012285012285,1499.0450000000001,1490.3777068994461,1358.5,1500
2.1996140480041504,96,157,66,0.0013605442176870747,1498.9449999999999,1491.8509515403925,1358.5,1500
2.2230889797210693,97,157,66,0.0012626262626262627,1498.9449999999999,1490.8717719897845,1358.5,1500
2.2465062141418457,98,157,66,0.0012987012987012987,1498.9449999999999,1491.323494180637,1358.5,1500
2.2699220180511475,99,157,66,0.0012626262626262627,1498.9449999999999,1490.9266687838117,1358.5,1500
2.293426990509033,100,158,66,0.0012285012285012285,1499.0999999999999,1490.5152183723612,1358.5,1500
2.316824197769165,101,157,66,0.0012987012987012987,1499.0,1491.217219074362,1358.5,1500
2.339709997177124,102,157,66,0.0012626262626262627,1499.0,1490.8564687136115,1358.5,1500
2.363598108291626,103,157,66,0.0012626262626262627,1499.0,1490.8203936775365,1358.5,1500
2.387543201446533,104,157,66,0.0012626262626262627,1499.0,1490.7843186414616,1358.5,1500
2.4116480350494385,105,158,66,0.0012285012285012285,1499.0999999999999,1490.4430683002111,1358.5,1500
2.4355530738830566,106,157,66,0.0013227513227513227,1499.0,1491.3477763477763,1358.5,1500
2.459459066390991,107,157,66,0.0012626262626262627,1499.0,1490.7465257465258,1358.5,1500
2.482976198196411,108,157,66,0.0013227513227513227,1499.0,1491.3718263718263,1358.5,1500
2.5063881874084473,109,157,66,0.0012626262626262627,1499.0,1490.7705757705758,1358.5,1500
2.529879093170166,110,157,66,0.0012987012987012987,1499.0050000000001,1491.2015262015261,1358.5,1500
2.553319215774536,111,157,66,0.0012987012987012987,1499.0050000000001,1491.2015262015261,1358.5,1500
2.576770067214966,112,158,66,0.0012285012285012285,1499.0999999999999,1490.4654004654005,1358.5,1500
2.600314140319824,113,157,66,0.0012987012987012987,1499.0,1491.2034762034762,1358.5,1500
2.6237261295318604,114,157,66,0.0012626262626262627,1499.0,1490.8427258427259,1358.5,1500
2.647243022918701,115,157,66,0.0012987012987012987,1498.9449999999999,1491.2736762736763,1358.5,1500
2.67080020904541,116,158,66,0.0012285012285012285,1499.04,1490.4774254774254,1358.5,1500
2.694324016571045,117,157,66,0.0012987012987012987,1499.0,1491.2155012155013,1358.5,1500
2.717750072479248,118,157,66,0.0012987012987012987,1499.0,1491.1914511914513,1358.5,1500
2.7414801120758057,119,157,66,0.0012987012987012987,1499.0,1491.2275262275261,1358.5,1500
2.7648861408233643,120,157,66,0.0012285012285012285,1499.0,1490.4553254553255,1358.5,1500
2.7883570194244385,121,157,66,0.0012626262626262627,1499.0599999999999,1490.7605007605007,1358.5,1500
2.811953067779541,122,157,66,0.0012626262626262627,1499.0050000000001,1490.7946257946257,1358.5,1500
2.83537220954895,123,157,66,0.0012626262626262627,1499.0050000000001,1490.7585507585507,1358.5,1500
2.8588809967041016,124,157,66,0.0012987012987012987,1499.0050000000001,1491.1553761553762,1358.5,1500
2.882296085357666,125,157,66,0.0012626262626262627,1499.0050000000001,1490.7585507585507,1358.5,1500
2.905832052230835,126,157,66,0.0012422360248447205,1498.95,1490.5683831770789,1358.5,1500
2.9292449951171875,127,157,66,0.0012422360248447205,1498.95,1490.5119179032222,1358.5,1500
2.952754020690918,128,157,66,0.0012626262626262627,1498.95,1490.6797452449625,1358.5,1500
2.9761722087860107,129,157,66,0.0012077294685990338,1498.95,1490.0398054745881,1358.5,1500
2.9998891353607178,130,157,66,0.0013227513227513227,1498.95,1491.2842741103611,1358.5,1500
3.0233511924743652,131,157,66,0.0012987012987012987,1498.95,1491.0798489059359,1358.5,1500
3.046847105026245,132,157,66,0.0012626262626262627,1498.95,1490.7190985451855,1358.5,1500
3.070277214050293,133,158,66,0.0011750881316098707,1499.0450000000001,1489.7561791040052,1358.5,1500
3.09375,134,157,66,0.0012626262626262627,1498.9449999999999,1490.5954853780941,1358.5,1500
3.1171631813049316,135,157,66,0.0012422360248447205,1498.9449999999999,1490.371192762497,1358.5,1500
3.1408960819244385,136,157,66,0.0013227513227513227,1498.9449999999999,1491.2568610394696,1358.5,1500
3.164350986480713,137,157,66,0.0012626262626262627,1498.9449999999999,1490.6760006760007,1358.5,1500
3.187894105911255,138,157,66,0.0012077294685990338,1499.0050000000001,1490.0721359417012,1358.5,1500
3.2113962173461914,139,156,66,0.0012626262626262627,1498.9100000000001,1490.6760006760007,1358.5,1500
3.2348830699920654,140,156,66,0.0012626262626262627,1498.915,1490.6158756158757,1358.5,1500
3.258390188217163,141,156,66,0.0012626262626262627,1498.9200000000001,1490.5798005798006,1358.5,1500
3.2819390296936035,142,156,66,0.0012626262626262627,1498.925,1490.5798005798006,1358.5,1500
3.3053221702575684,143,156,66,0.0012626262626262627,1498.875,1490.6673387108169,1358.5,1500
3.328768014907837,144,156,66,0.0012626262626262627,1498.8199999999999,1490.6673387108169,1358.5,1500
3.352187156677246,145,155,66,0.0012987012987012987,1498.6700000000001,1491.0845543454238,1358.5,1500
3.375636100769043,146,155,66,0.0012987012987012987,1498.6199999999999,1491.0605043213739,1358.5,1500
3.399064064025879,147,155,66,0.0012626262626262627,1498.5699999999999,1490.6997539606236,1358.5,1500
3.4225361347198486,148,154,66,0.0012987012987012987,1498.425,1491.1514761514761,1358.5,1500
3.4459691047668457,149,154,67,0.0013227513227513227,1498.4349999999999,1491.4521014521015,1358.25,1500
3.469421148300171,150,153,66,0.001336898395721925,1498.29,1491.667844314903,1358.5,1500
3.492802143096924,151,153,66,0.0013774104683195593,1498.2449999999999,1492.1877492465728,1358.5,1500
3.51627516746521,152,153,66,0.001336898395721925,1498.2,1491.856900653692,1358.5,1500
3.5396931171417236,153,152,66,0.0014204545454545455,1498.0,1492.8502904338466,1358.5,1500
3.5632171630859375,154,151,66,0.0014204545454545455,1497.8050000000001,1493.008118716675,1358.5,1500
3.586623191833496,155,151,67,0.0015873015873015873,1497.7049999999999,1494.9651894237456,1358.25,1500
3.6100680828094482,156,151,66,0.0014204545454545455,1497.605,1493.4184722520283,1358.5,1500
3.6335091590881348,157,151,66,0.001466275659824047,1497.5050000000001,1494.0803327929211,1358.5,1500
3.657194137573242,158,151,66,0.001466275659824047,1497.4000000000001,1494.247907154044,1358.5,1500
3.6807920932769775,159,150,66,0.0015151515151515152,1497.1400000000001,1494.9290658997188,1358.5,1500
3.704270124435425,160,150,66,0.0015151515151515152,1497.0350000000001,1495.1073190191485,1358.5,1500
3.7276771068573,161,150,66,0.001567398119122257,1496.9300000000001,1495.8197727096585,1358.5,1500
3.75134015083313,162,150,66,0.001567398119122257,1496.825,1496.0502724330588,1358.5,1500
3.774818181991577,163,150,66,0.001567398119122257,1496.7750000000001,1496.1972160067266,1358.5,1500
3.798333168029785,164,149,66,0.0016233766233766235,1496.625,1496.9599231271923,1358.5,1500
3.8219151496887207,165,150,67,0.0016420361247947454,1496.6700000000001,1497.2012526788667,1358.25,1500
3.845633029937744,166,149,66,0.0016835016835016834,1496.52,1497.8789554039831,1358.5,1500
3.8690860271453857,167,150,66,0.001567398119122257,1496.5650000000001,1496.8190422194871,1358.5,1500
3.892599105834961,168,149,67,0.001763668430335097,1496.415,1499.0791381021265,1358.25,1500
3.915999174118042,169,150,66,0.001567398119122257,1496.4549999999999,1497.168681593969,1358.5,1500
3.939453125,170,150,66,0.001567398119122257,1496.4549999999999,1497.2209281979397,1358.5,1500
3.96284818649292,171,149,66,0.0016835016835016834,1496.3,1498.4980674061135,1358.5,1500
3.986598014831543,172,150,66,0.001567398119122257,1496.4000000000001,1497.3370317623192,1358.5,1500
4.01005220413208,173,150,66,0.001567398119122257,1496.3399999999999,1497.3370317623192,1358.5,1500
4.033524990081787,174,151,66,0.001567398119122257,1496.49,1497.2810532580647,1358.5,1500
4.056998014450073,175,151,66,0.0014492753623188406,1496.4849999999999,1495.9070649275548,1358.5,1500
4.080607175827026,176,151,67,0.0015360983102918587,1496.4749999999999,1496.627891034075,1358.25,1500
4.104014158248901,177,151,66,0.001466275659824047,1496.47,1495.8285420700988,1358.5,1500
4.127457141876221,178,151,66,0.0014204545454545455,1496.52,1495.0271170415231,1358.5,1500
4.1510021686553955,179,152,66,0.001466275659824047,1496.6700000000001,1495.3842057259199,1358.5,1500
4.174511194229126,180,152,66,0.001466275659824047,1496.72,1495.2830832666218,1358.5,1500
4.1979570388793945,181,153,66,0.0013774104683195593,1496.9200000000001,1494.0883401363947,1358.5,1500
4.221532106399536,182,153,66,0.0013774104683195593,1496.9649999999999,1493.8983524855921,1358.5,1500
4.244998216629028,183,153,66,0.0013774104683195593,1497.01,1493.7083648347893,1358.5,1500
4.267966032028198,184,153,66,0.001336898395721925,1497.0599999999999,1493.0727443854128,1358.5,1500
4.291908025741577,185,153,66,0.001336898395721925,1497.1099999999999,1492.9603674188158,1358.5,1500
4.315876007080078,186,153,66,0.001336898395721925,1497.22,1492.7611675042458,1358.5,1500
4.339801073074341,187,153,66,0.001336898395721925,1497.3299999999999,1492.6317902401438,1358.5,1500
4.363692045211792,188,154,66,0.001336898395721925,1497.5350000000001,1492.5482340904111,1358.5,1500
4.387561082839966,189,154,66,0.001336898395721925,1497.585,1492.4188568263089,1358.5,1500
4.411591053009033,190,155,66,0.0012987012987012987,1497.73,1491.8693114949799,1358.5,1500
4.435448169708252,191,155,66,0.0012626262626262627,1497.72,1491.3937769285362,1358.5,1500
4.4596099853515625,192,155,66,0.0012987012987012987,1497.71,1491.6758181196683,1358.5,1500
4.483475208282471,193,155,66,0.0012987012987012987,1497.76,1491.5971089500501,1358.5,1500
4.5073401927948,194,155,66,0.0012987012987012987,1497.8099999999999,1491.5589118530295,1358.5,1500
4.5316221714019775,195,155,66,0.0012626262626262627,1497.9200000000001,1491.1238893591835,1358.5,1500
4.555558204650879,196,155,66,0.0012626262626262627,1498.03,1491.0496172260878,1358.5,1500
4.579668998718262,197,155,66,0.0012987012987012987,1498.1400000000001,1491.3721704898176,1358.5,1500
4.603502988815308,198,155,66,0.0012987012987012987,1498.1949999999999,1491.3339733927969,1358.5,1500
4.627376079559326,199,155,66,0.0012626262626262627,1498.25,1490.8989508989509,1358.5,1500
4.6516501903533936,200,155,66,0.0012626262626262627,1498.25,1490.8628758628759,1358.5,1500
4.675489187240601,201,155,66,0.0012626262626262627,1498.25,1490.8628758628759,1358.5,1500
4.699337005615234,202,155,66,0.0012626262626262627,1498.25,1490.8268008268008,1358.5,1500
4.723198175430298,203,155,66,0.0012987012987012987,1498.25,1491.1875511875512,1358.5,1500
4.747076988220215,204,154,66,0.0013605442176870747,1498.155,1491.8678232963948,1358.5,1500
4.771364212036133,205,154,66,0.0012626262626262627,1498.1600000000001,1490.8886437457866,1358.5,1500
4.79522705078125,206,154,67,0.0013227513227513227,1498.165,1491.5500194071622,1358.25,1500
4.819106101989746,207,154,66,0.0012987012987012987,1498.1700000000001,1491.3095191666621,1358.5,1500
4.8429811000823975,208,154,66,0.0012626262626262627,1498.175,1490.9126937698366,1358.5,1500
4.867470026016235,209,154,66,0.0012987012987012987,1498.1199999999999,1491.3095191666621,1358.5,1500
4.891481161117554,210,154,67,0.0013605442176870747,1498.0650000000001,1492.0258663115806,1358.25,1500
4.915351152420044,211,154,67,0.001287001287001287,1498.01,1491.3148120290978,1358.25,1500
4.939208984375,212,153,67,0.0013227513227513227,1497.8599999999999,1491.7324374467232,1358.25,1500
4.963104009628296,213,153,67,0.0013227513227513227,1497.8099999999999,1491.7564874707732,1358.25,1500
4.987234115600586,214,153,67,0.0012626262626262627,1497.8150000000001,1491.0573189144618,1358.25,1500
5.011520147323608,215,153,67,0.0012626262626262627,1497.8199999999999,1491.0573189144618,1358.25,1500
5.035404205322266,216,153,67,0.0013605442176870747,1497.825,1492.0742913600056,1358.25,1500
5.059290170669556,217,153,67,0.0012987012987012987,1497.77,1491.4558621701478,1358.25,1500
5.0832390785217285,218,153,67,0.0012987012987012987,1497.7149999999999,1491.4919372062229,1358.25,1500
5.107094049453735,219,153,68,0.0013605442176870747,1497.6600000000001,1492.1722093150665,1358.0,1500
5.131340026855469,220,152,68,0.0014005602240896359,1497.51,1492.6123853854947,1358.0,1500
5.155222177505493,221,151,68,0.001488095238095238,1497.365,1493.6888294766445,1358.0,1500
5.179072141647339,222,152,68,0.001443001443001443,1497.47,1493.3581416459567,1358.0,1500
5.202938079833984,223,152,68,0.001443001443001443,1497.4749999999999,1493.4783917662069,1358.0,1500
5.226778984069824,224,152,68,0.001443001443001443,1497.48,1493.6587669465821,1358.0,1500
5.251052141189575,225,151,68,0.001488095238095238,1497.3299999999999,1494.3351738729889,1358.0,1500
5.274898052215576,226,151,68,0.001488095238095238,1497.22,1494.4627248933971,1358.0,1500
5.298744201660156,227,152,68,0.0014005602240896359,1497.2650000000001,1493.6892336787296,1358.0,1500
5.322599172592163,228,151,68,0.001488095238095238,1497.115,1494.7539777581794,1358.0,1500
5.346456050872803,229,151,68,0.0015625,1497.0650000000001,1495.6999811595399,1358.0,1500
5.370294094085693,230,152,68,0.0016129032258064516,1497.105,1496.4163564193213,1358.0,1500
5.394162178039551,231,152,68,0.0015625,1497.0999999999999,1495.9867289231615,1358.0,1500
5.41811203956604,232,152,69,0.0015360983102918587,1497.0999999999999,1495.8158088933706,1357.75,1500
5.4421470165252686,233,152,69,0.001488095238095238,1497.04,1495.3808719664983,1357.75,1500
5.466010093688965,234,153,69,0.0015360983102918587,1497.075,1495.9539995557548,1357.75,1500
5.48987603187561,235,153,69,0.001488095238095238,1497.125,1495.4739688337886,1357.75,1500
5.513732194900513,236,153,69,0.0015873015873015873,1497.175,1496.5652386750585,1357.75,1500
5.537597179412842,237,154,69,0.001488095238095238,1497.2650000000001,1495.6607101970005,1357.75,1500
5.561633110046387,238,152,69,0.0017006802721088435,1497.1199999999999,1497.9991455711502,1357.75,1500
5.585471153259277,239,155,69,0.0015360983102918587,1497.52,1496.3269242632723,1357.75,1500
5.609305143356323,240,155,69,0.0016129032258064516,1497.5650000000001,1497.094973418418,1357.75,1500
5.6331892013549805,241,155,69,0.0016129032258064516,1497.6099999999999,1497.1453766442246,1357.75,1500
5.6567301750183105,242,155,65,0.002777777777777778,1497.7149999999999,1500,1358.75,1500
5.680065155029297,243,156,69,0.0016129032258064516,1497.7950000000001,1498.5118640994217,1357.75,1500
5.703543186187744,244,156,69,0.0015625,1497.9000000000001,1498.0342335310654,1357.75,1500
5.726917028427124,245,157,69,0.0016129032258064516,1498.0999999999999,1498.663073776841,1357.75,1500
5.750513076782227,246,157,69,0.0016129032258064516,1498.2,1498.6886754153459,1357.75,1500
5.7738940715789795,247,157,70,0.0016129032258064516,1498.2449999999999,1498.813483403057,1357.5,1500
5.797353982925415,248,157,70,0.0015625,1498.46,1498.1712708728837,1357.5,1500
5.821025133132935,249,158,70,0.0016129032258064516,1498.605,1498.7521080464628,1357.5,1500
5.844770193099976,250,158,70,0.0015625,1498.71,1498.1976725625918,1357.5,1500
5.868332147598267,251,159,70,0.0015625,1498.9100000000001,1498.1472693367855,1357.5,1500
5.891851186752319,252,158,68,0.0020833333333333333,1498.915,1500,1358.0,1500
5.915201187133789,253,159,68,0.0020161290322580645,1499.0599999999999,1500,1358.0,1500
5.938522100448608,254,159,70,0.001697792869269949,1499.165,1499.3442722607622,1357.5,1500
5.962050199508667,255,159,71,0.001697792869269949,1499.2149999999999,1499.4291619042256,1357.25,1500
5.985450983047485,256,159,70,0.0015625,1499.325,1498.0258299857196,1357.5,1500
6.008881092071533,257,159,70,0.0016129032258064516,1499.375,1498.5298622437842,1357.5,1500
6.036112070083618,258,160,67,0.002304147465437788,1499.5799999999999,1500,1358.25,1500
6.059660196304321,259,160,70,0.0016129032258064516,1499.6300000000001,1499.2715097092218,1357.5,1500
6.083059072494507,260,159,70,0.0015625,1499.585,1498.7674774511574,1357.5,1500
6.106515169143677,261,160,70,0.0015625,1499.6800000000001,1498.7674774511574,1357.5,1500
6.1300201416015625,262,160,69,0.0018975332068311196,1499.73,1500,1357.75,1500
6.153424024581909,263,160,71,0.001697792869269949,1499.7850000000001,1499.6162698543667,1357.25,1500
6.176809072494507,264,159,70,0.0015625,1499.7449999999999,1498.1280482923971,1357.5,1500
6.200242042541504,265,160,70,0.0015625,1499.8399999999999,1497.9927554231272,1357.5,1500
6.223596096038818,266,160,71,0.001644736842105263,1499.895,1498.8973606862851,1357.25,1500
6.247043132781982,267,160,70,0.0016129032258064516,1499.95,1498.579024523297,1357.5,1500
6.2706592082977295,268,160,70,0.0015625,1499.95,1497.3333447997948,1357.5,1500
6.294320106506348,269,160,70,0.0016129032258064516,1499.8900000000001,1497.8373770578592,1357.5,1500
6.317784070968628,270,160,70,0.0015151515151515152,1499.9449999999999,1496.8125114664613,1357.5,1500
6.341509103775024,271,160,70,0.0016129032258064516,1499.9449999999999,1497.8404317988172,1357.5,1500
6.36494517326355,272,159,70,0.0016666666666666668,1499.8499999999999,1498.1471996672549,1357.5,1500
6.3884642124176025,273,159,70,0.0015625,1499.855,1496.9702401313182,1357.5,1500
6.411890029907227,274,160,70,0.0016129032258064516,1500.01,1497.5246756151892,1357.5,1500
6.435353994369507,275,160,70,0.0015625,1500.01,1497.0206433571248,1357.5,1500
6.458770036697388,276,160,70,0.0015151515151515152,1500.01,1496.4175731816861,1357.5,1500
6.482237100601196,277,158,70,0.001949317738791423,1499.76,1500,1357.5,1500
6.505537986755371,278,159,69,0.0015625,1499.8050000000001,1497.227472543156,1357.75,1500
6.529000997543335,279,160,70,0.0015151515151515152,1499.905,1496.6562359840161,1357.5,1500
6.552431106567383,280,159,69,0.0016666666666666668,1499.8099999999999,1498.3229026506829,1357.75,1500
6.575862169265747,281,160,69,0.0015625,1499.9100000000001,1497.2308327582098,1357.75,1500
6.599354028701782,282,160,69,0.0016129032258064516,1499.845,1497.681101575414,1357.75,1500
6.622797012329102,283,160,69,0.0016129032258064516,1499.8399999999999,1497.7315048012204,1357.75,1500
6.646409034729004,284,162,69,0.0014285714285714286,1500.03,1495.7038550316352,1357.75,1500
6.670091152191162,285,160,69,0.0016129032258064516,1499.77,1497.5975762297919,1357.75,1500
6.693794012069702,286,161,69,0.0016129032258064516,1499.865,1497.6953279404468,1357.75,1500
6.717486143112183,287,161,69,0.0016129032258064516,1499.97,1497.3589134274619,1357.75,1500
6.741208076477051,288,162,65,0.002304147465437788,1500.115,1500,1358.75,1500
6.764569997787476,289,159,69,0.001763668430335097,1499.9400000000001,1499.8567298533696,1357.75,1500
6.7880940437316895,290,163,69,0.001443001443001443,1500.3800000000001,1496.4263947563679,1357.75,1500
6.811570167541504,291,164,68,0.001388888888888889,1500.52,1495.7116581041312,1358.0,1500
6.835028171539307,292,165,69,0.0015037593984962407,1500.655,1496.7512193728946,1357.75,1500
6.858487129211426,293,165,68,0.0012987012987012987,1500.75,1494.38643644784,1358.0,1500
6.882029056549072,294,165,69,0.0013605442176870747,1500.5550000000001,1494.9368384268134,1357.75,1500
6.905435085296631,295,165,68,0.0013227513227513227,1500.71,1494.2687575744008,1358.0,1500
6.928912162780762,296,165,68,0.0012987012987012987,1500.8699999999999,1493.7140554067953,1358.0,1500
6.952337026596069,297,165,68,0.0012626262626262627,1501.0899999999999,1493.0030280828648,1358.0,1500
6.975811004638672,298,165,68,0.0013605442176870747,1501.2550000000001,1493.0386043857222,1358.0,1500
6.999251127243042,299,165,68,0.0013605442176870747,1501.585,1492.6354801730743,1358.0,1500
7.022730112075806,300,165,68,0.0013227513227513227,1501.6949999999999,1492.1373011034666,1358.0,1500
7.046144008636475,301,165,68,0.0013605442176870747,1501.75,1492.4868853816222,1358.0,1500
7.069890022277832,302,165,67,0.0012626262626262627,1501.75,1491.2665726951441,1358.25,1500
7.0933380126953125,303,165,67,0.0012285012285012285,1501.75,1490.8551222836936,1358.25,1500
7.116805076599121,304,164,67,0.0012987012987012987,1501.655,1491.4952800667086,1358.25,1500
7.140235185623169,305,164,67,0.0013227513227513227,1501.6600000000001,1491.7357803072089,1358.25,1500
7.1637091636657715,306,164,68,0.0013605442176870747,1501.665,1492.1755521755522,1358.0,1500
7.187096118927002,307,164,67,0.0012987012987012987,1501.6700000000001,1491.5931980217695,1358.25,1500
7.21068811416626,308,164,67,0.0012987012987012987,1501.675,1491.5313551027837,1358.25,1500
7.234096050262451,309,163,67,0.001336898395721925,1501.5250000000001,1491.8896802510249,1358.25,1500
7.257573127746582,310,164,67,0.0012987012987012987,1501.5699999999999,1491.4836592567685,1358.25,1500
7.281201124191284,311,164,67,0.0012422360248447205,1501.5150000000001,1490.8006983253604,1358.25,1500
7.304689168930054,312,164,66,0.0012987012987012987,1501.46,1491.4014261000011,1358.5,1500
7.328144073486328,313,164,67,0.0011750881316098707,1501.405,1490.1118813321955,1358.25,1500
7.351104021072388,314,163,66,0.0012987012987012987,1501.25,1491.3480130031098,1358.5,1500
7.374986171722412,315,163,67,0.0012077294685990338,1501.2550000000001,1490.323272847935,1358.25,1500
7.398960113525391,316,163,66,0.0012626262626262627,1501.26,1490.7743228331465,1358.5,1500
7.422946214675903,317,163,66,0.0012987012987012987,1501.2650000000001,1491.1350731938967,1358.5,1500
7.446890115737915,318,163,66,0.0012626262626262627,1501.27,1490.7382477970714,1358.5,1500
7.471206188201904,319,163,66,0.0012077294685990338,1501.27,1490.0601109296761,1358.5,1500
7.495102167129517,320,162,66,0.0012077294685990338,1501.1199999999999,1489.9691390995738,1358.5,1500
7.518984079360962,321,162,66,0.0012077294685990338,1501.0699999999999,1489.9346325433282,1358.5,1500
7.542912006378174,322,162,66,0.0012077294685990338,1501.02,1489.843660713226,1358.5,1500
7.5668041706085205,323,162,66,0.0012077294685990338,1500.97,1489.8763020502151,1358.5,1500
7.591102123260498,324,162,66,0.0012077294685990338,1500.9749999999999,1489.7853302201129,1358.5,1500
7.615002155303955,325,162,66,0.0012422360248447205,1500.9200000000001,1490.1649023388154,1358.5,1500
7.6388771533966064,326,163,66,0.0011441647597254005,1500.96,1489.0657281847214,1358.5,1500
7.662806987762451,327,162,65,0.0011574074074074073,1500.8050000000001,1489.0568607702476,1358.75,1500
7.6866819858551025,328,162,65,0.0011574074074074073,1500.75,1488.9516419150286,1358.75,1500
7.710566997528076,329,163,65,0.0011261261261261261,1500.79,1488.557225759743,1358.75,1500
7.734445095062256,330,162,65,0.0012077294685990338,1500.6900000000001,1489.3732591844721,1358.75,1500
7.758401155471802,331,163,65,0.0011750881316098707,1500.845,1489.0142044775912,1358.75,1500
7.7823450565338135,332,163,64,0.0010964912280701754,1500.8399999999999,1488.1169972016653,1359.0,1500
7.806316137313843,333,163,65,0.0011750881316098707,1500.835,1488.8703249000732,1358.75,1500
7.830028057098389,334,162,64,0.0011574074074074073,1500.7950000000001,1488.6431955968569,1359.0,1500
7.853543043136597,335,162,64,0.0011574074074074073,1500.7950000000001,1488.5583669794196,1359.0,1500
7.8771281242370605,336,164,64,0.0010964912280701754,1500.99,1487.9015316543921,1359.0,1500
7.900774002075195,337,163,64,0.0011111111111111111,1500.9449999999999,1488.0014341885051,1359.0,1500
7.924274206161499,338,163,64,0.0011111111111111111,1501.0,1487.9551378922088,1359.0,1500
7.94768214225769,339,164,64,0.0010964912280701754,1501.0350000000001,1487.7793041637435,1359.0,1500
7.971285104751587,340,164,64,0.001081081081081081,1501.0250000000001,1487.4985543063347,1359.0,1500
7.994692087173462,341,163,64,0.0011111111111111111,1500.9849999999999,1487.7348775861362,1359.0,1500
8.01827621459961,342,164,64,0.0011574074074074073,1501.0799999999999,1488.2587567284363,1359.0,1500
8.041839122772217,343,166,64,0.0010256410256410256,1501.2650000000001,1486.7916458048037,1359.0,1500
8.065617084503174,344,164,64,0.001142857142857143,1501.175,1487.9492567124146,1359.0,1500
8.089083194732666,345,165,64,0.0010526315789473684,1501.3800000000001,1486.9422252448569,1359.0,1500
8.112555027008057,346,165,64,0.001081081081081081,1501.3150000000001,1487.2113101192049,1359.0,1500
8.13595199584961,347,165,63,0.0011261261261261261,1501.365,1487.6767755846704,1359.25,1500
8.159428119659424,348,164,64,0.001142857142857143,1501.4400000000001,1487.8758317837264,1359.0,1500
8.182850122451782,349,164,64,0.0011111111111111111,1501.4400000000001,1487.5729913493071,1359.0,1500
8.20633316040039,350,165,64,0.001081081081081081,1501.595,1487.2726910490069,1359.0,1500
8.22974705696106,351,164,64,0.0011111111111111111,1501.6099999999999,1487.5729913493071,1359.0,1500
8.253250122070312,352,165,64,0.0010256410256410256,1501.7650000000001,1486.5865241128399,1359.0,1500
8.276658058166504,353,164,64,0.0010526315789473684,1501.5550000000001,1486.8834201992097,1359.0,1500
8.300130128860474,354,164,64,0.0010526315789473684,1501.5550000000001,1486.7931946352999,1359.0,1500
8.32351803779602,355,163,64,0.0011111111111111111,1501.4649999999999,1487.436469489101,1359.0,1500
8.347606182098389,356,163,64,0.001142857142857143,1501.415,1487.8157058683375,1359.0,1500
8.37166714668274,357,164,64,0.0010256410256410256,1501.52,1486.5430595956911,1359.0,1500
8.395573139190674,358,163,64,0.001081081081081081,1501.425,1487.0356840883157,1359.0,1500
8.419464111328125,359,163,64,0.001081081081081081,1501.4300000000001,1487.0056540582857,1359.0,1500
8.443397045135498,360,163,64,0.0010416666666666667,1501.3199999999999,1486.5720954997271,1359.0,1500
8.467289209365845,361,163,64,0.0010683760683760685,1501.2650000000001,1486.796454474086,1359.0,1500
8.4915931224823,362,163,65,0.0011148272017837235,1501.2149999999999,1487.3501519843053,1358.75,1500
8.51550006866455,363,161,64,0.0011261261261261261,1500.97,1487.5366357749081,1359.0,1500
8.539416074752808,364,161,64,0.001,1500.925,1486.2227429346995,1359.0,1500
8.56332802772522,365,160,64,0.0010964912280701754,1500.8399999999999,1487.1730353323603,1359.0,1500
8.587208986282349,366,160,64,0.0010683760683760685,1500.855,1486.8174026609381,1359.0,1500
8.611474990844727,367,160,64,0.0010683760683760685,1500.8150000000001,1486.8601377036732,1359.0,1500
8.635385990142822,368,159,64,0.0010683760683760685,1500.615,1486.8474326909682,1359.0,1500
8.658972024917603,369,158,64,0.0010683760683760685,1500.4200000000001,1486.8347276782631,1359.0,1500
8.682412147521973,370,157,64,0.0010964912280701754,1500.1700000000001,1487.1707038366078,1359.0,1500
8.70591402053833,371,158,64,0.0010683760683760685,1500.115,1486.8895522396667,1359.0,1500
8.729330062866211,372,155,64,0.0011574074074074073,1499.675,1487.8224458356037,1359.0,1500
8.75285005569458,373,156,64,0.0010964912280701754,1499.6800000000001,1487.1836491441754,1359.0,1500
8.77627420425415,374,155,65,0.0011441647597254005,1499.4300000000001,1487.8045492204531,1358.75,1500
8.799755096435547,375,155,64,0.0010964912280701754,1499.2750000000001,1487.327813903901,1359.0,1500
8.823170185089111,376,155,64,0.0010683760683760685,1499.1800000000001,1487.0466623069599,1359.0,1500
8.846657037734985,377,155,64,0.0010683760683760685,1498.905,1487.0466623069599,1359.0,1500
8.870053052902222,378,154,64,0.0011750881316098707,1498.6500000000001,1488.2204950025316,1359.0,1500
8.893539190292358,379,155,64,0.0011148272017837235,1498.585,1487.6643368376779,1359.0,1500
8.916940212249756,380,154,64,0.0011261261261261261,1498.3800000000001,1487.8069609791578,1359.0,1500
8.940644025802612,381,154,64,0.0010964912280701754,1498.22,1487.5387271582924,1359.0,1500
8.964097023010254,382,154,64,0.0010964912280701754,1498.2249999999999,1487.4778109789552,1359.0,1500
8.987580060958862,383,154,64,0.0010964912280701754,1498.115,1487.4778109789552,1359.0,1500
9.011150121688843,384,154,64,0.0010964912280701754,1498.1199999999999,1487.4301374473,1359.0,1500
9.034710168838501,385,154,64,0.0011261261261261261,1498.0650000000001,1487.7561213259153,1359.0,1500
9.058675050735474,386,154,64,0.0010964912280701754,1498.01,1487.4878875050499,1359.0,1500
9.082274198532104,387,154,64,0.0010964912280701754,1497.9549999999999,1487.5160026647441,1359.0,1500
9.105708122253418,388,154,64,0.0010964912280701754,1497.9549999999999,1487.4374057612044,1359.0,1500
9.129202127456665,389,155,64,0.0010683760683760685,1497.9949999999999,1487.1098030308556,1359.0,1500
9.152644157409668,390,156,64,0.0010683760683760685,1498.085,1487.0520529731057,1359.0,1500
9.17612099647522,391,156,64,0.0010256410256410256,1498.075,1486.5538523433261,1359.0,1500
9.199539184570312,392,156,64,0.0011441647597254005,1498.0650000000001,1487.786763215825,1359.0,1500
9.223021030426025,393,157,64,0.0010683760683760685,1498.1500000000001,1487.0007611426377,1359.0,1500
9.246470212936401,394,157,64,0.0010256410256410256,1498.1949999999999,1486.5025605128581,1359.0,1500
9.269984006881714,395,157,64,0.0011148272017837235,1498.3,1487.3831233499425,1359.0,1500
9.293429136276245,396,157,64,0.0010416666666666667,1498.405,1486.5966934373685,1359.0,1500
9.316919088363647,397,158,64,0.0011148272017837235,1498.605,1487.3466347622525,1359.0,1500
9.340339183807373,398,158,64,0.0010256410256410256,1498.7650000000001,1486.3839227983965,1359.0,1500
9.363821029663086,399,158,64,0.0010256410256410256,1498.8699999999999,1486.3411877556614,1359.0,1500
9.38726806640625,400,158,64,0.0010256410256410256,1498.9200000000001,1486.2984527129263,1359.0,1500
9.411632061004639,401,158,64,0.0010256410256410256,1498.97,1486.2984527129263,1359.0,1500
9.435684204101562,402,158,64,0.0010256410256410256,1499.0799999999999,1486.1799289788421,1359.0,1500
9.45964002609253,403,158,63,0.0010683760683760685,1499.135,1486.6072794061924,1359.25,1500
9.483532190322876,404,158,64,0.0010256410256410256,1499.1900000000001,1486.1799289788421,1359.0,1500
9.507403135299683,405,158,63,0.0010416666666666667,1499.2449999999999,1486.2670248539814,1359.25,1500
9.53153920173645,406,158,64,0.0010256410256410256,1499.3,1486.0907428026994,1359.0,1500
9.555095195770264,407,158,64,0.0010256410256410256,1499.3,1486.0015566265565,1359.0,1500
9.578580141067505,408,158,64,0.0010256410256410256,1499.3,1486.0015566265565,1359.0,1500
9.60214614868164,409,158,64,0.0010683760683760685,1499.3,1486.4716420966422,1359.0,1500
9.625596046447754,410,158,64,0.0010256410256410256,1499.3,1486.0442916692916,1359.0,1500
9.649142026901245,411,157,64,0.001081081081081081,1499.2049999999999,1486.6541322791322,1359.0,1500
9.672581195831299,412,158,64,0.0010256410256410256,1499.3050000000001,1486.0997317247318,1359.0,1500
9.696058988571167,413,157,64,0.0010526315789473684,1499.21,1486.3538927683664,1359.0,1500
9.719467163085938,414,158,64,0.0010256410256410256,1499.3099999999999,1486.0839872353031,1359.0,1500
9.74297308921814,415,157,64,0.0010256410256410256,1499.2149999999999,1486.0679615942774,1359.0,1500
9.766382217407227,416,157,64,0.0010256410256410256,1499.1600000000001,1486.0679615942774,1359.0,1500
9.789867162704468,417,156,64,0.0010526315789473684,1499.0699999999999,1486.3648576806472,1359.0,1500
9.813364028930664,418,156,64,0.0010526315789473684,1499.02,1486.3918482339534,1359.0,1500
9.83708906173706,419,156,63,0.0010964912280701754,1499.03,1486.8585598848756,1359.25,1500
9.86069917678833,420,156,64,0.0010256410256410256,1498.98,1486.1500578605842,1359.0,1500
9.884202003479004,421,156,63,0.0010683760683760685,1498.9849999999999,1486.5647032752297,1359.25,1500
9.907605171203613,422,156,64,0.0010683760683760685,1498.875,1486.6074383179646,1359.0,1500
9.931276082992554,423,156,63,0.0010683760683760685,1498.8199999999999,1486.6231828073933,1359.25,1500
9.954894065856934,424,155,64,0.0010416666666666667,1498.615,1486.3721144313249,1359.0,1500
9.978440999984741,425,155,64,0.0011148272017837235,1498.5650000000001,1487.1929059586382,1359.0,1500
10.00192904472351,426,154,64,0.0010526315789473684,1498.4200000000001,1486.597940283581,1359.0,1500
10.025407075881958,427,154,64,0.0010683760683760685,1498.4300000000001,1486.7711296672967,1359.0,1500
10.04885721206665,428,154,64,0.0010683760683760685,1498.4400000000001,1486.7868741567254,1359.0,1500
10.07261610031128,429,153,64,0.0011261261261261261,1498.2950000000001,1487.3940096322819,1359.0,1500
10.096087217330933,430,153,64,0.0010683760683760685,1498.25,1486.8592440975165,1359.0,1500
10.119574069976807,431,151,64,0.0010964912280701754,1497.9549999999999,1487.1685108541517,1359.0,1500
10.143012046813965,432,151,64,0.0011261261261261261,1497.8599999999999,1487.5226098924611,1359.0,1500
10.166501998901367,433,151,64,0.0010683760683760685,1497.7650000000001,1486.9451093149605,1359.0,1500
10.189908981323242,434,150,64,0.0010964912280701754,1497.5699999999999,1487.2810854733052,1359.0,1500
10.213411092758179,435,150,64,0.0011261261261261261,1497.4749999999999,1487.5887333782071,1359.0,1500
10.23683500289917,436,149,64,0.0011261261261261261,1497.22,1487.6622279253859,1359.0,1500
10.260322093963623,437,147,64,0.0011574074074074073,1496.875,1488.0640720772299,1359.0,1500
10.283733129501343,438,147,64,0.0010964912280701754,1496.73,1487.4830254435517,1359.0,1500
10.307212114334106,439,147,65,0.0011750881316098707,1496.5799999999999,1488.3179564844324,1358.75,1500
10.330783128738403,440,146,64,0.0011261261261261261,1496.335,1487.886086487345,1359.0,1500
10.354295015335083,441,145,65,0.0011441647597254005,1496.145,1488.114146354993,1358.75,1500
10.37771201133728,442,145,64,0.0011261261261261261,1495.9349999999999,1487.9337600190004,1359.0,1500
10.40132999420166,443,143,65,0.0012077294685990338,1495.5350000000001,1488.8891468439524,1358.75,1500
10.424782991409302,444,143,65,0.0011750881316098707,1495.3900000000001,1488.6413303776003,1358.75,1500
10.44835901260376,445,142,65,0.0011750881316098707,1495.0899999999999,1488.6902923830842,1358.75,1500
10.47185206413269,446,140,65,0.0012077294685990338,1494.6949999999999,1489.0983090954487,1358.75,1500
10.495333194732666,447,141,65,0.0011750881316098707,1494.7049999999999,1488.7895764497596,1358.75,1500
10.518774032592773,448,140,65,0.0012422360248447205,1494.4000000000001,1489.6068001788826,1358.75,1500
10.542270183563232,449,139,65,0.0012077294685990338,1494.0999999999999,1489.2943759534148,1358.75,1500
10.565784215927124,450,138,65,0.0012077294685990338,1493.8,1489.3759792958879,1358.75,1500
10.58927607536316,451,138,65,0.0012422360248447205,1493.5350000000001,1489.819116123464,1358.75,1500
10.612702131271362,452,137,65,0.0011750881316098707,1493.2349999999999,1489.1965991965992,1358.75,1500
10.636186122894287,453,136,65,0.0012077294685990338,1492.99,1489.5230125664909,1358.75,1500
10.65963101387024,454,135,65,0.0012077294685990338,1492.6900000000001,1489.5556539034799,1358.75,1500
10.683118104934692,455,135,65,0.0012077294685990338,1492.4849999999999,1489.5882952404691,1358.75,1500
10.706560134887695,456,134,65,0.0012077294685990338,1492.2950000000001,1489.5882952404691,1358.75,1500
10.730063199996948,457,135,65,0.0011750881316098707,1492.1849999999999,1489.2618818705776,1358.75,1500
10.753501176834106,458,134,65,0.0012987012987012987,1491.875,1490.5544788153484,1358.75,1500
10.776998043060303,459,132,65,0.0012626262626262627,1491.47,1490.2486252486253,1358.75,1500
10.800578117370605,460,132,65,0.0012626262626262627,1491.3199999999999,1490.3035220426525,1358.75,1500
10.824092149734497,461,131,65,0.0012626262626262627,1491.0150000000001,1490.3239122804341,1358.75,1500
10.847513198852539,462,131,65,0.0012626262626262627,1490.925,1490.4114504114505,1358.75,1500
10.871114015579224,463,131,65,0.0012987012987012987,1490.8299999999999,1490.8631726023029,1358.75,1500
10.894553184509277,464,131,65,0.0012626262626262627,1490.6700000000001,1490.5573190355799,1358.75,1500
10.918151140213013,465,130,65,0.0012626262626262627,1490.415,1490.6122158296071,1358.75,1500
10.941752195358276,466,130,65,0.0012987012987012987,1490.2550000000001,1491.0639380204598,1358.75,1500
10.965265989303589,467,130,65,0.0012626262626262627,1490.04,1490.7907257907259,1358.75,1500
10.988672018051147,468,130,65,0.0012285012285012285,1489.8800000000001,1490.3792753792754,1358.75,1500
11.01214599609375,469,130,65,0.0012987012987012987,1489.8299999999999,1491.1173511173511,1358.75,1500
11.03941798210144,470,130,65,0.0012285012285012285,1489.72,1490.3812253812255,1358.75,1500
11.063117980957031,471,130,65,0.0012987012987012987,1489.665,1491.1193011193011,1358.75,1500
11.086573123931885,472,130,65,0.0012626262626262627,1489.6099999999999,1490.7585507585507,1358.75,1500
11.110072135925293,473,130,65,0.0012626262626262627,1489.5550000000001,1490.7224757224758,1358.75,1500
11.133506059646606,474,130,65,0.0012626262626262627,1489.5,1490.7224757224758,1358.75,1500
11.157007217407227,475,130,65,0.0012626262626262627,1489.5,1490.7224757224758,1358.75,1500
11.180575132369995,476,130,65,0.0012626262626262627,1489.5,1490.6864006864007,1358.75,1500
11.204068183898926,477,131,65,0.0012626262626262627,1489.595,1490.6864006864007,1358.75,1500
11.227488994598389,478,132,65,0.0012626262626262627,1489.6849999999999,1490.7205257205258,1358.75,1500
11.251124143600464,479,132,65,0.0012626262626262627,1489.675,1490.6844506844507,1358.75,1500
11.274564027786255,480,132,65,0.0012626262626262627,1489.665,1490.7185757185757,1358.75,1500
11.29810905456543,481,133,65,0.0012626262626262627,1489.75,1490.6825006825006,1358.75,1500
11.321576118469238,482,134,65,0.0012987012987012987,1489.8900000000001,1491.0793260793262,1358.75,1500
11.345051050186157,483,135,65,0.0012285012285012285,1490.085,1490.3432003432004,1358.75,1500
11.36850905418396,484,135,65,0.0012422360248447205,1490.1800000000001,1490.4601580688536,1358.75,1500
11.392044067382812,485,136,65,0.0012987012987012987,1490.3699999999999,1491.0608858434946,1358.75,1500
11.415485143661499,486,136,65,0.0012077294685990338,1490.52,1490.0962707484446,1358.75,1500
11.43845009803772,487,137,65,0.0012285012285012285,1490.77,1490.2698633133416,1358.75,1500
11.462438106536865,488,137,65,0.0012077294685990338,1490.925,1490.0072489202923,1358.75,1500
11.486420154571533,489,138,65,0.0012077294685990338,1491.175,1489.9523521262652,1358.75,1500
11.510385990142822,490,138,65,0.0012077294685990338,1491.385,1489.897455332238,1358.75,1500
11.534313201904297,491,140,65,0.0011750881316098707,1491.73,1489.4835038313299,1358.75,1500
11.558319091796875,492,141,65,0.0011750881316098707,1491.9749999999999,1489.3598906642385,1358.75,1500
11.582272052764893,493,141,65,0.0012077294685990338,1492.0650000000001,1489.6655322742279,1358.75,1500
11.606125116348267,494,142,65,0.0012077294685990338,1492.3099999999999,1489.6310257179823,1358.75,1500
11.630271196365356,495,143,65,0.0011750881316098707,1492.4949999999999,1489.1809991809992,1358.75,1500
11.65422010421753,496,143,65,0.0012077294685990338,1492.7,1489.5074125508909,1358.75,1500
11.678263187408447,497,144,65,0.0012077294685990338,1493.0050000000001,1489.4866407909885,1358.75,1500
11.702501058578491,498,146,65,0.0011750881316098707,1493.4000000000001,1489.1275860841079,1358.75,1500
11.726507186889648,499,146,64,0.0011961722488038277,1493.5999999999999,1489.3268700362521,1359.0,1500
11.750439167022705,500,146,65,0.0012422360248447205,1493.8599999999999,1489.8220143529068,1358.75,1500
11.774335145950317,501,147,64,0.0011574074074074073,1494.105,1488.9560474543312,1359.0,1500
11.798475980758667,502,147,65,0.0012077294685990338,1494.2550000000001,1489.4919094032366,1358.75,1500
11.822458982467651,503,148,64,0.0011904761904761906,1494.6199999999999,1489.3021233438853,1359.0,1500
11.846560001373291,504,150,64,0.0010964912280701754,1495.02,1488.2510354792964,1359.0,1500
11.870480060577393,505,151,65,0.0011750881316098707,1495.26,1489.0370045146933,1358.75,1500
11.894355058670044,506,151,64,0.0010964912280701754,1495.46,1488.1397972387674,1359.0,1500
11.918351173400879,507,151,65,0.0011441647597254005,1495.605,1488.5529678464461,1358.75,1500
11.942378997802734,508,152,64,0.0010964912280701754,1495.7950000000001,1487.9976356263542,1359.0,1500
11.966310024261475,509,152,64,0.0011574074074074073,1496.0050000000001,1488.5680325783301,1359.0,1500
11.990446090698242,510,153,64,0.0010964912280701754,1496.3699999999999,1487.8131259881832,1359.0,1500
12.01459813117981,511,154,64,0.0011441647597254005,1496.675,1488.2766186570534,1359.0,1500
12.03857707977295,512,154,64,0.0010964912280701754,1496.8800000000001,1487.6886450999723,1359.0,1500
12.062611103057861,513,153,64,0.0011574074074074073,1496.9949999999999,1488.2647381102759,1359.0,1500
12.086902141571045,514,155,64,0.0010964912280701754,1497.29,1487.6555763169035,1359.0,1500
12.11123013496399,515,155,64,0.0010964912280701754,1497.3900000000001,1487.5769794133639,1359.0,1500
12.135148048400879,516,155,64,0.0010964912280701754,1497.55,1487.5769794133639,1359.0,1500
12.159042119979858,517,155,64,0.0010964912280701754,1497.71,1487.5293058817085,1359.0,1500
12.182915210723877,518,156,64,0.0010683760683760685,1497.8499999999999,1487.2200391250735,1359.0,1500
12.206797122955322,519,156,64,0.0010683760683760685,1498.01,1487.1310077860421,1359.0,1500
12.2310791015625,520,156,64,0.0010683760683760685,1498.115,1487.102892626348,1359.0,1500
12.25498914718628,521,156,64,0.0010683760683760685,1498.165,1487.0271039349986,1359.0,1500
12.278877019882202,522,156,64,0.0010683760683760685,1498.2149999999999,1486.9989887753045,1359.0,1500
12.302760124206543,523,156,64,0.0010683760683760685,1498.3800000000001,1486.9099574362733,1359.0,1500
12.3266441822052,524,156,64,0.0010683760683760685,1498.4349999999999,1486.8818422765792,1359.0,1500
12.350941181182861,525,156,64,0.0010683760683760685,1498.49,1486.853727116885,1359.0,1500
12.374821186065674,526,156,64,0.0010683760683760685,1498.5450000000001,1486.8256119571909,1359.0,1500
12.39870810508728,527,156,64,0.0010416666666666667,1498.5999999999999,1486.5036933786935,1359.0,1500
12.422614097595215,528,156,64,0.0010683760683760685,1498.5999999999999,1486.7707873957875,1359.0,1500
12.446533203125,529,155,64,0.0010964912280701754,1498.5050000000001,1487.0800541524225,1359.0,1500
12.470402002334595,530,155,64,0.0010964912280701754,1498.51,1487.1081693121166,1359.0,1500
12.494310140609741,531,155,64,0.0010964912280701754,1498.5150000000001,1487.1362844718108,1359.0,1500
12.518323183059692,532,156,64,0.0010683760683760685,1498.615,1486.8551328748697,1359.0,1500
12.542379140853882,533,155,64,0.0010964912280701754,1498.52,1487.1643996315049,1359.0,1500
12.566306114196777,534,155,64,0.0010964912280701754,1498.4649999999999,1487.1925147911991,1359.0,1500
12.590195178985596,535,155,64,0.0010964912280701754,1498.4100000000001,1487.220629950893,1359.0,1500
12.614082098007202,536,155,64,0.0010964912280701754,1498.355,1487.2487451105872,1359.0,1500
12.638028144836426,537,156,64,0.0010683760683760685,1498.4549999999999,1486.9943029153555,1359.0,1500
12.662028074264526,538,155,64,0.0011261261261261261,1498.3,1487.6295535506063,1359.0,1500
12.68592619895935,539,156,64,0.0010683760683760685,1498.395,1487.0239378134115,1359.0,1500
12.709818124771118,540,155,64,0.0010683760683760685,1498.2950000000001,1486.9958226537174,1359.0,1500
12.73370099067688,541,155,64,0.0010683760683760685,1498.2950000000001,1486.9677074940232,1359.0,1500
12.75760006904602,542,154,64,0.0010964912280701754,1498.2049999999999,1487.2769742506584,1359.0,1500
12.7816321849823,543,154,64,0.0010964912280701754,1498.21,1487.2769742506584,1359.0,1500
12.805509090423584,544,154,64,0.0010964912280701754,1498.2750000000001,1487.2769742506584,1359.0,1500
12.829418182373047,545,154,64,0.0010964912280701754,1498.28,1487.2769742506584,1359.0,1500
12.853162050247192,546,155,64,0.0011148272017837235,1498.3800000000001,1487.4786699615074,1359.0,1500
12.8766930103302,547,155,64,0.0010683760683760685,1498.2650000000001,1487.014158627431,1359.0,1500
12.900451183319092,548,154,64,0.0010964912280701754,1498.1099999999999,1487.2656753263161,1359.0,1500
12.923924207687378,549,154,65,0.0011441647597254005,1498.0,1487.8181993342178,1358.75,1500
12.947441101074219,550,154,64,0.0010964912280701754,1497.9449999999999,1487.3695791773596,1359.0,1500
12.971012115478516,551,154,64,0.0010964912280701754,1497.95,1487.3976943370535,1359.0,1500
12.994517087936401,552,154,64,0.0010964912280701754,1498.01,1487.3976943370535,1359.0,1500
13.018362998962402,553,155,64,0.0010683760683760685,1498.105,1487.0884275804185,1359.0,1500
13.042043209075928,554,155,64,0.0010683760683760685,1498.0999999999999,1487.0603124207244,1359.0,1500
13.065486192703247,555,155,64,0.0010683760683760685,1498.095,1487.0321972610302,1359.0,1500
13.088968992233276,556,155,64,0.0010683760683760685,1498.0350000000001,1486.9857461276226,1359.0,1500
13.112375020980835,557,154,64,0.0010964912280701754,1497.8800000000001,1487.2950128842576,1359.0,1500
13.135858058929443,558,154,64,0.0011441647597254005,1497.9400000000001,1487.8194217324651,1359.0,1500
13.159277200698853,559,154,64,0.0011261261261261261,1498.0,1487.6209967628731,1359.0,1500
13.18274998664856,560,153,64,0.0011574074074074073,1497.9649999999999,1487.9947257550232,1359.0,1500
13.206176996231079,561,153,64,0.0012077294685990338,1498.03,1488.6091846074683,1359.0,1500
13.229674100875854,562,153,64,0.0012077294685990338,1498.0350000000001,1488.7204228479973,1359.0,1500
13.253098011016846,563,153,64,0.0011574074074074073,1497.9849999999999,1488.3062335751124,1359.0,1500
13.276593208312988,564,153,65,0.0012422360248447205,1497.9349999999999,1489.3283797059541,1358.75,1500
13.30003809928894,565,153,64,0.0011574074074074073,1497.825,1488.5691248706123,1359.0,1500
13.323536157608032,566,153,64,0.0011904761904761906,1497.7149999999999,1489.0219128234003,1359.0,1500
13.346988201141357,567,153,64,0.0011261261261261261,1497.6600000000001,1488.4080470779556,1359.0,1500
13.370590209960938,568,153,64,0.0011261261261261261,1497.605,1488.3900084443562,1359.0,1500
13.394028186798096,569,153,64,0.0010964912280701754,1497.55,1488.0640245657407,1359.0,1500
13.417518138885498,570,152,64,0.0011574074074074073,1497.4549999999999,1488.6731863591131,1359.0,1500
13.441138982772827,571,153,64,0.0011261261261261261,1497.5550000000001,1488.2787702038274,1359.0,1500
13.464654207229614,572,153,64,0.0011261261261261261,1497.5550000000001,1488.1971668613546,1359.0,1500
13.488142013549805,573,152,64,0.0011574074074074073,1497.46,1488.5099796741674,1359.0,1500
13.511702060699463,574,152,64,0.0011574074074074073,1497.4649999999999,1488.4251510567301,1359.0,1500
13.535144090652466,575,153,64,0.0011750881316098707,1497.5050000000001,1488.619639022957,1359.0,1500
13.558127164840698,576,152,64,0.0011574074074074073,1497.4100000000001,1488.4097629978637,1359.0,1500
13.58208417892456,577,153,64,0.0011261261261261261,1497.51,1488.0969501850509,1359.0,1500
13.606049060821533,578,153,64,0.0011261261261261261,1497.45,1488.0969501850509,1359.0,1500
13.629930019378662,579,152,65,0.0012077294685990338,1497.2950000000001,1489.0242218503088,1358.75,1500
13.653541088104248,580,152,65,0.0012077294685990338,1497.355,1489.0745439115005,1358.75,1500
13.677052021026611,581,153,65,0.0011441647597254005,1497.395,1488.4569354563635,1358.75,1500
13.700626134872437,582,152,65,0.0012422360248447205,1497.3,1489.5537580062751,1358.75,1500
13.724133014678955,583,153,64,0.0012987012987012987,1497.4549999999999,1490.2597046361348,1359.0,1500
13.74759316444397,584,153,63,0.0012077294685990338,1497.45,1489.4003083963039,1359.25,1500
13.771206140518188,585,154,62,0.0012422360248447205,1497.4849999999999,1489.8125218519956,1359.5,1500
13.794648170471191,586,154,61,0.0012987012987012987,1497.5350000000001,1490.5184684818553,1359.75,1500
13.818324089050293,587,153,57,0.0012987012987012987,1497.375,1490.6910436544304,1360.75,1500
13.842182159423828,588,151,56,0.0012077294685990338,1497.1849999999999,1489.8629286958806,1361.0,1500
13.865725994110107,589,151,54,0.0011750881316098707,1497.25,1489.5038739889999,1361.5,1500
13.889150142669678,590,148,53,0.0012987012987012987,1497.0899999999999,1490.8309774900165,1361.75,1500
13.912630081176758,591,148,52,0.001402524544179523,1497.175,1492.1275697292529,1362.0,1500
13.936058044433594,592,145,52,0.0012422360248447205,1496.97,1490.5246845359047,1362.0,1500
13.959569215774536,593,144,51,0.0011261261261261261,1496.7950000000001,1489.1910103761436,1362.25,1500
13.982995986938477,594,141,53,0.0012422360248447205,1496.4349999999999,1490.3866159195752,1361.75,1500
14.00683307647705,595,140,54,0.0012422360248447205,1496.0450000000001,1490.3866159195752,1361.5,1500
14.030381202697754,596,142,55,0.0013175230566534915,1495.9449999999999,1491.1583079956151,1361.25,1500
14.053974151611328,597,139,56,0.0011904761904761906,1495.2349999999999,1489.779614225617,1361.0,1500
14.077385187149048,598,140,58,0.0013440860215053765,1494.97,1491.4520690888153,1360.5,1500
14.100996017456055,599,138,60,0.0011904761904761906,1494.2349999999999,1489.9313588373898,1360.0,1500
14.124431133270264,600,137,62,0.0012077294685990338,1493.71,1490.0129197885158,1359.5,1500
14.14798903465271,601,136,65,0.001402524544179523,1493.3099999999999,1491.9608705443206,1358.75,1500
14.171481132507324,602,133,65,0.0012422360248447205,1492.71,1490.3579853509727,1358.75,1500
14.194955110549927,603,133,65,0.0013440860215053765,1492.5250000000001,1491.5944452129586,1358.75,1500
14.218447208404541,604,129,65,0.0012254901960784314,1492.0050000000001,1490.3917411299228,1358.75,1500
14.242048025131226,605,128,65,0.0012787723785166241,1491.7850000000001,1490.9610993079766,1358.75,1500
14.265482187271118,606,128,64,0.0011904761904761906,1491.4949999999999,1489.9510905613949,1359.0,1500
14.289000034332275,607,127,64,0.0011904761904761906,1491.095,1489.9510905613949,1359.0,1500
14.312429189682007,608,126,64,0.0012422360248447205,1490.645,1490.3668389084196,1359.0,1500
14.335921049118042,609,126,64,0.0012422360248447205,1490.165,1490.4185987427882,1359.0,1500
14.359364986419678,610,126,63,0.0011904761904761906,1489.6800000000001,1489.8837471209799,1359.25,1500
14.382863998413086,611,126,64,0.0012422360248447205,1489.25,1490.2410569453305,1359.0,1500
14.406270027160645,612,127,64,0.0011904761904761906,1489.02,1489.6716987672767,1359.0,1500
14.429764032363892,613,127,66,0.0012987012987012987,1488.6300000000001,1490.7085651267237,1358.5,1500
14.4532630443573,614,127,68,0.0012787723785166241,1488.46,1490.5625581073152,1358.0,1500
14.477200031280518,615,128,71,0.0011904761904761906,1488.4400000000001,1489.5913000388705,1357.25,1500
14.501585006713867,616,128,74,0.0011904761904761906,1488.3199999999999,1489.5913000388705,1356.5,1500
14.525497198104858,617,128,77,0.0012422360248447205,1488.3150000000001,1490.1606582169243,1355.75,1500
14.549471139907837,618,127,79,0.0012254901960784314,1488.27,1489.9764541004949,1355.25,1500
14.573362112045288,619,126,83,0.0012787723785166241,1488.23,1490.545812278549,1354.25,1500
14.597245216369629,620,126,86,0.0012422360248447205,1488.3499999999999,1490.2322085761984,1353.5,1500
