time,frame,x,y,size_inv,roll,pitch,thrust,yaw
0.0002880096435546875,1,66,118,0.0625,1490.5999999999999,1490.0,1385,1500
0.021962881088256836,2,,,,1500.0,1490.0,1400.0,1500
0.04322004318237305,3,,,,1500.0,1490.0,1400.0,1500
0.06430888175964355,4,,,,1500.0,1490.0,1400.0,1500
0.08550286293029785,5,67,117,0.037037037037037035,1490.7,1450,1385,1500
0.10665392875671387,6,,,,1500.0,1490.0,1400.0,1500
0.1277768611907959,7,,,,1500.0,1490.0,1400.0,1500
0.14883899688720703,8,,,,1500.0,1490.0,1400.0,1500
0.16997599601745605,9,,,,1500.0,1490.0,1400.0,1500
0.1911630630493164,10,69,123,0.03125,1490.9000000000001,1450,1385,1500
0.21249103546142578,11,,,,1500.0,1490.0,1400.0,1500
0.2338869571685791,12,,,,1500.0,1490.0,1400.0,1500
0.2553069591522217,13,,,,1500.0,1490.0,1400.0,1500
0.2766590118408203,14,,,,1500.0,1490.0,1400.0,1500
0.2981128692626953,15,69,121,0.047619047619047616,1490.9000000000001,1450,1385,1500
0.31959104537963867,16,70,121,0.041666666666666664,1491.0,1450,1385,1500
0.3411078453063965,17,,,,1500.0,1490.0,1400.0,1500
0.36245083808898926,18,,,,1500.0,1490.0,1400.0,1500
0.38388800621032715,19,63,120,0.041666666666666664,1490.3,1450,1385,1500
0.40528392791748047,20,,,,1500.0,1490.0,1400.0,1500
0.42664289474487305,21,,,,1500.0,1490.0,1400.0,1500
0.44795894622802734,22,,,,1500.0,1490.0,1400.0,1500
0.4693129062652588,23,,,,1500.0,1490.0,1400.0,1500
0.49071788787841797,24,66,123,0.027777777777777776,1490.5999999999999,1450,1385,1500
0.5121760368347168,25,,,,1500.0,1490.0,1400.0,1500
0.5335378646850586,26,,,,1500.0,1490.0,1400.0,1500
0.5548968315124512,27,,,,1500.0,1490.0,1400.0,1500
0.5762178897857666,28,,,,1500.0,1490.0,1400.0,1500
0.5976078510284424,29,,,,1500.0,1490.0,1400.0,1500
0.6190240383148193,30,63,120,0.05,1490.3,1450,1385,1500
0.6404838562011719,31,,,,1500.0,1490.0,1400.0,1500
0.6619608402252197,32,,,,1500.0,1490.0,1400.0,1500
0.683344841003418,33,,,,1500.0,1490.0,1400.0,1500
0.7046868801116943,34,,,,1500.0,1490.0,1400.0,1500
0.7261509895324707,35,64,118,0.020833333333333332,1490.4000000000001,1450,1385,1500
0.7475800514221191,36,,,,1500.0,1490.0,1400.0,1500
0.7690708637237549,37,65,120,0.027777777777777776,1490.5,1450,1385,1500
0.7904748916625977,38,,,,1500.0,1490.0,1400.0,1500
0.8118560314178467,39,,,,1500.0,1490.0,1400.0,1500
0.8332290649414062,40,,,,1500.0,1490.0,1400.0,1500
0.8546030521392822,41,,,,1500.0,1490.0,1400.0,1500
0.8759200572967529,42,,,,1500.0,1490.0,1400.0,1500
0.897284984588623,43,,,,1500.0,1490.0,1400.0,1500
0.9186129570007324,44,,,,1500.0,1490.0,1400.0,1500
0.9400269985198975,45,,,,1500.0,1490.0,1400.0,1500
0.9613959789276123,46,,,,1500.0,1490.0,1400.0,1500
0.9827468395233154,47,,,,1500.0,1490.0,1400.0,1500
1.0040810108184814,48,,,,1500.0,1490.0,1400.0,1500
1.0254759788513184,49,,,,1500.0,1490.0,1400.0,1500
1.0468859672546387,50,64,120,0.047619047619047616,1490.4000000000001,1450,1385,1500
1.068336009979248,51,,,,1500.0,1490.0,1400.0,1500
1.0896658897399902,52,,,,1500.0,1490.0,1400.0,1500
1.1112079620361328,53,66,116,0.025,1490.5999999999999,1450,1385,1500
1.1327030658721924,54,67,120,0.05555555555555555,1490.7,1450,1385,1500
1.1542420387268066,55,66,118,0.02,1490.5999999999999,1450,1385,1500
1.1756439208984375,56,,,,1500.0,1490.0,1400.0,1500
1.1970579624176025,57,,,,1500.0,1490.0,1400.0,1500
1.218513011932373,58,65,123,0.03333333333333333,1490.5,1450,1385,1500
1.2399969100952148,59,,,,1500.0,1490.0,1400.0,1500
1.2614588737487793,60,77,187,0.01282051282051282,1491.7,1450,1385,1500
1.2829680442810059,61,64,115,0.05555555555555555,1490.4000000000001,1450,1385,1500
1.3044378757476807,62,76,185,0.011111111111111112,1491.5999999999999,1450,1385,1500
1.3259520530700684,63,76,188,0.006944444444444444,1491.5999999999999,1450,1385,1500
1.3474669456481934,64,75,181,0.0022624434389140274,1491.5,1450,1385,1500
1.368994951248169,65,73,182,0.0016666666666666668,1491.3,1450,1385,1500
1.3904600143432617,66,76,181,0.0012077294685990338,1491.5999999999999,1450,1385,1500
1.411970853805542,67,77,176,0.00078125,1491.7,1450,1385,1500
1.433439016342163,68,75,175,0.0008223684210526315,1491.5,1450,1385,1500
1.4551799297332764,69,77,172,0.0006313131313131314,1491.7,1450,1385,1500
1.4766709804534912,70,80,176,0.0006506180871828237,1492.0,1450,1385,1500
1.4981749057769775,71,79,169,0.00042087542087542086,1491.9000000000001,1450,1385,1500
1.519662857055664,72,80,165,0.0003546099290780142,1492.0,1450,1385,1500
1.5412700176239014,73,78,163,0.00037037037037037035,1491.8,1450,1385,1500
1.5627448558807373,74,79,171,0.00046685340802987864,1491.9000000000001,1450,1385,1500
1.5842828750610352,75,78,166,0.0003633720930232558,1491.8,1450,1385,1500
1.6058349609375,76,76,161,0.00031017369727047146,1491.5999999999999,1450,1385,1500
1.627349853515625,77,77,163,0.00034965034965034965,1491.7,1450,1385,1500
1.6488308906555176,78,76,157,0.0002699055330634278,1491.5999999999999,1450,1385,1500
1.6703720092773438,79,76,156,0.00025680534155110427,1491.5999999999999,1450,1385,1500
1.6919078826904297,80,76,158,0.0002805836139169473,1491.5999999999999,1450,1385,1500
1.7134919166564941,81,76,151,0.00025297242600556537,1491.5999999999999,1450,1385,1500
1.7350618839263916,82,74,151,0.0002332089552238806,1491.4000000000001,1450,1385,1500
1.756593942642212,83,71,154,0.0002858776443682104,1491.0999999999999,1450,1385,1500
1.778074026107788,84,70,156,0.0003418803418803419,1491.0,1450,1385,1500
1.7995920181274414,85,69,154,0.0003551136363636364,1490.9000000000001,1450,1385,1500
1.8211820125579834,86,48,147,0.0010121457489878543,1488.8,1450,1385,1500
1.8427019119262695,87,45,145,0.0014005602240896359,1488.5,1450,1385,1500
1.86415696144104,88,43,143,0.0015432098765432098,1488.3,1450,1385,1500
1.8856489658355713,89,43,145,0.001594896331738437,1488.3,1450,1385,1500
1.9071190357208252,90,43,142,0.0011441647597254005,1488.3,1450,1385,1500
1.9286448955535889,91,47,144,0.0008718395815170009,1488.7,1450,1385,1500
1.9502079486846924,92,47,141,0.0007047216349541931,1488.7,1450,1385,1500
1.9717729091644287,93,47,149,0.0012121212121212121,1488.7,1450,1385,1500
1.9932808876037598,94,62,145,0.0003322259136212625,1490.2,1450,1385,1500
2.014739990234375,95,60,144,0.0003827018752391887,1490.0,1450,1385,1500
2.0361969470977783,96,43,141,0.0008960573476702509,1488.3,1450,1385,1500
2.057631015777588,97,35,142,0.001443001443001443,1487.5,1450,1385,1500
2.079087972640991,98,26,139,0.005681818181818182,1486.5999999999999,1450,1385,1500
2.1005189418792725,99,22,152,0.0625,1486.2,1490.0,1385,1500
2.1219189167022705,100,,,,1500.0,1490.0,1400.0,1500
2.143239974975586,101,,,,1500.0,1490.0,1400.0,1500
2.1645660400390625,102,,,,1500.0,1490.0,1400.0,1500
2.1858019828796387,103,,,,1500.0,1490.0,1400.0,1500
2.2070720195770264,104,,,,1500.0,1490.0,1400.0,1500
2.2283389568328857,105,,,,1500.0,1490.0,1400.0,1500
2.2496888637542725,106,,,,1500.0,1490.0,1400.0,1500
2.271054983139038,107,,,,1500.0,1490.0,1400.0,1500
2.2923550605773926,108,,,,1500.0,1490.0,1400.0,1500
2.313662052154541,109,,,,1500.0,1490.0,1400.0,1500
2.3349149227142334,110,,,,1500.0,1490.0,1400.0,1500
2.3562510013580322,111,,,,1500.0,1490.0,1400.0,1500
2.377656936645508,112,,,,1500.0,1490.0,1400.0,1500
2.398967981338501,113,,,,1500.0,1490.0,1400.0,1500
2.4203178882598877,114,,,,1500.0,1490.0,1400.0,1500
2.441624879837036,115,,,,1500.0,1490.0,1400.0,1500
2.4630579948425293,116,24,170,0.022727272727272728,1486.4000000000001,1450,1385,1500
2.48453688621521,117,22,171,0.037037037037037035,1486.2,1450,1385,1500
2.5060060024261475,118,,,,1500.0,1490.0,1400.0,1500
2.5275678634643555,119,15,161,0.041666666666666664,1485.5,1450,1385,1500
2.5490379333496094,120,,,,1500.0,1490.0,1400.0,1500
2.5704379081726074,121,,,,1500.0,1490.0,1400.0,1500
2.5919649600982666,122,9,157,0.03125,1484.9000000000001,1450,1385,1500
2.6134660243988037,123,10,157,0.05555555555555555,1485.0,1450,1385,1500
2.635010004043579,124,10,155,0.03125,1485.0,1450,1385,1500
2.656604051589966,125,18,165,0.047619047619047616,1485.8,1450,1385,1500
2.6781649589538574,126,7,153,0.047619047619047616,1484.7,1450,1385,1500
2.699660062789917,127,53,173,0.005494505494505495,1489.3,1450,1385,1500
2.7214620113372803,128,48,159,0.0004664179104477612,1488.8,1450,1385,1500
2.743379831314087,129,47,147,0.00031055900621118014,1488.7,1450,1385,1500
2.7662129402160645,130,47,131,0.00018615040953090097,1488.7,1450,1385,1500
2.7888729572296143,131,45,113,0.00011563367252543941,1488.5,1450,1385,1500
2.8115639686584473,132,45,109,0.00011446886446886447,1488.5,1450,1385,1500
2.83420991897583,133,45,103,0.00010656436487638534,1488.5,1450,1394.0,1500
2.857034921646118,134,46,101,0.0001032844453625284,1488.5999999999999,1450,1398.0,1500
2.8799898624420166,135,47,96,9.746588693957115e-05,1488.7,1450,1408.0,1500
2.902920961380005,136,47,92,9.137426900584795e-05,1488.7,1450,1415,1500
2.9255900382995605,137,49,90,8.474576271186441e-05,1488.9000000000001,1450,1415,1500
2.948333978652954,138,51,88,7.893282816323308e-05,1489.0999999999999,1450,1415,1500
2.971116065979004,139,53,85,7.17772035601493e-05,1489.3,1450,1415,1500
2.9939000606536865,140,58,79,5.935422602089269e-05,1489.8,1450,1415,1500
3.0166618824005127,141,61,78,5.313778627982358e-05,1490.0999999999999,1450,1415,1500
3.0393660068511963,142,63,78,4.976114649681529e-05,1490.3,1450,1415,1500
3.062211036682129,143,64,79,4.8449612403100775e-05,1490.4000000000001,1450,1415,1500
3.08502197265625,144,68,81,4.478079799382025e-05,1490.8,1450,1415,1500
3.1078269481658936,145,70,82,4.242321398269133e-05,1491.0,1450,1415,1500
3.130638837814331,146,70,83,4.2215467747382644e-05,1491.0,1450,1415,1500
3.153372049331665,147,71,67,5.1062091503267975e-05,1491.0999999999999,1450,1415,1500
3.176208019256592,148,74,69,4.761904761904762e-05,1491.4000000000001,1450,1415,1500
3.198904037475586,149,78,53,5.952735281862015e-05,1491.8,1450,1415,1500
3.2216379642486572,150,79,53,5.787037037037037e-05,1491.9000000000001,1450,1415,1500
3.244304895401001,151,80,48,6.298815822625347e-05,1492.0,1450,1415,1500
3.267040967941284,152,82,48,6.147037128104254e-05,1492.2,1450,1415,1500
3.2897419929504395,153,83,46,6.332320162107397e-05,1492.3,1450,1415,1500
3.312593936920166,154,84,56,5.236424569304079e-05,1492.4000000000001,1450,1415,1500
3.3352890014648438,155,64,50,7.599939200486396e-05,1490.4000000000001,1450,1415,1500
3.3580870628356934,156,87,52,5.3908355795148246e-05,1492.7,1450,1415,1500
3.380894899368286,157,87,54,5.165289256198347e-05,1492.7,1450,1415,1500
3.4036989212036133,158,89,50,5.531279384921732e-05,1492.9000000000001,1450,1415,1500
3.4264638423919678,159,89,45,6.105006105006105e-05,1492.9000000000001,1450,1415,1500
3.449220895767212,160,90,58,4.6961585423123884e-05,1493.0,1450,1415,1500
3.4719560146331787,161,91,60,4.4790826838663444e-05,1493.0999999999999,1450,1415,1500
3.494727849960327,162,92,61,4.359197907585005e-05,1493.2,1450,1415,1500
3.517493963241577,163,93,65,4.0512072597634096e-05,1493.3,1450,1415,1500
3.5402870178222656,164,94,55,4.72411186696901e-05,1493.4000000000001,1450,1415,1500
3.5630788803100586,165,94,63,4.144218814753419e-05,1493.4000000000001,1450,1415,1500
3.586205005645752,166,95,62,4.1666666666666665e-05,1493.5,1450,1415,1500
3.6089329719543457,167,96,56,4.545041359876375e-05,1493.5999999999999,1450,1415,1500
3.6317880153656006,168,97,63,3.985969387755102e-05,1493.7,1450,1415,1500
3.654547929763794,169,98,72,3.476809679438147e-05,1493.8,1450,1415,1500
3.677297830581665,170,97,71,3.5430839002267575e-05,1493.7,1450,1415,1500
3.7000629901885986,171,98,69,3.651900814373882e-05,1493.8,1450,1415,1500
3.722856044769287,172,98,73,3.4531579129113573e-05,1493.8,1450,1415,1500
3.7455599308013916,173,97,73,3.447324875896305e-05,1493.7,1450,1415,1500
3.7684059143066406,174,96,75,3.554923569143263e-05,1493.5999999999999,1450,1415,1500
3.791177988052368,175,95,74,3.6678403755868545e-05,1493.5,1450,1415,1500
3.8139069080352783,176,94,76,3.813882532418002e-05,1493.4000000000001,1450,1415,1500
3.8365988731384277,177,93,82,3.875067813686739e-05,1493.3,1450,1415,1500
3.859339952468872,178,91,84,4.025764895330113e-05,1493.0999999999999,1450,1415,1500
3.882218837738037,179,91,86,4.108632236328526e-05,1493.0999999999999,1450,1415,1500
3.905294895172119,180,90,89,4.194279003439309e-05,1493.0,1450,1415,1500
3.9280529022216797,181,90,90,4.2498937526561835e-05,1493.0,1450,1415,1500
3.9507880210876465,182,89,92,4.3066322136089577e-05,1492.9000000000001,1450,1415,1500
3.973491907119751,183,90,92,4.3848110146452686e-05,1493.0,1450,1415,1500
3.99627685546875,184,90,93,4.3956043956043955e-05,1493.0,1450,1414.0,1500
4.01913595199585,185,90,93,4.4310528181495923e-05,1493.0,1450,1414.0,1500
4.041980028152466,186,91,96,4.4185224460940264e-05,1493.0999999999999,1450,1408.0,1500
4.064787864685059,187,92,95,4.467277194549922e-05,1493.2,1450,1410.0,1500
4.0875959396362305,188,93,94,4.5045045045045046e-05,1493.3,1450,1412.0,1500
4.11047101020813,189,93,95,4.528985507246377e-05,1493.3,1450,1410.0,1500
4.133354902267456,190,94,95,4.5045045045045046e-05,1493.4000000000001,1450,1410.0,1500
4.1561439037323,191,94,96,4.5179362067407606e-05,1493.4000000000001,1450,1408.0,1500
4.17896294593811,192,95,96,4.469873055605221e-05,1493.5,1450,1408.0,1500
4.201709032058716,193,95,96,4.5077533357374686e-05,1493.5,1450,1408.0,1500
4.224541902542114,194,96,96,4.4462229336178915e-05,1493.5999999999999,1450,1408.0,1500
4.247326850891113,195,95,95,4.4462229336178915e-05,1493.5,1450,1410.0,1500
4.27020788192749,196,95,93,4.436950927322744e-05,1493.5,1450,1414.0,1500
4.293033838272095,197,94,92,4.422821760283061e-05,1493.4000000000001,1450,1415,1500
4.315767049789429,198,94,88,4.409171075837743e-05,1493.4000000000001,1450,1415,1500
4.338441848754883,199,93,85,4.45632798573975e-05,1493.3,1450,1415,1500
4.3611838817596436,200,91,82,4.4915558749550845e-05,1493.0999999999999,1450,1415,1500
4.38385796546936,201,91,77,4.4790826838663444e-05,1493.0999999999999,1450,1415,1500
4.406589984893799,202,89,73,4.516711833785005e-05,1492.9000000000001,1450,1415,1500
4.429327011108398,203,88,66,4.760997905160922e-05,1492.8,1450,1415,1500
4.452257871627808,204,86,61,4.749691270067446e-05,1492.5999999999999,1450,1415,1500
4.474987030029297,205,86,58,5.20751965838671e-05,1492.5999999999999,1450,1415,1500
4.4978179931640625,206,86,53,5.7803468208092484e-05,1492.5999999999999,1450,1415,1500
4.520581960678101,207,85,51,6.119951040391677e-05,1492.5,1450,1415,1500
4.543242931365967,208,85,48,6.49772579597141e-05,1492.5,1450,1415,1500
4.565974950790405,209,85,47,6.961849067112225e-05,1492.5,1450,1415,1500
4.588693857192993,210,84,46,7.396449704142012e-05,1492.4000000000001,1450,1415,1500
4.61143684387207,211,102,46,0.00010741138560687433,1494.2,1450,1415,1500
4.63416600227356,212,101,47,0.00011566042100393245,1494.0999999999999,1450,1415,1500
4.6569318771362305,213,101,51,0.00014740566037735848,1494.0999999999999,1450,1415,1500
4.679661989212036,214,90,57,0.0002331002331002331,1493.0,1450,1415,1500
4.702517032623291,215,90,58,0.00030303030303030303,1493.0,1450,1415,1500
4.725182056427002,216,86,61,0.00042087542087542086,1492.5999999999999,1450,1415,1500
4.747910976409912,217,90,61,0.0005285412262156448,1493.0,1450,1415,1500
4.770681858062744,218,85,64,0.0007173601147776184,1492.5,1450,1415,1500
4.793580055236816,219,83,65,0.0008818342151675485,1492.3,1450,1415,1500
4.81629490852356,220,52,68,0.001876172607879925,1489.2,1450,1415,1500
4.839093923568726,221,62,67,0.004629629629629629,1490.2,1450,1415,1500
4.861793041229248,222,48,71,0.005494505494505495,1488.8,1450,1415,1500
4.884593963623047,223,58,68,0.005,1489.8,1450,1415,1500
4.90725302696228,224,69,69,0.003125,1490.9000000000001,1450,1415,1500
4.930042028427124,225,55,71,0.00625,1489.5,1450,1415,1500
4.952872037887573,226,68,73,0.0030864197530864196,1490.8,1450,1415,1500
4.975582838058472,227,68,75,0.0020408163265306124,1490.8,1450,1415,1500
4.998254060745239,228,94,76,0.0007288629737609329,1493.4000000000001,1450,1415,1500
5.021004915237427,229,96,76,0.00045045045045045046,1493.5999999999999,1450,1415,1500
5.043668985366821,230,103,79,0.00033898305084745765,1494.3,1450,1415,1500
5.066422939300537,231,100,80,0.000254000508001016,1494.0,1450,1415,1500
5.089141845703125,232,101,81,0.00015625,1494.0999999999999,1450,1415,1500
5.112340927124023,233,101,84,0.00012406947890818859,1494.0999999999999,1450,1415,1500
5.135105848312378,234,101,88,0.00011399908800729594,1494.0999999999999,1450,1415,1500
5.1578240394592285,235,99,92,9.691800736576855e-05,1493.9000000000001,1450,1415,1500
5.180572032928467,236,99,94,8.991188635137565e-05,1493.9000000000001,1450,1412.0,1500
5.203462839126587,237,98,97,8.677542519958348e-05,1493.8,1450,1406.0,1500
5.226302862167358,238,96,99,7.627765064836003e-05,1493.5999999999999,1450,1402.0,1500
5.249194860458374,239,96,101,7.246376811594203e-05,1493.5999999999999,1450,1398.0,1500
5.272187948226929,240,82,99,5.22466039707419e-05,1492.2,1450,1402.0,1500
5.295024871826172,241,82,98,4.529395778603134e-05,1492.2,1450,1404.0,1500
5.317793846130371,242,82,100,4.302925989672978e-05,1492.2,1450,1400.0,1500
5.340622901916504,243,83,102,4.018808021540811e-05,1492.3,1450,1396.0,1500
5.3634960651397705,244,83,104,4.021879021879022e-05,1492.3,1450,1392.0,1500
5.386319875717163,245,84,102,4.262574595055413e-05,1492.4000000000001,1450,1396.0,1500
5.409073829650879,246,85,113,3.748687959214275e-05,1492.5,1450,1385,1500
5.431782960891724,247,85,118,3.703155088135091e-05,1492.5,1450,1385,1500
5.4544758796691895,248,86,120,3.6584473549425625e-05,1492.5999999999999,1450,1385,1500
5.477196931838989,249,86,122,3.707823507601038e-05,1492.5999999999999,1450,1385,1500
5.499901056289673,250,86,123,3.75629178874615e-05,1492.5999999999999,1450,1385,1500
5.52267599105835,251,87,124,3.809523809523809e-05,1492.7,1450,1385,1500
5.545341968536377,252,87,125,3.839066339066339e-05,1492.7,1450,1385,1500
5.56812596321106,253,88,126,3.869669530222119e-05,1492.8,1450,1385,1500
5.59085488319397,254,87,117,4.6193643754619364e-05,1492.7,1450,1385,1500
5.613569021224976,255,88,128,3.9286556140488726e-05,1492.8,1450,1385,1500
5.636284828186035,256,88,129,3.984381225595665e-05,1492.8,1450,1385,1500
5.659076929092407,257,89,129,3.990422984836392e-05,1492.9000000000001,1450,1385,1500
5.681828022003174,258,88,130,4.0709982087607885e-05,1492.8,1450,1385,1500
5.7045578956604,259,87,131,4.1473125414731254e-05,1492.7,1450,1385,1500
5.727234840393066,260,86,132,4.2817383857846286e-05,1492.5999999999999,1450,1385,1500
5.7500159740448,261,85,132,4.338771259979174e-05,1492.5,1450,1385,1500
5.772843837738037,262,84,132,4.389815627743635e-05,1492.4000000000001,1450,1385,1500
5.795564889907837,263,84,133,4.4489923032433154e-05,1492.4000000000001,1450,1385,1500
5.818236827850342,264,84,133,4.4489923032433154e-05,1492.4000000000001,1450,1385,1500
5.840970039367676,265,83,133,4.536381781890764e-05,1492.3,1450,1385,1500
5.863651990890503,266,83,133,4.536381781890764e-05,1492.3,1450,1385,1500
5.886397838592529,267,82,133,4.5637093829864916e-05,1492.2,1450,1385,1500
5.90907883644104,268,82,133,4.591368227731864e-05,1492.2,1450,1385,1500
5.931778907775879,269,82,133,4.591368227731864e-05,1492.2,1450,1385,1500
5.95444393157959,270,81,133,4.6193643754619364e-05,1492.0999999999999,1450,1385,1500
5.977218866348267,271,82,133,4.591368227731864e-05,1492.2,1450,1385,1500
5.9999840259552,272,82,133,4.5637093829864916e-05,1492.2,1450,1385,1500
6.022780895233154,273,82,133,4.591368227731864e-05,1492.2,1450,1385,1500
6.045480966567993,274,81,133,4.6193643754619364e-05,1492.0999999999999,1450,1385,1500
6.068203926086426,275,81,134,4.654626698938745e-05,1492.0999999999999,1450,1385,1500
6.090872049331665,276,82,134,4.633920296570899e-05,1492.2,1450,1385,1500
6.113586902618408,277,82,135,4.669842159335015e-05,1492.2,1450,1385,1500
6.1362409591674805,278,82,135,4.734848484848485e-05,1492.2,1450,1385,1500
6.15894889831543,279,80,135,4.8225308641975306e-05,1492.0,1450,1385,1500
6.181620836257935,280,80,135,4.852484472049689e-05,1492.0,1450,1385,1500
6.204383850097656,281,79,135,4.8754326946516506e-05,1491.9000000000001,1450,1385,1500
6.2270588874816895,282,77,135,5.0080128205128203e-05,1491.7,1450,1385,1500
6.249764919281006,283,76,136,5.146415521589213e-05,1491.5999999999999,1450,1385,1500
6.272625923156738,284,73,136,5.398984990821726e-05,1491.3,1450,1385,1500
6.2956929206848145,285,71,136,5.55000555000555e-05,1491.0999999999999,1450,1385,1500
6.318450927734375,286,68,137,5.84385226741468e-05,1490.8,1450,1385,1500
6.341179847717285,287,65,137,6.106870229007633e-05,1490.5,1450,1385,1500
6.363903999328613,288,58,136,6.729927989770509e-05,1489.8,1450,1385,1500
6.386620998382568,289,55,135,6.983727913960472e-05,1489.5,1450,1385,1500
6.409344911575317,290,52,135,7.370283018867924e-05,1489.2,1450,1385,1500
6.432203054428101,291,51,135,7.512019230769231e-05,1489.0999999999999,1450,1385,1500
6.454929828643799,292,49,135,7.8125e-05,1488.9000000000001,1450,1385,1500
6.477745056152344,293,48,135,8.054123711340206e-05,1488.8,1450,1385,1500
6.500602960586548,294,47,135,8.223684210526316e-05,1488.7,1450,1385,1500
6.523346900939941,295,46,136,8.466683600033866e-05,1488.5999999999999,1450,1385,1500
6.546109914779663,296,45,136,8.558712769599452e-05,1488.5,1450,1385,1500
6.568781852722168,297,45,136,8.721437292865864e-05,1488.5,1450,1385,1500
6.59154200553894,298,45,136,8.558712769599452e-05,1488.5,1450,1385,1500
6.614238023757935,299,45,136,8.721437292865864e-05,1488.5,1450,1385,1500
6.6370038986206055,300,44,136,8.818342151675486e-05,1488.4000000000001,1450,1385,1500
6.659756898880005,301,45,136,8.652764558276369e-05,1488.5,1450,1385,1500
6.682621955871582,302,46,135,8.33541718763024e-05,1488.5999999999999,1450,1385,1500
6.705448865890503,303,46,132,8.024394158241052e-05,1488.5999999999999,1450,1385,1500
6.728217840194702,304,46,130,7.70891150169596e-05,1488.5999999999999,1450,1385,1500
6.75097393989563,305,48,128,7.185972980741592e-05,1488.8,1450,1385,1500
6.773787021636963,306,49,124,6.734006734006734e-05,1488.9000000000001,1450,1385,1500
6.796506881713867,307,50,112,6.492663290481755e-05,1489.0,1450,1385,1500
6.819242000579834,308,50,104,6.492663290481755e-05,1489.0,1450,1392.0,1500
6.8421549797058105,309,52,95,6.184291898577613e-05,1489.2,1450,1410.0,1500
6.864995956420898,310,52,89,6.224712107065048e-05,1489.2,1450,1415,1500
6.887693881988525,311,52,87,6.506180871828237e-05,1489.2,1450,1415,1500
6.910485029220581,312,53,81,6.566850538481745e-05,1489.3,1450,1415,1500
6.933281898498535,313,53,79,7.233796296296296e-05,1489.3,1450,1415,1500
6.956028938293457,314,54,73,7.223867658744492e-05,1489.4000000000001,1450,1415,1500
6.978749990463257,315,54,72,7.977662544874351e-05,1489.4000000000001,1450,1415,1500
7.001500844955444,316,54,67,9.458053532582995e-05,1489.4000000000001,1450,1415,1500
7.0242600440979,317,54,63,9.276437847866419e-05,1489.4000000000001,1450,1415,1500
7.047015905380249,318,54,62,0.00010081661457808247,1489.4000000000001,1450,1415,1500
7.069684028625488,319,53,63,0.00011155734047300312,1489.3,1450,1415,1500
7.092521905899048,320,53,68,0.00013948946854512484,1489.3,1450,1415,1500
7.115222930908203,321,53,65,0.0001335113484646195,1489.3,1450,1415,1500
7.137979030609131,322,52,66,0.0001429388221841052,1489.2,1450,1415,1500
7.160661935806274,323,52,69,0.0001598976654940838,1489.2,1450,1415,1500
7.183382034301758,324,52,75,0.00020703933747412008,1489.2,1450,1415,1500
7.20606803894043,325,26,82,0.0006172839506172839,1486.5999999999999,1450,1415,1500
7.228852033615112,326,22,88,0.0011441647597254005,1486.2,1450,1415,1500
7.251589059829712,327,19,87,0.001282051282051282,1485.9000000000001,1450,1415,1500
7.274333953857422,328,17,89,0.0016806722689075631,1485.7,1450,1415,1500
7.296994924545288,329,12,88,0.0020242914979757085,1485.2,1450,1415,1500
7.319707870483398,330,11,88,0.0024154589371980675,1485.0999999999999,1450,1415,1500
7.342582941055298,331,12,86,0.0019230769230769232,1485.2,1450,1415,1500
7.3653059005737305,332,12,85,0.0019230769230769232,1485.2,1450,1415,1500
7.387986898422241,333,10,87,0.0030303030303030303,1485.0,1450,1415,1500
7.410672903060913,334,4,87,0.00909090909090909,1484.4000000000001,1450,1415,1500
7.43334698677063,335,1,87,0.06666666666666667,1484.0999999999999,1530,1415,1500
7.456111907958984,336,1,86,0.06666666666666667,1484.0999999999999,1530,1415,1500
7.478644847869873,337,,,,1500.0,1490.0,1400.0,1500
7.5014588832855225,338,,,,1500.0,1490.0,1400.0,1500
7.524093866348267,339,64,118,0.027777777777777776,1490.4000000000001,1450,1385,1500
7.546846866607666,340,66,120,0.027777777777777776,1490.5999999999999,1450,1385,1500
7.569396018981934,341,,,,1500.0,1490.0,1400.0,1500
7.5920679569244385,342,,,,1500.0,1490.0,1400.0,1500
7.6145179271698,343,,,,1500.0,1490.0,1400.0,1500
7.637166976928711,344,64,116,0.041666666666666664,1490.4000000000001,1450,1385,1500
7.660008907318115,345,67,120,0.05555555555555555,1490.7,1450,1385,1500
7.682651042938232,346,,,,1500.0,1490.0,1400.0,1500
7.705124855041504,347,,,,1500.0,1490.0,1400.0,1500
7.72773289680481,348,63,116,0.041666666666666664,1490.3,1450,1385,1500
7.750437021255493,349,65,121,0.041666666666666664,1490.5,1450,1385,1500
7.773215055465698,350,66,118,0.0625,1490.5999999999999,1490.0,1385,1500
7.795950889587402,351,65,119,0.013888888888888888,1490.5,1450,1385,1500
7.818667888641357,352,66,114,0.05,1490.5999999999999,1450,1385,1500
7.841322898864746,353,1,65,0.041666666666666664,1484.0999999999999,1450,1415,1500
7.8640758991241455,354,1,64,0.06666666666666667,1484.0999999999999,1530,1415,1500
7.886610984802246,355,,,,1500.0,1490.0,1400.0,1500
7.909242868423462,356,67,119,0.047619047619047616,1490.7,1450,1385,1500
7.931768894195557,357,,,,1500.0,1490.0,1400.0,1500
7.95428204536438,358,,,,1500.0,1490.0,1400.0,1500
7.976790904998779,359,,,,1500.0,1490.0,1400.0,1500
7.99925684928894,360,,,,1500.0,1490.0,1400.0,1500
8.021935939788818,361,64,120,0.05,1490.4000000000001,1450,1385,1500
8.04465389251709,362,65,117,0.037037037037037035,1490.5,1450,1385,1500
8.067244052886963,363,,,,1500.0,1490.0,1400.0,1500
8.089748859405518,364,,,,1500.0,1490.0,1400.0,1500
8.112453937530518,365,68,118,0.03571428571428571,1490.8,1450,1385,1500
8.135035037994385,366,,,,1500.0,1490.0,1400.0,1500
8.157646894454956,367,66,120,0.012987012987012988,1490.5999999999999,1450,1385,1500
8.180484056472778,368,67,120,0.03125,1490.7,1450,1385,1500
8.203081846237183,369,,,,1500.0,1490.0,1400.0,1500
8.225713968276978,370,64,122,0.025,1490.4000000000001,1450,1385,1500
8.248373985290527,371,67,121,0.041666666666666664,1490.7,1450,1385,1500
8.271055936813354,372,,,,1500.0,1490.0,1400.0,1500
8.293552875518799,373,,,,1500.0,1490.0,1400.0,1500
8.316170930862427,374,66,120,0.047619047619047616,1490.5999999999999,1450,1385,1500
8.338711977005005,375,,,,1500.0,1490.0,1400.0,1500
8.361212015151978,376,,,,1500.0,1490.0,1400.0,1500
8.383687019348145,377,,,,1500.0,1490.0,1400.0,1500
8.406162977218628,378,,,,1500.0,1490.0,1400.0,1500
8.42861294746399,379,,,,1500.0,1490.0,1400.0,1500
8.451213836669922,380,,,,1500.0,1490.0,1400.0,1500
8.47389006614685,381,68,121,0.05555555555555555,1490.8,1450,1385,1500
8.4965660572052,382,,,,1500.0,1490.0,1400.0,1500
8.519237041473389,383,66,120,0.047619047619047616,1490.5999999999999,1450,1385,1500
8.54204797744751,384,65,116,0.041666666666666664,1490.5,1450,1385,1500
8.564828872680664,385,64,120,0.02,1490.4000000000001,1450,1385,1500
8.587563037872314,386,66,118,0.041666666666666664,1490.5999999999999,1450,1385,1500
8.610193014144897,387,,,,1500.0,1490.0,1400.0,1500
8.632715940475464,388,,,,1500.0,1490.0,1400.0,1500
8.655223846435547,389,,,,1500.0,1490.0,1400.0,1500
8.677664041519165,390,,,,1500.0,1490.0,1400.0,1500
8.700396060943604,391,68,122,0.037037037037037035,1490.8,1450,1385,1500
8.723152875900269,392,65,118,0.05555555555555555,1490.5,1450,1385,1500
8.745864868164062,393,68,117,0.05,1490.8,1450,1385,1500
8.768576860427856,394,65,116,0.03571428571428571,1490.5,1450,1385,1500
8.791204929351807,395,,,,1500.0,1490.0,1400.0,1500
8.813832998275757,396,66,115,0.041666666666666664,1490.5999999999999,1450,1385,1500
8.83654499053955,397,68,119,0.05555555555555555,1490.8,1450,1385,1500
8.859070062637329,398,,,,1500.0,1490.0,1400.0,1500
8.881564855575562,399,,,,1500.0,1490.0,1400.0,1500
8.904042959213257,400,,,,1500.0,1490.0,1400.0,1500
8.926651954650879,401,64,117,0.03571428571428571,1490.4000000000001,1450,1385,1500
8.949641942977905,402,34,68,0.041666666666666664,1487.4000000000001,1450,1415,1500
8.972369909286499,403,,,,1500.0,1490.0,1400.0,1500
8.994852066040039,404,,,,1500.0,1490.0,1400.0,1500
9.017550945281982,405,65,117,0.014285714285714285,1490.5,1450,1385,1500
9.040266036987305,406,63,124,0.05555555555555555,1490.3,1450,1385,1500
9.062918901443481,407,,,,1500.0,1490.0,1400.0,1500
9.085492849349976,408,64,121,0.037037037037037035,1490.4000000000001,1450,1385,1500
9.10824990272522,409,64,115,0.05555555555555555,1490.4000000000001,1450,1385,1500
9.130817890167236,410,,,,1500.0,1490.0,1400.0,1500
9.153475046157837,411,67,117,0.037037037037037035,1490.7,1450,1385,1500
9.176127910614014,412,66,117,0.025,1490.5999999999999,1450,1385,1500
9.198830842971802,413,67,117,0.05555555555555555,1490.7,1450,1385,1500
9.221412897109985,414,,,,1500.0,1490.0,1400.0,1500
9.244114875793457,415,65,120,0.022222222222222223,1490.5,1450,1385,1500
9.266685009002686,416,,,,1500.0,1490.0,1400.0,1500
9.289314985275269,417,15,128,0.009615384615384616,1485.5,1450,1385,1500
9.31206202507019,418,20,129,0.001122334455667789,1486.0,1450,1385,1500
9.334738969802856,419,20,120,0.0006583278472679394,1486.0,1450,1385,1500
9.357388019561768,420,26,116,0.0005120327700972862,1486.5999999999999,1450,1385,1500
9.380146026611328,421,27,118,0.0005288207297726071,1486.7,1450,1385,1500
9.402912855148315,422,20,108,0.00026752273943285177,1486.0,1450,1385,1500
9.425655841827393,423,20,108,0.0003132832080200501,1486.0,1450,1385,1500
9.448356866836548,424,22,116,0.0004873294346978557,1486.2,1450,1385,1500
9.471055030822754,425,26,123,0.0006313131313131314,1486.5999999999999,1450,1385,1500
9.493722915649414,426,27,140,0.002,1486.7,1450,1385,1500
9.516446828842163,427,24,148,0.006493506493506494,1486.4000000000001,1450,1385,1500
9.53949785232544,428,29,152,0.012345679012345678,1486.9000000000001,1450,1385,1500
9.562399864196777,429,26,158,0.05555555555555555,1486.5999999999999,1450,1385,1500
9.584995031356812,430,,,,1500.0,1490.0,1400.0,1500
9.60779094696045,431,65,117,0.03125,1490.5,1450,1385,1500
9.630548000335693,432,,,,1500.0,1490.0,1400.0,1500
9.653143882751465,433,,,,1500.0,1490.0,1400.0,1500
9.6756010055542,434,,,,1500.0,1490.0,1400.0,1500
9.698086023330688,435,,,,1500.0,1490.0,1400.0,1500
9.7205069065094,436,,,,1500.0,1490.0,1400.0,1500
9.742985963821411,437,,,,1500.0,1490.0,1400.0,1500
9.76562786102295,438,64,117,0.02857142857142857,1490.4000000000001,1450,1385,1500
9.788218021392822,439,,,,1500.0,1490.0,1400.0,1500
9.810667991638184,440,,,,1500.0,1490.0,1400.0,1500
9.833240032196045,441,,,,1500.0,1490.0,1400.0,1500
9.855890035629272,442,68,120,0.03571428571428571,1490.8,1450,1385,1500
9.878610849380493,443,67,115,0.04,1490.7,1450,1385,1500
9.901273012161255,444,62,121,0.03333333333333333,1490.2,1450,1385,1500
9.923847913742065,445,,,,1500.0,1490.0,1400.0,1500
9.94636583328247,446,,,,1500.0,1490.0,1400.0,1500
9.969007015228271,447,62,120,0.05,1490.2,1450,1385,1500
9.991516828536987,448,,,,1500.0,1490.0,1400.0,1500
10.014020919799805,449,,,,1500.0,1490.0,1400.0,1500
10.036458015441895,450,,,,1500.0,1490.0,1400.0,1500
10.059097051620483,451,65,117,0.03571428571428571,1490.5,1450,1385,1500
10.081758975982666,452,68,117,0.027777777777777776,1490.8,1450,1385,1500
10.104451894760132,453,68,121,0.041666666666666664,1490.8,1450,1385,1500
10.126987934112549,454,,,,1500.0,1490.0,1400.0,1500
10.149667024612427,455,66,117,0.047619047619047616,1490.5999999999999,1450,1385,1500
10.172355890274048,456,,,,1500.0,1490.0,1400.0,1500
10.194854021072388,457,,,,1500.0,1490.0,1400.0,1500
10.21728801727295,458,,,,1500.0,1490.0,1400.0,1500
10.239758014678955,459,,,,1500.0,1490.0,1400.0,1500
10.262462854385376,460,64,122,0.03333333333333333,1490.4000000000001,1450,1385,1500
10.285064935684204,461,,,,1500.0,1490.0,1400.0,1500
10.307515859603882,462,,,,1500.0,1490.0,1400.0,1500
10.330129861831665,463,,,,1500.0,1490.0,1400.0,1500
10.352813005447388,464,,,,1500.0,1490.0,1400.0,1500
10.375334978103638,465,,,,1500.0,1490.0,1400.0,1500
10.39820384979248,466,,,,1500.0,1490.0,1400.0,1500
10.421056985855103,467,67,117,0.05555555555555555,1490.7,1450,1385,1500
10.443862915039062,468,66,118,0.027777777777777776,1490.5999999999999,1450,1385,1500
10.466469049453735,469,,,,1500.0,1490.0,1400.0,1500
10.488972902297974,470,,,,1500.0,1490.0,1400.0,1500
10.511441946029663,471,,,,1500.0,1490.0,1400.0,1500
10.534175872802734,472,66,120,0.027777777777777776,1490.5999999999999,1450,1385,1500
10.556884050369263,473,66,116,0.041666666666666664,1490.5999999999999,1450,1385,1500
10.57961392402649,474,63,121,0.03125,1490.3,1450,1385,1500
10.602460861206055,475,66,117,0.023809523809523808,1490.5999999999999,1450,1385,1500
10.625174045562744,476,,,,1500.0,1490.0,1400.0,1500
10.647697925567627,477,,,,1500.0,1490.0,1400.0,1500
10.670409917831421,478,,,,1500.0,1490.0,1400.0,1500
10.693143844604492,479,63,121,0.047619047619047616,1490.3,1450,1385,1500
10.71587586402893,480,64,116,0.047619047619047616,1490.4000000000001,1450,1385,1500
10.738456010818481,481,,,,1500.0,1490.0,1400.0,1500
10.761006832122803,482,,,,1500.0,1490.0,1400.0,1500
10.78344988822937,483,,,,1500.0,1490.0,1400.0,1500
10.805927991867065,484,,,,1500.0,1490.0,1400.0,1500
10.828351020812988,485,,,,1500.0,1490.0,1400.0,1500
10.850839853286743,486,,,,1500.0,1490.0,1400.0,1500
10.873422861099243,487,66,118,0.025,1490.5999999999999,1450,1385,1500
10.895988941192627,488,,,,1500.0,1490.0,1400.0,1500
10.918437957763672,489,,,,1500.0,1490.0,1400.0,1500
10.94107699394226,490,64,125,0.037037037037037035,1490.4000000000001,1450,1385,1500
10.963759899139404,491,68,120,0.041666666666666664,1490.8,1450,1385,1500
10.98633885383606,492,,,,1500.0,1490.0,1400.0,1500
11.008955955505371,493,66,118,0.014285714285714285,1490.5999999999999,1450,1385,1500
11.031545877456665,494,,,,1500.0,1490.0,1400.0,1500
11.053993940353394,495,,,,1500.0,1490.0,1400.0,1500
11.076634883880615,496,61,122,0.041666666666666664,1490.0999999999999,1450,1385,1500
11.099228858947754,497,,,,1500.0,1490.0,1400.0,1500
11.121842861175537,498,,,,1500.0,1490.0,1400.0,1500
11.144299030303955,499,,,,1500.0,1490.0,1400.0,1500
11.166786909103394,500,,,,1500.0,1490.0,1400.0,1500
11.189249038696289,501,,,,1500.0,1490.0,1400.0,1500
11.212005853652954,502,65,121,0.020833333333333332,1490.5,1450,1385,1500
11.234679937362671,503,65,117,0.03333333333333333,1490.5,1450,1385,1500
11.257417917251587,504,66,120,0.022727272727272728,1490.5999999999999,1450,1385,1500
11.280011892318726,505,,,,1500.0,1490.0,1400.0,1500
11.302592992782593,506,,,,1500.0,1490.0,1400.0,1500
11.325064897537231,507,,,,1500.0,1490.0,1400.0,1500
11.34769892692566,508,64,117,0.017857142857142856,1490.4000000000001,1450,1385,1500
11.370498895645142,509,64,120,0.037037037037037035,1490.4000000000001,1450,1385,1500
11.393295049667358,510,,,,1500.0,1490.0,1400.0,1500
11.41581392288208,511,,,,1500.0,1490.0,1400.0,1500
11.438467979431152,512,66,119,0.05,1490.5999999999999,1450,1385,1500
11.46101188659668,513,,,,1500.0,1490.0,1400.0,1500
11.483525037765503,514,,,,1500.0,1490.0,1400.0,1500
11.50603985786438,515,,,,1500.0,1490.0,1400.0,1500
11.528714895248413,516,66,121,0.037037037037037035,1490.5999999999999,1450,1385,1500
11.551274061203003,517,,,,1500.0,1490.0,1400.0,1500
11.573793888092041,518,,,,1500.0,1490.0,1400.0,1500
11.59645390510559,519,66,119,0.014285714285714285,1490.5999999999999,1450,1385,1500
11.619138956069946,520,,,,1500.0,1490.0,1400.0,1500
11.641633987426758,521,,,,1500.0,1490.0,1400.0,1500
11.664160966873169,522,,,,1500.0,1490.0,1400.0,1500
11.686816930770874,523,66,115,0.041666666666666664,1490.5999999999999,1450,1385,1500
11.70964503288269,524,63,120,0.025,1490.3,1450,1385,1500
11.732377052307129,525,,,,1500.0,1490.0,1400.0,1500
11.754961013793945,526,,,,1500.0,1490.0,1400.0,1500
11.777660846710205,527,64,121,0.037037037037037035,1490.4000000000001,1450,1385,1500
11.80055284500122,528,63,117,0.03125,1490.3,1450,1385,1500
11.823158979415894,529,,,,1500.0,1490.0,1400.0,1500
11.845687866210938,530,,,,1500.0,1490.0,1400.0,1500
11.868218898773193,531,,,,1500.0,1490.0,1400.0,1500
11.89107894897461,532,,,,1500.0,1490.0,1400.0,1500
11.913622856140137,533,,,,1500.0,1490.0,1400.0,1500
11.936296939849854,534,67,118,0.027777777777777776,1490.7,1450,1385,1500
11.958858013153076,535,,,,1500.0,1490.0,1400.0,1500
11.981528997421265,536,68,120,0.02857142857142857,1490.8,1450,1385,1500
12.004231929779053,537,66,118,0.022727272727272728,1490.5999999999999,1450,1385,1500
12.026941061019897,538,64,115,0.047619047619047616,1490.4000000000001,1450,1385,1500
12.049483060836792,539,,,,1500.0,1490.0,1400.0,1500
12.072288036346436,540,68,118,0.018518518518518517,1490.8,1450,1385,1500
12.094866037368774,541,,,,1500.0,1490.0,1400.0,1500
12.117406845092773,542,,,,1500.0,1490.0,1400.0,1500
12.139899015426636,543,,,,1500.0,1490.0,1400.0,1500
12.162621021270752,544,66,117,0.022222222222222223,1490.5999999999999,1450,1385,1500
12.185281038284302,545,,,,1500.0,1490.0,1400.0,1500
12.207892894744873,546,66,122,0.030303030303030304,1490.5999999999999,1450,1385,1500
12.2305428981781,547,,,,1500.0,1490.0,1400.0,1500
12.253017902374268,548,,,,1500.0,1490.0,1400.0,1500
