time,frame,x,y,size_inv,roll,pitch,thrust,yaw
0.00024199485778808594,1,,,,1500.0,1490.0,1150.0,1500
0.02168416976928711,2,,,,1500.0,1490.0,1150.0,1500
0.042817115783691406,3,,,,1500.0,1490.0,1150.0,1500
0.06387519836425781,4,,,,1500.0,1490.0,1150.0,1500
0.08493900299072266,5,,,,1500.0,1490.0,1150.0,1500
0.10598015785217285,6,,,,1500.0,1490.0,1150.0,1500
0.12700319290161133,7,,,,1500.0,1490.0,1150.0,1500
0.1479511260986328,8,,,,1500.0,1490.0,1150.0,1500
0.1689000129699707,9,,,,1500.0,1490.0,1150.0,1500
0.18986105918884277,10,,,,1500.0,1490.0,1150.0,1500
0.21096205711364746,11,,,,1500.0,1490.0,1150.0,1500
0.2323610782623291,12,,,,1500.0,1490.0,1150.0,1500
0.2537200450897217,13,,,,1500.0,1490.0,1150.0,1500
0.27507710456848145,14,,,,1500.0,1490.0,1150.0,1500
0.29643797874450684,15,,,,1500.0,1490.0,1150.0,1500
0.31780099868774414,16,,,,1500.0,1490.0,1150.0,1500
0.3391561508178711,17,,,,1500.0,1490.0,1150.0,1500
0.3605051040649414,18,,,,1500.0,1490.0,1150.0,1500
0.38187098503112793,19,,,,1500.0,1490.0,1150.0,1500
0.4032289981842041,20,,,,1500.0,1490.0,1150.0,1500
0.4245750904083252,21,,,,1500.0,1490.0,1150.0,1500
0.4459559917449951,22,,,,1500.0,1490.0,1150.0,1500
0.4673631191253662,23,,,,1500.0,1490.0,1150.0,1500
0.4887111186981201,24,,,,1500.0,1490.0,1150.0,1500
0.5100619792938232,25,,,,1500.0,1490.0,1150.0,1500
0.531426191329956,26,,,,1500.0,1490.0,1150.0,1500
0.55277419090271,27,,,,1500.0,1490.0,1150.0,1500
0.5741519927978516,28,,,,1500.0,1490.0,1150.0,1500
0.5955591201782227,29,,,,1500.0,1490.0,1150.0,1500
0.6169841289520264,30,,,,1500.0,1490.0,1150.0,1500
0.638336181640625,31,,,,1500.0,1490.0,1150.0,1500
0.6596829891204834,32,,,,1500.0,1490.0,1150.0,1500
0.6810431480407715,33,,,,1500.0,1490.0,1150.0,1500
0.7023952007293701,34,,,,1500.0,1490.0,1150.0,1500
0.7237470149993896,35,,,,1500.0,1490.0,1150.0,1500
0.7450971603393555,36,,,,1500.0,1490.0,1150.0,1500
0.7664520740509033,37,,,,1500.0,1490.0,1150.0,1500
0.7878282070159912,38,,,,1500.0,1490.0,1150.0,1500
0.8091821670532227,39,,,,1500.0,1490.0,1150.0,1500
0.8305280208587646,40,,,,1500.0,1490.0,1150.0,1500
0.8518381118774414,41,,,,1500.0,1490.0,1150.0,1500
0.8732349872589111,42,,,,1500.0,1490.0,1150.0,1500
0.8945930004119873,43,,,,1500.0,1490.0,1150.0,1500
0.9159870147705078,44,,,,1500.0,1490.0,1150.0,1500
0.9373960494995117,45,,,,1500.0,1490.0,1150.0,1500
0.958733081817627,46,,,,1500.0,1490.0,1150.0,1500
0.9801900386810303,47,133,4,0.006172839506172839,1497.4349999999999,1500,1165,1500
1.0017321109771729,48,128,5,0.013157894736842105,1497.095,1500,1165,1500
1.0231471061706543,49,,,,1500.2950000000001,1500,1150.0,1500
1.0445690155029297,50,131,7,0.00510204081632653,1497.54,1500,1165,1500
1.0660951137542725,51,124,14,0.013333333333333334,1497.02,1500,1165,1500
1.0876340866088867,52,121,11,0.002840909090909091,1495.2950000000001,1500,1165,1500
1.1091101169586182,53,129,10,0.0014705882352941176,1494.3299999999999,1500,1165,1500
1.130599021911621,54,126,11,0.001422475106685633,1494.2,1500,1165,1500
1.1520931720733643,55,124,15,0.0016339869281045752,1492.4400000000001,1500,1165,1500
1.1735801696777344,56,126,18,0.0009057971014492754,1490.6500000000001,1500,1165,1500
1.195087194442749,57,126,17,0.0005681818181818182,1489.9649999999999,1500,1165,1500
1.216569185256958,58,129,22,0.0003341129301703976,1490.3199999999999,1500,1165,1500
1.2380461692810059,59,124,17,0.0005376344086021505,1487.96,1500,1165,1500
1.2595200538635254,60,126,23,0.0003246753246753247,1487.7650000000001,1500,1165,1500
1.281013011932373,61,126,26,0.00029239766081871346,1487.875,1491.2547352130782,1165,1500
1.302577018737793,62,125,26,0.00032206119162640903,1488.0550000000001,1489.0325226218724,1165,1500
1.3241209983825684,63,130,35,0.0002144082332761578,1488.55,1486.699813036352,1165,1500
1.3456671237945557,64,130,34,0.00019201228878648233,1488.4100000000001,1485.2453907735562,1165,1500
1.367314100265503,65,134,30,0.00021701388888888888,1488.8800000000001,1484.0784337353646,1165,1500
1.3888771533966064,66,131,34,0.00020903010033444816,1488.5550000000001,1483.3018288487053,1165,1500
1.4106500148773193,67,130,32,0.00020859407592824363,1488.375,1482.9378808623896,1165,1500
1.4322271347045898,68,116,36,0.00031525851197982345,1487.0999999999999,1483.9856708047148,1165,1500
1.4537880420684814,69,118,35,0.0005574136008918618,1487.6900000000001,1486.4270008861249,1165,1500
1.4753379821777344,70,118,30,0.00030395136778115504,1488.21,1483.8716545981238,1165,1500
1.4972901344299316,71,110,23,0.0006257822277847309,1487.79,1487.4233477651255,1165,1500
1.5201470851898193,72,118,39,0.0003968253968253968,1488.925,1485.2085436607313,1165,1500
1.5429270267486572,73,117,33,0.00031887755102040814,1488.05,1484.5335345204255,1165,1500
1.5657391548156738,74,128,39,0.00030921459492888067,1488.4400000000001,1484.5541072656526,1165,1500
1.588757038116455,75,122,34,0.0002079002079002079,1486.9400000000001,1483.5318497143771,1165,1500
1.6115350723266602,76,122,24,0.00032615786040443573,1485.7249999999999,1484.8315539994894,1165,1500
1.6343371868133545,77,127,31,0.00026164311878597594,1485.52,1484.2394556261627,1165,1500
1.6571240425109863,78,129,30,0.00026838432635534085,1485.7149999999999,1484.2599935162318,1165,1500
1.6798911094665527,79,124,23,0.0003443526170798898,1485.7850000000001,1484.8066154396654,1165,1500
1.7026782035827637,80,125,22,0.0003676470588235294,1486.0899999999999,1485.103255548144,1165,1500
1.7254681587219238,81,128,23,0.0003944773175542406,1487.02,1485.1402532252207,1165,1500
1.7484090328216553,82,127,24,0.0006385696040868455,1487.415,1487.8229202978082,1165,1500
1.771198034286499,83,130,17,0.0006172839506172839,1488.3699999999999,1487.9084701627094,1165,1500
1.7939910888671875,84,127,11,0.0013227513227513227,1487.835,1495.9766806118723,1165,1500
1.8167932033538818,85,126,14,0.0012987012987012987,1487.895,1496.8269814621731,1165,1500
1.8395910263061523,86,133,6,0.0043859649122807015,1488.9000000000001,1500,1165,1500
1.8621041774749756,87,,,,1491.4349999999999,1494.2381324082505,1150.0,1500
1.8846189975738525,88,,,,1491.3399999999999,1494.5697480818951,1150.0,1500
1.9071121215820312,89,,,,1491.3399999999999,1494.8253954648153,1150.0,1500
1.9296190738677979,90,,,,1491.2249999999999,1495.0577484059918,1150.0,1500
1.952111005783081,91,,,,1491.365,1495.2632710884375,1150.0,1500
1.9745771884918213,92,,,,1493.1800000000001,1495.2247014843506,1150.0,1500
1.9970831871032715,93,,,,1494.8299999999999,1495.2074175337334,1150.0,1500
2.019604206085205,94,,,,1496.645,1494.4846662109819,1150.0,1500
2.042186975479126,95,,,,1498.5150000000001,1493.7859649122806,1150.0,1500
2.064958095550537,96,,,,1500.0,1490.0,1150.0,1500
2.087486982345581,97,,,,1500.0,1490.0,1150.0,1500
2.1099541187286377,98,,,,1500.0,1490.0,1150.0,1500
2.1324431896209717,99,,,,1500.0,1490.0,1150.0,1500
2.1548969745635986,100,,,,1500.0,1490.0,1150.0,1500
2.1773581504821777,101,,,,1500.0,1490.0,1150.0,1500
2.1998560428619385,102,,,,1500.0,1490.0,1150.0,1500
2.2223451137542725,103,,,,1500.0,1490.0,1150.0,1500
2.2448031902313232,104,,,,1500.0,1490.0,1150.0,1500
2.2672832012176514,105,,,,1500.0,1490.0,1150.0,1500
2.2897660732269287,106,,,,1500.0,1490.0,1150.0,1500
2.312218189239502,107,,,,1500.0,1490.0,1150.0,1500
2.334693193435669,108,,,,1500.0,1490.0,1150.0,1500
2.3571410179138184,109,,,,1500.0,1490.0,1150.0,1500
2.379610061645508,110,,,,1500.0,1490.0,1150.0,1500
2.402101993560791,111,,,,1500.0,1490.0,1150.0,1500
2.4245781898498535,112,,,,1500.0,1490.0,1150.0,1500
2.4470601081848145,113,,,,1500.0,1490.0,1150.0,1500
2.46954607963562,114,,,,1500.0,1490.0,1150.0,1500
2.492016077041626,115,,,,1500.0,1490.0,1150.0,1500
2.514484167098999,116,,,,1500.0,1490.0,1150.0,1500
2.5370311737060547,117,,,,1500.0,1490.0,1150.0,1500
2.5595099925994873,118,,,,1500.0,1490.0,1150.0,1500
2.5822901725769043,119,,,,1500.0,1490.0,1150.0,1500
2.6048049926757812,120,,,,1500.0,1490.0,1150.0,1500
2.6272690296173096,121,,,,1500.0,1490.0,1150.0,1500
2.649738073348999,122,,,,1500.0,1490.0,1150.0,1500
2.6721980571746826,123,,,,1500.0,1490.0,1150.0,1500
2.6946380138397217,124,,,,1500.0,1490.0,1150.0,1500
2.7174181938171387,125,,,,1500.0,1490.0,1150.0,1500
2.7399301528930664,126,,,,1500.0,1490.0,1150.0,1500
2.762395143508911,127,,,,1500.0,1490.0,1150.0,1500
2.7848620414733887,128,,,,1500.0,1490.0,1150.0,1500
2.807497978210449,129,135,6,0.018518518518518517,1497.625,1500,1165,1500
2.830151081085205,130,120,7,0.004830917874396135,1496.325,1500,1165,1500
2.852792978286743,131,128,9,0.0013736263736263737,1497.2850000000001,1500,1165,1500
2.8754429817199707,132,140,10,0.002564102564102564,1498.585,1500,1165,1500
2.898198127746582,133,121,12,0.001282051282051282,1496.8800000000001,1500,1165,1500
2.920929193496704,134,122,14,0.0009302325581395349,1495.6700000000001,1500,1165,1500
2.943620204925537,135,128,16,0.0005159958720330237,1494.03,1500,1165,1500
2.966330051422119,136,127,17,0.0005847953216374269,1492.175,1500,1165,1500
2.98907208442688,137,118,25,0.0007501875468867217,1490.2850000000001,1500,1165,1500
3.011749029159546,138,125,30,0.000531632110579479,1488.8199999999999,1500,1165,1500
3.034440040588379,139,126,23,0.00033444816053511704,1488.1849999999999,1495.0424712693389,1165,1500
3.0572330951690674,140,122,25,0.00035803795202291446,1488.2550000000001,1490.8054892618436,1165,1500
3.080000162124634,141,119,28,0.0003197953309881676,1487.9400000000001,1489.3692320088578,1165,1500
3.1027719974517822,142,118,19,0.000462962962962963,1486.6300000000001,1488.6997687274663,1165,1500
3.1255600452423096,143,121,28,0.0003139717425431711,1487.1700000000001,1486.2417769837602,1165,1500
3.148454189300537,144,117,32,0.0005005005005005005,1487.0350000000001,1487.6773325056945,1165,1500
3.1712570190429688,145,116,21,0.0005136106831022085,1486.635,1487.8060491427807,1165,1500
3.1940481662750244,146,116,19,0.00041118421052631577,1486.21,1486.6081733059107,1165,1500
3.216853141784668,147,119,31,0.000223563603845294,1486.5050000000001,1484.205343296059,1165,1500
3.239633083343506,148,124,35,0.00042087542087542086,1486.77,1486.0677047766562,1165,1500
3.2624001502990723,149,116,21,0.0003663003663003663,1485.48,1485.553806436671,1165,1500
3.2851572036743164,150,117,25,0.00030637254901960784,1485.2449999999999,1484.9028628608601,1165,1500
3.307892084121704,151,115,24,0.0003324468085106383,1484.885,1485.176256933293,1165,1500
3.330735206604004,152,116,22,0.0003450655624568668,1485.0550000000001,1485.184547072249,1165,1500
3.353527069091797,153,116,24,0.0004553734061930783,1485.26,1486.4290271732611,1165,1500
3.3763771057128906,154,114,22,0.00043554006968641115,1485.0150000000001,1486.1657333773803,1165,1500
3.3992581367492676,155,116,23,0.000449842555105713,1485.2750000000001,1486.2449901035768,1165,1500
3.4220480918884277,156,111,20,0.000851063829787234,1484.74,1490.697082469653,1165,1500
3.4448070526123047,157,114,14,0.0006988120195667365,1484.885,1489.6498127831694,1165,1500
3.4675981998443604,158,115,11,0.0008984725965858042,1484.55,1492.1240157290706,1165,1500
3.4904232025146484,159,103,10,0.0033333333333333335,1483.2950000000001,1500,1165,1500
3.5132510662078857,160,125,5,0.005494505494505495,1485.395,1500,1165,1500
3.536039113998413,161,114,4,0.015151515151515152,1484.0599999999999,1500,1165,1500
3.5586421489715576,162,,,,1488.3199999999999,1500,1150.0,1500
3.5811030864715576,163,,,,1488.04,1500,1150.0,1500
3.6036510467529297,164,,,,1487.1500000000001,1500,1150.0,1500
3.626345157623291,165,,,,1487.47,1500,1150.0,1500
3.6488521099090576,166,,,,1487.405,1500,1150.0,1500
3.6712729930877686,167,,,,1489.9349999999999,1500,1150.0,1500
3.693655014038086,168,,,,1492.4100000000001,1500,1150.0,1500
3.716093063354492,169,,,,1495.5450000000001,1500,1150.0,1500
3.738558053970337,170,,,,1497.47,1500,1150.0,1500
3.7609331607818604,171,,,,1500.0,1490.0,1150.0,1500
3.78340220451355,172,,,,1500.0,1490.0,1150.0,1500
3.8059160709381104,173,,,,1500.0,1490.0,1150.0,1500
3.828437089920044,174,,,,1500.0,1490.0,1150.0,1500
3.8509020805358887,175,,,,1500.0,1490.0,1150.0,1500
3.8733620643615723,176,,,,1500.0,1490.0,1150.0,1500
3.8958070278167725,177,,,,1500.0,1490.0,1150.0,1500
3.9184792041778564,178,,,,1500.0,1490.0,1150.0,1500
3.9412779808044434,179,,,,1500.0,1490.0,1150.0,1500
3.963752031326294,180,,,,1500.0,1490.0,1150.0,1500
3.9862611293792725,181,,,,1500.0,1490.0,1150.0,1500
4.008815050125122,182,,,,1500.0,1490.0,1150.0,1500
4.0312981605529785,183,,,,1500.0,1490.0,1150.0,1500
4.0537800788879395,184,,,,1500.0,1490.0,1150.0,1500
4.076300144195557,185,,,,1500.0,1490.0,1150.0,1500
4.098829984664917,186,,,,1500.0,1490.0,1150.0,1500
4.121323108673096,187,,,,1500.0,1490.0,1150.0,1500
4.143789052963257,188,,,,1500.0,1490.0,1150.0,1500
4.166320085525513,189,,,,1500.0,1490.0,1150.0,1500
4.188858985900879,190,,,,1500.0,1490.0,1150.0,1500
4.211315155029297,191,,,,1500.0,1490.0,1150.0,1500
4.2337751388549805,192,,,,1500.0,1490.0,1150.0,1500
4.25629997253418,193,,,,1500.0,1490.0,1150.0,1500
4.278825044631958,194,,,,1500.0,1490.0,1150.0,1500
4.3012940883636475,195,,,,1500.0,1490.0,1150.0,1500
4.323768138885498,196,,,,1500.0,1490.0,1150.0,1500
4.346279144287109,197,,,,1500.0,1490.0,1150.0,1500
4.36882209777832,198,,,,1500.0,1490.0,1150.0,1500
4.391293048858643,199,,,,1500.0,1490.0,1150.0,1500
4.413746118545532,200,,,,1500.0,1490.0,1150.0,1500
4.436299085617065,201,,,,1500.0,1490.0,1150.0,1500
4.4588751792907715,202,,,,1500.0,1490.0,1150.0,1500
4.481323003768921,203,,,,1500.0,1490.0,1150.0,1500
4.503782033920288,204,,,,1500.0,1490.0,1150.0,1500
4.526339054107666,205,,,,1500.0,1490.0,1150.0,1500
4.548876047134399,206,,,,1500.0,1490.0,1150.0,1500
4.5713791847229,207,,,,1500.0,1490.0,1150.0,1500
4.593918085098267,208,,,,1500.0,1490.0,1150.0,1500
4.616440057754517,209,,,,1500.0,1490.0,1150.0,1500
4.638967037200928,210,,,,1500.0,1490.0,1150.0,1500
4.661434173583984,211,,,,1500.0,1490.0,1150.0,1500
4.683896064758301,212,,,,1500.0,1490.0,1150.0,1500
4.706411123275757,213,,,,1500.0,1490.0,1150.0,1500
4.728913068771362,214,,,,1500.0,1490.0,1150.0,1500
4.751367092132568,215,,,,1500.0,1490.0,1150.0,1500
4.773900985717773,216,,,,1500.0,1490.0,1150.0,1500
4.796614170074463,217,,,,1500.0,1490.0,1150.0,1500
4.8191750049591064,218,,,,1500.0,1490.0,1150.0,1500
4.841678142547607,219,,,,1500.0,1490.0,1150.0,1500
4.86412501335144,220,,,,1500.0,1490.0,1150.0,1500
4.886582136154175,221,,,,1500.0,1490.0,1150.0,1500
4.90903115272522,222,,,,1500.0,1490.0,1150.0,1500
4.931488990783691,223,,,,1500.0,1490.0,1150.0,1500
4.953951120376587,224,,,,1500.0,1490.0,1150.0,1500
4.976469039916992,225,,,,1500.0,1490.0,1150.0,1500
4.999005079269409,226,,,,1500.0,1490.0,1150.0,1500
5.021490097045898,227,,,,1500.0,1490.0,1150.0,1500
5.043966054916382,228,,,,1500.0,1490.0,1150.0,1500
5.066479206085205,229,,,,1500.0,1490.0,1150.0,1500
5.088986158370972,230,,,,1500.0,1490.0,1150.0,1500
5.111443996429443,231,,,,1500.0,1490.0,1150.0,1500
5.133906126022339,232,,,,1500.0,1490.0,1150.0,1500
5.156592130661011,233,104,3,0.027777777777777776,1494.6800000000001,1500,1165,1500
5.179350137710571,234,101,5,0.0035714285714285713,1494.675,1500,1165,1500
5.2020580768585205,235,98,7,0.0017152658662092624,1494.6849999999999,1500,1165,1500
5.224733114242554,236,97,8,0.0009746588693957114,1494.9000000000001,1500,1165,1500
5.247460126876831,237,95,11,0.0007763975155279503,1495.0250000000001,1500,1165,1500
5.270349979400635,238,94,17,0.000505050505050505,1491.895,1500,1165,1500
5.2930521965026855,239,93,18,0.0004222972972972973,1488.5899999999999,1500,1165,1500
5.315729141235352,240,94,22,0.00033444816053511704,1485.3,1500,1165,1500
5.338558197021484,241,91,26,0.0002849002849002849,1481.5650000000001,1500,1165,1500
5.361201047897339,242,92,27,0.0002380952380952381,1480,1500,1165,1500
5.383656978607178,243,91,30,0.00021795989537925023,1480,1489.2201011576117,1165,1500
5.4064130783081055,244,90,24,0.00026164311878597594,1480,1486.3471479390364,1165,1500
5.42917013168335,245,91,26,0.00023441162681669012,1480,1484.5939787799509,1165,1500
5.451868057250977,246,90,26,0.0002358490566037736,1480,1483.8695432650297,1165,1500
5.474553108215332,247,87,23,0.00026041666666666666,1480,1483.5992385167974,1165,1500
5.497233152389526,248,84,25,0.00026143790849673205,1480,1483.3658383385443,1165,1500
5.520273208618164,249,83,24,0.00028368794326241134,1480,1483.4497293321663,1165,1500
5.5429840087890625,250,90,33,0.00018099547511312217,1480,1482.2693519652514,1165,1500
5.565685033798218,251,87,42,0.00014174344436569808,1480,1481.7336748172424,1164.5,1500
5.588670015335083,252,90,43,0.0001278772378516624,1480,1481.4847947518585,1164.25,1500
5.611471176147461,253,88,44,0.00013071895424836603,1480,1481.4259709746948,1164.0,1500
5.634267091751099,254,89,44,0.0001375894331315355,1480,1481.370622077872,1164.0,1500
5.657052040100098,255,90,44,0.0001385809312638581,1480,1481.2847063636425,1164.0,1500
5.679800987243652,256,92,47,0.0001353729524840937,1480,1481.152150471725,1163.25,1500
5.702578067779541,257,92,46,0.0001353729524840937,1480,1481.0271067575425,1163.5,1500
5.725381135940552,258,89,46,0.00015460729746444033,1480,1481.1126195963136,1163.5,1500
5.748305082321167,259,90,44,0.00014927601134497685,1480,1480.9248948032016,1164.0,1500
5.771113157272339,260,93,46,0.00014088475626937165,1480,1480.8008715336018,1163.5,1500
5.793898105621338,261,92,41,0.00014784151389710232,1480,1480.8765371794104,1164.75,1500
5.816680192947388,262,93,44,0.00015250876925423213,1480,1480.9478412643844,1164.0,1500
5.839468002319336,263,92,42,0.00015460729746444033,1480,1480.9927148897025,1164.5,1500
5.86225700378418,264,92,40,0.00016307893020221786,1480,1481.102920714151,1165.0,1500
5.885030031204224,265,92,37,0.00016260162601626016,1480,1481.1221683670437,1165,1500
5.907721042633057,266,94,36,0.0001990049751243781,1480,1481.5498338807654,1165,1500
5.930397987365723,267,93,31,0.0002145002145002145,1480,1481.7839135365398,1165,1500
5.953063011169434,268,95,32,0.00021978021978021978,1480,1481.9018865116557,1165,1500
5.975726127624512,269,97,31,0.00023758612497030174,1480,1482.1682556771818,1165,1500
5.99853515625,270,95,29,0.0002690341673392521,1480,1482.6108855119412,1165,1500
6.02123498916626,271,97,27,0.00030303030303030303,1480,1483.1060356579849,1165,1500
6.043915033340454,272,97,25,0.0003315649867374005,1480,1483.570438712539,1165,1500
6.06664514541626,273,98,24,0.00036443148688046647,1480,1484.1089279033856,1165,1500
6.089353084564209,274,100,23,0.00040404040404040404,1480,1484.7459785488231,1165,1500
6.112058162689209,275,101,21,0.00042283298097251583,1480,1485.1941356731006,1165,1500
6.13474702835083,276,102,19,0.0004748338081671415,1480,1485.9899727780896,1165,1500
6.157397031784058,277,104,17,0.00051440329218107,1480,1486.6855706959097,1165,1500
6.180061101913452,278,106,17,0.0005717552887364208,1480,1487.6110657304196,1165,1500
6.20267915725708,279,108,16,0.0005827505827505828,1480,1488.0661831283414,1165,1500
6.2252020835876465,280,110,14,0.0006289308176100629,1480,1488.8878821272069,1165,1500
6.247636079788208,281,112,13,0.0006613756613756613,1480,1489.5706759232082,1165,1500
6.2700769901275635,282,113,13,0.0007122507122507123,1480.3299999999999,1490.4601121574722,1165,1500
6.292658090591431,283,115,12,0.0007122507122507123,1480.925,1490.8079313828423,1165,1500
6.315469026565552,284,117,12,0.0007716049382716049,1481.52,1491.7690381772825,1165,1500
6.338425159454346,285,119,12,0.0006868131868131869,1482.1700000000001,1491.1851008685389,1165,1500
6.361224174499512,286,122,15,0.0005473453749315818,1482.97,1489.8629343164873,1165,1500
6.38400411605835,287,120,15,0.0005040322580645161,1483.23,1489.4194321137002,1165,1500
6.406792163848877,288,113,16,0.0005509641873278236,1483.0350000000001,1489.8679603049247,1165,1500
6.429548025131226,289,122,18,0.00036036036036036037,1484.405,1487.7395318128599,1165,1500
6.452408075332642,290,116,20,0.00037537537537537537,1484.3150000000001,1487.6361265207752,1165,1500
6.475187063217163,291,115,24,0.0002860411899313501,1484.8,1486.3674501948908,1165,1500
6.497977018356323,292,112,29,0.00030395136778115504,1484.925,1486.1382526289192,1165,1500
6.520830154418945,293,119,35,0.00023255813953488373,1485.4849999999999,1484.9446277737406,1165,1500
6.5436341762542725,294,121,40,0.00020128824476650564,1485.9649999999999,1484.0616121325518,1165.0,1500
6.5668251514434814,295,129,50,0.00019036740909956216,1486.5350000000001,1483.4559579981687,1162.5,1500
6.589829206466675,296,131,60,0.0001407063458561981,1486.27,1482.5527083366596,1160.0,1500
6.6127400398254395,297,132,58,0.00016265452179570593,1485.8299999999999,1482.4308123597859,1160.5,1500
6.635630130767822,298,113,62,0.00030048076923076925,1484.29,1483.5585914160395,1159.5,1500
6.658663988113403,299,112,66,0.00043572984749455336,1484.1800000000001,1484.9864516858115,1158.5,1500
6.6815431118011475,300,118,56,0.0012345679012345679,1485.55,1493.834024749071,1161.0,1500
6.704455137252808,301,119,62,0.0009398496240601503,1486.5899999999999,1491.5406504114555,1159.5,1500
6.727344036102295,302,121,59,0.0016806722689075631,1487.9449999999999,1500,1160.25,1500
6.750110149383545,303,126,67,0.003703703703703704,1488.05,1500,1158.25,1500
6.772867202758789,304,125,70,0.0018315018315018315,1487.3900000000001,1500,1157.5,1500
6.795628070831299,305,116,88,0.0017857142857142857,1485.895,1500,1153.0,1500
6.818650007247925,306,128,66,0.0049261083743842365,1486.3900000000001,1500,1158.5,1500
6.841430187225342,307,120,63,0.004273504273504274,1484.99,1500,1159.25,1500
6.864183187484741,308,131,68,0.006944444444444444,1486.78,1500,1158.0,1500
6.886947154998779,309,133,67,0.003367003367003367,1487.655,1500,1158.25,1500
6.909692049026489,310,130,75,0.002403846153846154,1487.175,1500,1156.25,1500
6.93245005607605,311,134,68,0.005714285714285714,1488.04,1500,1158.0,1500
6.955195188522339,312,117,103,0.0016339869281045752,1486.3,1500,1149.25,1500
6.977959156036377,313,130,64,0.0029411764705882353,1487.8800000000001,1500,1159.0,1500
7.000716209411621,314,130,69,0.0013850415512465374,1488.335,1500,1157.75,1500
7.023491144180298,315,136,67,0.00101010101010101,1489.675,1500,1158.25,1500
7.046311140060425,316,133,65,0.0014204545454545455,1489.71,1500,1158.75,1500
7.069137096405029,317,128,63,0.0014619883040935672,1488.99,1500,1159.25,1500
7.0918731689453125,318,139,71,0.0004389815627743635,1489.99,1500,1157.25,1500
7.1146080493927,319,133,62,0.0013227513227513227,1489.21,1500,1159.5,1500
7.137368202209473,320,129,72,0.0005299417064122947,1489.175,1500,1157.0,1500
7.160140037536621,321,129,69,0.0006038647342995169,1489.1400000000001,1496.7869354788211,1157.75,1500
7.182990074157715,322,130,63,0.0012285012285012285,1489.835,1500,1159.25,1500
7.205770015716553,323,126,88,0.0016611295681063123,1489.9949999999999,1500,1153.0,1500
7.228703022003174,324,133,70,0.0006325110689437065,1490.8599999999999,1494.635335740875,1157.5,1500
7.251589059829712,325,127,90,0.0008741258741258741,1489.885,1496.9155086567214,1152.5,1500
7.274464130401611,326,131,79,0.00043706293706293706,1490.0550000000001,1491.5614876777006,1155.25,1500
7.297353982925415,327,142,72,0.0005580357142857143,1491.2049999999999,1491.8672628601205,1157.0,1500
7.320247173309326,328,145,83,0.0002631578947368421,1490.6949999999999,1488.7426609965942,1154.25,1500
7.343130111694336,329,139,84,0.0002564102564102564,1490.0650000000001,1487.6088435469871,1154.0,1500
7.366038084030151,330,138,81,0.00032206119162640903,1489.8,1488.0574723843629,1154.75,1500
7.389003038406372,331,128,96,0.000625,1488.925,1491.1079957337993,1151.0,1500
7.41185998916626,332,141,79,0.0008680555555555555,1490.8900000000001,1493.1781056164091,1155.25,1500
7.434730052947998,333,132,73,0.001,1491.0999999999999,1493.8364204927473,1156.75,1500
7.457595109939575,334,138,75,0.0006738544474393531,1492.0350000000001,1490.6163083456365,1156.25,1500
7.480501174926758,335,134,76,0.000992063492063492,1492.26,1493.9163364098156,1156.0,1500
7.503370046615601,336,140,78,0.0005202913631633715,1492.635,1489.2818435469146,1155.5,1500
7.526318073272705,337,145,76,0.0006218905472636816,1493.0599999999999,1490.3616902208958,1156.0,1500
7.549257040023804,338,134,74,0.0010570824524312897,1491.2349999999999,1495.5075338302663,1156.5,1500
7.572172164916992,339,136,85,0.0008944543828264759,1491.3900000000001,1494.5192972606344,1153.75,1500
7.595082998275757,340,135,76,0.0012919896640826874,1491.0650000000001,1499.4645785456528,1156.0,1500
7.618489980697632,341,136,80,0.0008741258741258741,1491.845,1495.5350665202104,1155.0,1500
7.641433000564575,342,135,82,0.0009380863039399625,1492.0150000000001,1496.2447015667358,1154.5,1500
7.664297103881836,343,140,73,0.002976190476190476,1492.595,1500,1156.75,1500
7.687060117721558,344,137,80,0.000851063829787234,1492.1800000000001,1497.5278766837469,1155.0,1500
7.709914207458496,345,136,74,0.0017421602787456446,1492.1300000000001,1500,1156.5,1500
7.732684135437012,346,143,78,0.0008210180623973727,1492.575,1498.2782424957645,1155.5,1500
7.755578994750977,347,136,84,0.0006459948320413437,1491.3199999999999,1496.5521144769818,1154.0,1500
7.778621196746826,348,142,88,0.0008771929824561404,1492.24,1498.6842065111546,1153.0,1500
7.801498174667358,349,138,76,0.001851851851851852,1491.8900000000001,1500,1156.0,1500
7.824273109436035,350,141,78,0.0008984725965858042,1492.22,1499.4608830539798,1155.5,1500
7.8471410274505615,351,137,73,0.0022172949002217295,1492.2349999999999,1500,1156.75,1500
7.869899034500122,352,136,78,0.0009881422924901185,1492.1900000000001,1500,1155.5,1500
7.892657041549683,353,134,75,0.0019230769230769232,1492.1400000000001,1500,1156.25,1500
7.915410995483398,354,142,80,0.0007142857142857143,1492.9749999999999,1497.8223475770099,1155.0,1500
7.938421010971069,355,153,84,0.0006662225183211193,1494.29,1496.2657778569394,1154.0,1500
7.961290121078491,356,150,105,0.0003003003003003003,1493.595,1492.0858379146341,1148.75,1500
7.9841461181640625,357,157,97,0.00017969451931716083,1494.1900000000001,1490.4134797920785,1150.75,1500
8.007040977478027,358,156,99,0.0001763668430335097,1493.54,1489.6793768898194,1150.25,1500
8.029932975769043,359,156,99,0.00017470300489168413,1493.6900000000001,1487.9855896614408,1150.25,1500
8.052803993225098,360,146,111,0.0003968253968253968,1493.385,1489.7051663810175,1147.25,1500
8.075682163238525,361,158,100,0.000177999288002848,1495.26,1485.4776096805733,1150.0,1500
8.09868597984314,362,156,102,0.0002173913043478261,1496.22,1485.1007788558807,1149.5,1500
8.12159013748169,363,152,102,0.00021701388888888888,1497.05,1483.3909416671033,1149.5,1500
8.144474983215332,364,159,103,0.00019700551615445234,1498.5050000000001,1482.6735777416277,1149.25,1500
8.167338132858276,365,157,106,0.00025510204081632655,1497.865,1482.8434225107417,1148.5,1500
8.190224170684814,366,160,103,0.00020508613617719443,1498.595,1482.2480493002272,1149.25,1500
8.213121175765991,367,160,105,0.00021141649048625792,1498.52,1482.343074814487,1148.75,1500
8.236075162887573,368,151,104,0.0002525252525252525,1497.405,1482.8303208443685,1149.0,1500
8.259026050567627,369,158,107,0.00023255813953488373,1498.2750000000001,1482.6885048491081,1148.25,1500
8.28189206123352,370,153,106,0.0002840909090909091,1498.4000000000001,1483.091098056934,1148.5,1500
8.304781198501587,371,160,113,0.0003324468085106383,1499.21,1483.729104571639,1146.75,1500
8.32765817642212,372,152,107,0.00029036004645760743,1498.6700000000001,1483.3812056932186,1148.25,1500
8.350525140762329,373,162,106,0.00023452157598499062,1499.5599999999999,1482.8403286755884,1148.5,1500
8.373422145843506,374,158,107,0.00026226068712300026,1499.105,1483.1829749579372,1148.25,1500
8.396445035934448,375,168,107,0.00022799817601459188,1499.8099999999999,1482.8132459820513,1148.25,1500
8.41949200630188,376,160,106,0.00024390243902439024,1499.01,1483.0111049149964,1148.5,1500
8.442387104034424,377,153,105,0.0003048780487804878,1497.865,1483.7143225708517,1148.75,1500
8.465291976928711,378,162,107,0.00023679848448969926,1499.3699999999999,1483.0178001599081,1148.25,1500
8.488288164138794,379,156,105,0.00027056277056277056,1498.78,1483.3934476516667,1148.75,1500
8.511183977127075,380,164,106,0.00022799817601459188,1500.425,1482.9117089731087,1148.5,1500
8.534096002578735,381,169,111,0.0002698327037236913,1500.8800000000001,1483.2674401454128,1147.25,1500
8.55701208114624,382,165,105,0.0002685284640171858,1500.4749999999999,1483.2325661659072,1148.75,1500
8.579957008361816,383,166,107,0.0002538715410002539,1500.5550000000001,1483.1053469007531,1148.25,1500
8.603223085403442,384,166,108,0.00025138260432378077,1500.395,1483.0695794511892,1148.0,1500
8.626211166381836,385,160,108,0.00029568302779420464,1499.595,1483.5802685376732,1148.0,1500
8.64917516708374,386,155,108,0.00031655587211142766,1499.6600000000001,1483.8616504139325,1148.0,1500
8.672056198120117,387,158,106,0.0002840909090909091,1500.655,1483.5162136440376,1148.5,1500
8.694931030273438,388,157,107,0.00030165912518853697,1500.8199999999999,1483.7567564457127,1148.25,1500
8.717802047729492,389,171,110,0.0002959455460195324,1502.7449999999999,1483.7250034294793,1147.5,1500
8.740709066390991,390,164,107,0.0002670940170940171,1501.8050000000001,1483.4755839813038,1148.25,1500
8.763574123382568,391,167,112,0.00030339805825242716,1501.2750000000001,1483.8721897474165,1147.0,1500
8.786525011062622,392,158,106,0.0003132832080200501,1499.99,1484.0157959890957,1148.5,1500
8.809478044509888,393,158,118,0.0005668934240362812,1499.49,1486.8649200322939,1145.5,1500
8.832337141036987,394,167,109,0.000297000297000297,1500.6849999999999,1484.2116064546105,1147.75,1500
8.855216026306152,395,173,108,0.00022935779816513763,1501.46,1483.46885623663,1148.0,1500
8.878204107284546,396,174,107,0.0002232142857142857,1502.1849999999999,1483.3140795257243,1148.25,1500
8.90105414390564,397,167,108,0.00026881720430107527,1501.4400000000001,1483.7548350068023,1148.0,1500
8.923920154571533,398,174,112,0.00028153153153153153,1502.115,1483.86185068545,1147.0,1500
8.94679307937622,399,172,109,0.00026455026455026457,1501.6700000000001,1483.6606427341681,1147.75,1500
8.96965217590332,400,171,106,0.0002311604253351826,1502.075,1483.2908107502583,1148.5,1500
8.99251413345337,401,168,106,0.00023730422401518748,1502.1900000000001,1483.2861549028212,1148.5,1500
9.01540207862854,402,176,105,0.00019238168526356292,1503.4400000000001,1482.7160279925483,1148.75,1500
9.038439989089966,403,173,106,0.00021734405564007825,1504.0250000000001,1482.6161023279174,1148.5,1500
9.061323165893555,404,174,110,0.0002457002457002457,1504.3900000000001,1482.8483641772191,1147.5,1500
9.084187030792236,405,176,109,0.000248015873015873,1504.4549999999999,1482.890178525226,1147.75,1500
9.107076168060303,406,173,108,0.0002828054298642534,1503.8,1483.2976652378597,1148.0,1500
9.130046129226685,407,174,104,0.00018552875695732838,1504.405,1482.2416100614469,1149.0,1500
9.153148174285889,408,171,101,0.00018318373328448433,1504.0599999999999,1482.1198120264712,1149.75,1500
9.176160097122192,409,173,102,0.0002031694433157253,1504.375,1482.2582883055493,1149.5,1500
9.199175119400024,410,167,91,0.00017988846914912754,1504.095,1481.9742066076972,1152.25,1500
9.222094058990479,411,167,89,0.0001872308556450103,1504.4000000000001,1481.9975571042858,1152.75,1500
9.244975090026855,412,166,82,0.00019436345966958212,1504.23,1482.0708649189376,1154.5,1500
9.267840147018433,413,161,80,0.0002747252747252747,1503.6700000000001,1482.9318642885796,1155.0,1500
9.290733098983765,414,162,73,0.00025826446280991736,1503.77,1482.7798203865357,1156.75,1500
9.31362009048462,415,157,66,0.0002941176470588235,1502.825,1483.1844540030677,1158.5,1500
9.336558103561401,416,169,64,0.0004389815627743635,1503.6849999999999,1484.7892692931332,1159.0,1500
9.359519004821777,417,170,59,0.0007496251874062968,1503.325,1488.4598019699015,1160.25,1500
9.382430076599121,418,166,32,0.0011534025374855825,1502.3499999999999,1493.4677942748956,1165,1500
9.40525197982788,419,151,27,0.0010416666666666667,1500.3,1493.1889327900574,1165,1500
9.428162097930908,420,162,26,0.0005288207297726071,1500.825,1488.4094056817403,1165,1500
9.450952053070068,421,153,26,0.0009090909090909091,1500.115,1492.9339675283691,1165,1500
9.473829984664917,422,156,15,0.0009276437847866419,1500.7049999999999,1493.8527766104435,1165,1500
9.496862173080444,423,160,13,0.0007575757575757576,1501.4100000000001,1492.6349468211852,1165,1500
9.519703149795532,424,152,12,0.0014285714285714286,1500.0,1500,1165,1500
9.542389154434204,425,164,9,0.0013605442176870747,1501.4649999999999,1500,1165,1500
9.565393209457397,426,156,9,0.0021008403361344537,1499.77,1500,1165,1500
9.588301181793213,427,167,4,0.009523809523809525,1500.0450000000001,1500,1165,1500
9.61086916923523,428,,,,1499.0150000000001,1500,1150.0,1500
9.633279085159302,429,,,,1499.03,1500,1150.0,1500
9.65567398071289,430,,,,1499.1600000000001,1500,1150.0,1500
9.678164005279541,431,,,,1499.3050000000001,1500,1150.0,1500
9.700536012649536,432,,,,1499.9449999999999,1500,1150.0,1500
9.72293210029602,433,,,,1499.9449999999999,1500,1150.0,1500
9.745323181152344,434,,,,1500.385,1500,1150.0,1500
9.767836093902588,435,,,,1500.165,1500,1150.0,1500
9.790274143218994,436,,,,1500.385,1498.9238095238095,1150.0,1500
9.812785148620605,437,,,,1500.0,1490.0,1150.0,1500
9.83525800704956,438,,,,1500.0,1490.0,1150.0,1500
9.857706069946289,439,,,,1500.0,1490.0,1150.0,1500
9.880176067352295,440,,,,1500.0,1490.0,1150.0,1500
9.902626991271973,441,,,,1500.0,1490.0,1150.0,1500
9.92509913444519,442,,,,1500.0,1490.0,1150.0,1500
9.947570085525513,443,,,,1500.0,1490.0,1150.0,1500
9.970015048980713,444,,,,1500.0,1490.0,1150.0,1500
9.992468118667603,445,,,,1500.0,1490.0,1150.0,1500
10.014953136444092,446,,,,1500.0,1490.0,1150.0,1500
10.037446022033691,447,,,,1500.0,1490.0,1150.0,1500
10.059911012649536,448,,,,1500.0,1490.0,1150.0,1500
10.082398176193237,449,,,,1500.0,1490.0,1150.0,1500
10.104866981506348,450,,,,1500.0,1490.0,1150.0,1500
10.127357006072998,451,,,,1500.0,1490.0,1150.0,1500
10.149823188781738,452,,,,1500.0,1490.0,1150.0,1500
10.172302007675171,453,,,,1500.0,1490.0,1150.0,1500
10.194801092147827,454,,,,1500.0,1490.0,1150.0,1500
10.217287063598633,455,,,,1500.0,1490.0,1150.0,1500
10.239763021469116,456,,,,1500.0,1490.0,1150.0,1500
10.2622389793396,457,,,,1500.0,1490.0,1150.0,1500
10.284693002700806,458,,,,1500.0,1490.0,1150.0,1500
10.30718207359314,459,,,,1500.0,1490.0,1150.0,1500
10.329801082611084,460,160,7,0.007142857142857143,1500.0,1500,1165,1500
10.352444171905518,461,153,8,0.0021645021645021645,1499.335,1500,1165,1500
10.375087976455688,462,155,11,0.0016366612111292963,1499.5599999999999,1500,1165,1500
10.397759199142456,463,150,11,0.0010351966873706005,1499.1099999999999,1500,1165,1500
10.420418977737427,464,152,13,0.0010319917440660474,1499.3499999999999,1500,1165,1500
10.443120002746582,465,151,17,0.0005896226415094339,1499.2950000000001,1499.8970580065291,1165,1500
10.465984106063843,466,152,20,0.0004385964912280702,1499.0150000000001,1498.2253929949434,1165,1500
10.488876104354858,467,150,21,0.0003933910306845004,1498.5650000000001,1497.5667294201924,1165,1500
10.511677980422974,468,144,23,0.00036075036075036075,1497.4449999999999,1497.0010730816011,1165,1500
10.534515142440796,469,144,33,0.0002337540906965872,1497.0450000000001,1495.36486447176,1165,1500
10.557311058044434,470,149,32,0.00019054878048780488,1497.0599999999999,1487.980503007303,1165,1500
10.580147981643677,471,150,37,0.0001665833749791771,1497.115,1485.7429301626937,1165,1500
10.602982997894287,472,134,32,0.00034722222222222224,1495.3199999999999,1486.2598796462171,1165,1500
10.625802040100098,473,140,43,0.0002100840336134454,1495.6099999999999,1484.0633851063722,1164.25,1500
10.648794174194336,474,134,29,0.00048426150121065375,1494.6199999999999,1486.2574295394888,1165,1500
10.671608209609985,475,135,39,0.00036231884057971015,1494.6800000000001,1484.8106991322497,1165,1500
10.694423198699951,476,138,42,0.0002498750624687656,1494.9300000000001,1483.4975399223808,1164.5,1500
10.717287063598633,477,133,37,0.0004314063848144953,1493.5550000000001,1485.3508684999681,1165,1500
10.740100145339966,478,135,33,0.0007692307692307692,1493.5599999999999,1489.1375927526112,1165,1500
10.762900114059448,479,147,62,0.00020429009193054137,1494.145,1483.4587219808429,1159.5,1500
10.78576397895813,480,131,61,0.0004761904761904762,1491.7950000000001,1486.4633675191451,1159.75,1500
10.808809995651245,481,148,59,0.00018946570670708602,1492.7850000000001,1483.619002156039,1160.25,1500
10.83171820640564,482,145,56,0.00025031289111389235,1492.3699999999999,1484.1305646689987,1161.0,1500
10.854891061782837,483,159,78,0.00041118421052631577,1493.375,1485.940378040036,1155.5,1500
10.877794981002808,484,158,79,0.0004930966469428008,1493.9349999999999,1486.7683375499328,1155.25,1500
10.900710105895996,485,170,72,0.0010319917440660474,1494.72,1492.8269614246517,1157.0,1500
10.923606157302856,486,168,80,0.0011160714285714285,1494.97,1494.5339546358082,1155.0,1500
10.946529150009155,487,148,78,0.002777777777777778,1493.615,1500,1155.5,1500
10.96933102607727,488,140,64,0.001851851851851852,1494.23,1500,1159.0,1500
10.992075204849243,489,164,77,0.0015527950310559005,1497.2049999999999,1500,1155.75,1500
11.01488208770752,490,142,87,0.0011160714285714285,1497.29,1499.9513330028988,1153.25,1500
11.037757158279419,491,177,99,0.0024509803921568627,1501.845,1500,1150.25,1500
11.060517072677612,492,181,97,0.0044444444444444444,1502.2449999999999,1500,1150.75,1500
11.083285093307495,493,171,110,0.0015479876160990713,1500.0450000000001,1500,1147.5,1500
11.10611605644226,494,174,96,0.0012254901960784314,1500.625,1500,1151.0,1500
11.1289701461792,495,179,86,0.0009881422924901185,1499.4000000000001,1500,1153.5,1500
11.151736974716187,496,162,86,0.0021645021645021645,1498.27,1500,1153.5,1500
11.174491167068481,497,181,82,0.0016722408026755853,1501.9849999999999,1500,1154.5,1500
11.197270154953003,498,173,90,0.000505050505050505,1502.8800000000001,1500,1152.5,1500
11.22005009651184,499,154,95,0.0004926108374384236,1501.6300000000001,1499.5336290538912,1151.25,1500
11.242908000946045,500,174,83,0.0006451612903225806,1505.6900000000001,1500,1154.25,1500
11.265681982040405,501,141,61,0.002136752136752137,1501.6700000000001,1500,1159.75,1500
11.28856897354126,502,169,113,0.0022624434389140274,1504.53,1500,1146.75,1500
11.311362981796265,503,138,60,0.0010822510822510823,1501.7149999999999,1500,1160.0,1500
11.334159135818481,504,163,72,0.000462962962962963,1503.0699999999999,1495.0417471429892,1157.0,1500
11.357060194015503,505,164,73,0.0005494505494505495,1502.9449999999999,1495.4679312648254,1156.75,1500
11.37995719909668,506,147,61,0.0002228163992869875,1500.0599999999999,1490.2599039979748,1159.75,1500
11.402847051620483,507,139,56,0.0002446183953033268,1498.75,1489.0503015507659,1161.0,1500
11.425721168518066,508,138,46,0.0003586800573888092,1496.7249999999999,1490.0445477239589,1163.5,1500
11.448747158050537,509,133,42,0.0004048582995951417,1496.8699999999999,1490.418577608179,1164.5,1500
11.47163701057434,510,147,50,0.00021687269572760788,1497.8050000000001,1488.1104329749087,1162.5,1500
11.494517087936401,511,140,38,0.0003663003663003663,1497.47,1487.8342579101845,1165,1500
11.51732611656189,512,145,44,0.00020576131687242798,1496.29,1484.1721852938635,1164.0,1500
11.540250062942505,513,142,31,0.000445632798573975,1495.97,1485.9342818272019,1165,1500
11.563076972961426,514,134,33,0.0008888888888888889,1493.5150000000001,1490.7927686562771,1165,1500
11.585998058319092,515,146,25,0.0005224660397074191,1493.7850000000001,1487.101555654719,1165,1500
11.608911037445068,516,146,26,0.0005305039787798408,1493.3699999999999,1487.4896226249361,1165,1500
11.631733179092407,517,153,27,0.0003720238095238095,1494.3599999999999,1486.0322263465964,1165,1500
11.654523134231567,518,150,15,0.0007575757575757576,1494.24,1490.2866415273029,1165,1500
11.67733907699585,519,144,18,0.0007331378299120235,1493.645,1490.3705417809824,1165,1500
11.700151205062866,520,155,19,0.0005224660397074191,1494.645,1488.5694172229162,1165,1500
11.722962141036987,521,153,12,0.0009523809523809524,1494.74,1493.4546469357319,1165,1500
11.745743989944458,522,156,14,0.0012755102040816326,1495.4649999999999,1497.7556883399479,1165,1500
11.768683195114136,523,157,11,0.0011198208286674132,1495.97,1496.8729826158992,1165,1500
11.791465044021606,524,158,9,0.001488095238095238,1496.55,1500,1165,1500
11.81415605545044,525,162,10,0.0021141649048625794,1497.4100000000001,1500,1165,1500
11.836825132369995,526,153,9,0.003787878787878788,1496.895,1500,1165,1500
11.859771013259888,527,166,7,0.002331002331002331,1498.3099999999999,1500,1165,1500
11.882462978363037,528,175,5,0.01,1499.5050000000001,1500,1165,1500
11.90511417388916,529,170,4,0.009523809523809525,1499.7149999999999,1500,1165,1500
11.927807092666626,530,167,2,0.020833333333333332,1499.7750000000001,1500,1165,1500
11.950352191925049,531,,,,1499.04,1500,1150.0,1500
11.972772121429443,532,,,,1499.6199999999999,1500,1150.0,1500
11.995187044143677,533,,,,1500.6849999999999,1500,1150.0,1500
12.017595052719116,534,,,,1501.395,1500,1150.0,1500
12.040070056915283,535,,,,1501.7049999999999,1500,1150.0,1500
12.062724113464355,536,,,,1502.0899999999999,1500,1150.0,1500
12.085165977478027,537,,,,1501.76,1500,1150.0,1500
12.107546091079712,538,,,,1500.9349999999999,1500,1150.0,1500
12.129942178726196,539,,,,1500.385,1500,1150.0,1500
12.152338981628418,540,,,,1500.0,1490.0,1150.0,1500
12.17481517791748,541,,,,1500.0,1490.0,1150.0,1500
12.197314023971558,542,,,,1500.0,1490.0,1150.0,1500
12.219805002212524,543,,,,1500.0,1490.0,1150.0,1500
12.242266178131104,544,,,,1500.0,1490.0,1150.0,1500
12.264734029769897,545,,,,1500.0,1490.0,1150.0,1500
12.287193059921265,546,,,,1500.0,1490.0,1150.0,1500
12.309668064117432,547,,,,1500.0,1490.0,1150.0,1500
12.332131147384644,548,,,,1500.0,1490.0,1150.0,1500
12.354562997817993,549,,,,1500.0,1490.0,1150.0,1500
12.377029180526733,550,,,,1500.0,1490.0,1150.0,1500
12.399537086486816,551,,,,1500.0,1490.0,1150.0,1500
12.42200517654419,552,,,,1500.0,1490.0,1150.0,1500
12.44448709487915,553,,,,1500.0,1490.0,1150.0,1500
12.466979026794434,554,,,,1500.0,1490.0,1150.0,1500
12.489456176757812,555,,,,1500.0,1490.0,1150.0,1500
12.51196813583374,556,,,,1500.0,1490.0,1150.0,1500
12.534497022628784,557,,,,1500.0,1490.0,1150.0,1500
12.556986093521118,558,,,,1500.0,1490.0,1150.0,1500
12.579483985900879,559,,,,1500.0,1490.0,1150.0,1500
12.602015018463135,560,,,,1500.0,1490.0,1150.0,1500
12.62451720237732,561,,,,1500.0,1490.0,1150.0,1500
12.646992206573486,562,,,,1500.0,1490.0,1150.0,1500
12.669466018676758,563,,,,1500.0,1490.0,1150.0,1500
12.691951036453247,564,,,,1500.0,1490.0,1150.0,1500
12.71456503868103,565,195,2,0.041666666666666664,1503.325,1500,1165,1500
12.737239122390747,566,187,6,0.041666666666666664,1502.3900000000001,1500,1165,1500
12.759894132614136,567,193,7,0.011111111111111112,1502.825,1500,1165,1500
12.782546043395996,568,183,5,0.007352941176470588,1501.71,1500,1165,1500
12.805204153060913,569,197,11,0.011764705882352941,1502.925,1500,1165,1500
12.82787299156189,570,193,10,0.005555555555555556,1504.46,1500,1165,1500
12.850516080856323,571,193,16,0.005494505494505495,1505.915,1500,1165,1500
12.87314510345459,572,194,10,0.009523809523809525,1507.825,1500,1165,1500
12.895790100097656,573,191,11,0.011363636363636364,1508.75,1500,1165,1500
12.918667078018188,574,165,5,0.010416666666666666,1508.345,1500,1165,1500
12.941347122192383,575,165,7,0.006060606060606061,1508.375,1500,1165,1500
12.96400499343872,576,165,5,0.010416666666666666,1508.845,1500,1165,1500
12.986662149429321,577,175,9,0.0023148148148148147,1509.9949999999999,1500,1165,1500
13.00935411453247,578,179,14,0.004901960784313725,1510.895,1500,1165,1500
13.032039165496826,579,174,8,0.0020325203252032522,1508.5899999999999,1500,1165,1500
13.054691076278687,580,171,8,0.0014577259475218659,1506.72,1500,1165,1500
13.07735800743103,581,168,10,0.0013333333333333333,1504.865,1500,1165,1500
13.100021123886108,582,174,15,0.0005494505494505495,1504.425,1500,1165,1500
13.122684001922607,583,162,21,0.0003770739064856712,1502.6500000000001,1500,1165,1500
13.145359992980957,584,163,29,0.00035211267605633805,1503.3,1500,1165,1500
13.168142080307007,585,168,29,0.00034423407917383823,1504.145,1500,1165,1500
13.190850973129272,586,171,47,0.0002613012803762738,1504.595,1494.5375405004925,1163.25,1500
13.213751077651978,587,170,44,0.0002153316106804479,1504.46,1491.9783605993998,1164.0,1500
13.236654043197632,588,159,38,0.00039872408293460925,1502.4400000000001,1489.3090486205622,1165,1500
13.259756088256836,589,189,60,0.00024703557312252963,1504.7049999999999,1486.0066787703608,1160.0,1500
13.28268313407898,590,175,55,0.00018422991893883567,1503.105,1484.1051261999407,1161.25,1500
13.305546045303345,591,163,52,0.0003968253968253968,1502.1099999999999,1485.2945730422985,1162.0,1500
13.328582048416138,592,198,62,0.0005073566717402334,1505.25,1486.3577919137365,1159.5,1500
13.351464986801147,593,210,63,0.0008333333333333334,1506.03,1490.0738179565151,1159.25,1500
13.374337196350098,594,157,73,0.0008525149190110827,1502.3199999999999,1490.7660360562475,1156.75,1500
13.397225141525269,595,160,65,0.00036845983787767134,1503.0799999999999,1485.949711003617,1158.75,1500
13.420122146606445,596,162,60,0.0007012622720897616,1502.845,1489.7176963374516,1160.0,1500
13.443003177642822,597,163,55,0.0013679890560875513,1504.6600000000001,1497.5376216228365,1161.25,1500
13.465943098068237,598,173,58,0.0007183908045977011,1508.6500000000001,1491.3613058296012,1160.5,1500
13.488875150680542,599,181,68,0.00030111412225233364,1507.5699999999999,1487.2426175552773,1158.0,1500
13.511757135391235,600,171,61,0.0014534883720930232,1505.6900000000001,1500,1159.75,1500
13.53461503982544,601,175,64,0.000835421888053467,1505.97,1494.2935501576708,1159.0,1500
13.557507038116455,602,175,68,0.0008928571428571428,1503.9849999999999,1495.2534031768246,1158.0,1500
13.580444097518921,603,178,71,0.00040290088638195,1502.2249999999999,1489.9234081651211,1157.25,1500
13.603411197662354,604,170,76,0.0006269592476489029,1502.8,1491.9384361064285,1156.0,1500
13.626351118087769,605,168,64,0.0014204545454545455,1503.22,1500,1159.0,1500
13.649190187454224,606,160,64,0.0034965034965034965,1503.21,1500,1159.0,1500
13.671924114227295,607,172,71,0.0011312217194570137,1505.085,1500,1157.25,1500
13.694712162017822,608,169,66,0.001524390243902439,1505.105,1500,1158.5,1500
13.717501163482666,609,174,82,0.0010695187165775401,1504.98,1500,1154.5,1500
13.740288019180298,610,174,72,0.0007547169811320754,1504.7850000000001,1497.7021146792893,1157.0,1500
13.763174057006836,611,166,90,0.0025,1503.1300000000001,1500,1152.5,1500
13.785974979400635,612,168,69,0.001589825119236884,1503.1849999999999,1500,1157.75,1500
13.808852195739746,613,184,72,0.0006613756613756613,1504.2149999999999,1499.3887223450452,1157.0,1500
13.83174204826355,614,175,70,0.001,1503.53,1500,1157.5,1500
13.854469060897827,615,166,82,0.003367003367003367,1503.0,1500,1154.5,1500
13.87722897529602,616,163,80,0.0030864197530864196,1503.0450000000001,1500,1155.0,1500
13.900013208389282,617,173,67,0.0018315018315018315,1503.8,1500,1158.25,1500
13.922775030136108,618,180,66,0.004464285714285714,1505.345,1500,1158.5,1500
13.94555401802063,619,167,95,0.002631578947368421,1504.1400000000001,1500,1151.25,1500
13.968445062637329,620,167,67,0.0027472527472527475,1503.6949999999999,1500,1158.25,1500
13.991213083267212,621,185,79,0.0023148148148148147,1505.22,1500,1155.25,1500
14.013984203338623,622,175,73,0.0010351966873706005,1504.4849999999999,1500,1156.75,1500
14.036792993545532,623,174,65,0.004166666666666667,1504.1949999999999,1500,1158.75,1500
14.059545040130615,624,176,65,0.002325581395348837,1503.9100000000001,1500,1158.75,1500
14.08228611946106,625,171,64,0.004761904761904762,1503.4449999999999,1500,1159.0,1500
14.105043172836304,626,179,64,0.003861003861003861,1505.4849999999999,1500,1159.0,1500
14.127812147140503,627,177,73,0.0029411764705882353,1505.385,1500,1156.75,1500
14.150552988052368,628,187,75,0.0016835016835016834,1505.99,1500,1156.25,1500
14.173295974731445,629,183,75,0.0036363636363636364,1506.05,1500,1156.25,1500
14.196166038513184,630,175,75,0.0014705882352941176,1505.45,1500,1156.25,1500
14.219084978103638,631,181,64,0.004032258064516129,1505.71,1500,1159.0,1500
14.241862058639526,632,210,81,0.0010683760683760685,1508.5550000000001,1500,1154.75,1500
14.264657020568848,633,187,80,0.0017921146953405018,1506.97,1500,1155.0,1500
14.28751015663147,634,179,78,0.001937984496124031,1506.575,1500,1155.5,1500
14.310510158538818,635,168,72,0.0023923444976076554,1505.73,1500,1157.0,1500
14.333631038665771,636,184,67,0.003125,1507.425,1500,1158.25,1500
14.356486082077026,637,184,74,0.0011261261261261261,1509.3699999999999,1500,1156.5,1500
14.379371166229248,638,176,70,0.0029411764705882353,1508.625,1500,1157.5,1500
14.402141094207764,639,185,68,0.0012755102040816326,1509.2750000000001,1500,1158.0,1500
14.424883127212524,640,174,85,0.002136752136752137,1507.76,1500,1153.75,1500
14.447668075561523,641,177,86,0.0011904761904761906,1508.26,1500,1153.5,1500
14.470436096191406,642,182,68,0.0013679890560875513,1507.3399999999999,1500,1158.0,1500
14.493208169937134,643,172,70,0.004273504273504274,1505.7550000000001,1500,1157.5,1500
14.516031980514526,644,174,73,0.002380952380952381,1506.3399999999999,1500,1156.75,1500
14.538877010345459,645,189,65,0.004830917874396135,1508.095,1500,1158.75,1500
14.561643123626709,646,186,72,0.0030864197530864196,1507.365,1500,1157.0,1500
14.58447003364563,647,184,66,0.002136752136752137,1507.0450000000001,1500,1158.5,1500
14.607233047485352,648,194,76,0.0036231884057971015,1507.7149999999999,1500,1156.0,1500
14.629990100860596,649,182,69,0.0025252525252525255,1505.8699999999999,1500,1157.75,1500
14.652752161026001,650,182,67,0.0015151515151515152,1506.73,1500,1158.25,1500
14.675497055053711,651,185,73,0.0007692307692307692,1507.53,1500,1156.75,1500
14.698392152786255,652,187,67,0.001893939393939394,1507.825,1500,1158.25,1500
14.72120714187622,653,183,64,0.0024390243902439024,1508.6900000000001,1500,1159.0,1500
14.743971109390259,654,186,66,0.0026041666666666665,1509.4100000000001,1500,1158.5,1500
14.766836166381836,655,187,67,0.0024630541871921183,1509.0999999999999,1500,1158.25,1500
14.789769172668457,656,194,80,0.003787878787878788,1509.7,1500,1155.0,1500
14.812602043151855,657,183,84,0.0009523809523809524,1508.7850000000001,1500,1154.0,1500
14.835416078567505,658,172,89,0.004629629629629629,1507.135,1500,1152.75,1500
14.858326196670532,659,176,90,0.002857142857142857,1507.8050000000001,1500,1152.5,1500
14.881076097488403,660,193,76,0.002551020408163265,1509.75,1500,1156.0,1500
14.903836011886597,661,184,68,0.00130718954248366,1509.395,1500,1158.0,1500
14.926645994186401,662,184,67,0.0019230769230769232,1509.1700000000001,1500,1158.25,1500
14.949444055557251,663,183,71,0.0014005602240896359,1508.4100000000001,1500,1157.25,1500
14.972200155258179,664,184,66,0.001984126984126984,1507.9200000000001,1500,1158.5,1500
14.994975090026855,665,182,70,0.0011627906976744186,1508.105,1500,1157.5,1500
15.01775312423706,666,180,68,0.0016806722689075631,1507.375,1500,1158.0,1500
15.040515184402466,667,187,66,0.0027548209366391185,1508.115,1500,1158.5,1500
15.063266038894653,668,184,80,0.0017006802721088435,1508.415,1500,1155.0,1500
15.086068153381348,669,177,70,0.002564102564102564,1508.1900000000001,1500,1157.5,1500
15.108877182006836,670,198,85,0.0031746031746031746,1509.605,1500,1153.75,1500
15.13165807723999,671,187,70,0.0014347202295552368,1508.25,1500,1157.5,1500
15.15442419052124,672,228,68,0.0028735632183908046,1512.3099999999999,1500,1158.0,1500
15.177216053009033,673,174,65,0.004329004329004329,1507.0150000000001,1500,1158.75,1500
15.200021982192993,674,177,66,0.003367003367003367,1506.9300000000001,1500,1158.5,1500
15.222779989242554,675,182,66,0.0024509803921568627,1508.3900000000001,1500,1158.5,1500
15.245554208755493,676,184,69,0.0012239902080783353,1508.99,1500,1157.75,1500
15.268458127975464,677,184,66,0.001984126984126984,1511.4649999999999,1500,1158.5,1500
15.291213989257812,678,177,84,0.0025252525252525255,1510.2,1500,1154.0,1500
15.313966035842896,679,241,69,0.004166666666666667,1516.28,1500,1157.75,1500
15.3367280960083,680,184,67,0.0018018018018018018,1509.6900000000001,1500,1158.25,1500
15.359491109848022,681,178,67,0.0018975332068311196,1508.9549999999999,1500,1158.25,1500
15.3822660446167,682,179,66,0.003125,1506.6600000000001,1500,1158.5,1500
15.405058145523071,683,181,64,0.002380952380952381,1507.0050000000001,1500,1159.0,1500
15.427837133407593,684,192,65,0.002976190476190476,1511.8699999999999,1500,1158.75,1500
15.45111608505249,685,191,76,0.0013550135501355014,1511.845,1500,1156.0,1500
15.474030017852783,686,179,70,0.001838235294117647,1510.3099999999999,1500,1157.5,1500
15.496839046478271,687,178,67,0.0020161290322580645,1509.9400000000001,1500,1158.25,1500
15.519651174545288,688,184,65,0.002325581395348837,1510.7449999999999,1500,1158.75,1500
15.542404174804688,689,182,78,0.001876172607879925,1507.9000000000001,1500,1155.5,1500
15.565191984176636,690,178,65,0.00390625,1507.95,1500,1158.75,1500
15.588032007217407,691,182,75,0.0011904761904761906,1508.3900000000001,1500,1156.25,1500
15.610828161239624,692,187,76,0.002457002457002457,1508.79,1500,1156.0,1500
15.633604049682617,693,178,70,0.0009074410163339383,1508.085,1500,1157.5,1500
15.656409978866577,694,187,69,0.000945179584120983,1508.4100000000001,1500,1157.75,1500
15.679227113723755,695,186,66,0.0013850415512465374,1507.5550000000001,1500,1158.5,1500
15.701984167098999,696,183,65,0.004310344827586207,1507.415,1500,1158.75,1500
15.724723100662231,697,222,72,0.0008547008547008547,1511.635,1500,1157.0,1500
15.74750018119812,698,186,66,0.004464285714285714,1507.665,1500,1158.5,1500
15.770251035690308,699,214,68,0.003125,1510.605,1500,1158.0,1500
15.792980194091797,700,175,67,0.0028735632183908046,1507.2,1500,1158.25,1500
15.815778017044067,701,186,63,0.0019305019305019305,1508.3399999999999,1500,1159.25,1500
15.83870816230774,702,182,69,0.0015873015873015873,1510.0650000000001,1500,1157.75,1500
15.861472129821777,703,187,62,0.003676470588235294,1511.0,1500,1159.5,1500
15.884209156036377,704,183,65,0.0017482517482517483,1512.24,1500,1158.75,1500
15.906972169876099,705,212,72,0.0025252525252525255,1514.3499999999999,1500,1157.0,1500
15.929758071899414,706,183,64,0.0021141649048625794,1511.6300000000001,1500,1159.0,1500
15.952517986297607,707,185,65,0.0023923444976076554,1509.615,1500,1158.75,1500
15.975260972976685,708,182,63,0.002325581395348837,1509.395,1500,1159.25,1500
15.998147010803223,709,176,69,0.0014619883040935672,1507.125,1500,1157.75,1500
16.02094602584839,710,186,76,0.001519756838905775,1510.29,1500,1156.0,1500
16.04370403289795,711,185,64,0.002840909090909091,1510.0150000000001,1500,1159.0,1500
16.06649613380432,712,176,66,0.0025252525252525255,1509.325,1500,1158.5,1500
16.089323043823242,713,214,72,0.003472222222222222,1512.6900000000001,1500,1157.0,1500
16.112080097198486,714,166,74,0.002976190476190476,1507.5550000000001,1500,1156.5,1500
16.134849071502686,715,178,68,0.001388888888888889,1507.365,1500,1158.0,1500
16.157591104507446,716,184,65,0.0035842293906810036,1508.0799999999999,1500,1158.75,1500
16.180373191833496,717,176,65,0.0015503875968992248,1506.7850000000001,1500,1158.75,1500
16.203166007995605,718,182,65,0.001838235294117647,1509.3050000000001,1500,1158.75,1500
16.225978136062622,719,169,66,0.0026666666666666666,1507.4400000000001,1500,1158.5,1500
16.24881410598755,720,178,71,0.003125,1507.9000000000001,1500,1157.25,1500
16.271562099456787,721,174,67,0.0010330578512396695,1507.4949999999999,1500,1158.25,1500
16.29432702064514,722,198,65,0.001984126984126984,1509.7850000000001,1500,1158.75,1500
16.31709313392639,723,173,66,0.0014204545454545455,1505.5699999999999,1500,1158.5,1500
16.33987808227539,724,173,61,0.0022172949002217295,1505.7149999999999,1500,1159.75,1500
