time,frame,x,y,size_inv,roll,pitch,thrust,yaw
0.00024509429931640625,1,,,,1500.0,1490.0,1400.0,1500
0.021991968154907227,2,,,,1500.0,1490.0,1400.0,1500
0.0433659553527832,3,,,,1500.0,1490.0,1400.0,1500
0.06457805633544922,4,,,,1500.0,1490.0,1400.0,1500
0.08580493927001953,5,,,,1500.0,1490.0,1400.0,1500
0.10697293281555176,6,,,,1500.0,1490.0,1400.0,1500
0.12819409370422363,7,,,,1500.0,1490.0,1400.0,1500
0.14939498901367188,8,,,,1500.0,1490.0,1400.0,1500
0.17076992988586426,9,,,,1500.0,1490.0,1400.0,1500
0.19213509559631348,10,,,,1500.0,1490.0,1400.0,1500
0.21349501609802246,11,,,,1500.0,1490.0,1400.0,1500
0.2349410057067871,12,,,,1500.0,1490.0,1400.0,1500
0.25641798973083496,13,,,,1500.0,1490.0,1400.0,1500
0.2778279781341553,14,,,,1500.0,1490.0,1400.0,1500
0.2992889881134033,15,,,,1500.0,1490.0,1400.0,1500
0.32080602645874023,16,,,,1500.0,1490.0,1400.0,1500
0.3423349857330322,17,,,,1500.0,1490.0,1400.0,1500
0.36395812034606934,18,,,,1500.0,1490.0,1400.0,1500
0.38550400733947754,19,,,,1500.0,1490.0,1400.0,1500
0.4069850444793701,20,,,,1500.0,1490.0,1400.0,1500
0.4285259246826172,21,,,,1500.0,1490.0,1400.0,1500
0.45003390312194824,22,,,,1500.0,1490.0,1400.0,1500
0.4716050624847412,23,,,,1500.0,1490.0,1400.0,1500
0.4930129051208496,24,,,,1500.0,1490.0,1400.0,1500
0.5144979953765869,25,,,,1500.0,1490.0,1400.0,1500
0.5359349250793457,26,,,,1500.0,1490.0,1400.0,1500
0.5574240684509277,27,,,,1500.0,1490.0,1400.0,1500
0.5788710117340088,28,,,,1500.0,1490.0,1400.0,1500
0.6003849506378174,29,,,,1500.0,1490.0,1400.0,1500
0.6218400001525879,30,,,,1500.0,1490.0,1400.0,1500
0.6434171199798584,31,,,,1500.0,1490.0,1400.0,1500
0.6648659706115723,32,,,,1500.0,1490.0,1400.0,1500
0.6863429546356201,33,,,,1500.0,1490.0,1400.0,1500
0.7077529430389404,34,,,,1500.0,1490.0,1400.0,1500
0.7292249202728271,35,,,,1500.0,1490.0,1400.0,1500
0.7506558895111084,36,,,,1500.0,1490.0,1400.0,1500
0.7720880508422852,37,,,,1500.0,1490.0,1400.0,1500
0.7935030460357666,38,,,,1500.0,1490.0,1400.0,1500
0.8150289058685303,39,,,,1500.0,1490.0,1400.0,1500
0.8364710807800293,40,,,,1500.0,1490.0,1400.0,1500
0.8579130172729492,41,,,,1500.0,1490.0,1400.0,1500
0.8793869018554688,42,,,,1500.0,1490.0,1400.0,1500
0.9009430408477783,43,,,,1500.0,1490.0,1400.0,1500
0.9224231243133545,44,,,,1500.0,1490.0,1400.0,1500
0.9439198970794678,45,,,,1500.0,1490.0,1400.0,1500
0.9653990268707275,46,,,,1500.0,1490.0,1400.0,1500
0.9869599342346191,47,,,,1500.0,1490.0,1400.0,1500
1.0084679126739502,48,,,,1500.0,1490.0,1400.0,1500
1.029984951019287,49,,,,1500.0,1490.0,1400.0,1500
1.051537036895752,50,,,,1500.0,1490.0,1400.0,1500
1.0729620456695557,51,,,,1500.0,1490.0,1400.0,1500
1.0944221019744873,52,,,,1500.0,1490.0,1400.0,1500
1.1158618927001953,53,,,,1500.0,1490.0,1400.0,1500
1.137336015701294,54,,,,1500.0,1490.0,1400.0,1500
1.158811092376709,55,,,,1500.0,1490.0,1400.0,1500
1.1803479194641113,56,,,,1500.0,1490.0,1400.0,1500
1.2018029689788818,57,,,,1500.0,1490.0,1400.0,1500
1.2233169078826904,58,,,,1500.0,1490.0,1400.0,1500
1.244776964187622,59,,,,1500.0,1490.0,1400.0,1500
1.2662489414215088,60,,,,1500.0,1490.0,1400.0,1500
1.2876780033111572,61,,,,1500.0,1490.0,1400.0,1500
1.309149980545044,62,,,,1500.0,1490.0,1400.0,1500
1.3305768966674805,63,,,,1500.0,1490.0,1400.0,1500
1.3520689010620117,64,,,,1500.0,1490.0,1400.0,1500
1.3734819889068604,65,,,,1500.0,1490.0,1400.0,1500
1.3949370384216309,66,,,,1500.0,1490.0,1400.0,1500
1.416337013244629,67,,,,1500.0,1490.0,1400.0,1500
1.4377970695495605,68,,,,1500.0,1490.0,1400.0,1500
1.4592349529266357,69,,,,1500.0,1490.0,1400.0,1500
1.4807889461517334,70,,,,1500.0,1490.0,1400.0,1500
1.502289056777954,71,,,,1500.0,1490.0,1400.0,1500
1.5237829685211182,72,,,,1500.0,1490.0,1400.0,1500
1.545224905014038,73,,,,1500.0,1490.0,1400.0,1500
1.5667290687561035,74,,,,1500.0,1490.0,1400.0,1500
1.5881330966949463,75,,,,1500.0,1490.0,1400.0,1500
1.6095991134643555,76,,,,1500.0,1490.0,1400.0,1500
1.6310770511627197,77,,,,1500.0,1490.0,1400.0,1500
1.6526100635528564,78,,,,1500.0,1490.0,1400.0,1500
1.674436092376709,79,,,,1500.0,1490.0,1400.0,1500
1.6959691047668457,80,,,,1500.0,1490.0,1400.0,1500
1.717421054840088,81,,,,1500.0,1490.0,1400.0,1500
1.7388999462127686,82,,,,1500.0,1490.0,1400.0,1500
1.7603509426116943,83,,,,1500.0,1490.0,1400.0,1500
1.7819349765777588,84,,,,1500.0,1490.0,1400.0,1500
1.8034660816192627,85,,,,1500.0,1490.0,1400.0,1500
1.8250501155853271,86,,,,1500.0,1490.0,1400.0,1500
1.846614122390747,87,,,,1500.0,1490.0,1400.0,1500
1.8682351112365723,88,,,,1500.0,1490.0,1400.0,1500
1.8898799419403076,89,,,,1500.0,1490.0,1400.0,1500
1.9114699363708496,90,,,,1500.0,1490.0,1400.0,1500
1.9330151081085205,91,,,,1500.0,1490.0,1400.0,1500
1.954596996307373,92,,,,1500.0,1490.0,1400.0,1500
1.9762110710144043,93,,,,1500.0,1490.0,1400.0,1500
1.9978289604187012,94,,,,1500.0,1490.0,1400.0,1500
2.019886016845703,95,,,,1500.0,1490.0,1400.0,1500
2.0429420471191406,96,,,,1500.0,1490.0,1400.0,1500
2.0659079551696777,97,,,,1500.0,1490.0,1400.0,1500
2.0889599323272705,98,208,167,0.027777777777777776,1504.8,1530,1385,1500
2.11228609085083,99,281,152,0.003003003003003003,1512.0999999999999,1450,1385,1500
2.1354339122772217,100,303,139,0.0021645021645021645,1514.3,1450,1385,1500
2.158750057220459,101,203,154,0.0009416195856873823,1504.3,1450,1385,1500
2.182039976119995,102,274,117,0.00020508613617719443,1511.4000000000001,1450,1385,1500
2.2052130699157715,103,270,108,0.0001356300013563,1511.0,1450,1392.0,1500
2.22845196723938,104,263,104,8.86053517632465e-05,1510.3,1450,1396.0,1500
2.2517340183258057,105,229,106,3.959768749505029e-05,1506.9000000000001,1450,1394.0,1500
2.274984121322632,106,232,99,3.75629178874615e-05,1507.2,1450,1401.0,1500
2.2982730865478516,107,262,95,5.3544656243306916e-05,1510.2,1450,1405.0,1500
2.3218259811401367,108,251,93,4.3708204029896414e-05,1509.0999999999999,1450,1407.0,1500
2.345149040222168,109,221,92,3.0242545212605094e-05,1506.0999999999999,1450,1408.0,1500
2.3686769008636475,110,223,90,2.9795602169119837e-05,1506.3,1450,1410.0,1500
2.3918769359588623,111,224,90,2.994998352750906e-05,1506.4000000000001,1450,1410.0,1500
2.4152119159698486,112,224,77,3.524725952557189e-05,1506.4000000000001,1450,1415,1500
2.4383621215820312,113,221,85,3.0424729219909943e-05,1506.0999999999999,1450,1415.0,1500
2.4618771076202393,114,217,80,3.1422825540472596e-05,1505.7,1450,1415,1500
2.48492693901062,115,213,88,2.7109086965950985e-05,1505.3,1450,1412.0,1500
2.5083088874816895,116,211,87,2.6607066836951895e-05,1505.0999999999999,1450,1413.0,1500
2.531557083129883,117,209,84,2.67379679144385e-05,1504.9000000000001,1450,1415,1500
2.5548510551452637,118,209,83,2.7095131004958408e-05,1504.9000000000001,1450,1415,1500
2.5779991149902344,119,205,81,2.8013558562344175e-05,1504.5,1450,1415,1500
2.6013400554656982,120,205,79,2.8153153153153154e-05,1504.5,1450,1415,1500
2.624450922012329,121,204,66,3.302073702285035e-05,1504.4000000000001,1450,1415,1500
2.647646903991699,122,199,70,3.143863179074447e-05,1503.9000000000001,1450,1415,1500
2.6707351207733154,123,201,78,2.7814090618307236e-05,1504.0999999999999,1450,1415,1500
2.694042921066284,124,199,77,2.7929060187124703e-05,1503.9000000000001,1450,1415,1500
2.7173240184783936,125,196,75,2.759381898454746e-05,1503.5999999999999,1450,1415,1500
2.740730047225952,126,193,59,3.472222222222222e-05,1503.3,1450,1415,1500
2.7638320922851562,127,192,61,3.3457124694703736e-05,1503.2,1450,1415,1500
2.786781072616577,128,190,60,3.359537727608681e-05,1503.0,1450,1415,1500
2.8098769187927246,129,186,59,3.472463365511494e-05,1502.5999999999999,1450,1415,1500
2.833048105239868,130,185,69,2.9126496373751203e-05,1502.5,1450,1415,1500
2.85604190826416,131,183,68,2.8965357432510718e-05,1502.3,1450,1415,1500
2.8790459632873535,132,177,66,3.045994517209869e-05,1501.7,1450,1415,1500
2.9023239612579346,133,177,64,2.9815146094215862e-05,1501.7,1450,1415,1500
2.925482988357544,134,176,63,2.993295019157088e-05,1501.5999999999999,1450,1415,1500
2.948486089706421,135,171,62,3.088135383855228e-05,1501.0999999999999,1450,1415,1500
2.9713571071624756,136,173,61,3.0317729808391947e-05,1501.3,1450,1415,1500
2.9947729110717773,137,171,60,3.0837547798199085e-05,1501.0999999999999,1450,1415,1500
3.0177340507507324,138,169,59,3.08641975308642e-05,1500.9000000000001,1450,1415,1500
3.0408709049224854,139,167,59,3.089471082550667e-05,1500.7,1450,1415,1500
3.063786029815674,140,166,58,3.1042403923759856e-05,1500.5999999999999,1450,1415,1500
3.0868539810180664,141,162,58,3.0744635061181826e-05,1500.2,1450,1415,1500
3.1099720001220703,142,160,59,3.001200480192077e-05,1500.0,1450,1415,1500
3.133186101913452,143,159,60,2.9306605708926792e-05,1499.9000000000001,1450,1415,1500
3.1562700271606445,144,157,61,2.8396183552930485e-05,1499.7,1450,1415,1500
3.179332971572876,145,156,63,2.7316433566433566e-05,1499.5999999999999,1450,1415,1500
3.2023959159851074,146,156,65,2.6597866851078545e-05,1499.5999999999999,1450,1415,1500
3.2252728939056396,147,155,67,2.554278416347382e-05,1499.5,1450,1415,1500
3.2481329441070557,148,155,69,2.4553735850909716e-05,1499.5,1450,1415,1500
3.2709081172943115,149,155,73,2.2826880934989044e-05,1499.5,1450,1415,1500
3.2940309047698975,150,156,76,2.2006557954270374e-05,1499.5999999999999,1450,1415,1500
3.316908121109009,151,155,72,2.322071287588529e-05,1499.5,1450,1415,1500
3.340013027191162,152,156,75,2.2298035543068657e-05,1499.5999999999999,1450,1415,1500
3.363140106201172,153,157,78,2.109704641350211e-05,1499.7,1450,1415,1500
3.386125087738037,154,158,78,2.102695655830775e-05,1499.8,1450,1415,1500
3.409032106399536,155,158,82,2.001360925429292e-05,1499.8,1450,1415,1500
3.4323770999908447,156,159,83,1.9644821625019645e-05,1499.9000000000001,1450,1415,1500
3.4554429054260254,157,158,89,1.825683718552598e-05,1499.8,1450,1411.0,1500
3.478616952896118,158,159,83,1.9452225334578277e-05,1499.9000000000001,1450,1415,1500
3.501471996307373,159,160,91,1.781895937277263e-05,1500.0,1450,1409.0,1500
3.5244669914245605,160,159,87,1.8552875695732837e-05,1499.9000000000001,1450,1413.0,1500
3.547524929046631,161,159,90,1.7667220239567508e-05,1499.9000000000001,1450,1410.0,1500
3.5705020427703857,162,158,90,1.772421127259837e-05,1499.8,1450,1410.0,1500
3.593687057495117,163,159,90,1.7937863241730645e-05,1499.9000000000001,1450,1410.0,1500
3.6168999671936035,164,160,89,1.7979144192736427e-05,1500.0,1450,1411.0,1500
3.640058994293213,165,160,86,1.8659501418122106e-05,1500.0,1450,1414.0,1500
3.6635210514068604,166,159,89,1.8037518037518038e-05,1499.9000000000001,1450,1411.0,1500
3.6869029998779297,167,160,89,1.7979144192736427e-05,1500.0,1450,1411.0,1500
3.7100720405578613,168,160,89,1.8096272167933404e-05,1500.0,1450,1411.0,1500
3.7331879138946533,169,159,88,1.8343238682221733e-05,1499.9000000000001,1450,1412.0,1500
3.7564198970794678,170,159,87,1.8552875695732837e-05,1499.9000000000001,1450,1413.0,1500
3.7794559001922607,171,160,86,1.859911468214113e-05,1500.0,1450,1414.0,1500
3.802726984024048,172,159,89,1.8096272167933404e-05,1499.9000000000001,1450,1411.0,1500
3.825856924057007,173,159,91,1.785778063502268e-05,1499.9000000000001,1450,1409.0,1500
3.848912000656128,174,159,88,1.852366398073539e-05,1499.9000000000001,1450,1412.0,1500
3.872175931930542,175,158,88,1.8707673887828788e-05,1499.8,1450,1412.0,1500
3.89513897895813,176,157,82,1.9816106531388713e-05,1499.7,1450,1415,1500
3.9182350635528564,177,159,84,1.9739439399921042e-05,1499.9000000000001,1450,1415,1500
3.9411818981170654,178,159,86,1.9594396002743217e-05,1499.9000000000001,1450,1414.0,1500
3.964250087738037,179,160,81,2.088205813564985e-05,1500.0,1450,1415,1500
3.987104892730713,180,160,81,2.0953817785600537e-05,1500.0,1450,1415,1500
4.010329008102417,181,159,80,2.1566597653554176e-05,1499.9000000000001,1450,1415,1500
4.033591032028198,182,158,82,2.1117094287825995e-05,1499.8,1450,1415,1500
4.056689977645874,183,159,80,2.1889501794939148e-05,1499.9000000000001,1450,1415,1500
4.079549074172974,184,159,80,2.202546143341703e-05,1499.9000000000001,1450,1415,1500
4.102806091308594,185,160,82,2.156799309824221e-05,1500.0,1450,1415,1500
4.125840902328491,186,160,80,2.2124872781981504e-05,1500.0,1450,1415,1500
4.149106025695801,187,160,82,2.187944426211574e-05,1500.0,1450,1415,1500
4.1723198890686035,188,160,83,2.1645021645021645e-05,1500.0,1450,1415,1500
4.1953959465026855,189,160,83,2.1934153670680615e-05,1500.0,1450,1415,1500
4.218410968780518,190,161,85,2.1453702909122115e-05,1500.0999999999999,1450,1415.0,1500
4.241566896438599,191,160,86,2.1285653469561517e-05,1500.0,1450,1414.0,1500
4.26459002494812,192,160,84,2.2161647053609024e-05,1500.0,1450,1415,1500
4.2876269817352295,193,160,63,2.9260299625468165e-05,1500.0,1450,1415,1500
4.310615062713623,194,160,86,2.1568458286601675e-05,1500.0,1450,1414.0,1500
4.333640098571777,195,161,88,2.1159990689604098e-05,1500.0999999999999,1450,1412.0,1500
4.356839895248413,196,161,86,2.168726957276079e-05,1500.0999999999999,1450,1414.0,1500
4.380039930343628,197,161,65,2.94811320754717e-05,1500.0999999999999,1450,1415,1500
4.4030539989471436,198,161,66,3.0317729808391947e-05,1500.0999999999999,1450,1415,1500
4.426215887069702,199,161,91,2.2244961516216577e-05,1500.0999999999999,1450,1409.0,1500
4.449373006820679,200,162,89,2.311924908678966e-05,1500.2,1450,1411.0,1500
4.472685098648071,201,162,93,2.2562158747348947e-05,1500.2,1450,1407.0,1500
4.495651006698608,202,162,94,2.2977413202821626e-05,1500.2,1450,1406.0,1500
4.518688917160034,203,162,94,2.3467567821271004e-05,1500.2,1450,1406.0,1500
4.541879892349243,204,162,95,2.332089552238806e-05,1500.2,1450,1405.0,1500
4.56494402885437,205,162,96,2.3528304550374102e-05,1500.2,1450,1404.0,1500
4.587964057922363,206,161,97,2.420721374969741e-05,1500.0999999999999,1450,1403.0,1500
4.611056089401245,207,161,98,2.4437330466019892e-05,1500.0999999999999,1450,1402.0,1500
4.63407301902771,208,161,98,2.5010004001600642e-05,1500.0999999999999,1450,1402.0,1500
4.657155990600586,209,161,98,2.5181305398871877e-05,1500.0999999999999,1450,1402.0,1500
4.68039608001709,210,95,101,4.995004995004995e-05,1493.5,1450,1399.0,1500
4.703459978103638,211,161,102,2.5274225344993176e-05,1500.0999999999999,1450,1398.0,1500
4.726555109024048,212,160,102,2.6074259491030454e-05,1500.0,1450,1398.0,1500
4.749579906463623,213,79,104,6.795786612300373e-05,1491.9000000000001,1450,1396.0,1500
4.77291202545166,214,90,105,5.6532308214144386e-05,1493.0,1450,1395.0,1500
4.795968055725098,215,153,109,2.914262400186513e-05,1499.3,1450,1391.0,1500
4.8189311027526855,216,78,108,7.2811999417504e-05,1491.8,1450,1392.0,1500
4.842039108276367,217,96,111,5.351027397260274e-05,1493.5999999999999,1450,1389.0,1500
4.8650829792022705,218,152,111,3.0398832684824903e-05,1499.2,1450,1389.0,1500
4.888114929199219,219,94,112,5.679236710586097e-05,1493.4000000000001,1450,1388.0,1500
4.911257982254028,220,71,112,8.827683615819209e-05,1491.0999999999999,1450,1388.0,1500
4.9344940185546875,221,90,115,6.271165182490907e-05,1493.0,1450,1385.0,1500
4.957612991333008,222,151,117,3.295435821387378e-05,1499.0999999999999,1450,1385,1500
4.980597019195557,223,87,116,6.688963210702341e-05,1492.7,1450,1385,1500
5.003602027893066,224,91,119,6.587615283267457e-05,1493.0999999999999,1450,1385,1500
5.026556015014648,225,157,117,3.150400100812803e-05,1499.7,1450,1385,1500
5.049539089202881,226,80,119,8.210180623973728e-05,1492.0,1450,1385,1500
5.072654962539673,227,99,123,6.184291898577613e-05,1493.9000000000001,1450,1385,1500
5.095544099807739,228,85,122,7.874015748031496e-05,1492.5,1450,1385,1500
5.118633031845093,229,155,123,3.5536602700781806e-05,1499.5,1450,1385,1500
5.141632080078125,230,154,127,3.875668552825362e-05,1499.4000000000001,1450,1385,1500
5.164635896682739,231,89,124,7.998720204767237e-05,1492.9000000000001,1450,1385,1500
5.187822103500366,232,85,127,8.721437292865864e-05,1492.5,1450,1385,1500
5.210792064666748,233,80,127,9.473285335354301e-05,1492.0,1450,1385,1500
5.233686923980713,234,105,129,6.516780710329097e-05,1494.5,1450,1385,1500
5.256738901138306,235,88,128,8.481764206955047e-05,1492.8,1450,1385,1500
5.279810905456543,236,84,129,9.061254077564335e-05,1492.4000000000001,1450,1385,1500
5.302839994430542,237,73,129,0.00011648223645894001,1491.3,1450,1385,1500
5.326122999191284,238,100,133,7.639419404125286e-05,1494.0,1450,1385,1500
5.349222898483276,239,154,129,4.1486890142714904e-05,1499.4000000000001,1450,1385,1500
5.372620105743408,240,154,130,4.2735042735042735e-05,1499.4000000000001,1450,1385,1500
5.39554500579834,241,154,131,4.337265787647467e-05,1499.4000000000001,1450,1385,1500
5.418492078781128,242,95,135,8.741258741258741e-05,1493.5,1450,1385,1500
5.441644906997681,243,154,136,4.868549172346641e-05,1499.4000000000001,1450,1385,1500
5.465087890625,244,154,133,4.524886877828054e-05,1499.4000000000001,1450,1385,1500
5.488188028335571,245,93,135,9.49667616334283e-05,1493.3,1450,1385,1500
5.5112059116363525,246,91,133,9.737098344693281e-05,1493.0999999999999,1450,1385,1500
5.534377098083496,247,95,133,9.057971014492754e-05,1493.5,1450,1385,1500
5.5573410987854,248,91,132,9.765625e-05,1493.0999999999999,1450,1385,1500
5.580452919006348,249,105,129,7.773027594247959e-05,1494.5,1450,1385,1500
5.60340690612793,250,93,128,8.876264867743653e-05,1493.3,1450,1385,1500
5.62639594078064,251,83,129,0.00010122482032594392,1492.3,1450,1385,1500
5.6493871212005615,252,118,125,5.46448087431694e-05,1495.8,1450,1385,1500
5.672728061676025,253,87,127,8.628127696289905e-05,1492.7,1450,1385,1500
5.695801019668579,254,91,125,7.869678130164477e-05,1493.0999999999999,1450,1385,1500
5.7188639640808105,255,79,120,9.352787130564908e-05,1491.9000000000001,1450,1385,1500
5.741717100143433,256,82,120,8.423180592991914e-05,1492.2,1450,1385,1500
5.76482892036438,257,114,118,4.940711462450593e-05,1495.4000000000001,1450,1385,1500
5.787703990936279,258,156,114,3.272037170342255e-05,1499.5999999999999,1450,1386.0,1500
5.810924053192139,259,149,116,3.444949703734326e-05,1498.9000000000001,1450,1385,1500
5.833905935287476,260,156,111,3.2425421530479896e-05,1499.5999999999999,1450,1389.0,1500
5.856977939605713,261,156,111,3.203280158882696e-05,1499.5999999999999,1450,1389.0,1500
5.8801000118255615,262,158,109,3.113712791132146e-05,1499.8,1450,1391.0,1500
5.903364896774292,263,154,112,3.08842150776738e-05,1499.4000000000001,1450,1388.0,1500
5.926393032073975,264,159,109,2.827254735651682e-05,1499.9000000000001,1450,1391.0,1500
5.949489116668701,265,159,108,2.7966552003803452e-05,1499.9000000000001,1450,1392.0,1500
5.972919940948486,266,160,106,2.7552763542183283e-05,1500.0,1450,1394.0,1500
5.995954990386963,267,160,105,2.7069460234962914e-05,1500.0,1450,1395.0,1500
6.018953084945679,268,161,104,2.6404731727925644e-05,1500.0999999999999,1450,1396.0,1500
6.042196989059448,269,161,101,2.7173174641993425e-05,1500.0999999999999,1450,1399.0,1500
6.0653510093688965,270,162,102,2.5865859651845528e-05,1500.2,1450,1398.0,1500
6.088458061218262,271,163,100,2.501500900540324e-05,1500.3,1450,1400.0,1500
6.111435890197754,272,163,99,2.501500900540324e-05,1500.3,1450,1401.0,1500
6.1345860958099365,273,163,99,2.4530847540782535e-05,1500.3,1450,1401.0,1500
6.157588005065918,274,163,96,2.5180671316697303e-05,1500.3,1450,1404.0,1500
6.180797100067139,275,163,98,2.412661648330438e-05,1500.3,1450,1402.0,1500
6.203951120376587,276,163,97,2.397391637897967e-05,1500.3,1450,1403.0,1500
6.226985931396484,277,163,97,2.397391637897967e-05,1500.3,1450,1403.0,1500
6.250184059143066,278,163,97,2.37936613686114e-05,1500.3,1450,1403.0,1500
6.273391962051392,279,163,97,2.37936613686114e-05,1500.3,1450,1403.0,1500
6.296612024307251,280,163,97,2.3704546532024842e-05,1500.3,1450,1403.0,1500
6.319716930389404,281,162,98,2.3945213351850965e-05,1500.2,1450,1402.0,1500
6.342912912368774,282,162,98,2.4189646831156265e-05,1500.2,1450,1402.0,1500
6.3660969734191895,283,162,97,2.450379808870375e-05,1500.2,1450,1403.0,1500
6.389163017272949,284,162,99,2.4663953631767172e-05,1500.2,1450,1401.0,1500
6.412628889083862,285,161,100,2.4732884843688168e-05,1500.0999999999999,1450,1400.0,1500
6.435679912567139,286,162,101,2.480343279509884e-05,1500.2,1450,1399.0,1500
6.458837985992432,287,161,102,2.5749304768771242e-05,1500.0999999999999,1450,1398.0,1500
6.482404947280884,288,162,103,2.565286542506798e-05,1500.2,1450,1397.0,1500
6.505577087402344,289,161,104,2.6106934001670842e-05,1500.0999999999999,1450,1396.0,1500
6.52876091003418,290,161,105,2.6474637297469023e-05,1500.0999999999999,1450,1395.0,1500
6.552072048187256,291,160,106,2.6852846401718583e-05,1500.0,1450,1394.0,1500
6.575026988983154,292,160,107,2.7148092846477534e-05,1500.0,1450,1393.0,1500
6.598068952560425,293,160,107,2.7440864936062786e-05,1500.0,1450,1393.0,1500
6.621068954467773,294,107,110,4.6904315196998124e-05,1494.7,1450,1390.0,1500
6.644105911254883,295,159,109,2.8055212658511953e-05,1499.9000000000001,1450,1391.0,1500
6.667267084121704,296,159,110,2.7950918187662463e-05,1499.9000000000001,1450,1390.0,1500
6.690408945083618,297,159,109,2.816266756787203e-05,1499.9000000000001,1450,1391.0,1500
6.713484048843384,298,159,110,2.816266756787203e-05,1499.9000000000001,1450,1390.0,1500
6.736658096313477,299,92,111,5.7510927076144466e-05,1493.2,1450,1389.0,1500
6.759860992431641,300,158,113,2.9394473838918284e-05,1499.8,1450,1387.0,1500
6.783150911331177,301,158,110,2.828054298642534e-05,1499.8,1450,1390.0,1500
6.806278944015503,302,159,111,2.7961860022928726e-05,1499.9000000000001,1450,1389.0,1500
6.829381942749023,303,158,113,2.975836209975003e-05,1499.8,1450,1387.0,1500
6.8527679443359375,304,88,112,6.206168931918326e-05,1492.8,1450,1388.0,1500
6.8758440017700195,305,159,111,2.8395377232586536e-05,1499.9000000000001,1450,1389.0,1500
6.899019956588745,306,158,112,2.8948587308939323e-05,1499.8,1450,1388.0,1500
6.922285079956055,307,159,112,2.8842548527587897e-05,1499.9000000000001,1450,1388.0,1500
6.945493936538696,308,159,113,2.9197080291970804e-05,1499.9000000000001,1450,1387.0,1500
6.9686079025268555,309,107,116,4.885675200312683e-05,1494.7,1450,1385,1500
6.991553068161011,310,159,115,3.0303030303030302e-05,1499.9000000000001,1450,1385.0,1500
7.014676094055176,311,159,116,3.0303030303030302e-05,1499.9000000000001,1450,1385,1500
7.0375590324401855,312,104,119,5.378657487091222e-05,1494.4000000000001,1450,1385,1500
7.060570955276489,313,91,118,6.377551020408164e-05,1493.0999999999999,1450,1385,1500
7.083554983139038,314,104,117,5.411255411255411e-05,1494.4000000000001,1450,1385,1500
7.1066811084747314,315,97,120,5.9269796111901376e-05,1493.7,1450,1385,1500
7.12972092628479,316,102,120,5.5611166722277836e-05,1494.2,1450,1385,1500
7.1529669761657715,317,159,120,3.305785123966942e-05,1499.9000000000001,1450,1385,1500
7.175992012023926,318,108,119,5.31632110579479e-05,1494.8,1450,1385,1500
7.198970079421997,319,161,119,3.223310985043837e-05,1500.0999999999999,1450,1385,1500
7.222127914428711,320,160,120,3.293807641633728e-05,1500.0,1450,1385,1500
7.245044946670532,321,161,121,3.324026060364313e-05,1500.0999999999999,1450,1385,1500
7.267906904220581,322,161,121,3.3548040794417606e-05,1500.0999999999999,1450,1385,1500
7.291068077087402,323,161,122,3.398470688190314e-05,1500.0999999999999,1450,1385,1500
7.313921928405762,324,161,122,3.324026060364313e-05,1500.0999999999999,1450,1385,1500
7.337064027786255,325,160,122,3.386157388595422e-05,1500.0,1450,1385,1500
7.360089063644409,326,158,125,3.5693889206167905e-05,1499.8,1450,1385,1500
7.3833019733428955,327,106,126,5.9769290538521305e-05,1494.5999999999999,1450,1385,1500
7.406203985214233,328,90,126,7.765180928715639e-05,1493.0,1450,1385,1500
7.429310083389282,329,160,125,3.5842293906810036e-05,1500.0,1450,1385,1500
7.452514886856079,330,111,128,5.781683626271971e-05,1495.0999999999999,1450,1385,1500
7.475531101226807,331,159,126,3.631345776744862e-05,1499.9000000000001,1450,1385,1500
7.498546123504639,332,91,129,7.578628268283441e-05,1493.0999999999999,1450,1385,1500
7.52148699760437,333,83,129,8.809020436927414e-05,1492.3,1450,1385,1500
7.54459810256958,334,91,130,7.631257631257631e-05,1493.0999999999999,1450,1385,1500
7.5676209926605225,335,157,129,3.8959015116097865e-05,1499.7,1450,1385,1500
7.590610027313232,336,87,128,7.992327365728901e-05,1492.7,1450,1385,1500
7.613626003265381,337,74,126,0.00010288065843621399,1491.4000000000001,1450,1385,1500
7.6368889808654785,338,85,128,8.51861316977596e-05,1492.5,1450,1385,1500
7.660181045532227,339,85,126,8.426019548365353e-05,1492.5,1450,1385,1500
7.683577060699463,340,76,127,9.687106461300009e-05,1491.5999999999999,1450,1385,1500
7.706613063812256,341,100,128,6.6203243958954e-05,1494.0,1450,1385,1500
7.729568958282471,342,100,128,6.60763843002511e-05,1494.0,1450,1385,1500
7.752835035324097,343,88,128,7.933989209774674e-05,1492.8,1450,1385,1500
7.775723934173584,344,78,129,9.363295880149813e-05,1491.8,1450,1385,1500
7.7988879680633545,345,91,129,7.265329845975008e-05,1493.0999999999999,1450,1385,1500
7.821778059005737,346,81,129,8.721437292865864e-05,1492.0999999999999,1450,1385,1500
7.844865083694458,347,101,128,6.447453255963895e-05,1494.0999999999999,1450,1385,1500
7.86777400970459,348,75,126,0.00010122482032594392,1491.5,1450,1385,1500
7.890851974487305,349,117,128,5.3705692803437166e-05,1495.7,1450,1385,1500
7.91375207901001,350,83,127,8.223684210526316e-05,1492.3,1450,1385,1500
7.9368109703063965,351,93,125,7.01311452416018e-05,1493.3,1450,1385,1500
7.9599449634552,352,89,125,7.266913741733885e-05,1492.9000000000001,1450,1385,1500
7.983019113540649,353,79,121,8.417508417508418e-05,1491.9000000000001,1450,1385,1500
8.005908012390137,354,84,123,7.468259895444362e-05,1492.4000000000001,1450,1385,1500
8.02903699874878,355,96,118,6.068697657482704e-05,1493.5999999999999,1450,1385,1500
8.0521399974823,356,82,118,7.223867658744492e-05,1492.2,1450,1385,1500
8.075248956680298,357,80,116,7.259001161440186e-05,1492.0,1450,1385,1500
8.098105907440186,358,78,116,7.309941520467836e-05,1491.8,1450,1385,1500
8.121179103851318,359,84,113,6.357279084551812e-05,1492.4000000000001,1450,1387.0,1500
8.144262075424194,360,94,108,5.1578295853105015e-05,1493.4000000000001,1450,1392.0,1500
8.167344093322754,361,97,109,5.033725963958522e-05,1493.7,1450,1391.0,1500
8.190455913543701,362,89,104,5.328218243819267e-05,1492.9000000000001,1450,1396.0,1500
8.213671922683716,363,161,100,2.3969319271332693e-05,1500.0999999999999,1450,1400.0,1500
8.236752986907959,364,161,96,2.3191094619666047e-05,1500.0999999999999,1450,1404.0,1500
8.260020971298218,365,161,93,2.2623410705397947e-05,1500.0999999999999,1450,1407.0,1500
8.283304929733276,366,162,68,2.948460903408421e-05,1500.2,1450,1415,1500
8.306474924087524,367,161,88,2.097491400285259e-05,1500.0999999999999,1450,1412.0,1500
8.329485893249512,368,163,84,2.1312872975277067e-05,1500.3,1450,1415,1500
8.352858066558838,369,164,65,2.7657926761809936e-05,1500.4000000000001,1450,1415,1500
8.375902891159058,370,165,57,3.162055335968379e-05,1500.5,1450,1415,1500
8.398868083953857,371,165,78,2.32460830350086e-05,1500.5,1450,1415,1500
8.421876907348633,372,165,76,2.3698928808417858e-05,1500.5,1450,1415,1500
8.444920063018799,373,166,69,2.6164311878597592e-05,1500.5999999999999,1450,1415,1500
8.467822074890137,374,167,70,2.5701655186594018e-05,1500.7,1450,1415,1500
8.491044998168945,375,168,68,2.6639671799243432e-05,1500.8,1450,1415,1500
8.514031887054443,376,167,63,2.8948587308939323e-05,1500.7,1450,1415,1500
8.537048101425171,377,167,60,3.0135004821600772e-05,1500.7,1450,1415,1500
8.560014963150024,378,170,58,3.081664098613251e-05,1501.0,1450,1415,1500
8.583117008209229,379,170,57,3.162055335968379e-05,1501.0,1450,1415,1500
8.605983018875122,380,170,55,3.276003276003276e-05,1501.0,1450,1415,1500
8.62906002998352,381,171,53,3.4108738658844396e-05,1501.0999999999999,1450,1415,1500
8.652292013168335,382,171,51,3.509264458169568e-05,1501.0999999999999,1450,1415,1500
8.675254106521606,383,171,50,3.613500036135e-05,1501.0999999999999,1450,1415,1500
8.698336124420166,384,172,46,3.8968124074507054e-05,1501.2,1450,1415,1500
8.721492052078247,385,173,45,3.9815257206561555e-05,1501.3,1450,1415,1500
8.744391918182373,386,173,44,4.1308658294778584e-05,1501.3,1450,1415,1500
8.767436027526855,387,173,42,4.274965800273598e-05,1501.3,1450,1415,1500
8.790465116500854,388,173,41,4.376750700280112e-05,1501.3,1450,1415,1500
8.813469886779785,389,174,40,4.500045000450004e-05,1501.4000000000001,1450,1415,1500
8.836824893951416,390,173,40,4.483500717360115e-05,1501.3,1450,1415,1500
8.859945058822632,391,173,40,4.538852578068264e-05,1501.3,1450,1415,1500
8.883234977722168,392,173,40,4.467077637809345e-05,1501.3,1450,1415,1500
8.906193017959595,393,172,41,4.376750700280112e-05,1501.2,1450,1415,1500
8.929177045822144,394,172,43,4.210349037935245e-05,1501.2,1450,1415,1500
8.952579021453857,395,171,45,3.966994604887337e-05,1501.0999999999999,1450,1415,1500
8.97551703453064,396,171,47,3.801703163017032e-05,1501.0999999999999,1450,1415,1500
8.9984130859375,397,171,51,3.53045013239188e-05,1501.0999999999999,1450,1415,1500
9.021589994430542,398,170,54,3.293807641633728e-05,1501.0,1450,1415,1500
9.04454493522644,399,169,58,3.070498648980594e-05,1500.9000000000001,1450,1415,1500
9.067490100860596,400,168,69,2.6160889470241988e-05,1500.8,1450,1415,1500
9.090498924255371,401,167,75,2.4347487339306584e-05,1500.7,1450,1415,1500
9.113616943359375,402,166,79,2.3293733985557885e-05,1500.5999999999999,1450,1415,1500
9.136550903320312,403,165,86,2.1568458286601675e-05,1500.5,1450,1414.0,1500
9.159815073013306,404,165,87,2.1401819154628142e-05,1500.5,1450,1413.0,1500
9.182990074157715,405,164,85,2.1939447125932428e-05,1500.4000000000001,1450,1415.0,1500
9.205991983413696,406,162,85,2.2151337940811624e-05,1500.2,1450,1415.0,1500
9.229042053222656,407,161,88,2.236636099306643e-05,1500.0999999999999,1450,1412.0,1500
9.252254962921143,408,158,98,2.5767882910740052e-05,1499.8,1450,1402.0,1500
9.275489091873169,409,156,105,2.7648750276487504e-05,1499.5999999999999,1450,1395.0,1500
9.298561096191406,410,153,112,3.0638193572106986e-05,1499.3,1450,1388.0,1500
9.32152795791626,411,111,116,4.9544193420531116e-05,1495.0999999999999,1450,1385,1500
9.344480037689209,412,89,123,7.500750075007501e-05,1492.9000000000001,1450,1385,1500
9.367547988891602,413,99,127,7.074136955291455e-05,1493.9000000000001,1450,1385,1500
9.39055609703064,414,155,133,4.40392830404721e-05,1499.5,1450,1385,1500
9.4135000705719,415,155,130,4.194279003439309e-05,1499.5,1450,1385,1500
9.436475038528442,416,113,139,7.739339060444238e-05,1495.3,1450,1385,1500
9.459367036819458,417,154,137,5.0413389796329905e-05,1499.4000000000001,1450,1385,1500
9.482486963272095,418,92,145,0.00012939958592132506,1493.2,1450,1385,1500
9.505553007125854,419,155,140,5.3553258715792856e-05,1499.5,1450,1385,1500
9.528507947921753,420,155,141,5.531585352361987e-05,1499.5,1450,1385,1500
9.551489114761353,421,89,148,0.00016,1492.9000000000001,1450,1385,1500
9.574604988098145,422,157,142,5.783021050196623e-05,1499.7,1450,1385,1500
9.597502946853638,423,157,142,5.717552887364208e-05,1499.7,1450,1385,1500
9.620542049407959,424,156,143,5.8055152394775034e-05,1499.5999999999999,1450,1385,1500
9.643532991409302,425,155,143,5.830223880597015e-05,1499.5,1450,1385,1500
9.666901111602783,426,156,144,5.99592277251469e-05,1499.5999999999999,1450,1385,1500
9.69006609916687,427,97,150,0.0001443001443001443,1493.7,1450,1385,1500
9.713357925415039,428,156,143,5.765682656826568e-05,1499.5999999999999,1450,1385,1500
9.736270904541016,429,155,142,5.570409982174688e-05,1499.5,1450,1385,1500
9.759284019470215,430,153,149,7.175660160734788e-05,1499.3,1450,1385,1500
9.78233289718628,431,84,147,0.00014792899408284024,1492.4000000000001,1450,1385,1500
9.805309057235718,432,110,147,9.704968944099378e-05,1495.0,1450,1385,1500
9.828352928161621,433,106,143,8.87784090909091e-05,1494.5999999999999,1450,1385,1500
9.851545095443726,434,154,135,4.505722267279445e-05,1499.4000000000001,1450,1385,1500
9.874628067016602,435,97,138,8.62663906142167e-05,1493.7,1450,1385,1500
9.897783994674683,436,100,136,7.53465943339361e-05,1494.0,1450,1385,1500
9.920650959014893,437,81,131,9.157509157509158e-05,1492.0999999999999,1450,1385,1500
9.943581104278564,438,83,128,8.388558006878618e-05,1492.3,1450,1385,1500
9.966599941253662,439,95,122,6.304375236414071e-05,1493.5,1450,1385,1500
9.989588975906372,440,88,117,6.745817593092283e-05,1492.8,1450,1385,1500
10.018953084945679,441,158,108,2.7434842249657064e-05,1499.8,1450,1392.0,1500
10.04246711730957,442,76,106,7.644675483525724e-05,1491.5999999999999,1450,1394.0,1500
10.065524101257324,443,159,99,2.59000259000259e-05,1499.9000000000001,1450,1401.0,1500
10.088741064071655,444,160,97,2.3894862604540025e-05,1500.0,1450,1403.0,1500
10.111767053604126,445,161,93,2.3148148148148147e-05,1500.0999999999999,1450,1407.0,1500
10.13479495048523,446,161,90,2.2427056000358834e-05,1500.0999999999999,1450,1410.0,1500
10.157978057861328,447,164,86,2.1364782292868435e-05,1500.4000000000001,1450,1414.0,1500
10.181078910827637,448,164,81,2.289167658639319e-05,1500.4000000000001,1450,1415,1500
10.203933954238892,449,165,82,2.261420171867933e-05,1500.5,1450,1415,1500
10.227072954177856,450,165,78,2.3528304550374102e-05,1500.5,1450,1415,1500
10.250072956085205,451,166,76,2.4139429343890312e-05,1500.5999999999999,1450,1415,1500
10.273226022720337,452,167,75,2.461902065535833e-05,1500.7,1450,1415,1500
10.296179056167603,453,167,75,2.489667878305034e-05,1500.7,1450,1415,1500
10.319430112838745,454,168,72,2.546213780108978e-05,1500.8,1450,1415,1500
10.343183040618896,455,170,70,2.6375481352534682e-05,1501.0,1450,1415,1500
10.366132020950317,456,170,69,2.6844196284763233e-05,1501.0,1450,1415,1500
10.389101028442383,457,170,68,2.7038719446247027e-05,1501.0,1450,1415,1500
10.412203073501587,458,171,68,2.7236082361913064e-05,1501.0999999999999,1450,1415,1500
10.435166120529175,459,170,68,2.7034333603676668e-05,1501.0,1450,1415,1500
10.458314895629883,460,172,68,2.6739397828760897e-05,1501.2,1450,1415,1500
10.481717109680176,461,172,69,2.664535038635758e-05,1501.2,1450,1415,1500
10.504935026168823,462,171,66,2.764263600176913e-05,1501.0999999999999,1450,1415,1500
10.528225898742676,463,171,71,2.5615410230794848e-05,1501.0999999999999,1450,1415,1500
10.551310062408447,464,170,74,2.4509803921568626e-05,1501.0,1450,1415,1500
10.574207067489624,465,170,76,2.3853823767950002e-05,1501.0,1450,1415,1500
10.597171068191528,466,170,77,2.3480792711561942e-05,1501.0,1450,1415,1500
10.620240926742554,467,170,79,2.303775888681549e-05,1501.0,1450,1415,1500
10.643367052078247,468,170,79,2.303775888681549e-05,1501.0,1450,1415,1500
10.66630506515503,469,169,82,2.1985753231905725e-05,1500.9000000000001,1450,1415,1500
10.68958592414856,470,169,83,2.172401807438304e-05,1500.9000000000001,1450,1415,1500
10.712723016738892,471,169,86,2.1019442984760903e-05,1500.9000000000001,1450,1414.0,1500
10.735902070999146,472,167,87,2.0511978995733507e-05,1500.7,1450,1413.0,1500
10.7589590549469,473,167,87,2.0736562707365627e-05,1500.7,1450,1413.0,1500
10.781990051269531,474,168,87,2.0779220779220778e-05,1500.8,1450,1413.0,1500
10.805182933807373,475,167,87,2.0736562707365627e-05,1500.7,1450,1413.0,1500
10.828234910964966,476,167,87,2.0586297760210805e-05,1500.7,1450,1413.0,1500
10.851386070251465,477,167,87,2.0779220779220778e-05,1500.7,1450,1413.0,1500
10.874553918838501,478,167,87,2.0586297760210805e-05,1500.7,1450,1413.0,1500
10.897690057754517,479,167,87,2.0586297760210805e-05,1500.7,1450,1413.0,1500
10.920841932296753,480,167,87,2.0511978995733507e-05,1500.7,1450,1413.0,1500
10.944056987762451,481,166,87,2.0586297760210805e-05,1500.5999999999999,1450,1413.0,1500
10.967168092727661,482,166,87,2.0703933747412007e-05,1500.5999999999999,1450,1413.0,1500
10.990298986434937,483,166,88,2.0469990993203964e-05,1500.5999999999999,1450,1412.0,1500
11.013483047485352,484,167,88,2.0396092108751964e-05,1500.7,1450,1412.0,1500
11.036645889282227,485,167,87,2.0511978995733507e-05,1500.7,1450,1413.0,1500
11.059873104095459,486,167,67,2.6741542987030352e-05,1500.7,1450,1415,1500
11.082988023757935,487,167,88,2.0554984583761563e-05,1500.7,1450,1412.0,1500
11.106046915054321,488,167,88,2.0673116679070536e-05,1500.7,1450,1412.0,1500
11.129169940948486,489,167,88,2.0747748869247687e-05,1500.7,1450,1412.0,1500
11.152484893798828,490,167,88,2.0673116679070536e-05,1500.7,1450,1412.0,1500
11.17553997039795,491,167,89,2.079261446334262e-05,1500.7,1450,1411.0,1500
11.198925018310547,492,167,89,2.086767805346299e-05,1500.7,1450,1411.0,1500
11.221932888031006,493,167,89,2.079261446334262e-05,1500.7,1450,1411.0,1500
11.245115995407104,494,167,89,2.086767805346299e-05,1500.7,1450,1411.0,1500
11.268187999725342,495,167,89,2.0747748869247687e-05,1500.7,1450,1411.0,1500
11.291337966918945,496,166,89,2.0943285582642206e-05,1500.5999999999999,1450,1411.0,1500
11.314387083053589,497,167,89,2.086767805346299e-05,1500.7,1450,1411.0,1500
11.337481021881104,498,166,88,2.118823629121112e-05,1500.5999999999999,1450,1412.0,1500
11.360496044158936,499,167,89,2.0989001763076147e-05,1500.7,1450,1411.0,1500
11.383599042892456,500,167,88,2.1488739900292248e-05,1500.7,1450,1412.0,1500
11.406651973724365,501,166,91,2.118823629121112e-05,1500.5999999999999,1450,1409.0,1500
11.429841995239258,502,166,90,2.1159542953872196e-05,1500.5999999999999,1450,1410.0,1500
11.453037023544312,503,166,91,2.1411442274751628e-05,1500.5999999999999,1450,1409.0,1500
11.476047992706299,504,166,91,2.1411442274751628e-05,1500.5999999999999,1450,1409.0,1500
11.499286890029907,505,166,92,2.1539654503941758e-05,1500.5999999999999,1450,1408.0,1500
11.522548913955688,506,166,92,2.166941145878478e-05,1500.5999999999999,1450,1408.0,1500
11.545789003372192,507,167,90,2.2124872781981504e-05,1500.7,1450,1410.0,1500
11.568824052810669,508,166,90,2.226229435205592e-05,1500.5999999999999,1450,1410.0,1500
11.591828107833862,509,166,93,2.1591743317355442e-05,1500.5999999999999,1450,1407.0,1500
11.614942073822021,510,166,93,2.1645021645021645e-05,1500.5999999999999,1450,1407.0,1500
11.638010025024414,511,166,93,2.1989137366141125e-05,1500.5999999999999,1450,1407.0,1500
11.661314010620117,512,166,94,2.1722602367763657e-05,1500.5999999999999,1450,1406.0,1500
11.684678077697754,513,166,92,2.2124872781981504e-05,1500.5999999999999,1450,1408.0,1500
11.707961082458496,514,166,94,2.1989137366141125e-05,1500.5999999999999,1450,1406.0,1500
11.730984926223755,515,165,94,2.1855057260250022e-05,1500.5,1450,1406.0,1500
11.754194021224976,516,165,94,2.2045855379188714e-05,1500.5,1450,1406.0,1500
11.777369976043701,517,165,94,2.2124872781981504e-05,1500.5,1450,1406.0,1500
11.800661087036133,518,165,95,2.226229435205592e-05,1500.5,1450,1405.0,1500
11.823698997497559,519,165,93,2.3124060585038733e-05,1500.5,1450,1407.0,1500
11.846715927124023,520,164,95,2.2401433691756272e-05,1500.4000000000001,1450,1405.0,1500
11.869965076446533,521,164,96,2.2461814914645103e-05,1500.4000000000001,1450,1404.0,1500
11.893085956573486,522,164,96,2.2461814914645103e-05,1500.4000000000001,1450,1404.0,1500
11.91609811782837,523,164,95,2.2893772893772894e-05,1500.4000000000001,1450,1405.0,1500
11.939357995986938,524,164,96,2.2603978300180832e-05,1500.4000000000001,1450,1404.0,1500
11.96260690689087,525,164,96,2.2603978300180832e-05,1500.4000000000001,1450,1404.0,1500
11.98573112487793,526,164,97,2.2747952684258417e-05,1500.4000000000001,1450,1403.0,1500
12.008734941482544,527,164,97,2.297582942744233e-05,1500.4000000000001,1450,1403.0,1500
12.031991004943848,528,164,97,2.297582942744233e-05,1500.4000000000001,1450,1403.0,1500
12.055018901824951,529,163,98,2.3207240659085633e-05,1500.3,1450,1402.0,1500
12.078017950057983,530,164,98,2.297582942744233e-05,1500.4000000000001,1450,1402.0,1500
12.101217985153198,531,164,98,2.327421682260392e-05,1500.4000000000001,1450,1402.0,1500
12.124258995056152,532,164,98,2.327421682260392e-05,1500.4000000000001,1450,1402.0,1500
12.1474130153656,533,164,98,2.327421682260392e-05,1500.4000000000001,1450,1402.0,1500
12.170591115951538,534,120,101,3.537568982595161e-05,1496.0,1450,1399.0,1500
12.193672895431519,535,163,99,2.349624060150376e-05,1500.3,1450,1401.0,1500
12.216746091842651,536,155,102,2.5767882910740052e-05,1499.5,1450,1398.0,1500
12.239792108535767,537,164,100,2.3567674577549432e-05,1500.4000000000001,1450,1400.0,1500
12.263068914413452,538,163,100,2.380952380952381e-05,1500.3,1450,1400.0,1500
12.286442041397095,539,164,100,2.372479240806643e-05,1500.4000000000001,1450,1400.0,1500
12.310050964355469,540,164,101,2.372479240806643e-05,1500.4000000000001,1450,1399.0,1500
12.333427906036377,541,111,102,3.865182436611008e-05,1495.0999999999999,1450,1398.0,1500
12.35659909248352,542,156,105,2.6852846401718583e-05,1499.5999999999999,1450,1395.0,1500
12.379695892333984,543,163,102,2.446183953033268e-05,1500.3,1450,1398.0,1500
12.402939081192017,544,164,103,2.4542888697999756e-05,1500.4000000000001,1450,1397.0,1500
12.42593502998352,545,84,80,8.983111749910169e-05,1492.4000000000001,1450,1415,1500
12.448925018310547,546,164,103,2.4713325425069198e-05,1500.4000000000001,1450,1397.0,1500
12.472057104110718,547,164,103,2.4713325425069198e-05,1500.4000000000001,1450,1397.0,1500
12.495122909545898,548,124,104,3.479107956719897e-05,1496.4000000000001,1450,1396.0,1500
12.51815390586853,549,117,106,3.8267258533598655e-05,1495.7,1450,1394.0,1500
12.54138994216919,550,105,104,4.320400933206602e-05,1494.5,1450,1396.0,1500
12.564464092254639,551,90,104,5.569169079973268e-05,1493.0,1450,1396.0,1500
12.587557077407837,552,164,105,2.523914085964514e-05,1500.4000000000001,1450,1395.0,1500
12.610588073730469,553,94,105,5.102301137813154e-05,1493.4000000000001,1450,1395.0,1500
12.63378095626831,554,108,106,4.2877969299373983e-05,1494.8,1450,1394.0,1500
12.656812906265259,555,163,105,2.5329280648429583e-05,1500.3,1450,1395.0,1500
12.679963111877441,556,113,108,4.07000407000407e-05,1495.3,1450,1392.0,1500
12.703078031539917,557,164,106,2.5602293965539312e-05,1500.4000000000001,1450,1394.0,1500
12.726156949996948,558,164,106,2.5787817834854816e-05,1500.4000000000001,1450,1394.0,1500
12.749282121658325,559,164,106,2.5605571772417678e-05,1500.4000000000001,1450,1394.0,1500
12.772618055343628,560,164,107,2.5792473756157954e-05,1500.4000000000001,1450,1393.0,1500
12.795774936676025,561,163,108,2.6360880453407144e-05,1500.3,1450,1392.0,1500
12.818835020065308,562,104,109,4.5846323124885384e-05,1494.4000000000001,1450,1391.0,1500
12.841845035552979,563,162,110,2.736052969985499e-05,1500.2,1450,1390.0,1500
12.86482310295105,564,89,110,5.787037037037037e-05,1492.9000000000001,1450,1390.0,1500
12.887902021408081,565,161,109,2.6852846401718583e-05,1500.0999999999999,1450,1391.0,1500
12.911014080047607,566,104,110,4.578754578754579e-05,1494.4000000000001,1450,1390.0,1500
12.934247016906738,567,158,111,2.808673182788451e-05,1499.8,1450,1389.0,1500
12.957413911819458,568,162,109,2.667520273154076e-05,1500.2,1450,1391.0,1500
12.980513095855713,569,155,111,2.8935185185185186e-05,1499.5,1450,1389.0,1500
13.003741025924683,570,158,112,2.8755463538072233e-05,1499.8,1450,1388.0,1500
13.026741027832031,571,155,114,2.9890004782400767e-05,1499.5,1450,1386.0,1500
13.05011510848999,572,162,111,2.7199782401740785e-05,1500.2,1450,1389.0,1500
13.073246002197266,573,91,112,5.6853715390300756e-05,1493.0999999999999,1450,1388.0,1500
13.096260070800781,574,114,117,4.4462229336178915e-05,1495.4000000000001,1450,1385,1500
13.119237899780273,575,90,113,5.868544600938967e-05,1493.0,1450,1387.0,1500
13.142455101013184,576,111,115,4.5160998961297026e-05,1495.0999999999999,1450,1385.0,1500
13.165528059005737,577,88,116,6.34719136781974e-05,1492.8,1450,1385,1500
13.188535928726196,578,162,114,2.8659864725438496e-05,1500.2,1450,1386.0,1500
13.211652994155884,579,162,114,2.8659864725438496e-05,1500.2,1450,1386.0,1500
13.234863042831421,580,163,116,2.948547840188707e-05,1500.3,1450,1385,1500
13.257936000823975,581,162,115,2.8896723111599146e-05,1500.2,1450,1385.0,1500
13.281132936477661,582,89,117,6.377551020408164e-05,1492.9000000000001,1450,1385,1500
13.304080963134766,583,100,118,5.448403617740002e-05,1494.0,1450,1385,1500
13.327025890350342,584,100,118,5.565759447876663e-05,1494.0,1450,1385,1500
13.350116968154907,585,104,118,5.2213868003341685e-05,1494.4000000000001,1450,1385,1500
13.37322211265564,586,85,119,7.111869710546903e-05,1492.5,1450,1385,1500
13.396075010299683,587,111,120,4.995004995004995e-05,1495.0999999999999,1450,1385,1500
13.419058084487915,588,163,119,3.121878121878122e-05,1500.3,1450,1385,1500
13.442486047744751,589,163,118,3.0404378230465186e-05,1500.3,1450,1385,1500
13.465557098388672,590,163,119,3.0511060259344013e-05,1500.3,1450,1385,1500
13.488446950912476,591,163,119,3.094250881861501e-05,1500.3,1450,1385,1500
13.511630058288574,592,102,120,5.543237250554324e-05,1494.2,1450,1385,1500
13.534533023834229,593,95,121,6.272345229881452e-05,1493.5,1450,1385,1500
13.557535886764526,594,97,122,6.184291898577613e-05,1493.7,1450,1385,1500
13.580583095550537,595,95,121,6.417661404184315e-05,1493.5,1450,1385,1500
13.60346007347107,596,92,122,6.837139340899768e-05,1493.2,1450,1385,1500
13.626280069351196,597,96,122,6.453278265358803e-05,1493.5999999999999,1450,1385,1500
13.649233102798462,598,116,123,5.039052658100277e-05,1495.5999999999999,1450,1385,1500
13.672581911087036,599,114,123,5.0929462694168576e-05,1495.4000000000001,1450,1385,1500
13.695487976074219,600,106,125,5.7563895924476166e-05,1494.5999999999999,1450,1385,1500
13.718313932418823,601,107,124,5.699954400364797e-05,1494.7,1450,1385,1500
13.74117112159729,602,91,125,7.266913741733885e-05,1493.0999999999999,1450,1385,1500
13.763953924179077,603,123,126,5.0266411983512615e-05,1496.3,1450,1385,1500
13.786798000335693,604,163,124,3.394663588838346e-05,1500.3,1450,1385,1500
13.809577941894531,605,128,127,4.8449612403100775e-05,1496.8,1450,1385,1500
13.832740068435669,606,162,125,3.5211267605633805e-05,1500.2,1450,1385,1500
13.855545997619629,607,97,129,7.058159232072275e-05,1493.7,1450,1385,1500
13.878369092941284,608,163,128,3.6934441366574334e-05,1500.3,1450,1385,1500
13.901148080825806,609,94,132,8.058017727639001e-05,1493.4000000000001,1450,1385,1500
13.92395305633545,610,103,133,7.217610970768675e-05,1494.3,1450,1385,1500
13.94671893119812,611,105,133,7.215007215007215e-05,1494.5,1450,1385,1500
13.969531059265137,612,104,133,7.303534910896874e-05,1494.4000000000001,1450,1385,1500
13.992625951766968,613,98,133,8.18464560484531e-05,1493.8,1450,1385,1500
14.015464067459106,614,97,134,8.398421096833795e-05,1493.7,1450,1385,1500
14.038295030593872,615,164,134,4.287613085795138e-05,1500.4000000000001,1450,1385,1500
14.061124086380005,616,97,133,7.936507936507937e-05,1493.7,1450,1385,1500
14.083899974822998,617,105,132,7.133685261806249e-05,1494.5,1450,1385,1500
14.106700897216797,618,108,131,6.764069264069264e-05,1494.8,1450,1385,1500
14.129502058029175,619,90,129,8.608815426997245e-05,1493.0,1450,1385,1500
14.152652025222778,620,164,127,3.668782331144293e-05,1500.4000000000001,1450,1385,1500
14.175479888916016,621,116,126,5.576000892160143e-05,1495.5999999999999,1450,1385,1500
14.198296070098877,622,106,126,6.298815822625347e-05,1494.5999999999999,1450,1385,1500
14.221081018447876,623,164,123,3.458771444382955e-05,1500.4000000000001,1450,1385,1500
14.243904113769531,624,90,123,7.692307692307693e-05,1493.0,1450,1385,1500
14.266705989837646,625,104,121,6.066120715802245e-05,1494.4000000000001,1450,1385,1500
14.289607048034668,626,101,120,6.006006006006006e-05,1494.0999999999999,1450,1385,1500
14.312702894210815,627,87,118,7.639419404125286e-05,1492.7,1450,1385,1500
14.335536003112793,628,122,118,4.5612114577631816e-05,1496.2,1450,1385,1500
14.358314990997314,629,103,117,5.747126436781609e-05,1494.3,1450,1385,1500
14.38112998008728,630,122,114,4.4194988288328104e-05,1496.2,1450,1386.0,1500
14.404002904891968,631,111,115,5.008765339343852e-05,1495.0999999999999,1450,1385.0,1500
14.426913022994995,632,84,102,9.498480243161094e-05,1492.4000000000001,1450,1398.0,1500
14.449975967407227,633,104,115,5.518763796909492e-05,1494.4000000000001,1450,1385.0,1500
14.473093032836914,634,102,116,5.7260650480989464e-05,1494.2,1450,1385,1500
14.495863914489746,635,127,116,4.208754208754209e-05,1496.7,1450,1385,1500
14.518721103668213,636,117,116,4.734400151500805e-05,1495.7,1450,1385,1500
14.541565895080566,637,88,116,7.186489399928136e-05,1492.8,1450,1385,1500
14.5643949508667,638,96,117,6.105006105006105e-05,1493.5999999999999,1450,1385,1500
14.587172031402588,639,168,116,2.944640753828033e-05,1500.8,1450,1385,1500
14.610460996627808,640,98,117,6.0916179337231965e-05,1493.8,1450,1385,1500
14.633481979370117,641,103,118,5.733287467033597e-05,1494.3,1450,1385,1500
14.65630292892456,642,168,117,2.9840057292910002e-05,1500.8,1450,1385,1500
14.679095029830933,643,94,119,6.624271330153684e-05,1493.4000000000001,1450,1385,1500
14.702132940292358,644,110,119,5.299136240792751e-05,1495.0,1450,1385,1500
14.724930047988892,645,109,116,5.31632110579479e-05,1494.9000000000001,1450,1385,1500
14.747781991958618,646,93,118,6.7736909842173e-05,1493.3,1450,1385,1500
14.770561933517456,647,103,118,5.809225049378413e-05,1494.3,1450,1385,1500
14.793396949768066,648,95,119,6.565126050420168e-05,1493.5,1450,1385,1500
14.816155910491943,649,100,118,6.080875646093037e-05,1494.0,1450,1385,1500
14.838983058929443,650,93,115,6.63129973474801e-05,1493.3,1450,1385.0,1500
14.86188292503357,651,106,116,5.3867700926524454e-05,1494.5999999999999,1450,1385,1500
14.884805917739868,652,168,112,2.8446265005404792e-05,1500.8,1450,1388.0,1500
14.907870054244995,653,90,113,6.832001093120175e-05,1493.0,1450,1387.0,1500
14.930804967880249,654,95,110,6.109481915933529e-05,1493.5,1450,1390.0,1500
14.953727960586548,655,106,108,5.22875816993464e-05,1494.5999999999999,1450,1392.0,1500
14.976653099060059,656,99,108,5.614823133071308e-05,1493.9000000000001,1450,1392.0,1500
14.99954104423523,657,170,108,2.6162258326138714e-05,1501.0,1450,1392.0,1500
15.022833108901978,658,122,106,3.959768749505029e-05,1496.2,1450,1394.0,1500
15.046467065811157,659,169,106,2.551150568906577e-05,1500.9000000000001,1450,1394.0,1500
15.069490909576416,660,170,103,2.4897298643097223e-05,1501.0,1450,1397.0,1500
15.092730045318604,661,170,102,2.414176041716962e-05,1501.0,1450,1398.0,1500
15.115663051605225,662,170,100,2.398081534772182e-05,1501.0,1450,1400.0,1500
15.138529062271118,663,170,99,2.366527830367285e-05,1501.0,1450,1401.0,1500
15.161457061767578,664,170,98,2.359547910620325e-05,1501.0,1450,1402.0,1500
15.1843900680542,665,170,97,2.3058476295886366e-05,1501.0,1450,1403.0,1500
15.207298040390015,666,171,97,2.2684996143550654e-05,1501.0999999999999,1450,1403.0,1500
15.230355024337769,667,171,97,2.270508366823332e-05,1501.0999999999999,1450,1403.0,1500
15.253483057022095,668,171,96,2.2342374547566916e-05,1501.0999999999999,1450,1404.0,1500
15.276442050933838,669,172,95,2.2124872781981504e-05,1501.2,1450,1405.0,1500
15.299381971359253,670,172,95,2.1989137366141125e-05,1501.2,1450,1405.0,1500
15.322618007659912,671,171,94,2.2204458655297982e-05,1501.0999999999999,1450,1406.0,1500
15.345585107803345,672,172,94,2.1855057260250022e-05,1501.2,1450,1406.0,1500
15.368458986282349,673,172,94,2.1855057260250022e-05,1501.2,1450,1406.0,1500
15.39137601852417,674,172,94,2.2012855507616448e-05,1501.2,1450,1406.0,1500
15.414269924163818,675,172,94,2.1722602367763657e-05,1501.2,1450,1406.0,1500
15.437206029891968,676,172,93,2.1910604732690622e-05,1501.2,1450,1407.0,1500
15.460247993469238,677,173,94,2.1722602367763657e-05,1501.3,1450,1406.0,1500
15.483341932296753,678,172,70,3.0744635061181826e-05,1501.2,1450,1415,1500
15.50621509552002,679,172,94,2.1800741225201658e-05,1501.2,1450,1406.0,1500
15.529346942901611,680,172,93,2.187944426211574e-05,1501.2,1450,1407.0,1500
15.55260705947876,681,172,93,2.166941145878478e-05,1501.2,1450,1407.0,1500
15.575565099716187,682,172,93,2.166941145878478e-05,1501.2,1450,1407.0,1500
15.598458051681519,683,172,93,2.166941145878478e-05,1501.2,1450,1407.0,1500
15.6213960647583,684,172,92,2.2068234982566096e-05,1501.2,1450,1408.0,1500
15.644347906112671,685,172,93,2.166941145878478e-05,1501.2,1450,1407.0,1500
15.667534112930298,686,172,93,2.166941145878478e-05,1501.2,1450,1407.0,1500
15.690635919570923,687,172,93,2.1539654503941758e-05,1501.2,1450,1407.0,1500
15.713639974594116,688,172,92,2.166941145878478e-05,1501.2,1450,1408.0,1500
15.736593008041382,689,172,92,2.166941145878478e-05,1501.2,1450,1408.0,1500
15.759536027908325,690,172,93,2.1617414989515553e-05,1501.2,1450,1407.0,1500
15.782747030258179,691,172,93,2.1617414989515553e-05,1501.2,1450,1407.0,1500
15.806036949157715,692,172,93,2.1617414989515553e-05,1501.2,1450,1407.0,1500
15.829013109207153,693,172,90,2.2284619155858625e-05,1501.2,1450,1410.0,1500
15.852344989776611,694,172,93,2.1617414989515553e-05,1501.2,1450,1407.0,1500
15.8752760887146,695,172,93,2.1539654503941758e-05,1501.2,1450,1407.0,1500
15.898207902908325,696,172,93,2.1617414989515553e-05,1501.2,1450,1407.0,1500
15.921098947525024,697,172,92,2.1800741225201658e-05,1501.2,1450,1408.0,1500
15.944031000137329,698,172,92,2.1411442274751628e-05,1501.2,1450,1408.0,1500
15.966912984848022,699,172,92,2.1411442274751628e-05,1501.2,1450,1408.0,1500
15.990020990371704,700,172,92,2.1617414989515553e-05,1501.2,1450,1408.0,1500
16.013104915618896,701,172,67,3.0446961393252954e-05,1501.2,1450,1415,1500
16.036006927490234,702,172,92,2.1438984649686992e-05,1501.2,1450,1408.0,1500
16.058895111083984,703,173,91,2.1235931195582926e-05,1501.3,1450,1409.0,1500
16.081825971603394,704,173,72,2.7985335684101532e-05,1501.3,1450,1415,1500
16.104628086090088,705,173,92,2.1361587593189926e-05,1501.3,1450,1408.0,1500
16.12755298614502,706,173,92,2.1361587593189926e-05,1501.3,1450,1408.0,1500
16.15058994293213,707,172,91,2.1312872975277067e-05,1501.2,1450,1409.0,1500
16.173583030700684,708,173,91,2.1361587593189926e-05,1501.3,1450,1409.0,1500
16.196505069732666,709,173,91,2.1235931195582926e-05,1501.3,1450,1409.0,1500
16.21946692466736,710,173,91,2.1235931195582926e-05,1501.3,1450,1409.0,1500
16.242732048034668,711,172,91,2.1411442274751628e-05,1501.2,1450,1409.0,1500
16.265702962875366,712,172,91,2.166941145878478e-05,1501.2,1450,1409.0,1500
16.28860592842102,713,172,92,2.1539654503941758e-05,1501.2,1450,1408.0,1500
16.31153893470764,714,172,93,2.1539654503941758e-05,1501.2,1450,1407.0,1500
16.334409952163696,715,172,93,2.166941145878478e-05,1501.2,1450,1407.0,1500
16.357320070266724,716,172,93,2.174764038101866e-05,1501.2,1450,1407.0,1500
16.380335092544556,717,172,78,2.7046032347054687e-05,1501.2,1450,1415,1500
16.403330087661743,718,172,93,2.1933672574135815e-05,1501.2,1450,1407.0,1500
16.426224946975708,719,172,94,2.1989137366141125e-05,1501.2,1450,1406.0,1500
16.449191093444824,720,172,94,2.2124872781981504e-05,1501.2,1450,1406.0,1500
16.472251892089844,721,171,95,2.2204458655297982e-05,1501.0999999999999,1450,1405.0,1500
16.495179891586304,722,171,95,2.2461814914645103e-05,1501.0999999999999,1450,1405.0,1500
16.51808190345764,723,171,96,2.2461814914645103e-05,1501.0999999999999,1450,1404.0,1500
16.541027069091797,724,171,96,2.2523537096265596e-05,1501.0999999999999,1450,1404.0,1500
16.5639328956604,725,171,97,2.2523537096265596e-05,1501.0999999999999,1450,1403.0,1500
16.58685302734375,726,126,100,3.391209983722192e-05,1496.5999999999999,1450,1400.0,1500
16.609944105148315,727,170,98,2.2731405710129114e-05,1501.0,1450,1402.0,1500
16.633096933364868,728,169,100,2.3177119547582627e-05,1500.9000000000001,1450,1400.0,1500
16.65599489212036,729,170,100,2.3247163846010787e-05,1501.0,1450,1400.0,1500
16.678911924362183,730,170,101,2.3401118573467812e-05,1501.0,1450,1399.0,1500
16.701807975769043,731,170,101,2.3557126030624262e-05,1501.0,1450,1399.0,1500
16.724706888198853,732,170,102,2.3791397030833652e-05,1501.0,1450,1398.0,1500
16.747586965560913,733,100,105,5.030940282738844e-05,1494.0,1450,1395.0,1500
16.77051305770874,734,103,105,4.759864819839116e-05,1494.3,1450,1395.0,1500
16.79341197013855,735,95,104,5.329070077271516e-05,1493.5,1450,1396.0,1500
16.816349029541016,736,101,107,4.901960784313725e-05,1494.0999999999999,1450,1393.0,1500
16.83924388885498,737,169,106,2.479789713832267e-05,1500.9000000000001,1450,1394.0,1500
16.862404108047485,738,102,107,4.837461300309598e-05,1494.2,1450,1393.0,1500
16.885442972183228,739,170,107,2.5248699691965865e-05,1501.0,1450,1393.0,1500
16.908359050750732,740,91,108,5.9630292188431724e-05,1493.0999999999999,1450,1392.0,1500
16.93124294281006,741,169,109,2.6197898928505933e-05,1500.9000000000001,1450,1391.0,1500
16.954195976257324,742,97,111,5.55000555000555e-05,1493.7,1450,1389.0,1500
16.97738790512085,743,96,110,5.673758865248227e-05,1493.5999999999999,1450,1390.0,1500
17.0004780292511,744,103,113,5.236698785085882e-05,1494.3,1450,1387.0,1500
17.023561000823975,745,101,112,5.6398398285488694e-05,1494.0999999999999,1450,1388.0,1500
17.046549081802368,746,107,114,5.0911312493636085e-05,1494.7,1450,1386.0,1500
17.069396018981934,747,102,116,5.5029716046665196e-05,1494.2,1450,1385,1500
17.092530012130737,748,97,116,6.0284543043163735e-05,1493.7,1450,1385,1500
17.11531090736389,749,121,118,4.528985507246377e-05,1496.0999999999999,1450,1385,1500
17.13814902305603,750,123,115,4.475474400286431e-05,1496.3,1450,1385.0,1500
17.161017894744873,751,108,119,5.378657487091222e-05,1494.8,1450,1385,1500
17.183892011642456,752,89,118,7.102272727272727e-05,1492.9000000000001,1450,1385,1500
17.206671953201294,753,104,120,5.7537399309551206e-05,1494.4000000000001,1450,1385,1500
17.229496955871582,754,93,119,6.988120195667365e-05,1493.3,1450,1385,1500
17.252623081207275,755,106,121,5.698330389195966e-05,1494.5999999999999,1450,1385,1500
17.275518894195557,756,96,121,6.520605112154408e-05,1493.5999999999999,1450,1385,1500
17.29832410812378,757,102,121,5.996282304970918e-05,1494.2,1450,1385,1500
17.32112693786621,758,99,120,6.357683260219975e-05,1493.9000000000001,1450,1385,1500
17.343910932540894,759,97,121,6.535520554212144e-05,1493.7,1450,1385,1500
17.36671805381775,760,114,122,5.183227077178251e-05,1495.4000000000001,1450,1385,1500
17.38948893547058,761,96,122,6.675567423230975e-05,1493.5999999999999,1450,1385,1500
17.412641048431396,762,91,120,7.244801854669275e-05,1493.0999999999999,1450,1385,1500
17.435415983200073,763,94,120,6.745817593092283e-05,1493.4000000000001,1450,1385,1500
17.458230018615723,764,97,119,6.389368091495751e-05,1493.7,1450,1385,1500
17.480995893478394,765,91,118,6.93000693000693e-05,1493.0999999999999,1450,1385,1500
17.503844022750854,766,107,115,5.3879310344827585e-05,1494.7,1450,1385.0,1500
17.526705980300903,767,101,117,5.8142915285772426e-05,1494.0999999999999,1450,1385,1500
17.54953908920288,768,100,116,5.835667600373483e-05,1494.0,1450,1385,1500
17.572437047958374,769,86,112,7.374631268436578e-05,1492.5999999999999,1450,1388.0,1500
17.59540295600891,770,92,113,6.556517178075007e-05,1493.2,1450,1387.0,1500
17.61830997467041,771,172,110,2.6769461398436663e-05,1501.2,1450,1390.0,1500
17.64125895500183,772,111,108,4.7413588734531315e-05,1495.0999999999999,1450,1392.0,1500
17.66425609588623,773,91,107,6.464124111182935e-05,1493.0999999999999,1450,1393.0,1500
