time,frame,x,y,size_inv,roll,pitch,thrust,yaw
0.00041985511779785156,1,,,,1500.0,1490.0,1400.0,1500
0.023227930068969727,2,,,,1500.0,1490.0,1400.0,1500
0.045523881912231445,3,,,,1500.0,1490.0,1400.0,1500
0.06763696670532227,4,,,,1500.0,1490.0,1400.0,1500
0.08983492851257324,5,,,,1500.0,1490.0,1400.0,1500
0.11183500289916992,6,,,,1500.0,1490.0,1400.0,1500
0.13384485244750977,7,,,,1500.0,1490.0,1400.0,1500
0.15581297874450684,8,,,,1500.0,1490.0,1400.0,1500
0.17781400680541992,9,,,,1500.0,1490.0,1400.0,1500
0.19976282119750977,10,,,,1500.0,1490.0,1400.0,1500
0.22201085090637207,11,,,,1500.0,1490.0,1400.0,1500
0.24448394775390625,12,,,,1500.0,1490.0,1400.0,1500
0.2669839859008789,13,,,,1500.0,1490.0,1400.0,1500
0.2894318103790283,14,,,,1500.0,1490.0,1400.0,1500
0.31192898750305176,15,,,,1500.0,1490.0,1400.0,1500
0.3343808650970459,16,,,,1500.0,1490.0,1400.0,1500
0.35689783096313477,17,,,,1500.0,1490.0,1400.0,1500
0.37935495376586914,18,,,,1500.0,1490.0,1400.0,1500
0.40183186531066895,19,,,,1500.0,1490.0,1400.0,1500
0.42427992820739746,20,,,,1500.0,1490.0,1400.0,1500
0.4468119144439697,21,,,,1500.0,1490.0,1400.0,1500
0.4693009853363037,22,,,,1500.0,1490.0,1400.0,1500
0.49178600311279297,23,,,,1500.0,1490.0,1400.0,1500
0.5142300128936768,24,,,,1500.0,1490.0,1400.0,1500
0.5367310047149658,25,,,,1500.0,1490.0,1400.0,1500
0.5591659545898438,26,,,,1500.0,1490.0,1400.0,1500
0.5816829204559326,27,,,,1500.0,1490.0,1400.0,1500
0.6041269302368164,28,,,,1500.0,1490.0,1400.0,1500
0.6266269683837891,29,,,,1500.0,1490.0,1400.0,1500
0.6490678787231445,30,,,,1500.0,1490.0,1400.0,1500
0.6715707778930664,31,,,,1500.0,1490.0,1400.0,1500
0.6940348148345947,32,,,,1500.0,1490.0,1400.0,1500
0.7165298461914062,33,,,,1500.0,1490.0,1400.0,1500
0.738976001739502,34,,,,1500.0,1490.0,1400.0,1500
0.7615258693695068,35,,,,1500.0,1490.0,1400.0,1500
0.7841057777404785,36,,,,1500.0,1490.0,1400.0,1500
0.8065428733825684,37,,,,1500.0,1490.0,1400.0,1500
0.8289909362792969,38,,,,1500.0,1490.0,1400.0,1500
0.8515238761901855,39,,,,1500.0,1490.0,1400.0,1500
0.8739778995513916,40,,,,1500.0,1490.0,1400.0,1500
0.8964588642120361,41,,,,1500.0,1490.0,1400.0,1500
0.9189848899841309,42,,,,1500.0,1490.0,1400.0,1500
0.9414899349212646,43,,,,1500.0,1490.0,1400.0,1500
0.9639499187469482,44,,,,1500.0,1490.0,1400.0,1500
0.9864559173583984,45,,,,1500.0,1490.0,1400.0,1500
1.0089128017425537,46,,,,1500.0,1490.0,1400.0,1500
1.03141188621521,47,,,,1500.0,1490.0,1400.0,1500
1.053858995437622,48,,,,1500.0,1490.0,1400.0,1500
1.0763440132141113,49,,,,1500.0,1490.0,1400.0,1500
1.0987749099731445,50,,,,1500.0,1490.0,1400.0,1500
1.121250867843628,51,,,,1500.0,1490.0,1400.0,1500
1.1436958312988281,52,,,,1500.0,1490.0,1400.0,1500
1.1661958694458008,53,,,,1500.0,1490.0,1400.0,1500
1.1886448860168457,54,,,,1500.0,1490.0,1400.0,1500
1.2111258506774902,55,,,,1500.0,1490.0,1400.0,1500
1.2335608005523682,56,,,,1500.0,1490.0,1400.0,1500
1.256079912185669,57,,,,1500.0,1490.0,1400.0,1500
1.2785139083862305,58,,,,1500.0,1490.0,1400.0,1500
1.3010618686676025,59,,,,1500.0,1490.0,1400.0,1500
1.3235769271850586,60,,,,1500.0,1490.0,1400.0,1500
1.3460719585418701,61,,,,1500.0,1490.0,1400.0,1500
1.3685359954833984,62,,,,1500.0,1490.0,1400.0,1500
1.3910717964172363,63,,,,1500.0,1490.0,1400.0,1500
1.4135499000549316,64,,,,1500.0,1490.0,1400.0,1500
1.4360427856445312,65,,,,1500.0,1490.0,1400.0,1500
1.4585018157958984,66,,,,1500.0,1490.0,1400.0,1500
1.4809889793395996,67,,,,1500.0,1490.0,1400.0,1500
1.5034339427947998,68,,,,1500.0,1490.0,1400.0,1500
1.5259230136871338,69,,,,1500.0,1490.0,1400.0,1500
1.548353910446167,70,,,,1500.0,1490.0,1400.0,1500
1.5708398818969727,71,,,,1500.0,1490.0,1400.0,1500
1.5932929515838623,72,,,,1500.0,1490.0,1400.0,1500
1.6157968044281006,73,,,,1500.0,1490.0,1400.0,1500
1.6382379531860352,74,,,,1500.0,1490.0,1400.0,1500
1.6607308387756348,75,,,,1500.0,1490.0,1400.0,1500
1.6832029819488525,76,,,,1500.0,1490.0,1400.0,1500
1.705765962600708,77,,,,1500.0,1490.0,1400.0,1500
1.7282819747924805,78,,,,1500.0,1490.0,1400.0,1500
1.7511508464813232,79,,,,1500.0,1490.0,1400.0,1500
1.7736268043518066,80,,,,1500.0,1490.0,1400.0,1500
1.7961080074310303,81,,,,1500.0,1490.0,1400.0,1500
1.8185498714447021,82,,,,1500.0,1490.0,1400.0,1500
1.8410439491271973,83,,,,1500.0,1490.0,1400.0,1500
1.8634757995605469,84,,,,1500.0,1490.0,1400.0,1500
1.885957956314087,85,,,,1500.0,1490.0,1400.0,1500
1.908371925354004,86,,,,1500.0,1490.0,1400.0,1500
1.9308559894561768,87,,,,1500.0,1490.0,1400.0,1500
1.9533188343048096,88,,,,1500.0,1490.0,1400.0,1500
1.9758379459381104,89,,,,1500.0,1490.0,1400.0,1500
1.998262882232666,90,,,,1500.0,1490.0,1400.0,1500
2.020737886428833,91,,,,1500.0,1490.0,1400.0,1500
2.0431859493255615,92,,,,1500.0,1490.0,1400.0,1500
2.0658249855041504,93,,,,1500.0,1490.0,1400.0,1500
2.0885767936706543,94,,,,1500.0,1490.0,1400.0,1500
2.111121892929077,95,,,,1500.0,1490.0,1400.0,1500
2.1335878372192383,96,,,,1500.0,1490.0,1400.0,1500
2.156094789505005,97,,,,1500.0,1490.0,1400.0,1500
2.17852783203125,98,,,,1500.0,1490.0,1400.0,1500
2.2010200023651123,99,,,,1500.0,1490.0,1400.0,1500
2.2234699726104736,100,,,,1500.0,1490.0,1400.0,1500
2.2459700107574463,101,,,,1500.0,1490.0,1400.0,1500
2.2683990001678467,102,,,,1500.0,1490.0,1400.0,1500
2.2908740043640137,103,,,,1500.0,1490.0,1400.0,1500
2.313300848007202,104,,,,1500.0,1490.0,1400.0,1500
2.335777997970581,105,,,,1500.0,1490.0,1400.0,1500
2.358215808868408,106,,,,1500.0,1490.0,1400.0,1500
2.3806958198547363,107,,,,1500.0,1490.0,1400.0,1500
2.403134822845459,108,,,,1500.0,1490.0,1400.0,1500
2.425701856613159,109,,,,1500.0,1490.0,1400.0,1500
2.448253870010376,110,,,,1500.0,1490.0,1400.0,1500
2.4707489013671875,111,,,,1500.0,1490.0,1400.0,1500
2.493194818496704,112,,,,1500.0,1490.0,1400.0,1500
2.5157949924468994,113,,,,1500.0,1490.0,1400.0,1500
2.5383617877960205,114,,,,1500.0,1490.0,1400.0,1500
2.5608599185943604,115,,,,1500.0,1490.0,1400.0,1500
2.5833230018615723,116,,,,1500.0,1490.0,1400.0,1500
2.6057989597320557,117,,,,1500.0,1490.0,1400.0,1500
2.628246784210205,118,,,,1500.0,1490.0,1400.0,1500
2.650726795196533,119,,,,1500.0,1490.0,1400.0,1500
2.67317795753479,120,,,,1500.0,1490.0,1400.0,1500
2.695793867111206,121,,,,1500.0,1490.0,1400.0,1500
2.7184619903564453,122,,,,1500.0,1490.0,1400.0,1500
2.7409799098968506,123,,,,1500.0,1490.0,1400.0,1500
2.763410806655884,124,,,,1500.0,1490.0,1400.0,1500
2.785883903503418,125,,,,1500.0,1490.0,1400.0,1500
2.8083109855651855,126,,,,1500.0,1490.0,1400.0,1500
2.830810785293579,127,,,,1500.0,1490.0,1400.0,1500
2.853271007537842,128,,,,1500.0,1490.0,1400.0,1500
2.8757708072662354,129,,,,1500.0,1490.0,1400.0,1500
2.8982110023498535,130,,,,1500.0,1490.0,1400.0,1500
2.920705795288086,131,,,,1500.0,1490.0,1400.0,1500
2.943159818649292,132,,,,1500.0,1490.0,1400.0,1500
2.965714931488037,133,,,,1500.0,1490.0,1400.0,1500
2.9882090091705322,134,,,,1500.0,1490.0,1400.0,1500
3.010690927505493,135,,,,1500.0,1490.0,1400.0,1500
3.033132791519165,136,,,,1500.0,1490.0,1400.0,1500
3.055666923522949,137,,,,1500.0,1490.0,1400.0,1500
3.078157901763916,138,,,,1500.0,1490.0,1400.0,1500
3.1006438732147217,139,,,,1500.0,1490.0,1400.0,1500
3.1230878829956055,140,,,,1500.0,1490.0,1400.0,1500
3.1456298828125,141,,,,1500.0,1490.0,1400.0,1500
3.168132781982422,142,,,,1500.0,1490.0,1400.0,1500
3.1906158924102783,143,,,,1500.0,1490.0,1400.0,1500
3.213054895401001,144,,,,1500.0,1490.0,1400.0,1500
3.2356209754943848,145,,,,1500.0,1490.0,1400.0,1500
3.2581470012664795,146,,,,1500.0,1490.0,1400.0,1500
3.2806317806243896,147,,,,1500.0,1490.0,1400.0,1500
3.303069829940796,148,,,,1500.0,1490.0,1400.0,1500
3.3256518840789795,149,,,,1500.0,1490.0,1400.0,1500
3.34822678565979,150,,,,1500.0,1490.0,1400.0,1500
3.3707239627838135,151,,,,1500.0,1490.0,1400.0,1500
3.3931949138641357,152,,,,1500.0,1490.0,1400.0,1500
3.4157729148864746,153,,,,1500.0,1490.0,1400.0,1500
3.438342809677124,154,,,,1500.0,1490.0,1400.0,1500
3.46081280708313,155,,,,1500.0,1490.0,1400.0,1500
3.483242988586426,156,,,,1500.0,1490.0,1400.0,1500
3.5057919025421143,157,,,,1500.0,1490.0,1400.0,1500
3.528582811355591,158,,,,1500.0,1490.0,1400.0,1500
3.5511319637298584,159,,,,1500.0,1490.0,1400.0,1500
3.573624849319458,160,,,,1500.0,1490.0,1400.0,1500
3.5961508750915527,161,,,,1500.0,1490.0,1400.0,1500
3.61859393119812,162,,,,1500.0,1490.0,1400.0,1500
3.6410889625549316,163,,,,1500.0,1490.0,1400.0,1500
3.663527011871338,164,,,,1500.0,1490.0,1400.0,1500
3.686034917831421,165,,,,1500.0,1490.0,1400.0,1500
3.7085049152374268,166,,,,1500.0,1490.0,1400.0,1500
3.7309908866882324,167,,,,1500.0,1490.0,1400.0,1500
3.753434896469116,168,,,,1500.0,1490.0,1400.0,1500
3.775904893875122,169,,,,1500.0,1490.0,1400.0,1500
3.798330783843994,170,,,,1500.0,1490.0,1400.0,1500
3.820812940597534,171,,,,1500.0,1490.0,1400.0,1500
3.8432929515838623,172,,,,1500.0,1490.0,1400.0,1500
3.8658108711242676,173,,,,1500.0,1490.0,1400.0,1500
3.8882429599761963,174,,,,1500.0,1490.0,1400.0,1500
3.9107069969177246,175,,,,1500.0,1490.0,1400.0,1500
3.9331510066986084,176,,,,1500.0,1490.0,1400.0,1500
3.9557290077209473,177,,,,1500.0,1490.0,1400.0,1500
3.978242874145508,178,,,,1500.0,1490.0,1400.0,1500
4.000706911087036,179,,,,1500.0,1490.0,1400.0,1500
4.023151874542236,180,,,,1500.0,1490.0,1400.0,1500
4.045722961425781,181,,,,1500.0,1490.0,1400.0,1500
4.068311929702759,182,,,,1500.0,1490.0,1400.0,1500
4.091008901596069,183,,,,1500.0,1490.0,1400.0,1500
4.113492012023926,184,,,,1500.0,1490.0,1400.0,1500
4.1359779834747314,185,,,,1500.0,1490.0,1400.0,1500
4.158421993255615,186,,,,1500.0,1490.0,1400.0,1500
4.180882930755615,187,,,,1500.0,1490.0,1400.0,1500
4.203319787979126,188,,,,1500.0,1490.0,1400.0,1500
4.22579288482666,189,,,,1500.0,1490.0,1400.0,1500
4.2482218742370605,190,,,,1500.0,1490.0,1400.0,1500
4.270692825317383,191,,,,1500.0,1490.0,1400.0,1500
4.29312801361084,192,,,,1500.0,1490.0,1400.0,1500
4.31573486328125,193,,,,1500.0,1490.0,1400.0,1500
4.3383259773254395,194,,,,1500.0,1490.0,1400.0,1500
4.360801935195923,195,,,,1500.0,1490.0,1400.0,1500
4.3832337856292725,196,,,,1500.0,1490.0,1400.0,1500
4.405759811401367,197,,,,1500.0,1490.0,1400.0,1500
4.428258895874023,198,,,,1500.0,1490.0,1400.0,1500
4.4507668018341064,199,,,,1500.0,1490.0,1400.0,1500
4.473203897476196,200,,,,1500.0,1490.0,1400.0,1500
4.495773792266846,201,,,,1500.0,1490.0,1400.0,1500
4.518483877182007,202,,,,1500.0,1490.0,1400.0,1500
4.540998935699463,203,,,,1500.0,1490.0,1400.0,1500
4.563449859619141,204,,,,1500.0,1490.0,1400.0,1500
4.585956811904907,205,,,,1500.0,1490.0,1400.0,1500
4.608399868011475,206,,,,1500.0,1490.0,1400.0,1500
4.630886793136597,207,,,,1500.0,1490.0,1400.0,1500
4.653361797332764,208,,,,1500.0,1490.0,1400.0,1500
4.675994873046875,209,,,,1500.0,1490.0,1400.0,1500
4.698670864105225,210,,,,1500.0,1490.0,1400.0,1500
4.721144914627075,211,,,,1500.0,1490.0,1400.0,1500
4.743634939193726,212,,,,1500.0,1490.0,1400.0,1500
4.76606297492981,213,,,,1500.0,1490.0,1400.0,1500
4.78853178024292,214,,,,1500.0,1490.0,1400.0,1500
4.810954809188843,215,,,,1500.0,1490.0,1400.0,1500
4.833482980728149,216,,,,1500.0,1490.0,1400.0,1500
4.856130838394165,217,,,,1500.0,1490.0,1400.0,1500
4.878642797470093,218,,,,1500.0,1490.0,1400.0,1500
4.901086807250977,219,,,,1500.0,1490.0,1400.0,1500
4.923568964004517,220,,,,1500.0,1490.0,1400.0,1500
4.946019887924194,221,,,,1500.0,1490.0,1400.0,1500
4.968493938446045,222,,,,1500.0,1490.0,1400.0,1500
4.9909279346466064,223,,,,1500.0,1490.0,1400.0,1500
5.013415813446045,224,,,,1500.0,1490.0,1400.0,1500
5.035839796066284,225,,,,1500.0,1490.0,1400.0,1500
5.058340787887573,226,,,,1500.0,1490.0,1400.0,1500
5.080777883529663,227,,,,1500.0,1490.0,1400.0,1500
5.103243827819824,228,,,,1500.0,1490.0,1400.0,1500
5.1257429122924805,229,,,,1500.0,1490.0,1400.0,1500
5.148315906524658,230,,,,1500.0,1490.0,1400.0,1500
5.170755863189697,231,,,,1500.0,1490.0,1400.0,1500
5.1932268142700195,232,,,,1500.0,1490.0,1400.0,1500
5.215749979019165,233,,,,1500.0,1490.0,1400.0,1500
5.238365888595581,234,,,,1500.0,1490.0,1400.0,1500
5.260808944702148,235,,,,1500.0,1490.0,1400.0,1500
5.283576011657715,236,,,,1500.0,1490.0,1400.0,1500
5.306181907653809,237,307,162,0.009259259259259259,1514.7,1530,1385,1500
5.3288798332214355,238,168,168,0.010416666666666666,1500.8,1530,1385,1500
5.3515379428863525,239,287,154,0.015151515151515152,1512.7,1530,1385,1500
5.374183893203735,240,165,167,0.008333333333333333,1500.5,1530,1385,1500
5.396791934967041,241,310,154,0.005050505050505051,1515.0,1490.0101010101009,1385,1500
5.419575929641724,242,310,152,0.005,1515.0,1489.0,1385,1500
5.442296981811523,243,305,142,0.004464285714285714,1514.5,1478.2857142857142,1385,1500
5.465057849884033,244,305,145,0.002232142857142857,1514.5,1450,1385,1500
5.487797975540161,245,302,141,0.0023148148148148147,1514.2,1450,1385,1500
5.510486841201782,246,275,144,0.0002777777777777778,1511.5,1450,1385,1500
5.533118963241577,247,287,140,0.0002754820936639118,1512.7,1450,1385,1500
5.555881977081299,248,284,127,0.0002874389192296637,1512.4000000000001,1450,1386.5,1500
5.57870078086853,249,291,142,0.0004789272030651341,1513.0999999999999,1450,1385,1500
5.6013898849487305,250,295,129,0.0004347826086956522,1513.5,1450,1385.5,1500
5.624121904373169,251,291,128,0.0003968253968253968,1513.0999999999999,1450,1386.0,1500
5.6469199657440186,252,291,119,0.0002492522432701894,1513.0999999999999,1450,1390.5,1500
5.66969895362854,253,276,124,0.00020292207792207794,1511.5999999999999,1450,1388.0,1500
5.692523002624512,254,284,129,0.00017361111111111112,1512.4000000000001,1450,1385.5,1500
5.715369939804077,255,238,113,4.848484848484849e-05,1507.8,1450,1393.5,1500
5.738282918930054,256,237,139,8.316699933466401e-05,1507.7,1450,1385,1500
5.760930776596069,257,234,141,8.426019548365353e-05,1507.4000000000001,1450,1385,1500
5.783634901046753,258,229,136,6.955070246209486e-05,1506.9000000000001,1450,1385,1500
5.80630898475647,259,242,96,4.057124310288867e-05,1508.2,1450,1402.0,1500
5.829108953475952,260,225,120,4.784688995215311e-05,1506.5,1450,1390.0,1500
5.851857900619507,261,248,41,0.00011022927689594356,1508.8,1450,1415,1500
5.874579906463623,262,210,90,2.6616981634282673e-05,1505.0,1450,1405.0,1500
5.897495985031128,263,209,88,2.6071540306601314e-05,1504.9000000000001,1450,1406.0,1500
5.920323848724365,264,207,48,4.515080368430558e-05,1504.7,1450,1415,1500
5.943012952804565,265,205,63,3.4115720524017465e-05,1504.5,1450,1415,1500
5.965775012969971,266,203,81,2.6443833298074888e-05,1504.3,1450,1409.5,1500
5.988609790802002,267,202,80,2.6045736312965568e-05,1504.2,1450,1410.0,1500
6.011401891708374,268,200,78,2.6371308016877638e-05,1504.0,1450,1411.0,1500
6.034141778945923,269,199,45,4.5222267444489665e-05,1503.9000000000001,1450,1415,1500
6.056959867477417,270,197,74,2.7100271002710027e-05,1503.7,1450,1413.0,1500
6.079981803894043,271,195,73,2.7027027027027027e-05,1503.5,1450,1413.5,1500
6.1028149127960205,272,193,52,3.779289493575208e-05,1503.3,1450,1415,1500
6.125582933425903,273,192,75,2.5869205298013245e-05,1503.2,1450,1412.5,1500
6.1484739780426025,274,189,73,2.6064065472932468e-05,1502.9000000000001,1450,1413.5,1500
6.171237945556641,275,187,70,2.6474637297469023e-05,1502.7,1450,1415.0,1500
6.194032907485962,276,186,72,2.546213780108978e-05,1502.5999999999999,1450,1414.0,1500
6.216791868209839,277,185,73,2.5102291839244924e-05,1502.5,1450,1413.5,1500
6.23957085609436,278,183,73,2.475002475002475e-05,1502.3,1450,1413.5,1500
6.262305974960327,279,181,74,2.4067388688327318e-05,1502.0999999999999,1450,1413.0,1500
6.285178899765015,280,180,74,2.3894862604540025e-05,1502.0,1450,1413.0,1500
6.308012008666992,281,179,84,2.0859407592824365e-05,1501.9000000000001,1450,1408.0,1500
6.330827951431274,282,178,77,2.2716946842344388e-05,1501.8,1450,1411.5,1500
6.353626012802124,283,177,84,2.0496003279360526e-05,1501.7,1450,1408.0,1500
6.376415967941284,284,176,84,2.0354162426216163e-05,1501.5999999999999,1450,1408.0,1500
6.399172782897949,285,174,84,2.0283975659229208e-05,1501.4000000000001,1450,1408.0,1500
6.421971797943115,286,175,84,2.0214271275520517e-05,1501.5,1450,1408.0,1500
6.444739818572998,287,174,84,2.0145044319097503e-05,1501.4000000000001,1450,1408.0,1500
6.46799898147583,288,173,84,2.007628990162618e-05,1501.3,1450,1408.0,1500
6.490782976150513,289,173,77,2.1869874248223074e-05,1501.3,1450,1411.5,1500
6.513608932495117,290,172,84,2.000800320128051e-05,1501.2,1450,1408.0,1500
6.536351919174194,291,172,78,2.15275983811246e-05,1501.2,1450,1411.0,1500
6.559171915054321,292,174,83,2.0315293352836015e-05,1501.4000000000001,1450,1408.5,1500
6.581963777542114,293,174,83,2.0648358455502788e-05,1501.4000000000001,1450,1408.5,1500
6.604769945144653,294,174,83,2.052545155993432e-05,1501.4000000000001,1450,1408.5,1500
6.6277148723602295,295,174,85,2.0096059162798174e-05,1501.4000000000001,1450,1407.5,1500
6.6506288051605225,296,172,85,1.9910799617712648e-05,1501.2,1450,1407.5,1500
6.673438787460327,297,169,86,1.9594396002743217e-05,1500.9000000000001,1450,1407.0,1500
6.696229934692383,298,169,86,1.9594396002743217e-05,1500.9000000000001,1450,1407.0,1500
6.7190728187561035,299,167,86,1.9528198718950163e-05,1500.7,1450,1407.0,1500
6.741853952407837,300,167,86,1.9350594063237743e-05,1500.7,1450,1407.0,1500
6.7646567821502686,301,165,88,1.8895376301419042e-05,1500.5,1450,1406.0,1500
6.78751277923584,302,164,88,1.8664377169733847e-05,1500.4000000000001,1450,1406.0,1500
6.81030797958374,303,163,89,1.8316695668101476e-05,1500.3,1450,1405.5,1500
6.833067893981934,304,164,89,1.8456995201181248e-05,1500.4000000000001,1450,1405.5,1500
6.855928897857666,305,163,90,1.835502285200345e-05,1500.3,1450,1405.0,1500
6.878696918487549,306,162,90,1.8315018315018315e-05,1500.2,1450,1405.0,1500
6.901486873626709,307,162,90,1.8254171078091345e-05,1500.2,1450,1405.0,1500
6.924234867095947,308,161,90,1.8193726802998326e-05,1500.0999999999999,1450,1405.0,1500
6.9470579624176025,309,160,90,1.801477211313277e-05,1500.0,1450,1405.0,1500
6.969806909561157,310,159,90,1.799629276369068e-05,1499.9000000000001,1450,1405.0,1500
6.992595911026001,311,160,90,1.82942446306392e-05,1500.0,1450,1405.0,1500
7.01551079750061,312,160,90,1.8173887758069206e-05,1500.0,1450,1405.0,1500
7.03851580619812,313,160,90,1.8173887758069206e-05,1500.0,1450,1405.0,1500
7.061273813247681,314,160,86,1.9014298752662e-05,1500.0,1450,1407.0,1500
7.084045886993408,315,160,90,1.8114301240829634e-05,1500.0,1450,1405.0,1500
7.1067869663238525,316,160,84,1.9286403085824492e-05,1500.0,1450,1408.0,1500
7.129587888717651,317,159,87,1.8690191387559808e-05,1499.9000000000001,1450,1406.5,1500
7.152369976043701,318,159,90,1.7937863241730645e-05,1499.9000000000001,1450,1405.0,1500
7.175337791442871,319,161,86,1.8828491272994294e-05,1500.0999999999999,1450,1407.0,1500
7.198323011398315,320,160,86,1.8890022290226302e-05,1500.0,1450,1407.0,1500
7.221113920211792,321,160,89,1.8155410312273058e-05,1500.0,1450,1405.5,1500
7.243896961212158,322,161,88,1.8402988645356005e-05,1500.0999999999999,1450,1406.0,1500
7.266692876815796,323,160,85,1.899984800121599e-05,1500.0,1450,1407.5,1500
7.289431810379028,324,160,88,1.8181157048834587e-05,1500.0,1450,1406.0,1500
7.31221079826355,325,160,89,1.8316695668101476e-05,1500.0,1450,1405.5,1500
7.334958791732788,326,161,88,1.841959845275373e-05,1500.0999999999999,1450,1406.0,1500
7.358248949050903,327,161,83,1.963286541670757e-05,1500.0999999999999,1450,1408.5,1500
7.381190776824951,328,161,84,1.9413706076490002e-05,1500.0999999999999,1450,1408.0,1500
7.40402889251709,329,161,87,1.8690191387559808e-05,1500.0999999999999,1450,1406.5,1500
7.426816940307617,330,160,81,1.9926669854933842e-05,1500.0,1450,1409.5,1500
7.449664831161499,331,160,80,2.0431513566525008e-05,1500.0,1450,1410.0,1500
7.472421884536743,332,161,85,1.930017563159825e-05,1500.0999999999999,1450,1407.5,1500
7.495380878448486,333,162,84,1.9413706076490002e-05,1500.2,1450,1408.0,1500
7.518332004547119,334,162,80,2.04398659144796e-05,1500.2,1450,1410.0,1500
7.541146993637085,335,161,75,2.1929824561403507e-05,1500.0999999999999,1450,1412.5,1500
7.5639379024505615,336,162,77,2.1438984649686992e-05,1500.2,1450,1411.5,1500
7.586774826049805,337,163,78,2.102695655830775e-05,1500.3,1450,1411.0,1500
7.609862804412842,338,163,71,2.338798325420399e-05,1500.3,1450,1414.5,1500
7.632702827453613,339,164,75,2.2148884803650136e-05,1500.4000000000001,1450,1412.5,1500
7.655649900436401,340,164,73,2.275002275002275e-05,1500.4000000000001,1450,1413.5,1500
7.678645849227905,341,164,71,2.3225566703827574e-05,1500.4000000000001,1450,1414.5,1500
7.70142388343811,342,164,70,2.379932409919558e-05,1500.4000000000001,1450,1415.0,1500
7.724231958389282,343,165,68,2.4576666912433335e-05,1500.5,1450,1415,1500
7.746917009353638,344,165,66,2.512689079853259e-05,1500.5,1450,1415,1500
7.76961088180542,345,166,65,2.56160663968441e-05,1500.5999999999999,1450,1415,1500
7.792294979095459,346,167,62,2.6722248944471167e-05,1500.7,1450,1415,1500
7.814993858337402,347,167,61,2.7153252959704574e-05,1500.7,1450,1415,1500
7.837951898574829,348,167,60,2.792048246593701e-05,1500.7,1450,1415,1500
7.860736846923828,349,168,59,2.8389734272087213e-05,1500.8,1450,1415,1500
7.883479833602905,350,169,58,2.8972910328842533e-05,1500.9000000000001,1450,1415,1500
7.906200885772705,351,169,56,2.9735355337496283e-05,1500.9000000000001,1450,1415,1500
7.928961992263794,352,170,55,3.053901358986105e-05,1501.0,1450,1415,1500
7.951684951782227,353,170,54,3.120514260750172e-05,1501.0,1450,1415,1500
7.974384784698486,354,171,52,3.197953309881676e-05,1501.0999999999999,1450,1415,1500
7.997057914733887,355,171,50,3.3575073865162504e-05,1501.0999999999999,1450,1415,1500
8.019788980484009,356,172,49,3.4711374917560485e-05,1501.2,1450,1415,1500
8.04246997833252,357,172,48,3.530574777573789e-05,1501.2,1450,1415,1500
8.06542181968689,358,173,47,3.617290649303671e-05,1501.3,1450,1415,1500
8.088519811630249,359,173,45,3.748125937031484e-05,1501.3,1450,1415,1500
8.111280918121338,360,174,44,3.844675124951942e-05,1501.4000000000001,1450,1415,1500
8.133981943130493,361,173,43,3.945707070707071e-05,1501.3,1450,1415,1500
8.15671682357788,362,174,42,4.037467700258398e-05,1501.4000000000001,1450,1415,1500
8.179378986358643,363,175,41,4.148000663680106e-05,1501.5,1450,1415,1500
8.202069997787476,364,175,39,4.3706293706293706e-05,1501.5,1450,1415,1500
8.224745988845825,365,176,38,4.55684666210982e-05,1501.5999999999999,1450,1415,1500
8.247634887695312,366,176,37,4.728132387706856e-05,1501.5999999999999,1450,1415,1500
8.270312786102295,367,177,36,4.874957344123239e-05,1501.7,1450,1415,1500
8.293028831481934,368,177,35,5.0301810865191146e-05,1501.7,1450,1415,1500
8.315826892852783,369,178,34,5.2132207277656134e-05,1501.8,1450,1415,1500
8.338656902313232,370,178,33,5.4077438892494055e-05,1501.8,1450,1415,1500
8.361432790756226,371,178,31,5.702554744525547e-05,1501.8,1450,1415,1500
8.384164810180664,372,179,30,6.049240820277055e-05,1501.9000000000001,1450,1415,1500
8.406834840774536,373,179,29,6.277463904582549e-05,1501.9000000000001,1450,1415,1500
8.429569959640503,374,180,26,6.961849067112225e-05,1502.0,1450,1415,1500
8.452276945114136,375,181,25,7.256894049346879e-05,1502.0999999999999,1450,1415,1500
8.475015878677368,376,182,24,7.604562737642586e-05,1502.2,1450,1415,1500
8.497842788696289,377,182,23,8.120838070488874e-05,1502.2,1450,1415,1500
8.520561933517456,378,183,22,8.514261387824607e-05,1502.3,1450,1415,1500
8.543243885040283,379,183,21,9.013881377321075e-05,1502.3,1450,1415,1500
8.566048860549927,380,184,20,9.264406151565684e-05,1502.4000000000001,1450,1415,1500
8.588943004608154,381,184,19,9.765625e-05,1502.4000000000001,1450,1415,1500
8.611682891845703,382,185,19,9.84251968503937e-05,1502.5,1450,1415,1500
8.634492874145508,383,185,18,0.00010442773600668337,1502.5,1450,1415,1500
8.657228946685791,384,185,19,0.00010134792743488395,1502.5,1450,1415,1500
8.679913997650146,385,185,19,9.881422924901186e-05,1502.5,1450,1415,1500
8.702654838562012,386,185,20,9.640412609659693e-05,1502.5,1450,1415,1500
8.725420951843262,387,184,20,9.44822373393802e-05,1502.4000000000001,1450,1415,1500
8.74823784828186,388,185,21,9.192021325489476e-05,1502.5,1450,1415,1500
8.770900964736938,389,184,21,9.018759018759019e-05,1502.4000000000001,1450,1415,1500
8.79391098022461,390,184,22,8.592541673827119e-05,1502.4000000000001,1450,1415,1500
8.816621780395508,391,184,23,8.202099737532808e-05,1502.4000000000001,1450,1415,1500
8.83935284614563,392,184,25,7.750135627373479e-05,1502.4000000000001,1450,1415,1500
8.862043857574463,393,183,26,7.457677679170706e-05,1502.3,1450,1415,1500
8.88476300239563,394,183,27,7.186489399928136e-05,1502.3,1450,1415,1500
8.907573938369751,395,183,28,6.76132521974307e-05,1502.3,1450,1415,1500
8.93031096458435,396,183,30,6.403688524590164e-05,1502.3,1450,1415,1500
8.952997922897339,397,182,30,6.3500127000254e-05,1502.2,1450,1415,1500
8.975749969482422,398,183,32,5.9887411666067796e-05,1502.3,1450,1415,1500
8.998478889465332,399,183,34,5.683432793407218e-05,1502.3,1450,1415,1500
9.021216869354248,400,183,35,5.446623093681917e-05,1502.3,1450,1415,1500
9.043937921524048,401,183,37,5.22875816993464e-05,1502.3,1450,1415,1500
9.066699981689453,402,182,40,4.86050354816759e-05,1502.2,1450,1415,1500
9.089401006698608,403,179,37,5.305602716468591e-05,1501.9000000000001,1450,1415,1500
9.112129926681519,404,182,43,4.525296406914653e-05,1502.2,1450,1415,1500
9.134806871414185,405,182,44,4.391743522178305e-05,1502.2,1450,1415,1500
9.157668828964233,406,182,46,4.1883062489529236e-05,1502.2,1450,1415,1500
9.180352926254272,407,182,47,4.117259552042161e-05,1502.2,1450,1415,1500
9.203063011169434,408,182,49,3.992494111071186e-05,1502.2,1450,1415,1500
9.225807905197144,409,182,50,3.928964325003929e-05,1502.2,1450,1415,1500
9.248576879501343,410,181,50,3.9763012445822895e-05,1502.0999999999999,1450,1415,1500
9.271253824234009,411,180,53,3.7991034115948635e-05,1502.0,1450,1415,1500
9.293973922729492,412,181,54,3.68052999631947e-05,1502.0999999999999,1450,1415,1500
9.316735982894897,413,182,56,3.5370684776457274e-05,1502.2,1450,1415,1500
9.33946180343628,414,182,56,3.5683699685983445e-05,1502.2,1450,1415,1500
9.362157821655273,415,182,59,3.38845215505557e-05,1502.2,1450,1415,1500
9.384861946105957,416,180,58,3.502872355331372e-05,1502.0,1450,1415,1500
9.407649993896484,417,180,59,3.4153005464480874e-05,1502.0,1450,1415,1500
9.43037486076355,418,181,60,3.37325012649688e-05,1502.0999999999999,1450,1415,1500
9.453099012374878,419,182,62,3.239390994493035e-05,1502.2,1450,1415,1500
9.47588300704956,420,181,64,3.1640563202025e-05,1502.0999999999999,1450,1415,1500
9.49861192703247,421,181,66,3.081474177246395e-05,1502.0999999999999,1450,1415,1500
9.521315813064575,422,181,64,3.1525851197982345e-05,1502.0999999999999,1450,1415,1500
9.544001817703247,423,181,65,3.117595710188303e-05,1502.0999999999999,1450,1415,1500
9.56670594215393,424,181,67,3.0483158055174515e-05,1502.0999999999999,1450,1415,1500
9.589395999908447,425,181,67,3.025901718712176e-05,1502.0999999999999,1450,1415,1500
9.612118005752563,426,181,56,3.59505320678746e-05,1502.0999999999999,1450,1415,1500
9.634781837463379,427,181,71,2.8777806555584333e-05,1502.0999999999999,1450,1414.5,1500
9.657758951187134,428,180,71,2.8659864725438496e-05,1502.0,1450,1414.5,1500
9.680608987808228,429,180,71,2.8777806555584333e-05,1502.0,1450,1414.5,1500
9.70356798171997,430,180,62,3.266052648768698e-05,1502.0,1450,1415,1500
9.726263999938965,431,179,76,2.700804839842273e-05,1501.9000000000001,1450,1412.0,1500
9.749066829681396,432,179,76,2.7120114989287553e-05,1501.9000000000001,1450,1412.0,1500
9.771829843521118,433,179,77,2.637965600928564e-05,1501.9000000000001,1450,1411.5,1500
9.794616937637329,434,178,77,2.659857431641664e-05,1501.8,1450,1411.5,1500
9.817499876022339,435,177,78,2.653927813163482e-05,1501.7,1450,1411.0,1500
9.840393781661987,436,177,45,4.597912547703343e-05,1501.7,1450,1415,1500
9.863304853439331,437,177,80,2.587991718426501e-05,1501.7,1450,1410.0,1500
9.88614296913147,438,176,81,2.5988201356584112e-05,1501.5999999999999,1450,1409.5,1500
9.908929824829102,439,175,84,2.587991718426501e-05,1501.5,1450,1408.0,1500
9.931715965270996,440,176,85,2.5772531635782584e-05,1501.5999999999999,1450,1407.5,1500
9.954504013061523,441,174,86,2.587991718426501e-05,1501.4000000000001,1450,1407.0,1500
9.977727890014648,442,174,57,4.142673681594101e-05,1501.4000000000001,1450,1415,1500
10.000487804412842,443,173,88,2.5936300446104367e-05,1501.3,1450,1406.0,1500
10.023484945297241,444,174,89,2.6315096971132338e-05,1501.4000000000001,1450,1405.5,1500
10.046324968338013,445,118,91,4.944620253164557e-05,1495.8,1450,1404.5,1500
10.069236993789673,446,119,61,8.097165991902834e-05,1495.9000000000001,1450,1415,1500
10.092118978500366,447,173,64,4.079301623562046e-05,1501.3,1450,1415,1500
10.114882946014404,448,108,63,0.0001042535446205171,1494.8,1450,1415,1500
10.137828826904297,449,102,69,0.00010629251700680272,1494.2,1450,1415,1500
10.160558938980103,450,172,95,2.6933850463262227e-05,1501.2,1450,1402.5,1500
10.18333101272583,451,172,97,2.6875218361149186e-05,1501.2,1450,1401.5,1500
10.206146001815796,452,171,101,2.875215641173088e-05,1501.0999999999999,1450,1399.5,1500
10.228909969329834,453,172,70,4.262029578485275e-05,1501.2,1450,1415.0,1500
10.251698970794678,454,174,152,9.57670944263551e-05,1501.4000000000001,1450,1385,1500
10.274377822875977,455,106,74,0.00010270103728047654,1494.5999999999999,1450,1413.0,1500
10.297167778015137,456,103,74,0.00011380448389666553,1494.3,1450,1413.0,1500
10.319923877716064,457,173,146,7.496251874062968e-05,1501.3,1450,1385,1500
10.342636823654175,458,173,143,6.718172657037286e-05,1501.3,1450,1385,1500
10.36538290977478,459,170,104,2.9757476565987204e-05,1501.0,1450,1398.0,1500
10.388237953186035,460,168,105,3.0525030525030525e-05,1500.8,1450,1397.5,1500
10.41098690032959,461,171,149,8.348639171814995e-05,1501.0999999999999,1450,1385,1500
10.433681964874268,462,110,64,0.00013451708366962604,1495.0,1450,1415,1500
10.456377983093262,463,118,105,5.409206469410937e-05,1495.8,1450,1397.5,1500
10.4791898727417,464,97,75,0.00014652014652014652,1493.7,1450,1412.5,1500
10.501964807510376,465,99,76,0.00013528138528138528,1493.9000000000001,1450,1412.0,1500
10.524763822555542,466,168,110,3.276217934016971e-05,1500.8,1450,1395.0,1500
10.54768180847168,467,165,107,3.224974200206398e-05,1500.5,1450,1396.5,1500
10.570544004440308,468,163,109,3.356605800214823e-05,1500.3,1450,1395.5,1500
10.593454837799072,469,168,151,9.600614439324117e-05,1500.8,1450,1385,1500
10.616198778152466,470,164,113,3.5398230088495574e-05,1500.4000000000001,1450,1393.5,1500
10.638945817947388,471,167,152,0.00010064412238325282,1500.7,1450,1385,1500
10.661632776260376,472,166,148,8.340283569641368e-05,1500.5999999999999,1450,1385,1500
10.684335947036743,473,163,112,3.5117291754459895e-05,1500.3,1450,1394.0,1500
10.707157850265503,474,100,94,0.00011363636363636364,1494.0,1450,1403.0,1500
10.729890823364258,475,168,113,3.4317089910775565e-05,1500.8,1450,1393.5,1500
10.752699851989746,476,170,152,9.792401096748923e-05,1501.0,1450,1385,1500
10.775401830673218,477,170,150,8.968609865470852e-05,1501.0,1450,1385,1500
10.798172950744629,478,167,151,9.600614439324117e-05,1500.7,1450,1385,1500
10.820818901062012,479,101,140,0.00017170329670329672,1494.0999999999999,1450,1385,1500
10.843535900115967,480,119,119,6.67334000667334e-05,1495.9000000000001,1450,1390.5,1500
10.86629581451416,481,163,118,3.93360081818897e-05,1500.3,1450,1391.0,1500
10.889088869094849,482,166,118,3.781004234724743e-05,1500.5999999999999,1450,1391.0,1500
10.91185188293457,483,164,119,3.9160401002506263e-05,1500.4000000000001,1450,1390.5,1500
10.934650897979736,484,164,119,3.968253968253968e-05,1500.4000000000001,1450,1390.5,1500
10.957552909851074,485,165,121,4.061078622482131e-05,1500.5,1450,1389.5,1500
10.98035192489624,486,167,158,0.00013477088948787063,1500.7,1450,1385,1500
11.003000974655151,487,162,123,4.29000429000429e-05,1500.2,1450,1388.5,1500
11.025829792022705,488,169,153,0.00010147133434804668,1500.9000000000001,1450,1385,1500
11.04854679107666,489,164,148,8.653513326410523e-05,1500.4000000000001,1450,1385,1500
11.071236848831177,490,162,121,4.208754208754209e-05,1500.2,1450,1389.5,1500
11.093991994857788,491,164,122,4.172229639519359e-05,1500.4000000000001,1450,1389.0,1500
11.11710786819458,492,168,154,0.00011074197120708749,1500.8,1450,1385,1500
11.139813899993896,493,115,122,7.512019230769231e-05,1495.5,1450,1389.0,1500
11.162617921829224,494,115,122,8.098477486232588e-05,1495.5,1450,1389.0,1500
11.18543291091919,495,162,124,4.4361636057137784e-05,1500.2,1450,1388.0,1500
11.208316802978516,496,162,125,4.480086017651539e-05,1500.2,1450,1387.5,1500
11.231054782867432,497,165,150,9.119927040583675e-05,1500.5,1450,1385,1500
11.253759860992432,498,162,125,4.5045045045045046e-05,1500.2,1450,1387.5,1500
11.276521921157837,499,161,127,4.756468797564688e-05,1500.0999999999999,1450,1386.5,1500
11.299299001693726,500,165,146,7.883326763894364e-05,1500.5,1450,1385,1500
11.321968793869019,501,161,126,4.6382189239332094e-05,1500.0999999999999,1450,1387.0,1500
11.34480094909668,502,163,127,4.602356406480118e-05,1500.3,1450,1386.5,1500
11.367710828781128,503,162,127,4.664831832812427e-05,1500.2,1450,1386.5,1500
11.390531778335571,504,161,128,4.784688995215311e-05,1500.0999999999999,1450,1386.0,1500
11.413296937942505,505,162,127,4.71342383107089e-05,1500.2,1450,1386.5,1500
11.436108827590942,506,106,126,9.657170449058426e-05,1494.5999999999999,1450,1387.0,1500
11.458895921707153,507,117,126,7.891414141414142e-05,1495.7,1450,1387.0,1500
11.481700897216797,508,168,120,3.885003885003885e-05,1500.8,1450,1390.0,1500
11.504467010498047,509,163,144,7.2811999417504e-05,1500.3,1450,1385,1500
11.527175903320312,510,162,128,4.74158368895211e-05,1500.2,1450,1386.0,1500
11.549946784973145,511,108,125,9.33184023889511e-05,1494.8,1450,1387.5,1500
11.572746992111206,512,128,132,7.463800567248842e-05,1496.8,1450,1385,1500
11.595508813858032,513,103,129,0.0001201923076923077,1494.3,1450,1385.5,1500
11.618379831314087,514,163,131,5.016051364365971e-05,1500.3,1450,1385,1500
11.641044855117798,515,168,132,4.9331557397267034e-05,1500.8,1450,1385,1500
11.663738012313843,516,163,132,5.214308061320263e-05,1500.3,1450,1385,1500
11.686433792114258,517,161,132,5.22466039707419e-05,1500.0999999999999,1450,1385,1500
11.709134817123413,518,164,134,5.3310587482674056e-05,1500.4000000000001,1450,1385,1500
11.731802940368652,519,168,133,5.087505087505087e-05,1500.8,1450,1385,1500
11.754514932632446,520,168,134,5.170898185014737e-05,1500.8,1450,1385,1500
11.777175903320312,521,168,133,5.087505087505087e-05,1500.8,1450,1385,1500
11.799868822097778,522,165,134,5.372300419039433e-05,1500.5,1450,1385,1500
11.822531938552856,523,169,134,5.1894135962636225e-05,1500.9000000000001,1450,1385,1500
11.84531283378601,524,168,134,5.211590577444236e-05,1500.8,1450,1385,1500
11.868037939071655,525,169,132,4.9691910157026436e-05,1500.9000000000001,1450,1385,1500
11.890728950500488,526,169,132,4.9691910157026436e-05,1500.9000000000001,1450,1385,1500
11.913379907608032,527,169,134,5.211590577444236e-05,1500.9000000000001,1450,1385,1500
11.936081886291504,528,169,132,4.990518015770037e-05,1500.9000000000001,1450,1385,1500
11.958743810653687,529,165,131,5.0505050505050505e-05,1500.5,1450,1385,1500
11.981440782546997,530,173,144,6.961849067112225e-05,1501.3,1450,1385,1500
12.004090785980225,531,173,158,0.0001292824822236587,1501.3,1450,1385,1500
12.02680492401123,532,171,128,4.546281142025823e-05,1501.0999999999999,1450,1386.0,1500
12.049588918685913,533,169,128,4.5966444495518273e-05,1500.9000000000001,1450,1386.0,1500
12.072510004043579,534,166,126,4.570592805886923e-05,1500.5999999999999,1450,1387.0,1500
12.095574855804443,535,177,149,8.31186102568365e-05,1501.7,1450,1385,1500
12.118403911590576,536,170,159,0.00014740566037735848,1501.0,1450,1385,1500
12.141077995300293,537,173,125,4.213187276174426e-05,1501.3,1450,1387.5,1500
12.163887977600098,538,169,124,4.3572984749455335e-05,1500.9000000000001,1450,1388.0,1500
12.186656951904297,539,116,141,0.00013408420488066506,1495.5999999999999,1450,1385,1500
12.209362983703613,540,174,152,9.881422924901186e-05,1501.4000000000001,1450,1385,1500
12.232046842575073,541,170,119,3.9157334168689795e-05,1501.0,1450,1390.5,1500
12.254844903945923,542,241,72,0.00019944156362185878,1508.0999999999999,1450,1414.0,1500
12.27804684638977,543,138,117,5.5456965394853596e-05,1497.8,1450,1391.5,1500
12.300879001617432,544,242,86,0.00011122233344455567,1508.2,1450,1407.0,1500
12.323625802993774,545,172,149,8.499065102838688e-05,1501.2,1450,1385,1500
12.346365928649902,546,103,85,0.00015698587127158556,1494.3,1450,1407.5,1500
12.369150876998901,547,172,111,3.3967391304347826e-05,1501.2,1450,1394.5,1500
12.3919517993927,548,108,82,0.00012569130216189038,1494.8,1450,1409.0,1500
12.414723873138428,549,244,86,8.158603247124092e-05,1508.4000000000001,1450,1407.0,1500
12.437809944152832,550,181,143,6.592827004219409e-05,1502.0999999999999,1450,1385,1500
12.46052885055542,551,239,72,8.051529790660226e-05,1507.9000000000001,1450,1414.0,1500
12.483319997787476,552,245,67,9.42151874882231e-05,1508.5,1450,1415,1500
12.505980968475342,553,116,100,5.747126436781609e-05,1495.5999999999999,1450,1400.0,1500
12.528810977935791,554,179,141,5.964096141229796e-05,1501.9000000000001,1450,1385,1500
12.551645994186401,555,182,97,2.5538870160384105e-05,1502.2,1450,1401.5,1500
12.574467897415161,556,110,71,9.792401096748923e-05,1495.0,1450,1414.5,1500
12.597253799438477,557,128,99,4.415011037527594e-05,1496.8,1450,1400.5,1500
12.620056867599487,558,179,97,2.576854691163965e-05,1501.9000000000001,1450,1401.5,1500
12.642845869064331,559,124,101,4.4161808867691223e-05,1496.4000000000001,1450,1399.5,1500
12.665713787078857,560,175,76,4.1967433271781096e-05,1501.5,1450,1412.0,1500
12.688567876815796,561,102,80,0.00010986596352450011,1494.2,1450,1410.0,1500
12.711329936981201,562,174,103,2.8935185185185186e-05,1501.4000000000001,1450,1398.5,1500
12.73418378829956,563,174,107,2.8512773722627736e-05,1501.4000000000001,1450,1396.5,1500
12.756967782974243,564,230,87,7.716049382716049e-05,1507.0,1450,1406.5,1500
12.779759883880615,565,233,110,5.698005698005698e-05,1507.3,1450,1395.0,1500
12.802525997161865,566,228,93,7.475517679599313e-05,1506.8,1450,1403.5,1500
12.82537293434143,567,173,116,3.295435821387378e-05,1501.3,1450,1392.0,1500
12.848320007324219,568,96,98,0.0001356300013563,1493.5999999999999,1450,1401.0,1500
12.871093988418579,569,233,76,0.00018037518037518038,1507.3,1450,1412.0,1500
12.893900871276855,570,94,114,9.545628102329134e-05,1493.4000000000001,1450,1393.0,1500
12.916676998138428,571,101,118,8.265145879824778e-05,1494.0999999999999,1450,1391.0,1500
12.939502954483032,572,240,98,0.00010551862403714256,1508.0,1450,1401.0,1500
12.962262868881226,573,108,120,7.339449541284403e-05,1494.8,1450,1390.0,1500
12.98506784439087,574,229,116,6.0103377809832915e-05,1506.9000000000001,1450,1392.0,1500
13.007985830307007,575,91,91,0.00020807324178110696,1493.0999999999999,1450,1404.5,1500
13.03079891204834,576,99,117,8.737439930100481e-05,1493.9000000000001,1450,1391.5,1500
13.053570985794067,577,95,116,9.352787130564908e-05,1493.5,1450,1392.0,1500
13.076375007629395,578,92,115,9.584052137243626e-05,1493.2,1450,1392.5,1500
13.09912395477295,579,233,97,8.111615833874107e-05,1507.3,1450,1401.5,1500
13.121912002563477,580,95,114,9.030160736861116e-05,1493.5,1450,1393.0,1500
13.144670009613037,581,234,89,9.100837277029486e-05,1507.4000000000001,1450,1405.5,1500
13.16760778427124,582,169,113,3.291639236339697e-05,1500.9000000000001,1450,1393.5,1500
13.190368890762329,583,237,109,5.872680291284943e-05,1507.7,1450,1395.5,1500
13.213185787200928,584,95,110,8.450228156160216e-05,1493.5,1450,1395.0,1500
13.235941886901855,585,241,78,0.0001016260162601626,1508.0999999999999,1450,1411.0,1500
13.25877594947815,586,226,79,7.296074711805048e-05,1506.5999999999999,1450,1410.5,1500
13.28165888786316,587,236,87,6.713211600429645e-05,1507.5999999999999,1450,1406.5,1500
13.304664850234985,588,176,71,4.632203075782842e-05,1501.5999999999999,1450,1414.5,1500
13.327642917633057,589,176,99,2.7210143941661452e-05,1501.5999999999999,1450,1400.5,1500
13.350552797317505,590,177,99,2.6290882322010725e-05,1501.7,1450,1400.5,1500
13.373528957366943,591,176,98,2.5699013157894735e-05,1501.5999999999999,1450,1401.0,1500
13.396715879440308,592,232,63,8.086035416835126e-05,1507.2,1450,1415,1500
13.41947889328003,593,177,97,2.4845955078513218e-05,1501.7,1450,1401.5,1500
13.442323923110962,594,176,94,2.4975024975024975e-05,1501.5999999999999,1450,1403.0,1500
13.465106010437012,595,178,94,2.4567610062893083e-05,1501.8,1450,1403.0,1500
13.488043785095215,596,178,94,2.3925734520049766e-05,1501.8,1450,1403.0,1500
13.510841846466064,597,179,92,2.401883076331844e-05,1501.9000000000001,1450,1404.0,1500
13.53366994857788,598,179,89,2.4319066147859924e-05,1501.9000000000001,1450,1405.5,1500
13.556457996368408,599,179,91,2.307124400147656e-05,1501.9000000000001,1450,1404.5,1500
13.579293012619019,600,179,90,2.3209395163162047e-05,1501.9000000000001,1450,1405.0,1500
13.602064847946167,601,180,90,2.2578969947391e-05,1502.0,1450,1405.0,1500
13.624876976013184,602,179,89,2.249212775528565e-05,1501.9000000000001,1450,1405.5,1500
13.64779281616211,603,180,89,2.2491621870853107e-05,1502.0,1450,1405.5,1500
13.670633792877197,604,180,88,2.2234574763757643e-05,1502.0,1450,1406.0,1500
13.693415880203247,605,180,67,2.8499772001823985e-05,1502.0,1450,1415,1500
13.71613883972168,606,180,86,2.2491621870853107e-05,1502.0,1450,1407.0,1500
13.73888087272644,607,180,85,2.2578969947391e-05,1502.0,1450,1407.5,1500
13.761658906936646,608,179,83,2.3119783598825516e-05,1501.9000000000001,1450,1408.5,1500
13.784417867660522,609,180,84,2.2846176692330537e-05,1502.0,1450,1408.0,1500
13.807199954986572,610,180,82,2.34000234000234e-05,1502.0,1450,1409.0,1500
13.829952001571655,611,180,81,2.3452157598499062e-05,1502.0,1450,1409.5,1500
13.852770805358887,612,180,80,2.38333571666905e-05,1502.0,1450,1410.0,1500
13.875626802444458,613,180,81,2.3542706469535737e-05,1502.0,1450,1409.5,1500
13.898515939712524,614,180,78,2.4342745861733204e-05,1502.0,1450,1411.0,1500
13.921283960342407,615,180,80,2.38333571666905e-05,1502.0,1450,1410.0,1500
13.944094896316528,616,180,77,2.465483234714004e-05,1502.0,1450,1411.5,1500
13.96684193611145,617,180,77,2.500625156289072e-05,1502.0,1450,1411.5,1500
13.989628791809082,618,180,78,2.4342745861733204e-05,1502.0,1450,1411.0,1500
14.012388944625854,619,181,78,2.440393391414696e-05,1502.0999999999999,1450,1411.0,1500
14.035307884216309,620,180,77,2.4909702329057167e-05,1502.0,1450,1411.5,1500
14.05824899673462,621,180,62,3.076923076923077e-05,1502.0,1450,1415,1500
14.0811607837677,622,180,75,2.5499796001631987e-05,1502.0,1450,1412.5,1500
14.10395884513855,623,181,74,2.574002574002574e-05,1502.0999999999999,1450,1413.0,1500
14.126773834228516,624,181,71,2.6812526812526813e-05,1502.0999999999999,1450,1414.5,1500
14.149550914764404,625,181,73,2.6087863925701763e-05,1502.0999999999999,1450,1413.5,1500
14.172370910644531,626,181,73,2.6265332387781368e-05,1502.0999999999999,1450,1413.5,1500
14.195221900939941,627,181,72,2.6445231924683978e-05,1502.0999999999999,1450,1414.0,1500
14.218147993087769,628,181,67,2.8389734272087213e-05,1502.0999999999999,1450,1415,1500
14.240884780883789,629,180,71,2.7104678267468964e-05,1502.0,1450,1414.5,1500
14.263680934906006,630,180,70,2.7295556283437058e-05,1502.0,1450,1415.0,1500
14.286430835723877,631,181,69,2.7578599007170437e-05,1502.0999999999999,1450,1415,1500
14.309165000915527,632,180,69,2.7685492801771873e-05,1502.0,1450,1415,1500
14.331838846206665,633,181,69,2.767017155506364e-05,1502.0999999999999,1450,1415,1500
14.35457181930542,634,181,68,2.7978288847854064e-05,1502.0999999999999,1450,1415,1500
14.377296924591064,635,181,65,2.935995302407516e-05,1502.0999999999999,1450,1415,1500
14.400004863739014,636,180,67,2.8499772001823985e-05,1502.0,1450,1415,1500
14.422683000564575,637,181,67,2.86000286000286e-05,1502.0999999999999,1450,1415,1500
14.445474863052368,638,181,66,2.870264064293915e-05,1502.0999999999999,1450,1415,1500
14.468231916427612,639,180,62,3.1007751937984497e-05,1502.0,1450,1415,1500
14.490976810455322,640,181,61,3.113712791132146e-05,1502.0999999999999,1450,1415,1500
14.513808965682983,641,180,62,3.1007751937984497e-05,1502.0,1450,1415,1500
14.53684377670288,642,181,63,3.0164092664092665e-05,1502.0999999999999,1450,1415,1500
14.559565782546997,643,181,63,3.040160520475481e-05,1502.0999999999999,1450,1415,1500
14.582295894622803,644,181,62,3.064288778574493e-05,1502.0999999999999,1450,1415,1500
14.60497784614563,645,181,61,3.113712791132146e-05,1502.0999999999999,1450,1415,1500
14.62784194946289,646,181,61,3.139027529271432e-05,1502.0999999999999,1450,1415,1500
14.650523900985718,647,181,60,3.1647572631179186e-05,1502.0999999999999,1450,1415,1500
14.673251867294312,648,180,60,3.1909122818213725e-05,1502.0,1450,1415,1500
14.695952892303467,649,180,59,3.2320620555914674e-05,1502.0,1450,1415,1500
14.718668937683105,650,181,56,3.4036759700476515e-05,1502.0999999999999,1450,1415,1500
14.741391897201538,651,181,57,3.328451604313673e-05,1502.0999999999999,1450,1415,1500
14.764108896255493,652,181,57,3.3444816053511705e-05,1502.0999999999999,1450,1415,1500
14.786781787872314,653,181,56,3.3738191632928474e-05,1502.0999999999999,1450,1415,1500
14.809504985809326,654,181,56,3.4300610550867805e-05,1502.0999999999999,1450,1415,1500
14.832242012023926,655,182,55,3.434065934065934e-05,1502.2,1450,1415,1500
14.855113983154297,656,181,49,3.875968992248062e-05,1502.0999999999999,1450,1415,1500
14.877964973449707,657,182,55,3.4783818567602355e-05,1502.2,1450,1415,1500
14.90068793296814,658,182,55,3.434065934065934e-05,1502.2,1450,1415,1500
14.9233558177948,659,182,56,3.4036759700476515e-05,1502.2,1450,1415,1500
14.946094989776611,660,183,50,3.793482796555518e-05,1502.3,1450,1415,1500
14.96877384185791,661,183,57,3.3316674995835414e-05,1502.3,1450,1415,1500
14.991501808166504,662,181,51,3.7268932617769825e-05,1502.0999999999999,1450,1415,1500
15.014228820800781,663,183,54,3.483106931382794e-05,1502.3,1450,1415,1500
15.037113904953003,664,182,54,3.5285815102328866e-05,1502.2,1450,1415,1500
15.059851884841919,665,182,59,3.205128205128205e-05,1502.2,1450,1415,1500
15.08256196975708,666,182,56,3.4036759700476515e-05,1502.2,1450,1415,1500
15.10530686378479,667,182,59,3.24454105966711e-05,1502.2,1450,1415,1500
15.128103971481323,668,182,62,3.088803088803089e-05,1502.2,1450,1415,1500
15.15080189704895,669,181,64,3.0046271257736914e-05,1502.0999999999999,1450,1415,1500
15.173588991165161,670,181,64,2.9815146094215862e-05,1502.0999999999999,1450,1415,1500
15.196457862854004,671,182,67,2.86000286000286e-05,1502.2,1450,1415,1500
15.21920394897461,672,181,66,2.892514173319449e-05,1502.0999999999999,1450,1415,1500
15.241894960403442,673,180,66,2.914262400186513e-05,1502.0,1450,1415,1500
15.264599800109863,674,181,67,2.8710881424059718e-05,1502.0999999999999,1450,1415,1500
15.287400007247925,675,181,68,2.8291744468963958e-05,1502.0999999999999,1450,1415,1500
15.310122013092041,676,182,69,2.7578599007170437e-05,1502.2,1450,1415,1500
15.33280086517334,677,182,70,2.7190168035238456e-05,1502.2,1450,1415.0,1500
15.35564398765564,678,181,74,2.6216442953020134e-05,1502.0999999999999,1450,1413.0,1500
15.378480911254883,679,181,74,2.6216442953020134e-05,1502.0999999999999,1450,1413.0,1500
15.401281833648682,680,181,74,2.6216442953020134e-05,1502.0999999999999,1450,1413.0,1500
15.424047946929932,681,181,78,2.4880573248407645e-05,1502.0999999999999,1450,1411.0,1500
15.446892976760864,682,182,78,2.4783761679347693e-05,1502.2,1450,1411.0,1500
15.469635963439941,683,181,79,2.44140625e-05,1502.0999999999999,1450,1410.5,1500
15.49242877960205,684,181,80,2.4262422360248446e-05,1502.0999999999999,1450,1410.0,1500
15.515308856964111,685,181,81,2.396472392638037e-05,1502.0999999999999,1450,1409.5,1500
15.538250923156738,686,181,81,2.381859756097561e-05,1502.0999999999999,1450,1409.5,1500
15.56103777885437,687,182,82,2.3440063756973418e-05,1502.2,1450,1409.0,1500
15.58385181427002,688,181,83,2.3390718562874253e-05,1502.0999999999999,1450,1408.5,1500
15.606614828109741,689,182,83,2.316101537891421e-05,1502.2,1450,1408.5,1500
15.629410982131958,690,181,84,2.306805074971165e-05,1502.0999999999999,1450,1408.0,1500
15.652182817459106,691,181,85,2.3023437859741218e-05,1502.0999999999999,1450,1407.5,1500
15.675351858139038,692,181,85,2.2710755813953488e-05,1502.0999999999999,1450,1407.5,1500
15.698251962661743,693,181,86,2.2668026748271564e-05,1502.0999999999999,1450,1407.0,1500
15.721064805984497,694,180,87,2.2668026748271564e-05,1502.0,1450,1406.5,1500
15.743834972381592,695,181,87,2.2799817601459188e-05,1502.0999999999999,1450,1406.5,1500
15.76665186882019,696,180,88,2.2889580662882256e-05,1502.0,1450,1406.0,1500
15.789394855499268,697,180,89,2.2889580662882256e-05,1502.0,1450,1405.5,1500
15.812171936035156,698,180,90,2.2933149868134388e-05,1502.0,1450,1405.0,1500
15.834937810897827,699,180,90,2.3023437859741218e-05,1502.0,1450,1405.0,1500
15.857858896255493,700,179,90,2.315886984715146e-05,1501.9000000000001,1450,1405.0,1500
15.880638837814331,701,179,91,2.329590457997484e-05,1501.9000000000001,1450,1404.5,1500
15.903443813323975,702,180,91,2.320454809142592e-05,1502.0,1450,1404.5,1500
15.926212787628174,703,180,91,2.3527197440240918e-05,1502.0,1450,1404.5,1500
15.949042797088623,704,180,91,2.334267040149393e-05,1502.0,1450,1404.5,1500
15.971800804138184,705,179,92,2.3574897449196096e-05,1501.9000000000001,1450,1404.0,1500
15.994618892669678,706,179,92,2.3716914903709326e-05,1501.9000000000001,1450,1404.0,1500
16.017507791519165,707,180,92,2.3716914903709326e-05,1502.0,1450,1404.0,1500
16.040313959121704,708,180,93,2.3860653781913625e-05,1502.0,1450,1403.5,1500
16.06313395500183,709,179,93,2.3860653781913625e-05,1501.9000000000001,1450,1403.5,1500
16.086156845092773,710,180,93,2.3860653781913625e-05,1502.0,1450,1403.5,1500
16.108953952789307,711,179,93,2.4006145573266756e-05,1501.9000000000001,1450,1403.5,1500
16.131792783737183,712,180,93,2.3912003825920613e-05,1502.0,1450,1403.5,1500
16.15456485748291,713,179,93,2.4196670538133953e-05,1501.9000000000001,1450,1403.5,1500
16.177509784698486,714,178,93,2.381859756097561e-05,1501.8,1450,1403.5,1500
16.20029091835022,715,179,93,2.3912003825920613e-05,1501.9000000000001,1450,1403.5,1500
16.22309184074402,716,180,93,2.4101031524149233e-05,1502.0,1450,1403.5,1500
16.245909929275513,717,179,93,2.4006145573266756e-05,1501.9000000000001,1450,1403.5,1500
16.26878595352173,718,180,93,2.4101031524149233e-05,1502.0,1450,1403.5,1500
16.291539907455444,719,179,93,2.4006145573266756e-05,1501.9000000000001,1450,1403.5,1500
16.314361810684204,720,180,93,2.4101031524149233e-05,1502.0,1450,1403.5,1500
16.337109804153442,721,179,93,2.4101031524149233e-05,1501.9000000000001,1450,1403.5,1500
16.35993790626526,722,179,93,2.4006145573266756e-05,1501.9000000000001,1450,1403.5,1500
16.382707834243774,723,180,93,2.4101031524149233e-05,1502.0,1450,1403.5,1500
16.405560970306396,724,180,93,2.4101031524149233e-05,1502.0,1450,1403.5,1500
16.428425788879395,725,180,93,2.4101031524149233e-05,1502.0,1450,1403.5,1500
16.451299905776978,726,179,93,2.405002405002405e-05,1501.9000000000001,1450,1403.5,1500
16.47422480583191,727,179,93,2.405002405002405e-05,1501.9000000000001,1450,1403.5,1500
16.49704885482788,728,179,93,2.405002405002405e-05,1501.9000000000001,1450,1403.5,1500
16.519823789596558,729,180,93,2.3954964666427117e-05,1502.0,1450,1403.5,1500
16.542661905288696,730,180,93,2.3954964666427117e-05,1502.0,1450,1403.5,1500
16.565475940704346,731,180,93,2.3954964666427117e-05,1502.0,1450,1403.5,1500
16.58836579322815,732,180,93,2.3860653781913625e-05,1502.0,1450,1403.5,1500
16.6111319065094,733,179,93,2.405002405002405e-05,1501.9000000000001,1450,1403.5,1500
16.633920907974243,734,179,93,2.405002405002405e-05,1501.9000000000001,1450,1403.5,1500
16.656694889068604,735,180,64,3.6597862684819206e-05,1502.0,1450,1415,1500
16.679426908493042,736,180,93,2.405002405002405e-05,1502.0,1450,1403.5,1500
16.702183961868286,737,180,93,2.3860653781913625e-05,1502.0,1450,1403.5,1500
16.72497797012329,738,180,93,2.3954964666427117e-05,1502.0,1450,1403.5,1500
16.747877836227417,739,180,93,2.3954964666427117e-05,1502.0,1450,1403.5,1500
16.770684957504272,740,179,93,2.405002405002405e-05,1501.9000000000001,1450,1403.5,1500
16.793736934661865,741,180,93,2.3954964666427117e-05,1502.0,1450,1403.5,1500
16.816561937332153,742,181,93,2.3954964666427117e-05,1502.0999999999999,1450,1403.5,1500
16.83932900428772,743,180,93,2.405002405002405e-05,1502.0,1450,1403.5,1500
16.862098932266235,744,180,93,2.3954964666427117e-05,1502.0,1450,1403.5,1500
16.884853839874268,745,181,93,2.3954964666427117e-05,1502.0999999999999,1450,1403.5,1500
16.907813787460327,746,181,93,2.3954964666427117e-05,1502.0999999999999,1450,1403.5,1500
16.930600881576538,747,180,93,2.405002405002405e-05,1502.0,1450,1403.5,1500
16.953414916992188,748,180,93,2.4145840878908608e-05,1502.0,1450,1403.5,1500
16.97617483139038,749,181,93,2.3954964666427117e-05,1502.0999999999999,1450,1403.5,1500
16.998979806900024,750,180,93,2.3954964666427117e-05,1502.0,1450,1403.5,1500
17.021740913391113,751,180,93,2.405002405002405e-05,1502.0,1450,1403.5,1500
17.04452681541443,752,180,93,2.405002405002405e-05,1502.0,1450,1403.5,1500
17.06726884841919,753,180,93,2.405002405002405e-05,1502.0,1450,1403.5,1500
17.09004282951355,754,180,93,2.3860653781913625e-05,1502.0,1450,1403.5,1500
17.112793922424316,755,180,93,2.405002405002405e-05,1502.0,1450,1403.5,1500
17.135644912719727,756,180,71,3.2665860908764253e-05,1502.0,1450,1414.5,1500
17.158477783203125,757,180,93,2.3954964666427117e-05,1502.0,1450,1403.5,1500
17.18127179145813,758,181,92,2.3810657650364302e-05,1502.0999999999999,1450,1404.0,1500
17.204055786132812,759,180,92,2.3810657650364302e-05,1502.0,1450,1404.0,1500
17.226861000061035,760,180,92,2.3668078862038767e-05,1502.0,1450,1404.0,1500
17.249610900878906,761,178,92,2.3390718562874253e-05,1501.8,1450,1404.0,1500
17.272421836853027,762,180,92,2.3668078862038767e-05,1502.0,1450,1404.0,1500
17.295217990875244,763,180,92,2.3810657650364302e-05,1502.0,1450,1404.0,1500
17.318071842193604,764,180,92,2.3716914903709326e-05,1502.0,1450,1404.0,1500
17.340839862823486,765,180,92,2.3761999809904e-05,1502.0,1450,1404.0,1500
17.363646984100342,766,180,92,2.3761999809904e-05,1502.0,1450,1404.0,1500
17.38640284538269,767,181,92,2.3668078862038767e-05,1502.0999999999999,1450,1404.0,1500
17.40921688079834,768,180,92,2.3668078862038767e-05,1502.0,1450,1404.0,1500
17.431980848312378,769,180,92,2.3668078862038767e-05,1502.0,1450,1404.0,1500
17.454822778701782,770,179,92,2.3574897449196096e-05,1501.9000000000001,1450,1404.0,1500
17.477730989456177,771,180,92,2.3668078862038767e-05,1502.0,1450,1404.0,1500
17.500545978546143,772,180,91,2.362055933484505e-05,1502.0,1450,1404.5,1500
17.523316860198975,773,180,91,2.362055933484505e-05,1502.0,1450,1404.5,1500
17.54613995552063,774,180,91,2.3434570678665168e-05,1502.0,1450,1404.5,1500
17.568890810012817,775,180,91,2.362055933484505e-05,1502.0,1450,1404.5,1500
17.591718912124634,776,180,91,2.3434570678665168e-05,1502.0,1450,1404.5,1500
17.614487886428833,777,179,91,2.3434570678665168e-05,1501.9000000000001,1450,1404.5,1500
17.63732600212097,778,179,91,2.3434570678665168e-05,1501.9000000000001,1450,1404.5,1500
17.660130977630615,779,180,91,2.362055933484505e-05,1502.0,1450,1404.5,1500
17.68295693397522,780,180,91,2.362055933484505e-05,1502.0,1450,1404.5,1500
17.705769777297974,781,181,91,2.3527197440240918e-05,1502.0999999999999,1450,1404.5,1500
17.728646993637085,782,180,92,2.3668078862038767e-05,1502.0,1450,1404.0,1500
17.751413822174072,783,180,92,2.3761999809904e-05,1502.0,1450,1404.0,1500
17.774191856384277,784,181,92,2.3668078862038767e-05,1502.0999999999999,1450,1404.0,1500
17.796976804733276,785,180,92,2.3668078862038767e-05,1502.0,1450,1404.0,1500
17.819772958755493,786,180,92,2.3482446870963955e-05,1502.0,1450,1404.0,1500
17.842532873153687,787,180,92,2.3761999809904e-05,1502.0,1450,1404.0,1500
17.86540198326111,788,181,92,2.3668078862038767e-05,1502.0999999999999,1450,1404.0,1500
17.88825798034668,789,181,92,2.3668078862038767e-05,1502.0999999999999,1450,1404.0,1500
17.911059856414795,790,180,92,2.3716914903709326e-05,1502.0,1450,1404.0,1500
17.933809995651245,791,180,92,2.3716914903709326e-05,1502.0,1450,1404.0,1500
17.95690894126892,792,180,92,2.3668078862038767e-05,1502.0,1450,1404.0,1500
17.97968077659607,793,180,92,2.3761999809904e-05,1502.0,1450,1404.0,1500
18.00247597694397,794,181,92,2.3810657650364302e-05,1502.0999999999999,1450,1404.0,1500
18.025321006774902,795,181,92,2.3668078862038767e-05,1502.0999999999999,1450,1404.0,1500
18.048236846923828,796,181,92,2.3810657650364302e-05,1502.0999999999999,1450,1404.0,1500
18.07112193107605,797,180,92,2.3905144387072098e-05,1502.0,1450,1404.0,1500
18.09411883354187,798,180,92,2.3905144387072098e-05,1502.0,1450,1404.0,1500
18.116946935653687,799,180,93,2.3860653781913625e-05,1502.0,1450,1403.5,1500
18.139760971069336,800,180,93,2.405002405002405e-05,1502.0,1450,1403.5,1500
18.162516832351685,801,180,93,2.405002405002405e-05,1502.0,1450,1403.5,1500
18.18537998199463,802,181,93,2.4101031524149233e-05,1502.0999999999999,1450,1403.5,1500
18.2082359790802,803,181,94,2.4153422539973914e-05,1502.0999999999999,1450,1403.0,1500
18.231043815612793,804,181,94,2.420721374969741e-05,1502.0999999999999,1450,1403.0,1500
18.253829956054688,805,181,95,2.4453465055998436e-05,1502.0999999999999,1450,1402.5,1500
18.276718854904175,806,181,95,2.4606299212598425e-05,1502.0999999999999,1450,1402.5,1500
18.299678802490234,807,181,95,2.4606299212598425e-05,1502.0999999999999,1450,1402.5,1500
18.322523832321167,808,181,95,2.4606299212598425e-05,1502.0999999999999,1450,1402.5,1500
18.345375776290894,809,181,96,2.4663953631767172e-05,1502.0999999999999,1450,1402.0,1500
18.368284940719604,810,180,96,2.47610558114198e-05,1502.0,1450,1402.0,1500
18.391066789627075,811,180,96,2.47610558114198e-05,1502.0,1450,1402.0,1500
18.41391086578369,812,180,96,2.47610558114198e-05,1502.0,1450,1402.0,1500
18.436808824539185,813,181,95,2.4509803921568626e-05,1502.0999999999999,1450,1402.5,1500
18.459678888320923,814,181,95,2.4509803921568626e-05,1502.0999999999999,1450,1402.5,1500
18.48247790336609,815,181,95,2.4509803921568626e-05,1502.0999999999999,1450,1402.5,1500
18.50536799430847,816,181,96,2.4663953631767172e-05,1502.0999999999999,1450,1402.0,1500
18.528215885162354,817,177,97,2.5952455102252672e-05,1501.7,1450,1401.5,1500
18.551012992858887,818,180,96,2.47610558114198e-05,1502.0,1450,1402.0,1500
18.57377600669861,819,180,97,2.523722996163941e-05,1502.0,1450,1401.5,1500
18.59657597541809,820,181,70,3.734827264239029e-05,1502.0999999999999,1450,1415.0,1500
18.619378805160522,821,181,97,2.4978144123891593e-05,1502.0999999999999,1450,1401.5,1500
18.64220690727234,822,180,97,2.5076483273985658e-05,1502.0,1450,1401.5,1500
