time,frame,x,y,size_inv,roll,pitch,thrust,yaw
0.00030303001403808594,1,168,80,0.002178649237472767,1500.8,1490.0,1310.0,1500
0.0222320556640625,2,168,79,0.002403846153846154,1500.8,1494.6165367856545,1310.5,1500
0.04377603530883789,3,169,79,0.0024691358024691358,1500.9000000000001,1495.9549745824256,1310.5,1500
0.06522989273071289,4,168,78,0.003076923076923077,1500.8,1508.4146137087314,1311.0,1500
0.08660507202148438,5,168,80,0.002178649237472767,1500.8,1490.0,1310.0,1500
0.10788106918334961,6,168,80,0.002178649237472767,1500.8,1490.0,1310.0,1500
0.12940597534179688,7,168,80,0.0022624434389140274,1500.8,1491.7177811295458,1310.0,1500
0.15086603164672852,8,168,80,0.002178649237472767,1500.8,1490.0,1310.0,1500
0.17228102684020996,9,168,79,0.0023148148148148147,1500.8,1492.791394335512,1310.5,1500
0.19374394416809082,10,168,80,0.0021008403361344537,1500.8,1488.4049175225646,1310.0,1500
0.2153000831604004,11,167,80,0.0022624434389140274,1500.7,1491.7177811295458,1310.0,1500
0.23699498176574707,12,168,80,0.002178649237472767,1500.8,1490.0,1310.0,1500
0.25882792472839355,13,168,80,0.0021008403361344537,1500.8,1488.4049175225646,1310.0,1500
0.28064393997192383,14,168,80,0.002178649237472767,1500.8,1490.0,1310.0,1500
0.3023219108581543,15,168,80,0.002178649237472767,1500.8,1490.0,1310.0,1500
0.32398509979248047,16,168,80,0.0022624434389140274,1500.8,1491.7177811295458,1310.0,1500
0.34569692611694336,17,169,80,0.002178649237472767,1500.9000000000001,1490.0,1310.0,1500
0.3673989772796631,18,168,80,0.002178649237472767,1500.8,1490.0,1310.0,1500
0.38904595375061035,19,170,83,0.003952569169960474,1501.0,1510,1308.5,1500
0.4109470844268799,20,168,80,0.0021008403361344537,1500.8,1488.4049175225646,1310.0,1500
0.43265604972839355,21,168,80,0.002178649237472767,1500.8,1490.0,1310.0,1500
0.4543149471282959,22,167,80,0.0022624434389140274,1500.7,1491.7177811295458,1310.0,1500
0.47592902183532715,23,168,80,0.0021008403361344537,1500.8,1488.4049175225646,1310.0,1500
0.4976780414581299,24,168,80,0.002178649237472767,1500.8,1490.0,1310.0,1500
0.5195019245147705,25,168,80,0.002178649237472767,1500.8,1490.0,1310.0,1500
0.5412890911102295,26,168,80,0.0021008403361344537,1500.8,1488.4049175225646,1310.0,1500
0.5629870891571045,27,168,80,0.002178649237472767,1500.8,1490.0,1310.0,1500
0.5847659111022949,28,167,80,0.0022624434389140274,1500.7,1491.7177811295458,1310.0,1500
0.606652021408081,29,169,80,0.002178649237472767,1500.9000000000001,1490.0,1310.0,1500
0.6284019947052002,30,168,80,0.002178649237472767,1500.8,1490.0,1310.0,1500
0.6500859260559082,31,169,80,0.0021008403361344537,1500.9000000000001,1488.4049175225646,1310.0,1500
0.6717760562896729,32,169,80,0.002178649237472767,1500.9000000000001,1490.0,1310.0,1500
0.6934061050415039,33,169,80,0.002178649237472767,1500.9000000000001,1490.0,1310.0,1500
0.7150900363922119,34,167,80,0.0022624434389140274,1500.7,1491.7177811295458,1310.0,1500
0.7372379302978516,35,169,78,0.0026455026455026454,1500.9000000000001,1499.5704948646126,1311.0,1500
0.7606050968170166,36,168,80,0.002178649237472767,1500.8,1490.0,1310.0,1500
0.7836449146270752,37,168,80,0.002178649237472767,1500.8,1490.0,1310.0,1500
0.8069260120391846,38,168,80,0.0021008403361344537,1500.8,1488.4049175225646,1310.0,1500
0.830207109451294,39,168,80,0.002178649237472767,1500.8,1490.0,1310.0,1500
0.8532760143280029,40,168,80,0.0021008403361344537,1500.8,1488.4049175225646,1310.0,1500
0.8765161037445068,41,169,80,0.002178649237472767,1500.9000000000001,1490.0,1310.0,1500
0.8997790813446045,42,168,80,0.0022624434389140274,1500.8,1491.7177811295458,1310.0,1500
0.9232399463653564,43,168,80,0.002178649237472767,1500.8,1490.0,1310.0,1500
0.9464120864868164,44,168,80,0.002178649237472767,1500.8,1490.0,1310.0,1500
0.9697349071502686,45,168,80,0.0022624434389140274,1500.8,1491.7177811295458,1310.0,1500
0.9931778907775879,46,168,80,0.002178649237472767,1500.8,1490.0,1310.0,1500
1.0164220333099365,47,168,80,0.002352941176470588,1500.8,1493.5729847494554,1310.0,1500
1.03969407081604,48,169,80,0.002178649237472767,1500.9000000000001,1490.0,1310.0,1500
1.0632190704345703,49,168,80,0.002178649237472767,1500.8,1490.0,1310.0,1500
1.0863759517669678,50,168,80,0.002178649237472767,1500.8,1490.0,1310.0,1500
1.1097030639648438,51,168,80,0.0021008403361344537,1500.8,1488.4049175225646,1310.0,1500
1.1330881118774414,52,168,80,0.002178649237472767,1500.8,1490.0,1310.0,1500
1.1563019752502441,53,169,78,0.0026455026455026454,1500.9000000000001,1499.5704948646126,1311.0,1500
1.1796770095825195,54,168,80,0.002178649237472767,1500.8,1490.0,1310.0,1500
1.2028288841247559,55,169,80,0.002178649237472767,1500.9000000000001,1490.0,1310.0,1500
1.226046085357666,56,168,80,0.0021008403361344537,1500.8,1488.4049175225646,1310.0,1500
1.2490630149841309,57,168,80,0.0022624434389140274,1500.8,1491.7177811295458,1310.0,1500
1.2723090648651123,58,169,80,0.002178649237472767,1500.9000000000001,1490.0,1310.0,1500
1.295501947402954,59,168,80,0.002178649237472767,1500.8,1490.0,1310.0,1500
1.3187010288238525,60,168,80,0.002352941176470588,1500.8,1493.5729847494554,1310.0,1500
1.3420679569244385,61,167,80,0.0022624434389140274,1500.7,1491.7177811295458,1310.0,1500
1.365264892578125,62,168,80,0.0022624434389140274,1500.8,1491.7177811295458,1310.0,1500
1.3887500762939453,63,168,80,0.0021008403361344537,1500.8,1488.4049175225646,1310.0,1500
1.4124760627746582,64,168,80,0.002178649237472767,1500.8,1490.0,1310.0,1500
1.4356579780578613,65,168,80,0.002178649237472767,1500.8,1490.0,1310.0,1500
1.458827018737793,66,168,77,0.0034965034965034965,1500.8,1510,1311.5,1500
1.482140064239502,67,168,76,0.0038461538461538464,1500.8,1510,1312.0,1500
1.5051939487457275,68,168,80,0.002178649237472767,1500.8,1490.0,1310.0,1500
1.5285248756408691,69,168,80,0.0022624434389140274,1500.8,1491.7177811295458,1310.0,1500
1.5519559383392334,70,168,80,0.0022624434389140274,1500.8,1491.7177811295458,1310.0,1500
1.5753209590911865,71,168,80,0.002178649237472767,1500.8,1490.0,1310.0,1500
1.5984060764312744,72,168,80,0.0021008403361344537,1500.8,1488.4049175225646,1310.0,1500
1.621556043624878,73,168,78,0.0029585798816568047,1500.8,1505.9885782057727,1311.0,1500
1.644623041152954,74,168,80,0.002178649237472767,1500.8,1490.0,1310.0,1500
1.6676909923553467,75,168,77,0.003205128205128205,1500.8,1510,1311.5,1500
1.6908690929412842,76,167,80,0.0022624434389140274,1500.7,1491.7177811295458,1310.0,1500
1.7140069007873535,77,168,78,0.0027472527472527475,1500.8,1501.6563719504895,1311.0,1500
1.7372689247131348,78,168,78,0.002551020408163265,1500.8,1497.6336089991553,1311.0,1500
1.7605059146881104,79,168,80,0.002178649237472767,1500.8,1490.0,1310.0,1500
1.7835469245910645,80,168,80,0.002178649237472767,1500.8,1490.0,1310.0,1500
1.8066949844360352,81,168,80,0.0021008403361344537,1500.8,1488.4049175225646,1310.0,1500
1.8299839496612549,82,168,80,0.002178649237472767,1500.8,1490.0,1310.0,1500
1.8532660007476807,83,168,80,0.002178649237472767,1500.8,1490.0,1310.0,1500
1.8765740394592285,84,168,80,0.0021008403361344537,1500.8,1488.4049175225646,1310.0,1500
1.8998019695281982,85,167,80,0.0022624434389140274,1500.7,1491.7177811295458,1310.0,1500
1.923171043395996,86,168,80,0.0022624434389140274,1500.8,1491.7177811295458,1310.0,1500
1.9464170932769775,87,168,80,0.002178649237472767,1500.8,1490.0,1310.0,1500
1.9696919918060303,88,168,80,0.0021008403361344537,1500.8,1488.4049175225646,1310.0,1500
1.9930269718170166,89,168,80,0.002352941176470588,1500.8,1493.5729847494554,1310.0,1500
2.016308069229126,90,168,80,0.0022624434389140274,1500.8,1491.7177811295458,1310.0,1500
2.0395400524139404,91,168,80,0.002178649237472767,1500.8,1490.0,1310.0,1500
2.0629189014434814,92,169,80,0.002178649237472767,1500.9000000000001,1490.0,1310.0,1500
2.086055040359497,93,168,80,0.002178649237472767,1500.8,1490.0,1310.0,1500
2.1095190048217773,94,168,80,0.0021008403361344537,1500.8,1488.4049175225646,1310.0,1500
2.1328179836273193,95,167,80,0.0022624434389140274,1500.7,1491.7177811295458,1310.0,1500
2.156097888946533,96,168,79,0.002403846153846154,1500.8,1494.6165367856545,1310.5,1500
2.1791980266571045,97,168,80,0.0021008403361344537,1500.8,1488.4049175225646,1310.0,1500
2.2028040885925293,98,168,80,0.0021008403361344537,1500.8,1488.4049175225646,1310.0,1500
2.2261829376220703,99,167,80,0.0022624434389140274,1500.7,1491.7177811295458,1310.0,1500
2.249469041824341,100,168,80,0.0021008403361344537,1500.8,1488.4049175225646,1310.0,1500
2.27291202545166,101,169,80,0.002178649237472767,1500.9000000000001,1490.0,1310.0,1500
2.296444892883301,102,168,80,0.002178649237472767,1500.8,1490.0,1310.0,1500
2.3197810649871826,103,168,80,0.0022624434389140274,1500.8,1491.7177811295458,1310.0,1500
2.3431220054626465,104,168,80,0.002178649237472767,1500.8,1490.0,1310.0,1500
2.366291046142578,105,168,80,0.0022624434389140274,1500.8,1491.7177811295458,1310.0,1500
2.389794111251831,106,168,80,0.0021008403361344537,1500.8,1488.4049175225646,1310.0,1500
2.4130260944366455,107,169,80,0.002178649237472767,1500.9000000000001,1490.0,1310.0,1500
2.43625807762146,108,168,80,0.002352941176470588,1500.8,1493.5729847494554,1310.0,1500
2.4596810340881348,109,168,80,0.002178649237472767,1500.8,1490.0,1310.0,1500
2.482875108718872,110,168,80,0.0021008403361344537,1500.8,1488.4049175225646,1310.0,1500
2.5062150955200195,111,167,80,0.0022624434389140274,1500.7,1491.7177811295458,1310.0,1500
2.5298171043395996,112,168,80,0.0021008403361344537,1500.8,1488.4049175225646,1310.0,1500
2.55336594581604,113,168,80,0.0022624434389140274,1500.8,1491.7177811295458,1310.0,1500
2.5768818855285645,114,168,80,0.002178649237472767,1500.8,1490.0,1310.0,1500
2.600213050842285,115,168,80,0.002178649237472767,1500.8,1490.0,1310.0,1500
2.6235249042510986,116,168,80,0.002178649237472767,1500.8,1490.0,1310.0,1500
2.646929979324341,117,168,80,0.0022624434389140274,1500.8,1491.7177811295458,1310.0,1500
2.670306921005249,118,168,80,0.002178649237472767,1500.8,1490.0,1310.0,1500
2.693804979324341,119,168,80,0.0022624434389140274,1500.8,1491.7177811295458,1310.0,1500
2.7170159816741943,120,168,80,0.002178649237472767,1500.8,1490.0,1310.0,1500
2.7405319213867188,121,168,80,0.002178649237472767,1500.8,1490.0,1310.0,1500
2.763791084289551,122,168,77,0.0030864197530864196,1500.8,1508.6092955700799,1311.5,1500
2.7872440814971924,123,168,79,0.0023148148148148147,1500.8,1492.791394335512,1310.5,1500
2.8106040954589844,124,168,80,0.002178649237472767,1500.8,1490.0,1310.0,1500
2.8340260982513428,125,168,80,0.0022624434389140274,1500.8,1491.7177811295458,1310.0,1500
2.8573930263519287,126,168,80,0.0021008403361344537,1500.8,1488.4049175225646,1310.0,1500
2.8809900283813477,127,168,80,0.0021008403361344537,1500.8,1488.4049175225646,1310.0,1500
2.9043688774108887,128,169,80,0.002178649237472767,1500.9000000000001,1490.0,1310.0,1500
2.9277520179748535,129,168,80,0.0022624434389140274,1500.8,1491.7177811295458,1310.0,1500
2.951076030731201,130,168,80,0.0022624434389140274,1500.8,1491.7177811295458,1310.0,1500
2.9744949340820312,131,168,80,0.002178649237472767,1500.8,1490.0,1310.0,1500
2.9978270530700684,132,168,80,0.0021008403361344537,1500.8,1488.4049175225646,1310.0,1500
3.0212459564208984,133,168,80,0.0022624434389140274,1500.8,1491.7177811295458,1310.0,1500
3.044567108154297,134,168,80,0.002178649237472767,1500.8,1490.0,1310.0,1500
3.0678789615631104,135,168,77,0.0033333333333333335,1500.8,1510,1311.5,1500
3.0912129878997803,136,168,80,0.0022624434389140274,1500.8,1491.7177811295458,1310.0,1500
3.114682912826538,137,168,80,0.002178649237472767,1500.8,1490.0,1310.0,1500
3.137938976287842,138,168,80,0.0022624434389140274,1500.8,1491.7177811295458,1310.0,1500
3.161478042602539,139,168,80,0.002178649237472767,1500.8,1490.0,1310.0,1500
3.1847939491271973,140,169,80,0.002178649237472767,1500.9000000000001,1490.0,1310.0,1500
3.20816707611084,141,169,80,0.002178649237472767,1500.9000000000001,1490.0,1310.0,1500
3.231534004211426,142,167,80,0.0022624434389140274,1500.7,1491.7177811295458,1310.0,1500
3.254887104034424,143,168,80,0.0021008403361344537,1500.8,1488.4049175225646,1310.0,1500
3.278331995010376,144,168,80,0.002178649237472767,1500.8,1490.0,1310.0,1500
3.302243947982788,145,168,80,0.0022624434389140274,1500.8,1491.7177811295458,1310.0,1500
3.3254799842834473,146,167,80,0.0022624434389140274,1500.7,1491.7177811295458,1310.0,1500
3.348957061767578,147,168,80,0.002178649237472767,1500.8,1490.0,1310.0,1500
3.372391939163208,148,167,78,0.0027472527472527475,1500.7,1501.6563719504895,1311.0,1500
3.3958899974823,149,168,80,0.0021008403361344537,1500.8,1488.4049175225646,1310.0,1500
3.419605016708374,150,168,80,0.002352941176470588,1500.8,1493.5729847494554,1310.0,1500
3.4432199001312256,151,168,80,0.002178649237472767,1500.8,1490.0,1310.0,1500
3.466557025909424,152,168,80,0.002178649237472767,1500.8,1490.0,1310.0,1500
3.4899699687957764,153,168,80,0.0021008403361344537,1500.8,1488.4049175225646,1310.0,1500
3.513417959213257,154,168,79,0.002564102564102564,1500.8,1497.9017931959108,1310.5,1500
3.537091016769409,155,169,80,0.002178649237472767,1500.9000000000001,1490.0,1310.0,1500
3.5604209899902344,156,168,78,0.002857142857142857,1500.8,1503.9091192032367,1311.0,1500
3.5838570594787598,157,168,80,0.0022624434389140274,1500.8,1491.7177811295458,1310.0,1500
3.607456922531128,158,168,80,0.002178649237472767,1500.8,1490.0,1310.0,1500
3.6307790279388428,159,169,80,0.002178649237472767,1500.9000000000001,1490.0,1310.0,1500
3.6541340351104736,160,169,80,0.002178649237472767,1500.9000000000001,1490.0,1310.0,1500
3.677371025085449,161,168,80,0.002178649237472767,1500.8,1490.0,1310.0,1500
3.7006890773773193,162,169,80,0.002178649237472767,1500.9000000000001,1490.0,1310.0,1500
3.7240231037139893,163,168,80,0.0022624434389140274,1500.8,1491.7177811295458,1310.0,1500
3.7475380897521973,164,168,80,0.002178649237472767,1500.8,1490.0,1310.0,1500
3.7710330486297607,165,168,80,0.002178649237472767,1500.8,1490.0,1310.0,1500
3.7943379878997803,166,168,78,0.0027472527472527475,1500.8,1501.6563719504895,1311.0,1500
3.8176450729370117,167,168,80,0.002178649237472767,1500.8,1490.0,1310.0,1500
3.8411529064178467,168,168,80,0.002178649237472767,1500.8,1490.0,1310.0,1500
3.8644700050354004,169,168,80,0.002178649237472767,1500.8,1490.0,1310.0,1500
3.8878390789031982,170,168,77,0.003205128205128205,1500.8,1510,1311.5,1500
3.911051034927368,171,168,79,0.0024691358024691358,1500.8,1495.9549745824256,1310.5,1500
3.934514045715332,172,168,80,0.002352941176470588,1500.8,1493.5729847494554,1310.0,1500
3.9578919410705566,173,168,80,0.0022624434389140274,1500.8,1491.7177811295458,1310.0,1500
3.9814770221710205,174,168,80,0.002178649237472767,1500.8,1490.0,1310.0,1500
4.004821062088013,175,168,80,0.002178649237472767,1500.8,1490.0,1310.0,1500
4.028081893920898,176,169,80,0.002028397565922921,1500.9000000000001,1486.9198407332281,1310.0,1500
4.051480054855347,177,168,80,0.002178649237472767,1500.8,1490.0,1310.0,1500
4.074899911880493,178,168,80,0.0021008403361344537,1500.8,1488.4049175225646,1310.0,1500
4.098188877105713,179,167,80,0.0022624434389140274,1500.7,1491.7177811295458,1310.0,1500
4.121695041656494,180,169,78,0.0026455026455026454,1500.9000000000001,1499.5704948646126,1311.0,1500
4.144972085952759,181,168,80,0.002178649237472767,1500.8,1490.0,1310.0,1500
4.168412923812866,182,167,79,0.002403846153846154,1500.7,1494.6165367856545,1310.5,1500
4.191683053970337,183,168,80,0.0022624434389140274,1500.8,1491.7177811295458,1310.0,1500
4.215033054351807,184,168,80,0.0022624434389140274,1500.8,1491.7177811295458,1310.0,1500
4.238434076309204,185,167,80,0.0022624434389140274,1500.7,1491.7177811295458,1310.0,1500
4.262139081954956,186,168,80,0.0021008403361344537,1500.8,1488.4049175225646,1310.0,1500
4.285574913024902,187,168,80,0.002178649237472767,1500.8,1490.0,1310.0,1500
4.309010028839111,188,168,80,0.002178649237472767,1500.8,1490.0,1310.0,1500
4.332442045211792,189,168,80,0.002352941176470588,1500.8,1493.5729847494554,1310.0,1500
4.3558189868927,190,168,80,0.0022624434389140274,1500.8,1491.7177811295458,1310.0,1500
4.379194974899292,191,169,80,0.002178649237472767,1500.9000000000001,1490.0,1310.0,1500
4.402988910675049,192,169,80,0.002178649237472767,1500.9000000000001,1490.0,1310.0,1500
4.426950931549072,193,168,80,0.002178649237472767,1500.8,1490.0,1310.0,1500
4.450272083282471,194,168,80,0.002352941176470588,1500.8,1493.5729847494554,1310.0,1500
4.47374701499939,195,168,80,0.0021008403361344537,1500.8,1488.4049175225646,1310.0,1500
4.497220039367676,196,168,80,0.0021008403361344537,1500.8,1488.4049175225646,1310.0,1500
4.520555019378662,197,168,80,0.002178649237472767,1500.8,1490.0,1310.0,1500
4.543972015380859,198,168,80,0.002352941176470588,1500.8,1493.5729847494554,1310.0,1500
4.567228078842163,199,168,80,0.0021008403361344537,1500.8,1488.4049175225646,1310.0,1500
4.590763092041016,200,168,80,0.0021008403361344537,1500.8,1488.4049175225646,1310.0,1500
4.614038944244385,201,168,80,0.0021008403361344537,1500.8,1488.4049175225646,1310.0,1500
4.637474060058594,202,168,80,0.0021008403361344537,1500.8,1488.4049175225646,1310.0,1500
4.660823106765747,203,167,80,0.0022624434389140274,1500.7,1491.7177811295458,1310.0,1500
4.684213876724243,204,168,80,0.002178649237472767,1500.8,1490.0,1310.0,1500
4.707498073577881,205,168,80,0.002178649237472767,1500.8,1490.0,1310.0,1500
4.731096982955933,206,168,80,0.002178649237472767,1500.8,1490.0,1310.0,1500
4.75445294380188,207,168,80,0.002178649237472767,1500.8,1490.0,1310.0,1500
4.777807950973511,208,168,80,0.0021008403361344537,1500.8,1488.4049175225646,1310.0,1500
4.801146984100342,209,168,80,0.002178649237472767,1500.8,1490.0,1310.0,1500
4.8247199058532715,210,168,80,0.002178649237472767,1500.8,1490.0,1310.0,1500
4.8482279777526855,211,168,80,0.002178649237472767,1500.8,1490.0,1310.0,1500
4.871506929397583,212,168,80,0.0022624434389140274,1500.8,1491.7177811295458,1310.0,1500
4.89492392539978,213,168,80,0.0022624434389140274,1500.8,1491.7177811295458,1310.0,1500
4.918399095535278,214,168,80,0.0021008403361344537,1500.8,1488.4049175225646,1310.0,1500
4.9417970180511475,215,167,80,0.0022624434389140274,1500.7,1491.7177811295458,1310.0,1500
4.965290069580078,216,169,80,0.002178649237472767,1500.9000000000001,1490.0,1310.0,1500
4.988595008850098,217,167,80,0.0022624434389140274,1500.7,1491.7177811295458,1310.0,1500
5.0122458934783936,218,167,80,0.0022624434389140274,1500.7,1491.7177811295458,1310.0,1500
5.035553932189941,219,168,80,0.002178649237472767,1500.8,1490.0,1310.0,1500
5.058964967727661,220,168,80,0.0021008403361344537,1500.8,1488.4049175225646,1310.0,1500
5.082413911819458,221,168,80,0.002178649237472767,1500.8,1490.0,1310.0,1500
5.105808973312378,222,169,80,0.002178649237472767,1500.9000000000001,1490.0,1310.0,1500
5.129064083099365,223,168,80,0.0022624434389140274,1500.8,1491.7177811295458,1310.0,1500
5.152882099151611,224,169,80,0.002178649237472767,1500.9000000000001,1490.0,1310.0,1500
5.176254034042358,225,169,80,0.002178649237472767,1500.9000000000001,1490.0,1310.0,1500
5.199656009674072,226,168,80,0.002178649237472767,1500.8,1490.0,1310.0,1500
5.223206996917725,227,168,80,0.002352941176470588,1500.8,1493.5729847494554,1310.0,1500
5.246695041656494,228,168,80,0.002178649237472767,1500.8,1490.0,1310.0,1500
5.270164966583252,229,169,80,0.002178649237472767,1500.9000000000001,1490.0,1310.0,1500
5.293647050857544,230,167,80,0.0022624434389140274,1500.7,1491.7177811295458,1310.0,1500
5.317009925842285,231,168,80,0.002178649237472767,1500.8,1490.0,1310.0,1500
5.3402159214019775,232,168,77,0.003205128205128205,1500.8,1510,1311.5,1500
5.363519906997681,233,168,80,0.002178649237472767,1500.8,1490.0,1310.0,1500
5.386929035186768,234,168,76,0.004273504273504274,1500.8,1510,1312.0,1500
5.410553932189941,235,168,80,0.0022624434389140274,1500.8,1491.7177811295458,1310.0,1500
5.433948040008545,236,169,80,0.002178649237472767,1500.9000000000001,1490.0,1310.0,1500
5.457231044769287,237,169,80,0.002178649237472767,1500.9000000000001,1490.0,1310.0,1500
5.480535984039307,238,168,80,0.0022624434389140274,1500.8,1491.7177811295458,1310.0,1500
5.503974914550781,239,168,80,0.0022624434389140274,1500.8,1491.7177811295458,1310.0,1500
5.527220010757446,240,168,80,0.0022624434389140274,1500.8,1491.7177811295458,1310.0,1500
5.551101922988892,241,168,80,0.0022624434389140274,1500.8,1491.7177811295458,1310.0,1500
5.574778079986572,242,168,80,0.002178649237472767,1500.8,1490.0,1310.0,1500
5.598083019256592,243,168,80,0.0021008403361344537,1500.8,1488.4049175225646,1310.0,1500
5.621393918991089,244,168,80,0.002178649237472767,1500.8,1490.0,1310.0,1500
5.644815921783447,245,168,80,0.0022624434389140274,1500.8,1491.7177811295458,1310.0,1500
5.668215036392212,246,169,80,0.002178649237472767,1500.9000000000001,1490.0,1310.0,1500
5.691734075546265,247,168,80,0.002178649237472767,1500.8,1490.0,1310.0,1500
5.715015888214111,248,169,80,0.002178649237472767,1500.9000000000001,1490.0,1310.0,1500
5.7385780811309814,249,168,80,0.0022624434389140274,1500.8,1491.7177811295458,1310.0,1500
5.762101888656616,250,168,80,0.0022624434389140274,1500.8,1491.7177811295458,1310.0,1500
5.785449981689453,251,168,80,0.002352941176470588,1500.8,1493.5729847494554,1310.0,1500
5.808823108673096,252,168,80,0.002352941176470588,1500.8,1493.5729847494554,1310.0,1500
5.832557916641235,253,168,80,0.0021008403361344537,1500.8,1488.4049175225646,1310.0,1500
5.8558349609375,254,169,80,0.002178649237472767,1500.9000000000001,1490.0,1310.0,1500
5.879183053970337,255,168,80,0.002178649237472767,1500.8,1490.0,1310.0,1500
5.902770042419434,256,169,80,0.002178649237472767,1500.9000000000001,1490.0,1310.0,1500
5.926069021224976,257,169,80,0.002178649237472767,1500.9000000000001,1490.0,1310.0,1500
5.949506998062134,258,168,80,0.0022624434389140274,1500.8,1491.7177811295458,1310.0,1500
5.973010063171387,259,168,79,0.0024691358024691358,1500.8,1495.9549745824256,1310.5,1500
5.996443033218384,260,168,80,0.0022624434389140274,1500.8,1491.7177811295458,1310.0,1500
6.020051002502441,261,168,80,0.0021008403361344537,1500.8,1488.4049175225646,1310.0,1500
6.043555021286011,262,168,80,0.0021008403361344537,1500.8,1488.4049175225646,1310.0,1500
6.067028999328613,263,168,80,0.002352941176470588,1500.8,1493.5729847494554,1310.0,1500
6.0903520584106445,264,167,79,0.002403846153846154,1500.7,1494.6165367856545,1310.5,1500
6.113754987716675,265,168,80,0.002178649237472767,1500.8,1490.0,1310.0,1500
6.137156963348389,266,168,80,0.002178649237472767,1500.8,1490.0,1310.0,1500
6.160542964935303,267,168,80,0.002178649237472767,1500.8,1490.0,1310.0,1500
6.183564901351929,268,168,80,0.002178649237472767,1500.8,1490.0,1310.0,1500
6.206883907318115,269,168,80,0.0022624434389140274,1500.8,1491.7177811295458,1310.0,1500
6.230135917663574,270,168,80,0.002178649237472767,1500.8,1490.0,1310.0,1500
6.253665924072266,271,168,80,0.0021008403361344537,1500.8,1488.4049175225646,1310.0,1500
6.27681303024292,272,168,79,0.0024691358024691358,1500.8,1495.9549745824256,1310.5,1500
6.300106048583984,273,168,80,0.002178649237472767,1500.8,1490.0,1310.0,1500
6.323448896408081,274,168,80,0.0022624434389140274,1500.8,1491.7177811295458,1310.0,1500
6.346580982208252,275,169,80,0.002178649237472767,1500.9000000000001,1490.0,1310.0,1500
6.369690895080566,276,169,80,0.002178649237472767,1500.9000000000001,1490.0,1310.0,1500
6.393024921417236,277,168,76,0.004,1500.8,1510,1312.0,1500
6.415960073471069,278,169,80,0.002178649237472767,1500.9000000000001,1490.0,1310.0,1500
6.439421892166138,279,168,80,0.0022624434389140274,1500.8,1491.7177811295458,1310.0,1500
6.462718963623047,280,167,80,0.0022624434389140274,1500.7,1491.7177811295458,1310.0,1500
6.485932111740112,281,168,78,0.0026455026455026454,1500.8,1499.5704948646126,1311.0,1500
6.509016990661621,282,168,80,0.002178649237472767,1500.8,1490.0,1310.0,1500
6.532494068145752,283,168,80,0.002178649237472767,1500.8,1490.0,1310.0,1500
6.555649042129517,284,167,83,0.0034965034965034965,1500.7,1510,1308.5,1500
6.5788609981536865,285,168,80,0.002178649237472767,1500.8,1490.0,1310.0,1500
6.60201096534729,286,168,80,0.002178649237472767,1500.8,1490.0,1310.0,1500
6.625194072723389,287,168,80,0.002178649237472767,1500.8,1490.0,1310.0,1500
6.648359060287476,288,169,80,0.002178649237472767,1500.9000000000001,1490.0,1310.0,1500
6.672101974487305,289,168,80,0.0021008403361344537,1500.8,1488.4049175225646,1310.0,1500
6.695180892944336,290,168,80,0.002178649237472767,1500.8,1490.0,1310.0,1500
6.718272924423218,291,168,80,0.002178649237472767,1500.8,1490.0,1310.0,1500
6.741296052932739,292,167,80,0.0022624434389140274,1500.7,1491.7177811295458,1310.0,1500
6.764580011367798,293,168,80,0.002178649237472767,1500.8,1490.0,1310.0,1500
6.787739992141724,294,168,80,0.0021008403361344537,1500.8,1488.4049175225646,1310.0,1500
6.811057090759277,295,168,80,0.0021008403361344537,1500.8,1488.4049175225646,1310.0,1500
6.834281921386719,296,168,78,0.002849002849002849,1500.8,1503.7422490363667,1311.0,1500
6.857377052307129,297,168,80,0.0022624434389140274,1500.8,1491.7177811295458,1310.0,1500
6.880469083786011,298,169,80,0.0021008403361344537,1500.9000000000001,1488.4049175225646,1310.0,1500
6.90358304977417,299,168,80,0.002178649237472767,1500.8,1490.0,1310.0,1500
6.9267120361328125,300,168,80,0.002178649237472767,1500.8,1490.0,1310.0,1500
6.9499170780181885,301,168,80,0.002178649237472767,1500.8,1490.0,1310.0,1500
6.973321914672852,302,168,80,0.002178649237472767,1500.8,1490.0,1310.0,1500
6.996579885482788,303,168,80,0.0021008403361344537,1500.8,1488.4049175225646,1310.0,1500
7.019932985305786,304,168,80,0.002178649237472767,1500.8,1490.0,1310.0,1500
7.043247938156128,305,168,80,0.002178649237472767,1500.8,1490.0,1310.0,1500
7.066312074661255,306,168,80,0.002178649237472767,1500.8,1490.0,1310.0,1500
7.089468955993652,307,168,80,0.002178649237472767,1500.8,1490.0,1310.0,1500
7.1125969886779785,308,168,80,0.0022624434389140274,1500.8,1491.7177811295458,1310.0,1500
7.1357879638671875,309,169,80,0.002178649237472767,1500.9000000000001,1490.0,1310.0,1500
7.158904075622559,310,168,80,0.002178649237472767,1500.8,1490.0,1310.0,1500
7.182261943817139,311,168,80,0.002178649237472767,1500.8,1490.0,1310.0,1500
7.20539402961731,312,168,80,0.002178649237472767,1500.8,1490.0,1310.0,1500
7.228517055511475,313,168,80,0.0021008403361344537,1500.8,1488.4049175225646,1310.0,1500
7.251867055892944,314,168,80,0.0021008403361344537,1500.8,1488.4049175225646,1310.0,1500
7.275062084197998,315,168,84,0.004464285714285714,1500.8,1510,1308.0,1500
7.298037052154541,316,168,76,0.004273504273504274,1500.8,1510,1312.0,1500
7.321106910705566,317,168,80,0.002178649237472767,1500.8,1490.0,1310.0,1500
7.34431791305542,318,168,80,0.002178649237472767,1500.8,1490.0,1310.0,1500
7.367387056350708,319,168,80,0.0021008403361344537,1500.8,1488.4049175225646,1310.0,1500
7.390708923339844,320,168,80,0.002178649237472767,1500.8,1490.0,1310.0,1500
7.414092063903809,321,169,80,0.002178649237472767,1500.9000000000001,1490.0,1310.0,1500
7.437360048294067,322,168,78,0.0026455026455026454,1500.8,1499.5704948646126,1311.0,1500
7.460504055023193,323,168,80,0.002178649237472767,1500.8,1490.0,1310.0,1500
7.483709096908569,324,168,80,0.0022624434389140274,1500.8,1491.7177811295458,1310.0,1500
7.506881952285767,325,168,80,0.0022624434389140274,1500.8,1491.7177811295458,1310.0,1500
7.530104875564575,326,168,80,0.0022624434389140274,1500.8,1491.7177811295458,1310.0,1500
7.553520917892456,327,168,80,0.002178649237472767,1500.8,1490.0,1310.0,1500
7.5767669677734375,328,168,80,0.0022624434389140274,1500.8,1491.7177811295458,1310.0,1500
7.6000189781188965,329,168,80,0.002178649237472767,1500.8,1490.0,1310.0,1500
7.623272895812988,330,168,79,0.0023148148148148147,1500.8,1492.791394335512,1310.5,1500
7.646583080291748,331,168,80,0.002178649237472767,1500.8,1490.0,1310.0,1500
7.669832944869995,332,169,80,0.002178649237472767,1500.9000000000001,1490.0,1310.0,1500
7.693059921264648,333,168,80,0.002178649237472767,1500.8,1490.0,1310.0,1500
7.716120958328247,334,168,80,0.002178649237472767,1500.8,1490.0,1310.0,1500
7.739322900772095,335,168,80,0.002178649237472767,1500.8,1490.0,1310.0,1500
7.762660026550293,336,168,80,0.0022624434389140274,1500.8,1491.7177811295458,1310.0,1500
7.785851955413818,337,167,80,0.0022624434389140274,1500.7,1491.7177811295458,1310.0,1500
7.8090009689331055,338,168,80,0.0022624434389140274,1500.8,1491.7177811295458,1310.0,1500
7.832878112792969,339,168,80,0.002178649237472767,1500.8,1490.0,1310.0,1500
7.856014966964722,340,168,80,0.002178649237472767,1500.8,1490.0,1310.0,1500
7.879124879837036,341,168,80,0.0022624434389140274,1500.8,1491.7177811295458,1310.0,1500
7.902462005615234,342,168,80,0.002178649237472767,1500.8,1490.0,1310.0,1500
7.925566911697388,343,168,80,0.002178649237472767,1500.8,1490.0,1310.0,1500
7.9488019943237305,344,168,80,0.0021008403361344537,1500.8,1488.4049175225646,1310.0,1500
7.9720680713653564,345,168,80,0.002178649237472767,1500.8,1490.0,1310.0,1500
7.995234966278076,346,169,80,0.002178649237472767,1500.9000000000001,1490.0,1310.0,1500
8.018460988998413,347,169,83,0.004132231404958678,1500.9000000000001,1510,1308.5,1500
8.041586875915527,348,167,79,0.002403846153846154,1500.7,1494.6165367856545,1310.5,1500
8.06480097770691,349,167,80,0.0022624434389140274,1500.7,1491.7177811295458,1310.0,1500
8.087800025939941,350,168,80,0.002178649237472767,1500.8,1490.0,1310.0,1500
8.1110520362854,351,168,80,0.0022624434389140274,1500.8,1491.7177811295458,1310.0,1500
8.1340970993042,352,168,80,0.0022624434389140274,1500.8,1491.7177811295458,1310.0,1500
8.157280921936035,353,168,80,0.0022624434389140274,1500.8,1491.7177811295458,1310.0,1500
8.18034291267395,354,169,80,0.002178649237472767,1500.9000000000001,1490.0,1310.0,1500
8.203409910202026,355,168,80,0.002178649237472767,1500.8,1490.0,1310.0,1500
8.226578950881958,356,169,80,0.002178649237472767,1500.9000000000001,1490.0,1310.0,1500
8.249737024307251,357,169,80,0.002178649237472767,1500.9000000000001,1490.0,1310.0,1500
8.273093938827515,358,168,75,0.004807692307692308,1500.8,1510,1312.5,1500
8.29607892036438,359,169,80,0.002178649237472767,1500.9000000000001,1490.0,1310.0,1500
8.319173097610474,360,167,80,0.0022624434389140274,1500.7,1491.7177811295458,1310.0,1500
8.342623949050903,361,168,79,0.002232142857142857,1500.8,1491.0966192032367,1310.5,1500
8.365905046463013,362,168,80,0.002178649237472767,1500.8,1490.0,1310.0,1500
8.38907790184021,363,169,80,0.002178649237472767,1500.9000000000001,1490.0,1310.0,1500
8.412477016448975,364,167,80,0.0022624434389140274,1500.7,1491.7177811295458,1310.0,1500
8.435519933700562,365,168,80,0.002178649237472767,1500.8,1490.0,1310.0,1500
8.458564043045044,366,168,80,0.0022624434389140274,1500.8,1491.7177811295458,1310.0,1500
8.481966018676758,367,168,80,0.002178649237472767,1500.8,1490.0,1310.0,1500
8.505125045776367,368,168,80,0.002178649237472767,1500.8,1490.0,1310.0,1500
8.528271913528442,369,168,80,0.0022624434389140274,1500.8,1491.7177811295458,1310.0,1500
8.551455020904541,370,168,80,0.0021008403361344537,1500.8,1488.4049175225646,1310.0,1500
8.57459807395935,371,168,80,0.0021008403361344537,1500.8,1488.4049175225646,1310.0,1500
8.597723007202148,372,169,80,0.002178649237472767,1500.9000000000001,1490.0,1310.0,1500
8.620851039886475,373,167,80,0.0022624434389140274,1500.7,1491.7177811295458,1310.0,1500
8.643991947174072,374,168,77,0.0030864197530864196,1500.8,1508.6092955700799,1311.5,1500
8.667094945907593,375,168,80,0.002178649237472767,1500.8,1490.0,1310.0,1500
8.690200090408325,376,168,80,0.002178649237472767,1500.8,1490.0,1310.0,1500
8.71331000328064,377,168,80,0.002178649237472767,1500.8,1490.0,1310.0,1500
8.73644495010376,378,168,80,0.002178649237472767,1500.8,1490.0,1310.0,1500
8.759718894958496,379,168,80,0.0021008403361344537,1500.8,1488.4049175225646,1310.0,1500
8.782953977584839,380,168,80,0.0021008403361344537,1500.8,1488.4049175225646,1310.0,1500
8.806049108505249,381,168,80,0.0022624434389140274,1500.8,1491.7177811295458,1310.0,1500
8.829423904418945,382,168,80,0.002178649237472767,1500.8,1490.0,1310.0,1500
8.85280704498291,383,168,80,0.002178649237472767,1500.8,1490.0,1310.0,1500
8.87584900856018,384,168,80,0.002178649237472767,1500.8,1490.0,1310.0,1500
8.899029016494751,385,168,80,0.0022624434389140274,1500.8,1491.7177811295458,1310.0,1500
8.92238998413086,386,168,80,0.0022624434389140274,1500.8,1491.7177811295458,1310.0,1500
8.945844888687134,387,168,80,0.002178649237472767,1500.8,1490.0,1310.0,1500
8.96898603439331,388,166,78,0.0034965034965034965,1500.5999999999999,1510,1311.0,1500
8.992422103881836,389,168,80,0.002178649237472767,1500.8,1490.0,1310.0,1500
9.015743017196655,390,169,79,0.0023148148148148147,1500.9000000000001,1492.791394335512,1310.5,1500
9.038846969604492,391,168,77,0.0036363636363636364,1500.8,1510,1311.5,1500
9.062012910842896,392,168,80,0.002352941176470588,1500.8,1493.5729847494554,1310.0,1500
9.085202932357788,393,168,80,0.0022624434389140274,1500.8,1491.7177811295458,1310.0,1500
9.108277082443237,394,169,80,0.002178649237472767,1500.9000000000001,1490.0,1310.0,1500
9.131505012512207,395,168,80,0.002178649237472767,1500.8,1490.0,1310.0,1500
9.154745101928711,396,168,80,0.0021008403361344537,1500.8,1488.4049175225646,1310.0,1500
9.177972078323364,397,167,80,0.0022624434389140274,1500.7,1491.7177811295458,1310.0,1500
9.201171875,398,166,81,0.0025575447570332483,1500.5999999999999,1497.7673581509898,1309.5,1500
9.224199056625366,399,168,81,0.0021008403361344537,1500.8,1488.4049175225646,1309.5,1500
9.24749493598938,400,167,81,0.0022624434389140274,1500.7,1491.7177811295458,1309.5,1500
9.270719051361084,401,168,81,0.002178649237472767,1500.8,1490.0,1309.5,1500
9.29402208328247,402,168,81,0.002178649237472767,1500.8,1490.0,1309.5,1500
9.317240953445435,403,168,81,0.002178649237472767,1500.8,1490.0,1309.5,1500
9.340403079986572,404,166,81,0.0025575447570332483,1500.5999999999999,1497.7673581509898,1309.5,1500
9.363487005233765,405,168,81,0.00205761316872428,1500.8,1487.518760590656,1309.5,1500
9.386868000030518,406,168,81,0.0021008403361344537,1500.8,1488.4049175225646,1309.5,1500
9.41018795967102,407,168,81,0.002178649237472767,1500.8,1490.0,1309.5,1500
9.43352198600769,408,167,81,0.002136752136752137,1500.7,1489.141109435227,1309.5,1500
9.45666790008545,409,166,81,0.002136752136752137,1500.5999999999999,1489.141109435227,1309.5,1500
9.479907989501953,410,165,81,0.002178649237472767,1500.5,1490.0,1309.5,1500
9.503132104873657,411,163,80,0.00205761316872428,1500.3,1487.518760590656,1310.0,1500
9.526427984237671,412,161,80,0.002178649237472767,1500.0999999999999,1490.0,1310.0,1500
9.549685001373291,413,157,80,0.0022624434389140274,1499.7,1491.7177811295458,1310.0,1500
9.572948932647705,414,154,80,0.0022624434389140274,1499.4000000000001,1491.7177811295458,1310.0,1500
9.596069097518921,415,152,80,0.00205761316872428,1499.2,1487.518760590656,1310.0,1500
9.61936902999878,416,150,81,0.0025575447570332483,1499.0,1497.7673581509898,1309.5,1500
9.642560005187988,417,147,81,0.002178649237472767,1498.7,1490.0,1309.5,1500
9.665841102600098,418,144,81,0.002178649237472767,1498.4000000000001,1490.0,1309.5,1500
9.6890230178833,419,143,80,0.0022624434389140274,1498.3,1491.7177811295458,1310.0,1500
9.712404012680054,420,144,78,0.0023148148148148147,1498.4000000000001,1492.791394335512,1311.0,1500
9.73550009727478,421,144,77,0.002178649237472767,1498.4000000000001,1490.0,1311.5,1500
9.75864291191101,422,146,75,0.002178649237472767,1498.5999999999999,1490.0,1312.5,1500
9.781851053237915,423,147,73,0.002178649237472767,1498.7,1490.0,1313.5,1500
9.805511951446533,424,149,71,0.002403846153846154,1498.9000000000001,1494.6165367856545,1314.5,1500
9.829495906829834,425,154,69,0.002178649237472767,1499.4000000000001,1490.0,1315,1500
9.85266900062561,426,156,68,0.0021008403361344537,1499.5999999999999,1488.4049175225646,1315,1500
9.875731945037842,427,158,68,0.0023148148148148147,1499.8,1492.791394335512,1315,1500
9.898900985717773,428,158,69,0.0022624434389140274,1499.8,1491.7177811295458,1315,1500
9.922197103500366,429,160,69,0.0023148148148148147,1500.0,1492.791394335512,1315,1500
9.94527292251587,430,160,70,0.0023148148148148147,1500.0,1492.791394335512,1315.0,1500
9.968300104141235,431,160,72,0.0021008403361344537,1500.0,1488.4049175225646,1314.0,1500
9.991499900817871,432,159,74,0.002178649237472767,1499.9000000000001,1490.0,1313.0,1500
10.014488935470581,433,156,77,0.002403846153846154,1499.5999999999999,1494.6165367856545,1311.5,1500
10.03798794746399,434,154,78,0.002403846153846154,1499.4000000000001,1494.6165367856545,1311.0,1500
10.061145067214966,435,153,79,0.0023148148148148147,1499.3,1492.791394335512,1310.5,1500
10.084314107894897,436,152,80,0.002178649237472767,1499.2,1490.0,1310.0,1500
10.107399940490723,437,151,80,0.0021008403361344537,1499.0999999999999,1488.4049175225646,1310.0,1500
10.130507946014404,438,150,80,0.0023148148148148147,1499.0,1492.791394335512,1310.0,1500
10.153629064559937,439,150,81,0.002178649237472767,1499.0,1490.0,1309.5,1500
10.176790952682495,440,150,81,0.002178649237472767,1499.0,1490.0,1309.5,1500
10.200121879577637,441,151,81,0.0023148148148148147,1499.0999999999999,1492.791394335512,1309.5,1500
10.223712921142578,442,151,82,0.0023148148148148147,1499.0999999999999,1492.791394335512,1309.0,1500
10.246839046478271,443,151,83,0.0023148148148148147,1499.0999999999999,1492.791394335512,1308.5,1500
10.270071983337402,444,151,84,0.002403846153846154,1499.0999999999999,1494.6165367856545,1308.0,1500
10.293389081954956,445,152,86,0.002178649237472767,1499.2,1490.0,1307.0,1500
10.316590070724487,446,152,87,0.002403846153846154,1499.2,1494.6165367856545,1306.5,1500
10.33982801437378,447,152,88,0.002403846153846154,1499.2,1494.6165367856545,1306.0,1500
10.363257884979248,448,154,91,0.0023148148148148147,1499.4000000000001,1492.791394335512,1304.5,1500
10.386526107788086,449,155,92,0.002403846153846154,1499.5,1494.6165367856545,1304.0,1500
10.409784078598022,450,159,90,0.0033444816053511705,1499.9000000000001,1510,1305.0,1500
10.432979106903076,451,160,91,0.00267379679144385,1500.0,1500.1505248564072,1304.5,1500
10.456044912338257,452,162,89,0.0025,1500.2,1496.5876906318083,1305.5,1500
10.479324102401733,453,164,88,0.002403846153846154,1500.4000000000001,1494.6165367856545,1306.0,1500
10.50248908996582,454,165,87,0.002717391304347826,1500.5,1501.0442123709388,1306.5,1500
10.525659084320068,455,166,84,0.005050505050505051,1500.5999999999999,1510,1308.0,1500
10.54861307144165,456,170,89,0.002403846153846154,1501.0,1494.6165367856545,1305.5,1500
10.571969032287598,457,170,89,0.003076923076923077,1501.0,1508.4146137087314,1305.5,1500
10.595148086547852,458,169,91,0.002403846153846154,1500.9000000000001,1494.6165367856545,1304.5,1500
10.61841893196106,459,168,91,0.002403846153846154,1500.8,1494.6165367856545,1304.5,1500
10.641576051712036,460,168,91,0.0023148148148148147,1500.8,1492.791394335512,1304.5,1500
10.664671897888184,461,169,88,0.005434782608695652,1500.9000000000001,1510,1306.0,1500
10.687666893005371,462,166,91,0.002403846153846154,1500.5999999999999,1494.6165367856545,1304.5,1500
10.710846900939941,463,164,88,0.003787878787878788,1500.4000000000001,1510,1306.0,1500
10.734003067016602,464,166,89,0.002564102564102564,1500.5999999999999,1497.9017931959108,1305.5,1500
10.757376909255981,465,168,88,0.0023148148148148147,1500.8,1492.791394335512,1306.0,1500
10.780719995498657,466,169,88,0.002403846153846154,1500.9000000000001,1494.6165367856545,1306.0,1500
10.803849935531616,467,171,89,0.0023148148148148147,1501.0999999999999,1492.791394335512,1305.5,1500
10.82700800895691,468,170,91,0.002717391304347826,1501.0,1501.0442123709388,1304.5,1500
10.850172996520996,469,169,92,0.002717391304347826,1500.9000000000001,1501.0442123709388,1304.0,1500
10.87352204322815,470,168,93,0.0026041666666666665,1500.8,1498.723107298475,1303.5,1500
10.896718978881836,471,168,94,0.002564102564102564,1500.8,1497.9017931959108,1303.0,1500
10.920149087905884,472,164,94,0.0037593984962406013,1500.4000000000001,1510,1303.0,1500
10.943389892578125,473,162,94,0.0025,1500.2,1496.5876906318083,1303.0,1500
10.966468095779419,474,158,94,0.002717391304347826,1499.8,1501.0442123709388,1303.0,1500
10.989856004714966,475,156,94,0.003125,1499.5999999999999,1509.4001906318083,1303.0,1500
11.01331090927124,476,152,94,0.0034965034965034965,1499.2,1510,1303.0,1500
11.036396980285645,477,151,95,0.002403846153846154,1499.0999999999999,1494.6165367856545,1302.5,1500
11.060193061828613,478,148,96,0.002777777777777778,1498.8,1502.2821350762526,1302.0,1500
11.08370590209961,479,145,97,0.0026041666666666665,1498.5,1498.723107298475,1301.5,1500
11.106810092926025,480,145,98,0.002564102564102564,1498.5,1497.9017931959108,1301.0,1500
11.130137920379639,481,144,99,0.002898550724637681,1498.4000000000001,1504.7579804868808,1300.5,1500
11.153487920761108,482,144,99,0.002777777777777778,1498.4000000000001,1502.2821350762526,1300.5,1500
11.176714897155762,483,145,99,0.002898550724637681,1498.5,1504.7579804868808,1300.5,1500
11.200103998184204,484,146,99,0.002898550724637681,1498.5999999999999,1504.7579804868808,1300.5,1500
11.223510026931763,485,148,98,0.002898550724637681,1498.8,1504.7579804868808,1301.0,1500
11.246692895889282,486,149,98,0.0030303030303030303,1498.9000000000001,1507.4589027530203,1301.0,1500
11.270015954971313,487,153,97,0.002898550724637681,1499.3,1504.7579804868808,1301.5,1500
11.293361902236938,488,154,96,0.002840909090909091,1499.4000000000001,1503.5763269954446,1302.0,1500
11.316449880599976,489,156,96,0.002898550724637681,1499.5999999999999,1504.7579804868808,1302.0,1500
11.339940071105957,490,156,96,0.002898550724637681,1499.5999999999999,1504.7579804868808,1302.0,1500
11.363219022750854,491,156,95,0.002717391304347826,1499.5999999999999,1501.0442123709388,1302.5,1500
11.386673927307129,492,155,95,0.002898550724637681,1499.5,1504.7579804868808,1302.5,1500
11.41087007522583,493,154,94,0.002777777777777778,1499.4000000000001,1502.2821350762526,1303.0,1500
11.434303998947144,494,152,92,0.0030303030303030303,1499.2,1507.4589027530203,1304.0,1500
11.457495927810669,495,152,91,0.002898550724637681,1499.2,1504.7579804868808,1304.5,1500
11.480724096298218,496,151,90,0.0030303030303030303,1499.0999999999999,1507.4589027530203,1305.0,1500
11.503820896148682,497,151,90,0.002777777777777778,1499.0999999999999,1502.2821350762526,1305.0,1500
11.52693796157837,498,151,90,0.002898550724637681,1499.0999999999999,1504.7579804868808,1305.0,1500
11.550214052200317,499,151,90,0.002777777777777778,1499.0999999999999,1502.2821350762526,1305.0,1500
11.573508024215698,500,152,90,0.002898550724637681,1499.2,1504.7579804868808,1305.0,1500
11.596626996994019,501,152,89,0.002898550724637681,1499.2,1504.7579804868808,1305.5,1500
11.620042085647583,502,153,88,0.002898550724637681,1499.3,1504.7579804868808,1306.0,1500
11.643362998962402,503,153,88,0.002898550724637681,1499.3,1504.7579804868808,1306.0,1500
11.666486024856567,504,153,87,0.002898550724637681,1499.3,1504.7579804868808,1306.5,1500
11.689867973327637,505,152,86,0.002777777777777778,1499.2,1502.2821350762526,1307.0,1500
11.713186979293823,506,152,86,0.002898550724637681,1499.2,1504.7579804868808,1307.0,1500
11.7363600730896,507,151,86,0.002898550724637681,1499.0999999999999,1504.7579804868808,1307.0,1500
11.75984001159668,508,151,86,0.002898550724637681,1499.0999999999999,1504.7579804868808,1307.0,1500
11.783047914505005,509,149,85,0.002898550724637681,1498.9000000000001,1504.7579804868808,1307.5,1500
11.806360006332397,510,148,85,0.002898550724637681,1498.8,1504.7579804868808,1307.5,1500
11.82967495918274,511,148,84,0.003105590062111801,1498.8,1509.0022869051002,1308.0,1500
11.853080987930298,512,148,84,0.002777777777777778,1498.8,1502.2821350762526,1308.0,1500
11.876194953918457,513,147,84,0.002898550724637681,1498.7,1504.7579804868808,1308.0,1500
11.899637937545776,514,147,84,0.002898550724637681,1498.7,1504.7579804868808,1308.0,1500
11.92297101020813,515,147,85,0.002898550724637681,1498.7,1504.7579804868808,1307.5,1500
11.946136951446533,516,147,86,0.002898550724637681,1498.7,1504.7579804868808,1307.0,1500
11.969433069229126,517,147,87,0.002898550724637681,1498.7,1504.7579804868808,1306.5,1500
11.992939949035645,518,147,87,0.003105590062111801,1498.7,1509.0022869051002,1306.5,1500
12.016242027282715,519,147,88,0.002898550724637681,1498.7,1504.7579804868808,1306.0,1500
12.03950309753418,520,147,88,0.003105590062111801,1498.7,1509.0022869051002,1306.0,1500
12.062735080718994,521,147,89,0.002898550724637681,1498.7,1504.7579804868808,1305.5,1500
12.086153984069824,522,147,89,0.002898550724637681,1498.7,1504.7579804868808,1305.5,1500
12.109551906585693,523,147,89,0.002898550724637681,1498.7,1504.7579804868808,1305.5,1500
12.132894039154053,524,147,89,0.003105590062111801,1498.7,1509.0022869051002,1305.5,1500
12.15601897239685,525,148,89,0.002976190476190476,1498.8,1506.3495953937131,1305.5,1500
12.17913007736206,526,147,89,0.003246753246753247,1498.7,1510,1305.5,1500
12.202471017837524,527,147,89,0.003246753246753247,1498.7,1510,1305.5,1500
12.225534915924072,528,148,90,0.0030303030303030303,1498.8,1507.4589027530203,1305.0,1500
12.248651027679443,529,148,90,0.003246753246753247,1498.8,1510,1305.0,1500
12.272027969360352,530,149,90,0.002857142857142857,1498.9000000000001,1503.9091192032367,1305.0,1500
12.295212030410767,531,148,90,0.002976190476190476,1498.8,1506.3495953937131,1305.0,1500
12.31837511062622,532,147,90,0.003105590062111801,1498.7,1509.0022869051002,1305.0,1500
12.341650009155273,533,146,89,0.003246753246753247,1498.5999999999999,1510,1305.5,1500
12.364835977554321,534,146,88,0.003105590062111801,1498.5999999999999,1509.0022869051002,1306.0,1500
12.38805103302002,535,144,86,0.004132231404958678,1498.4000000000001,1510,1307.0,1500
12.411189079284668,536,144,87,0.003105590062111801,1498.4000000000001,1509.0022869051002,1306.5,1500
12.434284925460815,537,143,86,0.003246753246753247,1498.3,1510,1307.0,1500
12.457415103912354,538,143,86,0.002976190476190476,1498.3,1506.3495953937131,1307.0,1500
12.4805428981781,539,143,86,0.002898550724637681,1498.3,1504.7579804868808,1307.0,1500
12.503690004348755,540,144,85,0.003105590062111801,1498.4000000000001,1509.0022869051002,1307.5,1500
12.526796102523804,541,144,85,0.003246753246753247,1498.4000000000001,1510,1307.5,1500
12.549952983856201,542,144,84,0.003246753246753247,1498.4000000000001,1510,1308.0,1500
12.573219060897827,543,146,84,0.003105590062111801,1498.5999999999999,1509.0022869051002,1308.0,1500
12.59625506401062,544,147,84,0.003105590062111801,1498.7,1509.0022869051002,1308.0,1500
12.619777917861938,545,148,83,0.003105590062111801,1498.8,1509.0022869051002,1308.5,1500
12.643066883087158,546,147,83,0.003246753246753247,1498.7,1510,1308.5,1500
12.666173934936523,547,148,84,0.002898550724637681,1498.8,1504.7579804868808,1308.0,1500
12.689511060714722,548,147,84,0.003246753246753247,1498.7,1510,1308.0,1500
12.712800025939941,549,147,84,0.002976190476190476,1498.7,1506.3495953937131,1308.0,1500
12.735997915267944,550,147,85,0.002898550724637681,1498.7,1504.7579804868808,1307.5,1500
12.759474039077759,551,146,85,0.002898550724637681,1498.5999999999999,1504.7579804868808,1307.5,1500
12.782763957977295,552,145,85,0.0030303030303030303,1498.5,1507.4589027530203,1307.5,1500
12.80601692199707,553,145,85,0.002976190476190476,1498.5,1506.3495953937131,1307.5,1500
12.829154014587402,554,144,85,0.003246753246753247,1498.4000000000001,1510,1307.5,1500
12.852530002593994,555,144,85,0.003246753246753247,1498.4000000000001,1510,1307.5,1500
12.875586986541748,556,144,85,0.003246753246753247,1498.4000000000001,1510,1307.5,1500
12.898685932159424,557,144,85,0.003246753246753247,1498.4000000000001,1510,1307.5,1500
12.921828985214233,558,145,85,0.003246753246753247,1498.5,1510,1307.5,1500
12.944804906845093,559,146,85,0.003105590062111801,1498.5999999999999,1509.0022869051002,1307.5,1500
12.968044996261597,560,146,85,0.003246753246753247,1498.5999999999999,1510,1307.5,1500
12.991084098815918,561,147,85,0.003246753246753247,1498.7,1510,1307.5,1500
13.014126062393188,562,148,85,0.003105590062111801,1498.8,1509.0022869051002,1307.5,1500
13.03728199005127,563,148,85,0.0033444816053511705,1498.8,1510,1307.5,1500
13.06036901473999,564,147,84,0.003246753246753247,1498.7,1510,1308.0,1500
13.083484888076782,565,146,84,0.003246753246753247,1498.5999999999999,1510,1308.0,1500
13.106455087661743,566,146,84,0.002976190476190476,1498.5999999999999,1506.3495953937131,1308.0,1500
13.129887104034424,567,144,84,0.003246753246753247,1498.4000000000001,1510,1308.0,1500
13.153323888778687,568,143,84,0.003246753246753247,1498.3,1510,1308.0,1500
13.176446914672852,569,142,84,0.003246753246753247,1498.2,1510,1308.0,1500
13.199603080749512,570,142,85,0.003105590062111801,1498.2,1509.0022869051002,1307.5,1500
13.222975969314575,571,140,85,0.0030303030303030303,1498.0,1507.4589027530203,1307.5,1500
13.24608588218689,572,140,84,0.003105590062111801,1498.0,1509.0022869051002,1308.0,1500
13.26960802078247,573,140,83,0.003105590062111801,1498.0,1509.0022869051002,1308.5,1500
13.292820930480957,574,140,83,0.003105590062111801,1498.0,1509.0022869051002,1308.5,1500
13.316104888916016,575,140,82,0.003105590062111801,1498.0,1509.0022869051002,1309.0,1500
13.339190006256104,576,140,81,0.003105590062111801,1498.0,1509.0022869051002,1309.5,1500
13.362749099731445,577,140,80,0.003246753246753247,1498.0,1510,1310.0,1500
13.38609790802002,578,140,79,0.0034965034965034965,1498.0,1510,1310.5,1500
13.409296035766602,579,141,78,0.003105590062111801,1498.0999999999999,1509.0022869051002,1311.0,1500
13.432797908782959,580,142,79,0.003105590062111801,1498.2,1509.0022869051002,1310.5,1500
13.456146955490112,581,142,79,0.003246753246753247,1498.2,1510,1310.5,1500
13.479492902755737,582,143,81,0.0034965034965034965,1498.3,1510,1309.5,1500
13.502997875213623,583,145,82,0.003105590062111801,1498.5,1509.0022869051002,1309.0,1500
13.526253938674927,584,146,83,0.003105590062111801,1498.5999999999999,1509.0022869051002,1308.5,1500
13.549912929534912,585,148,84,0.003105590062111801,1498.8,1509.0022869051002,1308.0,1500
13.573390007019043,586,148,84,0.003246753246753247,1498.8,1510,1308.0,1500
13.596601009368896,587,149,84,0.003246753246753247,1498.9000000000001,1510,1308.0,1500
13.62012004852295,588,150,83,0.003105590062111801,1499.0,1509.0022869051002,1308.5,1500
13.643517017364502,589,149,82,0.003246753246753247,1498.9000000000001,1510,1309.0,1500
13.666738986968994,590,149,81,0.003246753246753247,1498.9000000000001,1510,1309.5,1500
13.69020700454712,591,147,80,0.003246753246753247,1498.7,1510,1310.0,1500
13.713403940200806,592,147,80,0.003105590062111801,1498.7,1509.0022869051002,1310.0,1500
13.736958026885986,593,143,80,0.003401360544217687,1498.3,1510,1310.0,1500
13.760292053222656,594,141,80,0.003246753246753247,1498.0999999999999,1510,1310.0,1500
13.783600091934204,595,139,80,0.003246753246753247,1497.9000000000001,1510,1310.0,1500
13.806971073150635,596,139,80,0.0033444816053511705,1497.9000000000001,1510,1310.0,1500
13.830328941345215,597,137,79,0.003246753246753247,1497.7,1510,1310.5,1500
13.853534936904907,598,137,79,0.0034965034965034965,1497.7,1510,1310.5,1500
13.876795053482056,599,137,78,0.003246753246753247,1497.7,1510,1311.0,1500
13.900187969207764,600,140,78,0.003105590062111801,1498.0,1509.0022869051002,1311.0,1500
13.923494100570679,601,141,78,0.003246753246753247,1498.0999999999999,1510,1311.0,1500
13.946707963943481,602,143,78,0.003246753246753247,1498.3,1510,1311.0,1500
13.97019910812378,603,145,79,0.003663003663003663,1498.5,1510,1310.5,1500
13.99364709854126,604,147,79,0.003105590062111801,1498.7,1509.0022869051002,1310.5,1500
14.01711392402649,605,149,79,0.002976190476190476,1498.9000000000001,1506.3495953937131,1310.5,1500
14.040390014648438,606,150,79,0.003105590062111801,1499.0,1509.0022869051002,1310.5,1500
14.063847064971924,607,150,79,0.003401360544217687,1499.0,1510,1310.5,1500
14.0871000289917,608,148,79,0.003246753246753247,1498.8,1510,1310.5,1500
14.110339879989624,609,147,79,0.003246753246753247,1498.7,1510,1310.5,1500
14.133610010147095,610,145,79,0.003246753246753247,1498.5,1510,1310.5,1500
14.15687608718872,611,143,78,0.003401360544217687,1498.3,1510,1311.0,1500
14.180135011672974,612,141,78,0.003246753246753247,1498.0999999999999,1510,1311.0,1500
14.203366041183472,613,138,78,0.0034965034965034965,1497.8,1510,1311.0,1500
14.226497888565063,614,136,77,0.003246753246753247,1497.5999999999999,1510,1311.5,1500
14.25060510635376,615,133,78,0.0034965034965034965,1497.3,1510,1311.0,1500
14.274838924407959,616,132,78,0.003246753246753247,1497.2,1510,1311.0,1500
14.298691034317017,617,133,78,0.003105590062111801,1497.3,1509.0022869051002,1311.0,1500
14.322166919708252,618,132,79,0.003246753246753247,1497.2,1510,1310.5,1500
14.345557928085327,619,133,79,0.003246753246753247,1497.3,1510,1310.5,1500
14.369018077850342,620,135,79,0.003663003663003663,1497.5,1510,1310.5,1500
14.392518043518066,621,137,78,0.003246753246753247,1497.7,1510,1311.0,1500
14.415970087051392,622,139,78,0.003246753246753247,1497.9000000000001,1510,1311.0,1500
14.439479112625122,623,140,78,0.003246753246753247,1498.0,1510,1311.0,1500
14.462721109390259,624,141,79,0.003246753246753247,1498.0999999999999,1510,1310.5,1500
14.4860200881958,625,143,79,0.003105590062111801,1498.3,1509.0022869051002,1310.5,1500
14.509361028671265,626,143,80,0.003246753246753247,1498.3,1510,1310.0,1500
14.532777070999146,627,144,81,0.003246753246753247,1498.4000000000001,1510,1309.5,1500
14.556274890899658,628,145,82,0.003246753246753247,1498.5,1510,1309.0,1500
14.579722881317139,629,145,82,0.003246753246753247,1498.5,1510,1309.0,1500
14.603051900863647,630,146,82,0.003105590062111801,1498.5999999999999,1509.0022869051002,1309.0,1500
14.626507997512817,631,145,82,0.003246753246753247,1498.5,1510,1309.0,1500
14.649833917617798,632,147,81,0.003105590062111801,1498.7,1509.0022869051002,1309.5,1500
14.673319101333618,633,146,81,0.003246753246753247,1498.5999999999999,1510,1309.5,1500
14.696461915969849,634,147,81,0.003205128205128205,1498.7,1510,1309.5,1500
14.720041036605835,635,147,80,0.003105590062111801,1498.7,1509.0022869051002,1310.0,1500
14.74341893196106,636,146,80,0.003105590062111801,1498.5999999999999,1509.0022869051002,1310.0,1500
14.76685094833374,637,145,79,0.003105590062111801,1498.5,1509.0022869051002,1310.5,1500
14.790168046951294,638,143,78,0.003246753246753247,1498.3,1510,1311.0,1500
14.81347393989563,639,142,77,0.003246753246753247,1498.2,1510,1311.5,1500
14.836673021316528,640,141,76,0.003246753246753247,1498.0999999999999,1510,1312.0,1500
14.860018968582153,641,140,75,0.003246753246753247,1498.0,1510,1312.5,1500
14.883502006530762,642,140,75,0.003663003663003663,1498.0,1510,1312.5,1500
14.906824111938477,643,139,74,0.003246753246753247,1497.9000000000001,1510,1313.0,1500
14.93019700050354,644,139,74,0.003246753246753247,1497.9000000000001,1510,1313.0,1500
14.953099966049194,645,139,74,0.003246753246753247,1497.9000000000001,1510,1313.0,1500
14.975949048995972,646,140,75,0.003246753246753247,1498.0,1510,1312.5,1500
14.998832941055298,647,140,75,0.003246753246753247,1498.0,1510,1312.5,1500
15.021775007247925,648,141,76,0.0034965034965034965,1498.0999999999999,1510,1312.0,1500
15.044667959213257,649,141,76,0.003246753246753247,1498.0999999999999,1510,1312.0,1500
15.067522048950195,650,142,77,0.003663003663003663,1498.2,1510,1311.5,1500
15.090466976165771,651,142,78,0.0034965034965034965,1498.2,1510,1311.0,1500
15.113364934921265,652,142,79,0.003246753246753247,1498.2,1510,1310.5,1500
15.13615107536316,653,142,79,0.0034965034965034965,1498.2,1510,1310.5,1500
15.158891916275024,654,141,79,0.0034965034965034965,1498.0999999999999,1510,1310.5,1500
15.181987047195435,655,140,78,0.003246753246753247,1498.0,1510,1311.0,1500
15.204894065856934,656,139,78,0.003246753246753247,1497.9000000000001,1510,1311.0,1500
15.227818012237549,657,137,79,0.004048582995951417,1497.7,1510,1310.5,1500
15.251195907592773,658,137,79,0.003246753246753247,1497.7,1510,1310.5,1500
15.274107933044434,659,136,80,0.003246753246753247,1497.5999999999999,1510,1310.0,1500
15.296993017196655,660,135,82,0.003246753246753247,1497.5,1510,1309.0,1500
15.319978952407837,661,135,83,0.0034965034965034965,1497.5,1510,1308.5,1500
15.34299898147583,662,135,83,0.0034965034965034965,1497.5,1510,1308.5,1500
15.365830898284912,663,135,82,0.003246753246753247,1497.5,1510,1309.0,1500
15.388743877410889,664,136,81,0.003401360544217687,1497.5999999999999,1510,1309.5,1500
15.412029027938843,665,137,80,0.003401360544217687,1497.7,1510,1310.0,1500
15.434969902038574,666,138,79,0.003246753246753247,1497.8,1510,1310.5,1500
15.458175897598267,667,139,79,0.0034965034965034965,1497.9000000000001,1510,1310.5,1500
15.481151103973389,668,140,79,0.0034965034965034965,1498.0,1510,1310.5,1500
15.504081010818481,669,142,79,0.003246753246753247,1498.2,1510,1310.5,1500
15.526948928833008,670,142,80,0.003246753246753247,1498.2,1510,1310.0,1500
15.549941062927246,671,143,81,0.003401360544217687,1498.3,1510,1309.5,1500
15.572979927062988,672,143,82,0.003246753246753247,1498.3,1510,1309.0,1500
15.595834016799927,673,143,83,0.003663003663003663,1498.3,1510,1308.5,1500
15.618772029876709,674,143,83,0.0034965034965034965,1498.3,1510,1308.5,1500
15.642484903335571,675,143,83,0.003105590062111801,1498.3,1509.0022869051002,1308.5,1500
15.665612936019897,676,142,83,0.003246753246753247,1498.2,1510,1308.5,1500
15.68857192993164,677,139,84,0.0035714285714285713,1497.9000000000001,1510,1308.0,1500
15.711519002914429,678,139,85,0.0034965034965034965,1497.9000000000001,1510,1307.5,1500
15.734386920928955,679,138,85,0.0034965034965034965,1497.8,1510,1307.5,1500
15.757306098937988,680,136,85,0.0034965034965034965,1497.5999999999999,1510,1307.5,1500
15.780158042907715,681,135,84,0.003246753246753247,1497.5,1510,1308.0,1500
15.80301308631897,682,134,84,0.003246753246753247,1497.4000000000001,1510,1308.0,1500
15.825861930847168,683,133,84,0.003246753246753247,1497.3,1510,1308.0,1500
15.848743915557861,684,133,84,0.003246753246753247,1497.3,1510,1308.0,1500
15.871810913085938,685,134,85,0.0034965034965034965,1497.4000000000001,1510,1307.5,1500
15.894752025604248,686,135,85,0.003246753246753247,1497.5,1510,1307.5,1500
15.917567014694214,687,136,85,0.003246753246753247,1497.5999999999999,1510,1307.5,1500
15.940442085266113,688,136,85,0.0037593984962406013,1497.5999999999999,1510,1307.5,1500
15.963288068771362,689,138,85,0.003246753246753247,1497.8,1510,1307.5,1500
15.986178874969482,690,137,85,0.0035714285714285713,1497.7,1510,1307.5,1500
16.00905704498291,691,139,85,0.0034965034965034965,1497.9000000000001,1510,1307.5,1500
16.03247308731079,692,139,85,0.003401360544217687,1497.9000000000001,1510,1307.5,1500
16.055293083190918,693,140,85,0.0034965034965034965,1498.0,1510,1307.5,1500
16.07816195487976,694,139,84,0.0035714285714285713,1497.9000000000001,1510,1308.0,1500
16.100986003875732,695,140,84,0.003787878787878788,1498.0,1510,1308.0,1500
16.123848915100098,696,140,84,0.0034965034965034965,1498.0,1510,1308.0,1500
16.146679878234863,697,140,84,0.003246753246753247,1498.0,1510,1308.0,1500
16.169673919677734,698,141,84,0.003246753246753247,1498.0999999999999,1510,1308.0,1500
