time,frame,x,y,size_inv,roll,pitch,thrust,yaw
0,1,126,36,0.004166666666666667,1496.6,1501.6666666666667,1470,1500
0.05,2,124,37,0.0034965034965034965,1496.4,1500.9965034965035,1470,1500
0.1,3,123,39,0.004329004329004329,1496.3,1501.8290043290044,1470,1500
0.15000000000000002,4,124,40,0.004545454545454545,1496.4,1502.0454545454545,1470,1500
0.2,5,131,43,0.015151515151515152,1497.1,1505,1470,1500
0.25,6,125,41,0.002898550724637681,1496.5,1500.3985507246377,1470,1500
0.3,7,124,44,0.0033444816053511705,1496.4,1500.8444816053511,1470,1500
0.35,8,124,46,0.003246753246753247,1496.4,1500.7467532467533,1470,1500
0.39999999999999997,9,124,51,0.005952380952380952,1496.4,1503.452380952381,1469.0,1500
0.44999999999999996,10,124,53,0.0033444816053511705,1496.4,1500.8444816053511,1467.0,1500
0.49999999999999994,11,124,56,0.002898550724637681,1496.4,1500.3985507246377,1464.0,1500
0.5499999999999999,12,124,59,0.003105590062111801,1496.4,1500.6055900621118,1461.0,1500
0.6,13,124,62,0.002717391304347826,1496.4,1500.2173913043478,1458.0,1500
0.65,14,124,65,0.0034965034965034965,1496.4,1500.9965034965035,1455.0,1500
0.7000000000000001,15,124,68,0.0036231884057971015,1496.4,1501.123188405797,1452.0,1500
0.7500000000000001,16,124,75,0.0034965034965034965,1496.4,1500.9965034965035,1445.0,1500
0.8000000000000002,17,124,77,0.0030303030303030303,1496.4,1500.530303030303,1443.0,1500
0.8500000000000002,18,124,79,0.003246753246753247,1496.4,1500.7467532467533,1441.0,1500
0.9000000000000002,19,126,87,0.018518518518518517,1496.6,1505,1433.0,1500
0.9500000000000003,20,125,86,0.004347826086956522,1496.5,1501.8478260869565,1434.0,1500
1.0000000000000002,21,125,86,0.0031746031746031746,1496.5,1500.6746031746031,1434.0,1500
1.0500000000000003,22,125,87,0.0030303030303030303,1496.5,1500.530303030303,1433.0,1500
1.1000000000000003,23,126,85,0.004347826086956522,1496.6,1501.8478260869565,1435.0,1500
1.1500000000000004,24,126,89,0.002840909090909091,1496.6,1500.340909090909,1431.0,1500
1.2000000000000004,25,125,86,0.007142857142857143,1496.5,1504.642857142857,1434.0,1500
1.2500000000000004,26,127,87,0.0036231884057971015,1496.7,1501.123188405797,1433.0,1500
1.3000000000000005,27,127,88,0.002976190476190476,1496.7,1500.4761904761904,1432.0,1500
1.3500000000000005,28,128,89,0.004347826086956522,1496.8,1501.8478260869565,1431.0,1500
1.4000000000000006,29,129,87,0.0036231884057971015,1496.9,1501.123188405797,1433.0,1500
1.4500000000000006,30,126,81,0.006944444444444444,1496.6,1504.4444444444443,1439.0,1500
1.5000000000000007,31,130,84,0.0030303030303030303,1497.0,1500.530303030303,1436.0,1500
1.5500000000000007,32,130,83,0.003246753246753247,1497.0,1500.7467532467533,1437.0,1500
1.6000000000000008,33,133,81,0.002717391304347826,1497.3,1500.2173913043478,1439.0,1500
1.6500000000000008,34,134,80,0.0026666666666666666,1497.4,1500.1666666666667,1440.0,1500
1.7000000000000008,35,135,82,0.005291005291005291,1497.5,1502.7910052910054,1438.0,1500
1.7500000000000009,36,138,80,0.0036363636363636364,1497.8,1501.1363636363637,1440.0,1500
1.800000000000001,37,140,77,0.0036231884057971015,1498.0,1501.123188405797,1443.0,1500
1.850000000000001,38,142,79,0.005434782608695652,1498.2,1502.9347826086957,1441.0,1500
1.900000000000001,39,145,74,0.002717391304347826,1498.5,1500.2173913043478,1446.0,1500
1.950000000000001,40,147,75,0.005434782608695652,1498.7,1502.9347826086957,1445.0,1500
2.000000000000001,41,151,73,0.0036231884057971015,1499.1,1501.123188405797,1447.0,1500
2.0500000000000007,42,153,75,0.002840909090909091,1499.3,1500.340909090909,1445.0,1500
2.1000000000000005,43,157,76,0.003105590062111801,1499.7,1500.6055900621118,1444.0,1500
2.1500000000000004,44,160,76,0.0026041666666666665,1500.0,1500.1041666666667,1444.0,1500
2.2,45,164,77,0.002717391304347826,1500.4,1500.2173913043478,1443.0,1500
2.25,46,165,77,0.002840909090909091,1500.5,1500.340909090909,1443.0,1500
2.3,47,169,78,0.002717391304347826,1500.9,1500.2173913043478,1442.0,1500
2.3499999999999996,48,170,80,0.003246753246753247,1501.0,1500.7467532467533,1440.0,1500
2.3999999999999995,49,174,80,0.002898550724637681,1501.4,1500.3985507246377,1440.0,1500
2.4499999999999993,50,174,83,0.003952569169960474,1501.4,1501.4525691699605,1437.0,1500
2.499999999999999,51,174,85,0.005050505050505051,1501.4,1502.550505050505,1435.0,1500
2.549999999999999,52,176,81,0.002717391304347826,1501.6,1500.2173913043478,1439.0,1500
2.5999999999999988,53,176,82,0.004347826086956522,1501.6,1501.8478260869565,1438.0,1500
2.6499999999999986,54,175,82,0.002717391304347826,1501.5,1500.2173913043478,1438.0,1500
2.6999999999999984,55,174,83,0.002898550724637681,1501.4,1500.3985507246377,1437.0,1500
2.7499999999999982,56,172,80,0.006535947712418301,1501.2,1504.0359477124182,1440.0,1500
2.799999999999998,57,169,81,0.004784688995215311,1500.9,1502.2846889952152,1439.0,1500
2.849999999999998,58,168,82,0.002717391304347826,1500.8,1500.2173913043478,1438.0,1500
2.8999999999999977,59,166,82,0.002717391304347826,1500.6,1500.2173913043478,1438.0,1500
2.9499999999999975,60,163,83,0.002976190476190476,1500.3,1500.4761904761904,1437.0,1500
2.9999999999999973,61,162,81,0.002717391304347826,1500.2,1500.2173913043478,1439.0,1500
3.049999999999997,62,159,81,0.002717391304347826,1499.9,1500.2173913043478,1439.0,1500
3.099999999999997,63,158,80,0.002717391304347826,1499.8,1500.2173913043478,1440.0,1500
3.149999999999997,64,156,79,0.005434782608695652,1499.6,1502.9347826086957,1441.0,1500
3.1999999999999966,65,154,77,0.002717391304347826,1499.4,1500.2173913043478,1443.0,1500
3.2499999999999964,66,152,76,0.0033444816053511705,1499.2,1500.8444816053511,1444.0,1500
3.2999999999999963,67,151,72,0.002717391304347826,1499.1,1500.2173913043478,1448.0,1500
3.349999999999996,68,149,69,0.002898550724637681,1498.9,1500.3985507246377,1451.0,1500
3.399999999999996,69,148,66,0.002840909090909091,1498.8,1500.340909090909,1454.0,1500
3.4499999999999957,70,148,62,0.002717391304347826,1498.8,1500.2173913043478,1458.0,1500
3.4999999999999956,71,146,60,0.0030303030303030303,1498.6,1500.530303030303,1460.0,1500
3.5499999999999954,72,146,57,0.004347826086956522,1498.6,1501.8478260869565,1463.0,1500
3.599999999999995,73,147,54,0.002898550724637681,1498.7,1500.3985507246377,1466.0,1500
3.649999999999995,74,146,51,0.003246753246753247,1498.6,1500.7467532467533,1469.0,1500
3.699999999999995,75,146,51,0.004347826086956522,1498.6,1501.8478260869565,1469.0,1500
3.7499999999999947,76,146,49,0.0036231884057971015,1498.6,1501.123188405797,1470,1500
3.7999999999999945,77,144,52,0.008333333333333333,1498.4,1505,1468.0,1500
3.8499999999999943,78,145,53,0.007575757575757576,1498.5,1505,1467.0,1500
3.899999999999994,79,146,53,0.004830917874396135,1498.6,1502.3309178743962,1467.0,1500
3.949999999999994,80,146,56,0.006211180124223602,1498.6,1503.7111801242236,1464.0,1500
3.999999999999994,81,145,56,0.0034965034965034965,1498.5,1500.9965034965035,1464.0,1500
4.049999999999994,82,145,58,0.0030303030303030303,1498.5,1500.530303030303,1462.0,1500
4.099999999999993,83,146,60,0.005208333333333333,1498.6,1502.7083333333333,1460.0,1500
4.149999999999993,84,146,63,0.0030303030303030303,1498.6,1500.530303030303,1457.0,1500
4.199999999999993,85,146,68,0.0024509803921568627,1498.6,1499.950980392157,1452.0,1500
4.249999999999993,86,147,71,0.0026666666666666666,1498.7,1500.1666666666667,1449.0,1500
4.299999999999993,87,147,75,0.002777777777777778,1498.7,1500.2777777777778,1445.0,1500
4.3499999999999925,88,147,72,0.006578947368421052,1498.7,1504.078947368421,1448.0,1500
4.399999999999992,89,149,80,0.002898550724637681,1498.9,1500.3985507246377,1440.0,1500
4.449999999999992,90,149,78,0.004545454545454545,1498.9,1502.0454545454545,1442.0,1500
4.499999999999992,91,150,83,0.002898550724637681,1499.0,1500.3985507246377,1437.0,1500
4.549999999999992,92,150,83,0.0033444816053511705,1499.0,1500.8444816053511,1437.0,1500
4.599999999999992,93,150,85,0.003472222222222222,1499.0,1500.9722222222222,1435.0,1500
4.6499999999999915,94,150,84,0.0026041666666666665,1499.0,1500.1041666666667,1436.0,1500
4.699999999999991,95,150,84,0.002976190476190476,1499.0,1500.4761904761904,1436.0,1500
4.749999999999991,96,150,84,0.003105590062111801,1499.0,1500.6055900621118,1436.0,1500
4.799999999999991,97,150,83,0.002717391304347826,1499.0,1500.2173913043478,1437.0,1500
4.849999999999991,98,150,84,0.003105590062111801,1499.0,1500.6055900621118,1436.0,1500
4.899999999999991,99,150,83,0.0026041666666666665,1499.0,1500.1041666666667,1437.0,1500
4.94999999999999,100,150,83,0.002717391304347826,1499.0,1500.2173913043478,1437.0,1500
4.99999999999999,101,150,83,0.002717391304347826,1499.0,1500.2173913043478,1437.0,1500
5.04999999999999,102,149,83,0.0026041666666666665,1498.9,1500.1041666666667,1437.0,1500
5.09999999999999,103,149,87,0.004830917874396135,1498.9,1502.3309178743962,1433.0,1500
5.14999999999999,104,149,84,0.002976190476190476,1498.9,1500.4761904761904,1436.0,1500
5.1999999999999895,105,150,81,0.004166666666666667,1499.0,1501.6666666666667,1439.0,1500
5.249999999999989,106,148,82,0.002840909090909091,1498.8,1500.340909090909,1438.0,1500
5.299999999999989,107,148,82,0.002840909090909091,1498.8,1500.340909090909,1438.0,1500
5.349999999999989,108,148,82,0.0033444816053511705,1498.8,1500.8444816053511,1438.0,1500
5.399999999999989,109,148,84,0.003952569169960474,1498.8,1501.4525691699605,1436.0,1500
5.449999999999989,110,147,81,0.0026041666666666665,1498.7,1500.1041666666667,1439.0,1500
5.4999999999999885,111,148,83,0.0036231884057971015,1498.8,1501.123188405797,1437.0,1500
5.549999999999988,112,147,81,0.002717391304347826,1498.7,1500.2173913043478,1439.0,1500
5.599999999999988,113,147,82,0.003105590062111801,1498.7,1500.6055900621118,1438.0,1500
5.649999999999988,114,147,82,0.002898550724637681,1498.7,1500.3985507246377,1438.0,1500
5.699999999999988,115,147,82,0.0026041666666666665,1498.7,1500.1041666666667,1438.0,1500
5.749999999999988,116,148,84,0.004830917874396135,1498.8,1502.3309178743962,1436.0,1500
5.799999999999987,117,148,81,0.0026041666666666665,1498.8,1500.1041666666667,1439.0,1500
5.849999999999987,118,149,81,0.002717391304347826,1498.9,1500.2173913043478,1439.0,1500
5.899999999999987,119,149,81,0.002717391304347826,1498.9,1500.2173913043478,1439.0,1500
5.949999999999987,120,149,85,0.005434782608695652,1498.9,1502.9347826086957,1435.0,1500
5.999999999999987,121,148,81,0.003787878787878788,1498.8,1501.2878787878788,1439.0,1500
6.0499999999999865,122,148,80,0.00909090909090909,1498.8,1505,1440.0,1500
6.099999999999986,123,149,82,0.004347826086956522,1498.9,1501.8478260869565,1438.0,1500
6.149999999999986,124,150,75,0.022727272727272728,1499.0,1505,1445.0,1500
6.199999999999986,125,148,82,0.007936507936507936,1498.8,1505,1438.0,1500
6.249999999999986,126,148,79,0.004347826086956522,1498.8,1501.8478260869565,1441.0,1500
6.299999999999986,127,148,79,0.003952569169960474,1498.8,1501.4525691699605,1441.0,1500
6.349999999999985,128,148,80,0.004830917874396135,1498.8,1502.3309178743962,1440.0,1500
6.399999999999985,129,147,82,0.00909090909090909,1498.7,1505,1438.0,1500
6.449999999999985,130,147,73,0.005050505050505051,1498.7,1502.550505050505,1447.0,1500
6.499999999999985,131,148,76,0.0026041666666666665,1498.8,1500.1041666666667,1444.0,1500
6.549999999999985,132,148,76,0.0025575447570332483,1498.8,1500.0575447570332,1444.0,1500
6.5999999999999845,133,150,81,0.010526315789473684,1499.0,1505,1439.0,1500
6.649999999999984,134,142,80,0.013888888888888888,1498.2,1505,1440.0,1500
6.699999999999984,135,149,78,0.004273504273504274,1498.9,1501.7735042735044,1442.0,1500
6.749999999999984,136,150,75,0.0030864197530864196,1499.0,1500.5864197530864,1445.0,1500
6.799999999999984,137,150,70,0.00205761316872428,1499.0,1499.5576131687242,1450.0,1500
6.849999999999984,138,150,70,0.0021008403361344537,1499.0,1499.6008403361345,1450.0,1500
6.8999999999999835,139,151,63,0.003472222222222222,1499.1,1500.9722222222222,1457.0,1500
6.949999999999983,140,150,64,0.004807692307692308,1499.0,1502.3076923076924,1456.0,1500
6.999999999999983,141,150,62,0.002178649237472767,1499.0,1499.6786492374727,1458.0,1500
7.049999999999983,142,149,60,0.0034965034965034965,1498.9,1500.9965034965035,1460.0,1500
7.099999999999983,143,148,60,0.005714285714285714,1498.8,1503.2142857142858,1460.0,1500
7.149999999999983,144,148,60,0.0026455026455026454,1498.8,1500.1455026455026,1460.0,1500
7.199999999999982,145,149,51,0.008333333333333333,1498.9,1505,1469.0,1500
7.249999999999982,146,147,56,0.007142857142857143,1498.7,1504.642857142857,1464.0,1500
7.299999999999982,147,145,64,0.0035714285714285713,1498.5,1501.0714285714287,1456.0,1500
7.349999999999982,148,146,59,0.0016666666666666668,1498.6,1499.1666666666667,1461.0,1500
7.399999999999982,149,147,61,0.0017921146953405018,1498.7,1499.2921146953406,1459.0,1500
7.4499999999999815,150,146,63,0.0020833333333333333,1498.6,1499.5833333333333,1457.0,1500
7.499999999999981,151,146,58,0.0022222222222222222,1498.6,1499.7222222222222,1462.0,1500
7.549999999999981,152,146,62,0.0016129032258064516,1498.6,1499.1129032258063,1458.0,1500
7.599999999999981,153,145,65,0.0020833333333333333,1498.5,1499.5833333333333,1455.0,1500
7.649999999999981,154,144,62,0.0021551724137931034,1498.4,1499.655172413793,1458.0,1500
7.699999999999981,155,145,64,0.0015360983102918587,1498.5,1499.036098310292,1456.0,1500
7.7499999999999805,156,144,63,0.0016129032258064516,1498.4,1499.1129032258063,1457.0,1500
7.79999999999998,157,145,65,0.0020161290322580645,1498.5,1499.516129032258,1455.0,1500
7.84999999999998,158,144,62,0.001644736842105263,1498.4,1499.1447368421052,1458.0,1500
7.89999999999998,159,144,59,0.001488095238095238,1498.4,1498.9880952380952,1461.0,1500
7.94999999999998,160,144,57,0.002232142857142857,1498.4,1499.732142857143,1463.0,1500
7.99999999999998,161,144,49,0.001488095238095238,1498.4,1498.9880952380952,1470,1500
8.04999999999998,162,144,38,0.005050505050505051,1498.4,1502.550505050505,1470,1500
8.09999999999998,163,146,38,0.00202020202020202,1498.6,1499.520202020202,1470,1500
8.14999999999998,164,144,34,0.0030303030303030303,1498.4,1500.530303030303,1470,1500
8.199999999999982,165,146,21,0.002403846153846154,1498.6,1499.9038461538462,1470,1500
8.249999999999982,166,147,20,0.0013605442176870747,1498.7,1498.860544217687,1470,1500
8.299999999999983,167,147,18,0.0014005602240896359,1498.7,1498.9005602240895,1470,1500
8.349999999999984,168,147,19,0.0022624434389140274,1498.7,1499.762443438914,1470,1500
8.399999999999984,169,147,16,0.0015479876160990713,1498.7,1499.0479876160991,1470,1500
8.449999999999985,170,147,19,0.0027548209366391185,1498.7,1500.2548209366391,1470,1500
8.499999999999986,171,148,14,0.001838235294117647,1498.8,1499.3382352941176,1470,1500
8.549999999999986,172,148,18,0.0029411764705882353,1498.8,1500.4411764705883,1470,1500
8.599999999999987,173,150,15,0.002380952380952381,1499.0,1499.8809523809523,1470,1500
8.649999999999988,174,155,12,0.0026666666666666666,1499.5,1500.1666666666667,1470,1500
8.699999999999989,175,151,15,0.0021008403361344537,1499.1,1499.6008403361345,1470,1500
8.74999999999999,176,152,13,0.0015873015873015873,1499.2,1499.0873015873017,1470,1500
8.79999999999999,177,155,12,0.004310344827586207,1499.5,1501.8103448275863,1470,1500
8.84999999999999,178,152,15,0.00202020202020202,1499.2,1499.520202020202,1470,1500
8.899999999999991,179,153,15,0.0022624434389140274,1499.3,1499.762443438914,1470,1500
8.949999999999992,180,155,18,0.004761904761904762,1499.5,1502.2619047619048,1470,1500
8.999999999999993,181,152,15,0.0033333333333333335,1499.2,1500.8333333333333,1470,1500
9.049999999999994,182,154,11,0.0016339869281045752,1499.4,1499.1339869281046,1470,1500
9.099999999999994,183,156,3,0.005494505494505495,1499.6,1502.9945054945056,1470,1500
9.149999999999995,184,154,13,0.004464285714285714,1499.4,1501.9642857142858,1470,1500
9.199999999999996,185,157,10,0.002932551319648094,1499.7,1500.4325513196482,1470,1500
9.249999999999996,186,158,9,0.0038461538461538464,1499.8,1501.3461538461538,1470,1500
9.299999999999997,187,156,3,0.004032258064516129,1499.6,1501.532258064516,1470,1500
9.349999999999998,188,158,8,0.014705882352941176,1499.8,1505,1470,1500
9.399999999999999,189,163,5,0.014285714285714285,1500.3,1505,1470,1500
9.45,190,162,1,0.013888888888888888,1500.2,1505,1470,1500
9.5,191,158,2,0.007692307692307693,1499.8,1505,1470,1500
9.55,192,157,1,0.008333333333333333,1499.7,1505,1470,1500
9.600000000000001,193,153,2,0.010526315789473684,1499.3,1505,1470,1500
9.650000000000002,194,157,1,0.009259259259259259,1499.7,1505,1470,1500
9.700000000000003,195,161,1,0.017543859649122806,1500.1,1505,1470,1500
9.750000000000004,196,160,3,0.00390625,1500.0,1501.40625,1470,1500
9.800000000000004,197,160,9,0.0024509803921568627,1500.0,1499.950980392157,1470,1500
9.850000000000005,198,160,13,0.002331002331002331,1500.0,1499.8310023310023,1470,1500
9.900000000000006,199,160,16,0.0032679738562091504,1500.0,1500.7679738562092,1470,1500
9.950000000000006,200,156,15,0.0027472527472527475,1499.6,1500.2472527472528,1470,1500
10.000000000000007,201,154,14,0.003787878787878788,1499.4,1501.2878787878788,1470,1500
10.050000000000008,202,157,18,0.004807692307692308,1499.7,1502.3076923076924,1470,1500
10.100000000000009,203,159,17,0.005681818181818182,1499.9,1503.1818181818182,1470,1500
10.15000000000001,204,170,16,0.009615384615384616,1501.0,1505,1470,1500
10.20000000000001,205,161,1,0.03333333333333333,1500.1,1505,1470,1500
10.25000000000001,206,162,13,0.017857142857142856,1500.2,1505,1470,1500
10.300000000000011,207,161,14,0.00411522633744856,1500.1,1501.6152263374486,1470,1500
10.350000000000012,208,161,16,0.017543859649122806,1500.1,1505,1470,1500
10.400000000000013,209,166,14,0.010416666666666666,1500.6,1505,1470,1500
10.450000000000014,210,149,14,0.014285714285714285,1498.9,1505,1470,1500
10.500000000000014,211,162,12,0.007246376811594203,1500.2,1504.7463768115942,1470,1500
10.550000000000015,212,161,11,0.008695652173913044,1500.1,1505,1470,1500
10.600000000000016,213,161,13,0.013888888888888888,1500.1,1505,1470,1500
10.650000000000016,214,155,12,0.00909090909090909,1499.5,1505,1470,1500
10.700000000000017,214,,,,1500.0,1500.0,1420.0,1500
10.750000000000018,215,146,12,0.014285714285714285,1498.6,1505,1470,1500
10.800000000000018,216,164,1,0.03333333333333333,1500.4,1505,1470,1500
10.85000000000002,217,152,12,0.013157894736842105,1499.2,1505,1470,1500
10.90000000000002,218,144,1,0.027777777777777776,1498.4,1505,1470,1500
10.95000000000002,219,161,9,0.0078125,1500.1,1505,1470,1500
11.000000000000021,220,159,1,0.030303030303030304,1499.9,1505,1470,1500
11.050000000000022,221,150,9,0.013157894736842105,1499.0,1505,1470,1500
11.100000000000023,222,154,1,0.01282051282051282,1499.4,1505,1470,1500
11.150000000000023,222,,,,1500.0,1500.0,1420.0,1500
11.200000000000024,223,154,1,0.012345679012345678,1499.4,1505,1470,1500
11.250000000000025,224,140,1,0.041666666666666664,1498.0,1505,1470,1500
11.300000000000026,224,,,,1500.0,1500.0,1420.0,1500
11.350000000000026,224,,,,1500.0,1500.0,1420.0,1500
11.400000000000027,224,,,,1500.0,1500.0,1420.0,1500
11.450000000000028,225,150,7,0.041666666666666664,1499.0,1505,1470,1500
11.500000000000028,225,,,,1500.0,1500.0,1420.0,1500
11.55000000000003,226,156,1,0.03333333333333333,1499.6,1505,1470,1500
11.60000000000003,226,,,,1500.0,1500.0,1420.0,1500
11.65000000000003,226,,,,1500.0,1500.0,1420.0,1500
11.700000000000031,226,,,,1500.0,1500.0,1420.0,1500
11.750000000000032,226,,,,1500.0,1500.0,1420.0,1500
11.800000000000033,226,,,,1500.0,1500.0,1420.0,1500
11.850000000000033,226,,,,1500.0,1500.0,1420.0,1500
11.900000000000034,226,,,,1500.0,1500.0,1420.0,1500
11.950000000000035,226,,,,1500.0,1500.0,1420.0,1500
12.000000000000036,227,146,1,0.027777777777777776,1498.6,1505,1470,1500
12.050000000000036,228,157,3,0.03125,1499.7,1505,1470,1500
12.100000000000037,228,,,,1500.0,1500.0,1420.0,1500
12.150000000000038,229,151,12,0.05555555555555555,1499.1,1505,1470,1500
12.200000000000038,230,146,15,0.05555555555555555,1498.6,1505,1470,1500
12.250000000000039,231,148,8,0.014285714285714285,1498.8,1505,1470,1500
12.30000000000004,232,157,5,0.008333333333333333,1499.7,1505,1470,1500
12.35000000000004,233,149,17,0.025,1498.9,1505,1470,1500
12.400000000000041,234,153,14,0.015625,1499.3,1505,1470,1500
12.450000000000042,235,152,16,0.011363636363636364,1499.2,1505,1470,1500
12.500000000000043,236,154,17,0.027777777777777776,1499.4,1505,1470,1500
12.550000000000043,237,163,2,0.02,1500.3,1505,1470,1500
12.600000000000044,238,150,16,0.03333333333333333,1499.0,1505,1470,1500
12.650000000000045,238,,,,1500.0,1500.0,1420.0,1500
12.700000000000045,239,161,16,0.015384615384615385,1500.1,1505,1470,1500
12.750000000000046,240,148,16,0.03333333333333333,1498.8,1505,1470,1500
12.800000000000047,240,,,,1500.0,1500.0,1420.0,1500
12.850000000000048,241,149,16,0.011363636363636364,1498.9,1505,1470,1500
12.900000000000048,242,153,17,0.022222222222222223,1499.3,1505,1470,1500
12.950000000000049,243,160,14,0.022727272727272728,1500.0,1505,1470,1500
13.00000000000005,244,155,12,0.025,1499.5,1505,1470,1500
13.05000000000005,245,150,15,0.00641025641025641,1499.0,1503.9102564102564,1470,1500
13.100000000000051,246,145,14,0.013333333333333334,1498.5,1505,1470,1500
13.150000000000052,247,141,11,0.023809523809523808,1498.1,1505,1470,1500
13.200000000000053,247,,,,1500.0,1500.0,1420.0,1500
13.250000000000053,248,152,8,0.018518518518518517,1499.2,1505,1470,1500
13.300000000000054,249,159,14,0.030303030303030304,1499.9,1505,1470,1500
13.350000000000055,250,140,13,0.017857142857142856,1498.0,1505,1470,1500
13.400000000000055,251,146,15,0.03333333333333333,1498.6,1505,1470,1500
13.450000000000056,252,147,20,0.013157894736842105,1498.7,1505,1470,1500
13.500000000000057,253,148,18,0.0033333333333333335,1498.8,1500.8333333333333,1470,1500
13.550000000000058,254,144,21,0.011363636363636364,1498.4,1505,1470,1500
13.600000000000058,255,159,24,0.015151515151515152,1499.9,1505,1470,1500
13.650000000000059,256,148,25,0.0064516129032258064,1498.8,1503.9516129032259,1470,1500
13.70000000000006,257,148,27,0.003703703703703704,1498.8,1501.2037037037037,1470,1500
13.75000000000006,258,150,29,0.003246753246753247,1499.0,1500.7467532467533,1470,1500
13.800000000000061,259,148,27,0.00390625,1498.8,1501.40625,1470,1500
13.850000000000062,260,148,28,0.0032258064516129032,1498.8,1500.725806451613,1470,1500
13.900000000000063,261,148,33,0.002304147465437788,1498.8,1499.8041474654378,1470,1500
13.950000000000063,262,148,39,0.003472222222222222,1498.8,1500.9722222222222,1470,1500
14.000000000000064,263,148,39,0.0032258064516129032,1498.8,1500.725806451613,1470,1500
14.050000000000065,264,150,38,0.0019157088122605363,1499.0,1499.4157088122606,1470,1500
14.100000000000065,265,148,38,0.002150537634408602,1498.8,1499.6505376344087,1470,1500
14.150000000000066,266,148,35,0.004032258064516129,1498.8,1501.532258064516,1470,1500
14.200000000000067,267,149,42,0.0016806722689075631,1498.9,1499.1806722689075,1470,1500
14.250000000000068,268,150,39,0.0017006802721088435,1499.0,1499.200680272109,1470,1500
14.300000000000068,269,148,39,0.002688172043010753,1498.8,1500.1881720430108,1470,1500
14.350000000000069,270,148,42,0.0020833333333333333,1498.8,1499.5833333333333,1470,1500
14.40000000000007,271,148,48,0.004032258064516129,1498.8,1501.532258064516,1470,1500
14.45000000000007,272,149,39,0.0020161290322580645,1498.9,1499.516129032258,1470,1500
14.500000000000071,273,148,45,0.002840909090909091,1498.8,1500.340909090909,1470,1500
14.550000000000072,274,147,49,0.0030303030303030303,1498.7,1500.530303030303,1470,1500
14.600000000000072,275,149,44,0.0015151515151515152,1498.9,1499.0151515151515,1470,1500
14.650000000000073,276,149,52,0.00641025641025641,1498.9,1503.9102564102564,1468.0,1500
14.700000000000074,277,149,41,0.002304147465437788,1498.9,1499.8041474654378,1470,1500
14.750000000000075,278,149,41,0.002304147465437788,1498.9,1499.8041474654378,1470,1500
14.800000000000075,279,149,52,0.0032258064516129032,1498.9,1500.725806451613,1468.0,1500
14.850000000000076,280,151,45,0.0018975332068311196,1499.1,1499.3975332068312,1470,1500
14.900000000000077,281,149,49,0.002380952380952381,1498.9,1499.8809523809523,1470,1500
14.950000000000077,282,149,55,0.002932551319648094,1498.9,1500.4325513196482,1465.0,1500
15.000000000000078,283,151,46,0.002304147465437788,1499.1,1499.8041474654378,1470,1500
15.050000000000079,284,150,46,0.002551020408163265,1499.0,1500.0510204081634,1470,1500
15.10000000000008,285,149,57,0.002840909090909091,1498.9,1500.340909090909,1463.0,1500
15.15000000000008,286,151,58,0.0027472527472527475,1499.1,1500.2472527472528,1462.0,1500
15.200000000000081,287,149,56,0.001838235294117647,1498.9,1499.3382352941176,1464.0,1500
15.250000000000082,288,150,55,0.0013175230566534915,1499.0,1498.8175230566535,1465.0,1500
15.300000000000082,289,151,55,0.0013774104683195593,1499.1,1498.8774104683196,1465.0,1500
15.350000000000083,290,150,56,0.001466275659824047,1499.0,1498.966275659824,1464.0,1500
15.400000000000084,291,150,61,0.002150537634408602,1499.0,1499.6505376344087,1459.0,1500
15.450000000000085,292,150,57,0.001358695652173913,1499.0,1498.858695652174,1463.0,1500
15.500000000000085,293,151,54,0.00196078431372549,1499.1,1499.4607843137255,1466.0,1500
15.550000000000086,294,149,58,0.0020833333333333333,1498.9,1499.5833333333333,1462.0,1500
15.600000000000087,295,151,51,0.002688172043010753,1499.1,1500.1881720430108,1469.0,1500
15.650000000000087,296,149,51,0.0015625,1498.9,1499.0625,1469.0,1500
15.700000000000088,297,149,56,0.002688172043010753,1498.9,1500.1881720430108,1464.0,1500
15.750000000000089,298,148,46,0.0034482758620689655,1498.8,1500.948275862069,1470,1500
15.80000000000009,299,150,41,0.002932551319648094,1499.0,1500.4325513196482,1470,1500
15.85000000000009,300,148,49,0.004761904761904762,1498.8,1502.2619047619048,1470,1500
15.900000000000091,301,149,40,0.001697792869269949,1498.9,1499.19779286927,1470,1500
15.950000000000092,302,148,32,0.003125,1498.8,1500.625,1470,1500
16.000000000000092,303,147,31,0.006666666666666667,1498.7,1504.1666666666667,1470,1500
16.050000000000093,304,147,23,0.002232142857142857,1498.7,1499.732142857143,1470,1500
16.100000000000094,305,148,17,0.0032258064516129032,1498.8,1500.725806451613,1470,1500
16.150000000000095,306,146,23,0.004464285714285714,1498.6,1501.9642857142858,1470,1500
16.200000000000095,307,146,19,0.003367003367003367,1498.6,1500.8670033670035,1470,1500
16.250000000000096,308,146,15,0.002932551319648094,1498.6,1500.4325513196482,1470,1500
16.300000000000097,309,143,15,0.003968253968253968,1498.3,1501.468253968254,1470,1500
16.350000000000097,310,147,12,0.002849002849002849,1498.7,1500.3490028490028,1470,1500
16.400000000000098,311,150,13,0.006535947712418301,1499.0,1504.0359477124182,1470,1500
16.4500000000001,312,146,13,0.004807692307692308,1498.6,1502.3076923076924,1470,1500
16.5000000000001,313,146,11,0.003205128205128205,1498.6,1500.7051282051282,1470,1500
16.5500000000001,314,148,15,0.007936507936507936,1498.8,1505,1470,1500
16.6000000000001,315,141,14,0.011111111111111112,1498.1,1505,1470,1500
16.6500000000001,316,146,15,0.005494505494505495,1498.6,1502.9945054945056,1470,1500
16.700000000000102,317,146,14,0.005555555555555556,1498.6,1503.0555555555557,1470,1500
16.750000000000103,318,142,13,0.025,1498.2,1505,1470,1500
16.800000000000104,319,144,12,0.002777777777777778,1498.4,1500.2777777777778,1470,1500
16.850000000000104,320,153,13,0.011111111111111112,1499.3,1505,1470,1500
16.900000000000105,321,142,10,0.004807692307692308,1498.2,1502.3076923076924,1470,1500
16.950000000000106,322,150,17,0.017543859649122806,1499.0,1505,1470,1500
17.000000000000107,323,145,14,0.004608294930875576,1498.5,1502.1082949308757,1470,1500
17.050000000000107,324,144,16,0.016666666666666666,1498.4,1505,1470,1500
17.100000000000108,325,136,16,0.017857142857142856,1497.6,1505,1470,1500
17.15000000000011,326,145,14,0.005434782608695652,1498.5,1502.9347826086957,1470,1500
17.20000000000011,327,147,17,0.030303030303030304,1498.7,1505,1470,1500
17.25000000000011,328,149,16,0.008403361344537815,1498.9,1505,1470,1500
17.30000000000011,329,145,14,0.009523809523809525,1498.5,1505,1470,1500
17.35000000000011,330,152,7,0.020833333333333332,1499.2,1505,1470,1500
17.400000000000112,331,148,6,0.025,1498.8,1505,1470,1500
17.450000000000113,332,152,11,0.017543859649122806,1499.2,1505,1470,1500
17.500000000000114,333,147,17,0.011111111111111112,1498.7,1505,1470,1500
17.550000000000114,334,138,19,0.016666666666666666,1497.8,1505,1470,1500
17.600000000000115,335,145,19,0.004166666666666667,1498.5,1501.6666666666667,1470,1500
17.650000000000116,336,148,21,0.005291005291005291,1498.8,1502.7910052910054,1470,1500
17.700000000000117,337,157,25,0.05555555555555555,1499.7,1505,1470,1500
17.750000000000117,338,148,22,0.003367003367003367,1498.8,1500.8670033670035,1470,1500
17.800000000000118,339,151,16,0.005434782608695652,1499.1,1502.9347826086957,1470,1500
17.85000000000012,340,152,22,0.011111111111111112,1499.2,1505,1470,1500
17.90000000000012,341,152,28,0.004784688995215311,1499.2,1502.2846889952152,1470,1500
17.95000000000012,342,153,40,0.017857142857142856,1499.3,1505,1470,1500
18.00000000000012,343,146,41,0.002840909090909091,1498.6,1500.340909090909,1470,1500
18.05000000000012,344,147,44,0.0025252525252525255,1498.7,1500.0252525252524,1470,1500
18.100000000000122,345,148,45,0.0018796992481203006,1498.8,1499.3796992481202,1470,1500
18.150000000000123,346,146,54,0.0035842293906810036,1498.6,1501.084229390681,1466.0,1500
18.200000000000124,347,150,51,0.002,1499.0,1499.5,1469.0,1500
18.250000000000124,348,147,54,0.001488095238095238,1498.7,1498.9880952380952,1466.0,1500
18.300000000000125,349,149,54,0.0017825311942959,1498.9,1499.2825311942959,1466.0,1500
18.350000000000126,350,147,55,0.002380952380952381,1498.7,1499.8809523809523,1465.0,1500
18.400000000000126,351,149,58,0.001443001443001443,1498.9,1498.9430014430015,1462.0,1500
18.450000000000127,352,149,60,0.0012787723785166241,1498.9,1498.7787723785166,1460.0,1500
18.500000000000128,353,149,61,0.0013774104683195593,1498.9,1498.8774104683196,1459.0,1500
18.55000000000013,354,149,64,0.0016835016835016834,1498.9,1499.1835016835016,1456.0,1500
18.60000000000013,355,148,63,0.0014204545454545455,1498.8,1498.9204545454545,1457.0,1500
18.65000000000013,356,148,64,0.001358695652173913,1498.8,1498.858695652174,1456.0,1500
18.70000000000013,357,148,65,0.001358695652173913,1498.8,1498.858695652174,1455.0,1500
18.75000000000013,358,148,65,0.0014204545454545455,1498.8,1498.9204545454545,1455.0,1500
18.800000000000132,359,148,66,0.0014204545454545455,1498.8,1498.9204545454545,1454.0,1500
18.850000000000133,360,148,72,0.002932551319648094,1498.8,1500.4325513196482,1448.0,1500
18.900000000000134,361,148,67,0.0014204545454545455,1498.8,1498.9204545454545,1453.0,1500
18.950000000000134,362,148,68,0.001402524544179523,1498.8,1498.9025245441794,1452.0,1500
19.000000000000135,363,148,74,0.002932551319648094,1498.8,1500.4325513196482,1446.0,1500
19.050000000000136,364,143,64,0.005952380952380952,1498.3,1503.452380952381,1456.0,1500
19.100000000000136,365,149,72,0.0017825311942959,1498.9,1499.2825311942959,1448.0,1500
19.150000000000137,366,147,71,0.0020833333333333333,1498.7,1499.5833333333333,1449.0,1500
19.200000000000138,367,147,70,0.00196078431372549,1498.7,1499.4607843137255,1450.0,1500
19.25000000000014,368,147,71,0.0015873015873015873,1498.7,1499.0873015873017,1449.0,1500
19.30000000000014,369,148,71,0.001466275659824047,1498.8,1498.966275659824,1449.0,1500
19.35000000000014,370,148,74,0.0017921146953405018,1498.8,1499.2921146953406,1446.0,1500
19.40000000000014,371,147,73,0.0014204545454545455,1498.7,1498.9204545454545,1447.0,1500
19.45000000000014,372,147,74,0.001644736842105263,1498.7,1499.1447368421052,1446.0,1500
19.500000000000142,373,149,77,0.0016835016835016834,1498.9,1499.1835016835016,1443.0,1500
19.550000000000143,374,147,78,0.0014204545454545455,1498.7,1498.9204545454545,1442.0,1500
19.600000000000144,375,146,86,0.004166666666666667,1498.6,1501.6666666666667,1434.0,1500
19.650000000000144,376,147,77,0.0024813895781637717,1498.7,1499.9813895781638,1443.0,1500
19.700000000000145,377,147,83,0.001488095238095238,1498.7,1498.9880952380952,1437.0,1500
19.750000000000146,378,147,86,0.0015625,1498.7,1499.0625,1434.0,1500
19.800000000000146,379,146,86,0.001736111111111111,1498.6,1499.236111111111,1434.0,1500
19.850000000000147,380,146,87,0.0015151515151515152,1498.6,1499.0151515151515,1433.0,1500
19.900000000000148,381,146,88,0.001466275659824047,1498.6,1498.966275659824,1432.0,1500
19.95000000000015,382,146,91,0.0017921146953405018,1498.6,1499.2921146953406,1429.0,1500
20.00000000000015,383,145,90,0.001488095238095238,1498.5,1498.9880952380952,1430.0,1500
20.05000000000015,384,145,92,0.001838235294117647,1498.5,1499.3382352941176,1428.0,1500
20.10000000000015,385,145,89,0.0014204545454545455,1498.5,1498.9204545454545,1431.0,1500
20.15000000000015,386,145,89,0.001358695652173913,1498.5,1498.858695652174,1431.0,1500
20.200000000000152,387,145,88,0.001466275659824047,1498.5,1498.966275659824,1432.0,1500
20.250000000000153,388,145,88,0.0014204545454545455,1498.5,1498.9204545454545,1432.0,1500
20.300000000000153,389,146,85,0.0017921146953405018,1498.6,1499.2921146953406,1435.0,1500
20.350000000000154,390,147,87,0.001466275659824047,1498.7,1498.966275659824,1433.0,1500
20.400000000000155,391,148,86,0.0014204545454545455,1498.8,1498.9204545454545,1434.0,1500
20.450000000000156,392,149,86,0.0014492753623188406,1498.9,1498.9492753623188,1434.0,1500
20.500000000000156,393,151,85,0.001402524544179523,1499.1,1498.9025245441794,1435.0,1500
20.550000000000157,394,154,83,0.0014204545454545455,1499.4,1498.9204545454545,1437.0,1500
20.600000000000158,395,156,83,0.0016835016835016834,1499.6,1499.1835016835016,1437.0,1500
20.65000000000016,396,159,83,0.0013774104683195593,1499.9,1498.8774104683196,1437.0,1500
20.70000000000016,397,161,82,0.001358695652173913,1500.1,1498.858695652174,1438.0,1500
20.75000000000016,398,164,83,0.0014204545454545455,1500.4,1498.9204545454545,1437.0,1500
20.80000000000016,399,167,83,0.001466275659824047,1500.7,1498.966275659824,1437.0,1500
20.85000000000016,400,169,83,0.001358695652173913,1500.9,1498.858695652174,1437.0,1500
20.900000000000162,401,173,84,0.001402524544179523,1501.3,1498.9025245441794,1436.0,1500
20.950000000000163,402,175,85,0.0015360983102918587,1501.5,1499.036098310292,1435.0,1500
21.000000000000163,403,178,85,0.001466275659824047,1501.8,1498.966275659824,1435.0,1500
21.050000000000164,404,180,86,0.0016129032258064516,1502.0,1499.1129032258063,1434.0,1500
21.100000000000165,405,183,86,0.0014204545454545455,1502.3,1498.9204545454545,1434.0,1500
21.150000000000166,406,185,86,0.0014204545454545455,1502.5,1498.9204545454545,1434.0,1500
21.200000000000166,407,188,86,0.001466275659824047,1502.8,1498.966275659824,1434.0,1500
21.250000000000167,408,189,86,0.0020833333333333333,1502.9,1499.5833333333333,1434.0,1500
21.300000000000168,409,192,87,0.0016129032258064516,1503.2,1499.1129032258063,1433.0,1500
21.35000000000017,410,192,88,0.0015873015873015873,1503.2,1499.0873015873017,1432.0,1500
21.40000000000017,411,194,87,0.0017921146953405018,1503.4,1499.2921146953406,1433.0,1500
21.45000000000017,412,194,90,0.001851851851851852,1503.4,1499.351851851852,1430.0,1500
21.50000000000017,413,195,90,0.001697792869269949,1503.5,1499.19779286927,1430.0,1500
21.55000000000017,414,195,89,0.002564102564102564,1503.5,1500.0641025641025,1431.0,1500
21.600000000000172,415,198,92,0.0026455026455026454,1503.8,1500.1455026455026,1428.0,1500
21.650000000000173,416,196,89,0.0015873015873015873,1503.6,1499.0873015873017,1431.0,1500
21.700000000000173,417,196,90,0.0018975332068311196,1503.6,1499.3975332068312,1430.0,1500
21.750000000000174,418,196,89,0.0015360983102918587,1503.6,1499.036098310292,1431.0,1500
21.800000000000175,419,197,91,0.0024691358024691358,1503.7,1499.969135802469,1429.0,1500
21.850000000000176,420,194,88,0.0017241379310344827,1503.4,1499.2241379310344,1432.0,1500
21.900000000000176,421,193,89,0.001697792869269949,1503.3,1499.19779286927,1431.0,1500
21.950000000000177,422,192,88,0.001697792869269949,1503.2,1499.19779286927,1432.0,1500
22.000000000000178,423,189,88,0.0017857142857142857,1502.9,1499.2857142857142,1432.0,1500
22.05000000000018,424,186,91,0.0020833333333333333,1502.6,1499.5833333333333,1429.0,1500
22.10000000000018,425,184,88,0.0015360983102918587,1502.4,1499.036098310292,1432.0,1500
22.15000000000018,426,180,88,0.001697792869269949,1502.0,1499.19779286927,1432.0,1500
22.20000000000018,427,177,88,0.0017543859649122807,1501.7,1499.2543859649122,1432.0,1500
22.25000000000018,428,173,86,0.001488095238095238,1501.3,1498.9880952380952,1434.0,1500
22.300000000000182,429,171,87,0.0018975332068311196,1501.1,1499.3975332068312,1433.0,1500
22.350000000000183,430,168,81,0.0029585798816568047,1500.8,1500.4585798816568,1439.0,1500
22.400000000000183,431,164,83,0.0015151515151515152,1500.4,1499.0151515151515,1437.0,1500
22.450000000000184,432,160,83,0.0014204545454545455,1500.0,1498.9204545454545,1437.0,1500
22.500000000000185,433,158,83,0.0013175230566534915,1499.8,1498.8175230566535,1437.0,1500
22.550000000000185,434,154,82,0.0014204545454545455,1499.4,1498.9204545454545,1438.0,1500
22.600000000000186,435,152,82,0.0014204545454545455,1499.2,1498.9204545454545,1438.0,1500
22.650000000000187,436,149,83,0.0013774104683195593,1498.9,1498.8774104683196,1437.0,1500
22.700000000000188,437,147,84,0.001466275659824047,1498.7,1498.966275659824,1436.0,1500
22.75000000000019,438,144,85,0.0014204545454545455,1498.4,1498.9204545454545,1435.0,1500
22.80000000000019,439,144,86,0.0013774104683195593,1498.4,1498.8774104683196,1434.0,1500
22.85000000000019,440,143,88,0.0013774104683195593,1498.3,1498.8774104683196,1432.0,1500
22.90000000000019,441,142,89,0.0014204545454545455,1498.2,1498.9204545454545,1431.0,1500
22.95000000000019,442,142,90,0.001466275659824047,1498.2,1498.966275659824,1430.0,1500
23.000000000000192,443,142,91,0.0014204545454545455,1498.2,1498.9204545454545,1429.0,1500
23.050000000000193,444,142,92,0.0014204545454545455,1498.2,1498.9204545454545,1428.0,1500
23.100000000000193,445,142,92,0.0014204545454545455,1498.2,1498.9204545454545,1428.0,1500
23.150000000000194,446,142,93,0.001402524544179523,1498.2,1498.9025245441794,1427.0,1500
23.200000000000195,447,142,93,0.0014204545454545455,1498.2,1498.9204545454545,1427.0,1500
23.250000000000195,448,142,93,0.0014204545454545455,1498.2,1498.9204545454545,1427.0,1500
23.300000000000196,449,143,94,0.0013774104683195593,1498.3,1498.8774104683196,1426.0,1500
23.350000000000197,450,143,94,0.0014204545454545455,1498.3,1498.9204545454545,1426.0,1500
23.400000000000198,451,144,95,0.0013774104683195593,1498.4,1498.8774104683196,1425.0,1500
23.4500000000002,452,144,95,0.001466275659824047,1498.4,1498.966275659824,1425.0,1500
23.5000000000002,453,145,98,0.001697792869269949,1498.5,1499.19779286927,1422.0,1500
23.5500000000002,454,144,96,0.0014204545454545455,1498.4,1498.9204545454545,1424.0,1500
23.6000000000002,455,145,96,0.0015625,1498.5,1499.0625,1424.0,1500
23.6500000000002,456,145,97,0.0015360983102918587,1498.5,1499.036098310292,1423.0,1500
23.700000000000202,457,144,97,0.001466275659824047,1498.4,1498.966275659824,1423.0,1500
23.750000000000203,458,145,97,0.001466275659824047,1498.5,1498.966275659824,1423.0,1500
23.800000000000203,459,145,98,0.0015360983102918587,1498.5,1499.036098310292,1422.0,1500
23.850000000000204,460,145,99,0.0015360983102918587,1498.5,1499.036098310292,1421.0,1500
23.900000000000205,461,144,98,0.0015151515151515152,1498.4,1499.0151515151515,1422.0,1500
23.950000000000205,462,145,98,0.001466275659824047,1498.5,1498.966275659824,1422.0,1500
24.000000000000206,463,145,101,0.001838235294117647,1498.5,1499.3382352941176,1419.0,1500
24.050000000000207,464,145,98,0.0015360983102918587,1498.5,1499.036098310292,1422.0,1500
24.100000000000207,465,145,98,0.001488095238095238,1498.5,1498.9880952380952,1422.0,1500
24.150000000000208,466,145,97,0.0014204545454545455,1498.5,1498.9204545454545,1423.0,1500
24.20000000000021,467,145,96,0.0015151515151515152,1498.5,1499.0151515151515,1424.0,1500
24.25000000000021,468,146,95,0.0015625,1498.6,1499.0625,1425.0,1500
24.30000000000021,469,146,94,0.0015360983102918587,1498.6,1499.036098310292,1426.0,1500
24.35000000000021,470,147,92,0.001443001443001443,1498.7,1498.9430014430015,1428.0,1500
24.40000000000021,471,147,90,0.0015360983102918587,1498.7,1499.036098310292,1430.0,1500
24.450000000000212,472,147,89,0.001402524544179523,1498.7,1498.9025245441794,1431.0,1500
24.500000000000213,473,147,88,0.0014204545454545455,1498.7,1498.9204545454545,1432.0,1500
24.550000000000214,474,147,88,0.0017921146953405018,1498.7,1499.2921146953406,1432.0,1500
24.600000000000215,475,147,87,0.0017921146953405018,1498.7,1499.2921146953406,1433.0,1500
24.650000000000215,476,148,89,0.0025252525252525255,1498.8,1500.0252525252524,1431.0,1500
24.700000000000216,477,147,83,0.0014204545454545455,1498.7,1498.9204545454545,1437.0,1500
24.750000000000217,478,146,83,0.0014492753623188406,1498.6,1498.9492753623188,1437.0,1500
24.800000000000217,479,147,82,0.0014204545454545455,1498.7,1498.9204545454545,1438.0,1500
24.850000000000218,480,147,81,0.0014204545454545455,1498.7,1498.9204545454545,1439.0,1500
24.90000000000022,481,147,81,0.001466275659824047,1498.7,1498.966275659824,1439.0,1500
24.95000000000022,482,146,83,0.0017921146953405018,1498.6,1499.2921146953406,1437.0,1500
25.00000000000022,483,146,81,0.0036363636363636364,1498.6,1501.1363636363637,1439.0,1500
25.05000000000022,484,146,84,0.0018975332068311196,1498.6,1499.3975332068312,1436.0,1500
25.10000000000022,485,145,83,0.0016129032258064516,1498.5,1499.1129032258063,1437.0,1500
25.150000000000222,486,145,85,0.0015360983102918587,1498.5,1499.036098310292,1435.0,1500
25.200000000000223,487,144,82,0.0024630541871921183,1498.4,1499.963054187192,1438.0,1500
25.250000000000224,488,144,87,0.0014204545454545455,1498.4,1498.9204545454545,1433.0,1500
25.300000000000225,489,144,87,0.0014204545454545455,1498.4,1498.9204545454545,1433.0,1500
25.350000000000225,490,144,92,0.002304147465437788,1498.4,1499.8041474654378,1428.0,1500
25.400000000000226,491,146,89,0.001763668430335097,1498.6,1499.2636684303352,1431.0,1500
25.450000000000227,492,144,89,0.0014204545454545455,1498.4,1498.9204545454545,1431.0,1500
25.500000000000227,493,144,93,0.0022222222222222222,1498.4,1499.7222222222222,1427.0,1500
25.550000000000228,494,144,91,0.0020833333333333333,1498.4,1499.5833333333333,1429.0,1500
25.60000000000023,495,145,92,0.002304147465437788,1498.5,1499.8041474654378,1428.0,1500
25.65000000000023,496,145,88,0.001466275659824047,1498.5,1498.966275659824,1432.0,1500
25.70000000000023,497,146,92,0.003968253968253968,1498.6,1501.468253968254,1428.0,1500
25.75000000000023,498,146,89,0.001838235294117647,1498.6,1499.3382352941176,1431.0,1500
25.80000000000023,499,146,88,0.0032258064516129032,1498.6,1500.725806451613,1432.0,1500
25.850000000000232,500,146,82,0.0016129032258064516,1498.6,1499.1129032258063,1438.0,1500
25.900000000000233,501,146,77,0.002028397565922921,1498.6,1499.528397565923,1443.0,1500
25.950000000000234,502,147,78,0.002380952380952381,1498.7,1499.8809523809523,1442.0,1500
26.000000000000234,503,147,76,0.003968253968253968,1498.7,1501.468253968254,1444.0,1500
26.050000000000235,504,148,72,0.0038461538461538464,1498.8,1501.3461538461538,1448.0,1500
26.100000000000236,505,150,65,0.0078125,1499.0,1505,1455.0,1500
26.150000000000237,506,151,68,0.006944444444444444,1499.1,1504.4444444444443,1452.0,1500
26.200000000000237,507,154,57,0.01818181818181818,1499.4,1505,1463.0,1500
26.250000000000238,508,152,51,0.006944444444444444,1499.2,1504.4444444444443,1469.0,1500
26.30000000000024,509,153,53,0.004166666666666667,1499.3,1501.6666666666667,1467.0,1500
26.35000000000024,510,153,53,0.0016722408026755853,1499.3,1499.1722408026756,1467.0,1500
26.40000000000024,511,156,54,0.002178649237472767,1499.6,1499.6786492374727,1466.0,1500
26.45000000000024,512,156,49,0.0013736263736263737,1499.6,1498.8736263736264,1470,1500
26.50000000000024,513,156,44,0.004784688995215311,1499.6,1502.2846889952152,1470,1500
26.550000000000242,514,158,52,0.002380952380952381,1499.8,1499.8809523809523,1468.0,1500
26.600000000000243,515,156,56,0.003968253968253968,1499.6,1501.468253968254,1464.0,1500
26.650000000000244,516,159,48,0.001152073732718894,1499.9,1498.652073732719,1470,1500
26.700000000000244,517,159,50,0.0017391304347826088,1499.9,1499.2391304347825,1470.0,1500
26.750000000000245,518,158,49,0.0016233766233766235,1499.8,1499.1233766233765,1470,1500
26.800000000000246,519,159,53,0.0024509803921568627,1499.9,1499.950980392157,1467.0,1500
