time,frame,x,y,size_inv,roll,pitch,thrust,yaw
0.00011801719665527344,1,,,,1500.0,1500.0,1400.0,1500
0.02219390869140625,2,,,,1500.0,1500.0,1400.0,1500
0.04354381561279297,3,,,,1500.0,1500.0,1400.0,1500
0.06485390663146973,4,,,,1500.0,1500.0,1400.0,1500
0.0860738754272461,5,,,,1500.0,1500.0,1400.0,1500
0.10723400115966797,6,,,,1500.0,1500.0,1400.0,1500
0.12837982177734375,7,,,,1500.0,1500.0,1400.0,1500
0.14953994750976562,8,,,,1500.0,1500.0,1400.0,1500
0.17075896263122559,9,,,,1500.0,1500.0,1400.0,1500
0.1919238567352295,10,,,,1500.0,1500.0,1400.0,1500
0.21321988105773926,11,,,,1500.0,1500.0,1400.0,1500
0.2345569133758545,12,,,,1500.0,1500.0,1400.0,1500
0.25583982467651367,13,,,,1500.0,1500.0,1400.0,1500
0.2771139144897461,14,,,,1500.0,1500.0,1400.0,1500
0.2983717918395996,15,,,,1500.0,1500.0,1400.0,1500
0.31963491439819336,16,,,,1500.0,1500.0,1400.0,1500
0.34096193313598633,17,,,,1500.0,1500.0,1400.0,1500
0.36226797103881836,18,,,,1500.0,1500.0,1400.0,1500
0.3835418224334717,19,,,,1500.0,1500.0,1400.0,1500
0.40482282638549805,20,,,,1500.0,1500.0,1400.0,1500
0.4260690212249756,21,,,,1500.0,1500.0,1400.0,1500
0.44759297370910645,22,,,,1500.0,1500.0,1400.0,1500
0.4689488410949707,23,,,,1500.0,1500.0,1400.0,1500
0.49028587341308594,24,,,,1500.0,1500.0,1400.0,1500
0.5115690231323242,25,,,,1500.0,1500.0,1400.0,1500
0.5328459739685059,26,,,,1500.0,1500.0,1400.0,1500
0.5541260242462158,27,,,,1500.0,1500.0,1400.0,1500
0.5753979682922363,28,,,,1500.0,1500.0,1400.0,1500
0.596686840057373,29,,,,1500.0,1500.0,1400.0,1500
0.61798095703125,30,,,,1500.0,1500.0,1400.0,1500
0.6392569541931152,31,,,,1500.0,1500.0,1400.0,1500
0.6605708599090576,32,,,,1500.0,1500.0,1400.0,1500
0.68184494972229,33,,,,1500.0,1500.0,1400.0,1500
0.7031228542327881,34,,,,1500.0,1500.0,1400.0,1500
0.7244019508361816,35,,,,1500.0,1500.0,1400.0,1500
0.7456779479980469,36,,,,1500.0,1500.0,1400.0,1500
0.7669568061828613,37,,,,1500.0,1500.0,1400.0,1500
0.7882249355316162,38,,,,1500.0,1500.0,1400.0,1500
0.8095049858093262,39,,,,1500.0,1500.0,1400.0,1500
0.8307709693908691,40,,,,1500.0,1500.0,1400.0,1500
0.8520448207855225,41,,,,1500.0,1500.0,1400.0,1500
0.8733108043670654,42,,,,1500.0,1500.0,1400.0,1500
0.8945798873901367,43,,,,1500.0,1500.0,1400.0,1500
0.9158568382263184,44,,,,1500.0,1500.0,1400.0,1500
0.9371159076690674,45,,,,1500.0,1500.0,1400.0,1500
0.9584019184112549,46,,,,1500.0,1500.0,1400.0,1500
0.9796838760375977,47,,,,1500.0,1500.0,1400.0,1500
1.0009570121765137,48,,,,1500.0,1500.0,1400.0,1500
1.022223949432373,49,,,,1500.0,1500.0,1400.0,1500
1.0434849262237549,50,,,,1500.0,1500.0,1400.0,1500
1.0648188591003418,51,,,,1500.0,1500.0,1400.0,1500
1.0860908031463623,52,,,,1500.0,1500.0,1400.0,1500
1.1074600219726562,53,,,,1500.0,1500.0,1400.0,1500
1.1287479400634766,54,,,,1500.0,1500.0,1400.0,1500
1.1500608921051025,55,,,,1500.0,1500.0,1400.0,1500
1.1713550090789795,56,,,,1500.0,1500.0,1400.0,1500
1.1926369667053223,57,,,,1500.0,1500.0,1400.0,1500
1.2139229774475098,58,,,,1500.0,1500.0,1400.0,1500
1.235224962234497,59,,,,1500.0,1500.0,1400.0,1500
1.2564868927001953,60,,,,1500.0,1500.0,1400.0,1500
1.2778809070587158,61,,,,1500.0,1500.0,1400.0,1500
1.2991538047790527,62,,,,1500.0,1500.0,1400.0,1500
1.3204188346862793,63,,,,1500.0,1500.0,1400.0,1500
1.341702938079834,64,,,,1500.0,1500.0,1400.0,1500
1.3629698753356934,65,,,,1500.0,1500.0,1400.0,1500
1.3842308521270752,66,,,,1500.0,1500.0,1400.0,1500
1.4054958820343018,67,,,,1500.0,1500.0,1400.0,1500
1.4267559051513672,68,,,,1500.0,1500.0,1400.0,1500
1.44803786277771,69,,,,1500.0,1500.0,1400.0,1500
1.469296932220459,70,,,,1500.0,1500.0,1400.0,1500
1.4905569553375244,71,,,,1500.0,1500.0,1400.0,1500
1.5118188858032227,72,,,,1500.0,1500.0,1400.0,1500
1.5330908298492432,73,,,,1500.0,1500.0,1400.0,1500
1.554368019104004,74,,,,1500.0,1500.0,1400.0,1500
1.5756359100341797,75,,,,1500.0,1500.0,1400.0,1500
1.5968999862670898,76,,,,1500.0,1500.0,1400.0,1500
1.6181678771972656,77,,,,1500.0,1500.0,1400.0,1500
1.6394309997558594,78,,,,1500.0,1500.0,1400.0,1500
1.6708087921142578,79,,,,1500.0,1500.0,1400.0,1500
1.6921968460083008,80,,,,1500.0,1500.0,1400.0,1500
1.7135050296783447,81,,,,1500.0,1500.0,1400.0,1500
1.7347848415374756,82,,,,1500.0,1500.0,1400.0,1500
1.7560598850250244,83,,,,1500.0,1500.0,1400.0,1500
1.7774548530578613,84,,,,1500.0,1500.0,1400.0,1500
1.7987468242645264,85,,,,1500.0,1500.0,1400.0,1500
1.8200218677520752,86,,,,1500.0,1500.0,1400.0,1500
1.8415589332580566,87,135,33,0.037037037037037035,1497.5,1540,1450,1500
1.8631598949432373,88,,,,1500.0,1500.0,1400.0,1500
1.8845069408416748,89,,,,1500.0,1500.0,1400.0,1500
1.9057879447937012,90,,,,1500.0,1500.0,1400.0,1500
1.9270589351654053,91,,,,1500.0,1500.0,1400.0,1500
1.948347806930542,92,,,,1500.0,1500.0,1400.0,1500
1.969787836074829,93,152,26,0.03571428571428571,1499.2,1540,1450,1500
1.9913527965545654,94,153,31,0.047619047619047616,1499.3,1540,1450,1500
2.012910842895508,95,152,35,0.03333333333333333,1499.2,1540,1450,1500
2.03446888923645,96,155,28,0.047619047619047616,1499.5,1540,1450,1500
2.0560178756713867,97,157,29,0.025,1499.7,1540,1450,1500
2.0775668621063232,98,160,41,0.016666666666666666,1500.0,1540,1450,1500
2.0991039276123047,99,160,33,0.02,1500.0,1540,1450,1500
2.120628833770752,100,150,39,0.015151515151515152,1499.0,1540,1450,1500
2.1421658992767334,101,164,35,0.022222222222222223,1500.4,1540,1450,1500
2.163780927658081,102,152,43,0.015151515151515152,1499.2,1540,1450,1500
2.1853229999542236,103,158,39,0.022222222222222223,1499.8,1540,1450,1500
2.206875801086426,104,154,52,0.030303030303030304,1499.4,1540,1450,1500
2.2284579277038574,105,159,42,0.007246376811594203,1499.9,1540,1450,1500
2.2500078678131104,106,156,51,0.009523809523809525,1499.6,1540,1450,1500
2.2715439796447754,107,161,50,0.004830917874396135,1500.1,1523.3091787439614,1450,1500
2.29316782951355,108,177,52,0.025,1501.7,1540,1450,1500
2.3146908283233643,109,155,45,0.011111111111111112,1499.5,1540,1450,1500
2.3362438678741455,110,176,50,0.008264462809917356,1501.6,1540,1450,1500
2.3579599857330322,111,165,50,0.0025974025974025974,1500.5,1500.974025974026,1450,1500
2.379603862762451,112,167,48,0.002304147465437788,1500.7,1498.041474654378,1450,1500
2.401249885559082,113,168,50,0.002688172043010753,1500.8,1501.8817204301076,1450,1500
2.422868013381958,114,166,47,0.002178649237472767,1500.6,1496.7864923747277,1450,1500
2.444509983062744,115,169,49,0.002232142857142857,1500.9,1497.3214285714287,1450,1500
2.4661619663238525,116,169,47,0.001953125,1500.9,1494.53125,1450,1500
2.487898826599121,117,168,49,0.0017301038062283738,1500.8,1492.3010380622836,1450,1500
2.5095508098602295,118,171,47,0.0016129032258064516,1501.1,1491.1290322580646,1450,1500
2.531191825866699,119,170,50,0.0020408163265306124,1501.0,1495.408163265306,1450,1500
2.552827835083008,120,170,49,0.001838235294117647,1501.0,1493.3823529411766,1450,1500
2.5744810104370117,121,173,49,0.0017921146953405018,1501.3,1492.921146953405,1450,1500
2.5961039066314697,122,174,51,0.002304147465437788,1501.4,1498.041474654378,1450,1500
2.6178228855133057,123,172,49,0.0014705882352941176,1501.2,1489.7058823529412,1450,1500
2.6394779682159424,124,175,49,0.001697792869269949,1501.5,1491.9779286926994,1450,1500
2.661139965057373,125,175,50,0.0018148820326678765,1501.5,1493.1488203266788,1450,1500
2.682766914367676,126,175,49,0.0016666666666666668,1501.5,1491.6666666666667,1450,1500
2.7043848037719727,127,174,53,0.00202020202020202,1501.4,1495.20202020202,1450,1500
2.72599196434021,128,175,51,0.0017543859649122807,1501.5,1492.5438596491229,1450,1500
2.7476158142089844,129,176,50,0.0016666666666666668,1501.6,1491.6666666666667,1450,1500
2.769277811050415,130,175,50,0.0016339869281045752,1501.5,1491.3398692810458,1450,1500
2.7909200191497803,131,176,51,0.001594896331738437,1501.6,1490.9489633173844,1450,1500
2.8125739097595215,132,177,51,0.0015479876160990713,1501.7,1490.4798761609907,1450,1500
2.834204912185669,133,176,51,0.001851851851851852,1501.6,1493.5185185185185,1450,1500
2.8558549880981445,134,178,52,0.0016835016835016834,1501.8,1491.8350168350169,1450,1500
2.8779280185699463,135,178,52,0.001697792869269949,1501.8,1491.9779286926994,1450,1500
2.899606943130493,136,179,52,0.001736111111111111,1501.9,1492.361111111111,1450,1500
2.9212329387664795,137,180,52,0.0016129032258064516,1502.0,1491.1290322580646,1450,1500
2.942873954772949,138,180,53,0.001644736842105263,1502.0,1491.4473684210527,1450,1500
2.9645040035247803,139,180,53,0.001851851851851852,1502.0,1493.5185185185185,1450,1500
2.986114025115967,140,181,54,0.001697792869269949,1502.1,1491.9779286926994,1450,1500
3.0078608989715576,141,183,54,0.0018796992481203006,1502.3,1493.796992481203,1450,1500
3.029496908187866,142,182,54,0.001697792869269949,1502.2,1491.9779286926994,1450,1500
3.051146984100342,143,183,54,0.0017921146953405018,1502.3,1492.921146953405,1450,1500
3.072795867919922,144,183,55,0.0018975332068311196,1502.3,1493.9753320683112,1450,1500
3.0944199562072754,145,183,55,0.001697792869269949,1502.3,1491.9779286926994,1450,1500
3.1160337924957275,146,184,55,0.0017543859649122807,1502.4,1492.5438596491229,1450,1500
3.137794017791748,147,184,55,0.001697792869269949,1502.4,1491.9779286926994,1450,1500
3.159472942352295,148,184,54,0.0016129032258064516,1502.4,1491.1290322580646,1450,1500
3.1811180114746094,149,186,55,0.001949317738791423,1502.6,1494.4931773879143,1450,1500
3.2027618885040283,150,185,55,0.001644736842105263,1502.5,1491.4473684210527,1450,1500
3.2244160175323486,151,185,55,0.0017543859649122807,1502.5,1492.5438596491229,1450,1500
3.2460548877716064,152,185,55,0.001851851851851852,1502.5,1493.5185185185185,1450,1500
3.2678158283233643,153,186,55,0.001697792869269949,1502.6,1491.9779286926994,1450,1500
3.2894418239593506,154,186,54,0.001984126984126984,1502.6,1494.8412698412699,1450,1500
3.3110740184783936,155,186,55,0.0018796992481203006,1502.6,1493.796992481203,1450,1500
3.3327109813690186,156,186,55,0.0018148820326678765,1502.6,1493.1488203266788,1450,1500
3.3543570041656494,157,186,56,0.0021008403361344537,1502.6,1496.0084033613446,1450,1500
3.375962972640991,158,186,55,0.0018796992481203006,1502.6,1493.796992481203,1450,1500
3.397573947906494,159,186,55,0.001984126984126984,1502.6,1494.8412698412699,1450,1500
3.4192090034484863,160,186,55,0.0018796992481203006,1502.6,1493.796992481203,1450,1500
3.4408328533172607,161,186,55,0.0021008403361344537,1502.6,1496.0084033613446,1450,1500
3.4624569416046143,162,187,55,0.00205761316872428,1502.7,1495.5761316872429,1450,1500
3.4840729236602783,163,187,55,0.0018796992481203006,1502.7,1493.796992481203,1450,1500
3.5056989192962646,164,187,56,0.002232142857142857,1502.7,1497.3214285714287,1450,1500
3.5273067951202393,165,187,56,0.0021008403361344537,1502.7,1496.0084033613446,1450,1500
3.5489349365234375,166,187,56,0.0021008403361344537,1502.7,1496.0084033613446,1450,1500
3.570539951324463,167,188,56,0.002232142857142857,1502.8,1497.3214285714287,1450,1500
3.592136859893799,168,188,57,0.002028397565922921,1502.8,1495.283975659229,1450,1500
3.613744020462036,169,188,57,0.0021008403361344537,1502.8,1496.0084033613446,1450,1500
3.6353628635406494,170,188,58,0.002178649237472767,1502.8,1496.7864923747277,1450,1500
3.657015800476074,171,188,58,0.002178649237472767,1502.8,1496.7864923747277,1450,1500
3.6786279678344727,172,187,58,0.002403846153846154,1502.7,1499.0384615384614,1450,1500
3.7002367973327637,173,188,59,0.002178649237472767,1502.8,1496.7864923747277,1450,1500
3.7218499183654785,174,188,60,0.002178649237472767,1502.8,1496.7864923747277,1450,1500
3.7434639930725098,175,188,60,0.002178649237472767,1502.8,1496.7864923747277,1450,1500
3.7650949954986572,176,188,61,0.002178649237472767,1502.8,1496.7864923747277,1450,1500
3.786761999130249,177,188,61,0.0023148148148148147,1502.8,1498.148148148148,1450,1500
3.8084518909454346,178,188,62,0.002564102564102564,1502.8,1500.6410256410256,1450,1500
3.830065965652466,179,188,62,0.002403846153846154,1502.8,1499.0384615384614,1450,1500
3.8516929149627686,180,188,62,0.002403846153846154,1502.8,1499.0384615384614,1450,1500
3.873309850692749,181,188,63,0.002564102564102564,1502.8,1500.6410256410256,1450,1500
3.895206928253174,182,189,63,0.0026666666666666666,1502.9,1501.6666666666667,1450,1500
3.916857957839966,183,188,63,0.002403846153846154,1502.8,1499.0384615384614,1450,1500
3.9384799003601074,184,189,64,0.0026666666666666666,1502.9,1501.6666666666667,1450,1500
3.9601058959960938,185,189,64,0.0026666666666666666,1502.9,1501.6666666666667,1450,1500
3.9817190170288086,186,188,64,0.002564102564102564,1502.8,1500.6410256410256,1450,1500
4.0033228397369385,187,188,64,0.002777777777777778,1502.8,1502.7777777777778,1450,1500
4.02493691444397,188,189,64,0.0026666666666666666,1502.9,1501.6666666666667,1450,1500
4.046587944030762,189,189,64,0.0026666666666666666,1502.9,1501.6666666666667,1450,1500
4.068315029144287,190,190,63,0.002857142857142857,1503.0,1503.5714285714287,1450,1500
4.089947938919067,191,190,64,0.0026666666666666666,1503.0,1501.6666666666667,1450,1500
4.111552953720093,192,190,63,0.002857142857142857,1503.0,1503.5714285714287,1450,1500
4.133162975311279,193,190,63,0.002857142857142857,1503.0,1503.5714285714287,1450,1500
4.1548168659210205,194,189,64,0.0033444816053511705,1502.9,1508.4448160535117,1450,1500
4.176458835601807,195,189,63,0.003105590062111801,1502.9,1506.055900621118,1450,1500
4.198197841644287,196,189,64,0.002777777777777778,1502.9,1502.7777777777778,1450,1500
4.219842910766602,197,190,64,0.0026666666666666666,1503.0,1501.6666666666667,1450,1500
4.241455793380737,198,189,64,0.003105590062111801,1502.9,1506.055900621118,1450,1500
4.263078927993774,199,189,64,0.0033444816053511705,1502.9,1508.4448160535117,1450,1500
4.2846839427948,200,189,64,0.003105590062111801,1502.9,1506.055900621118,1450,1500
4.306290864944458,201,189,64,0.003105590062111801,1502.9,1506.055900621118,1450,1500
4.3280558586120605,202,189,64,0.003105590062111801,1502.9,1506.055900621118,1450,1500
4.349731922149658,203,188,64,0.003246753246753247,1502.8,1507.4675324675325,1450,1500
4.371372938156128,204,189,64,0.003105590062111801,1502.9,1506.055900621118,1450,1500
4.393000841140747,205,189,64,0.003105590062111801,1502.9,1506.055900621118,1450,1500
4.4146409034729,206,189,64,0.003105590062111801,1502.9,1506.055900621118,1450,1500
4.436266899108887,207,189,64,0.003105590062111801,1502.9,1506.055900621118,1450,1500
4.458021879196167,208,189,65,0.0033444816053511705,1502.9,1508.4448160535117,1450,1500
4.479662895202637,209,189,65,0.002976190476190476,1502.9,1504.7619047619048,1450,1500
4.501299858093262,210,189,65,0.002976190476190476,1502.9,1504.7619047619048,1450,1500
4.5229198932647705,211,189,65,0.003105590062111801,1502.9,1506.055900621118,1450,1500
4.544580936431885,212,189,65,0.003105590062111801,1502.9,1506.055900621118,1450,1500
4.566213846206665,213,189,66,0.002898550724637681,1502.9,1503.9855072463768,1450,1500
4.587945938110352,214,189,66,0.003105590062111801,1502.9,1506.055900621118,1450,1500
4.60956883430481,215,189,66,0.002976190476190476,1502.9,1504.7619047619048,1450,1500
4.631187915802002,216,189,66,0.003105590062111801,1502.9,1506.055900621118,1450,1500
4.65280294418335,217,189,66,0.003105590062111801,1502.9,1506.055900621118,1450,1500
4.674423933029175,218,189,67,0.002898550724637681,1502.9,1503.9855072463768,1450,1500
4.6960608959198,219,189,67,0.002777777777777778,1502.9,1502.7777777777778,1450,1500
4.717850923538208,220,189,67,0.002777777777777778,1502.9,1502.7777777777778,1450,1500
4.739500999450684,221,189,67,0.002777777777777778,1502.9,1502.7777777777778,1450,1500
4.761148929595947,222,189,67,0.002898550724637681,1502.9,1503.9855072463768,1450,1500
4.782773971557617,223,189,67,0.002898550724637681,1502.9,1503.9855072463768,1450,1500
4.804399013519287,224,189,67,0.002898550724637681,1502.9,1503.9855072463768,1450,1500
4.826020956039429,225,189,67,0.002777777777777778,1502.9,1502.7777777777778,1450,1500
4.84791898727417,226,189,67,0.0026041666666666665,1502.9,1501.0416666666667,1450,1500
4.869577884674072,227,189,67,0.002777777777777778,1502.9,1502.7777777777778,1450,1500
4.891225814819336,228,189,67,0.002777777777777778,1502.9,1502.7777777777778,1450,1500
4.913165807723999,229,189,67,0.002898550724637681,1502.9,1503.9855072463768,1450,1500
4.934820890426636,230,189,67,0.002777777777777778,1502.9,1502.7777777777778,1450,1500
4.956453800201416,231,189,67,0.002898550724637681,1502.9,1503.9855072463768,1450,1500
4.9782068729400635,232,189,67,0.002898550724637681,1502.9,1503.9855072463768,1450,1500
4.99984884262085,233,189,67,0.002777777777777778,1502.9,1502.7777777777778,1450,1500
5.021471977233887,234,189,67,0.002777777777777778,1502.9,1502.7777777777778,1450,1500
5.043148994445801,235,188,67,0.002777777777777778,1502.8,1502.7777777777778,1450,1500
5.065001010894775,236,188,67,0.002777777777777778,1502.8,1502.7777777777778,1450,1500
5.086723804473877,237,189,67,0.002898550724637681,1502.9,1503.9855072463768,1450,1500
5.108415842056274,238,188,67,0.0026041666666666665,1502.8,1501.0416666666667,1450,1500
5.130041837692261,239,188,67,0.002777777777777778,1502.8,1502.7777777777778,1450,1500
5.151727914810181,240,188,67,0.0026041666666666665,1502.8,1501.0416666666667,1450,1500
5.173349857330322,241,188,67,0.0026041666666666665,1502.8,1501.0416666666667,1450,1500
5.194969892501831,242,188,67,0.0026041666666666665,1502.8,1501.0416666666667,1450,1500
5.216671943664551,243,188,67,0.0026666666666666666,1502.8,1501.6666666666667,1450,1500
5.238358974456787,244,187,67,0.002777777777777778,1502.7,1502.7777777777778,1450,1500
5.259989976882935,245,187,67,0.002777777777777778,1502.7,1502.7777777777778,1450,1500
5.281601905822754,246,187,67,0.002777777777777778,1502.7,1502.7777777777778,1450,1500
5.303215026855469,247,187,66,0.003105590062111801,1502.7,1506.055900621118,1450,1500
5.324849843978882,248,186,66,0.002976190476190476,1502.6,1504.7619047619048,1450,1500
5.34650182723999,249,186,66,0.002976190476190476,1502.6,1504.7619047619048,1450,1500
5.36824893951416,250,186,66,0.003105590062111801,1502.6,1506.055900621118,1450,1500
5.389869928359985,251,185,66,0.002976190476190476,1502.5,1504.7619047619048,1450,1500
5.411509990692139,252,185,66,0.002976190476190476,1502.5,1504.7619047619048,1450,1500
5.433132886886597,253,185,65,0.002976190476190476,1502.5,1504.7619047619048,1450,1500
5.454777002334595,254,185,65,0.002976190476190476,1502.5,1504.7619047619048,1450,1500
5.47640585899353,255,185,65,0.002857142857142857,1502.5,1503.5714285714287,1450,1500
5.498154878616333,256,184,65,0.002976190476190476,1502.4,1504.7619047619048,1450,1500
5.519780874252319,257,184,65,0.003105590062111801,1502.4,1506.055900621118,1450,1500
5.541417837142944,258,184,65,0.002857142857142857,1502.4,1503.5714285714287,1450,1500
5.563058853149414,259,183,65,0.0033444816053511705,1502.3,1508.4448160535117,1450,1500
5.584678888320923,260,183,64,0.003105590062111801,1502.3,1506.055900621118,1450,1500
5.60630202293396,261,182,64,0.002976190476190476,1502.2,1504.7619047619048,1450,1500
5.628031969070435,262,182,64,0.003105590062111801,1502.2,1506.055900621118,1450,1500
5.64969801902771,263,182,64,0.003105590062111801,1502.2,1506.055900621118,1450,1500
5.671324968338013,264,181,64,0.002777777777777778,1502.1,1502.7777777777778,1450,1500
5.692960977554321,265,181,64,0.002777777777777778,1502.1,1502.7777777777778,1450,1500
5.714564800262451,266,181,63,0.003105590062111801,1502.1,1506.055900621118,1450,1500
5.7361979484558105,267,180,63,0.002976190476190476,1502.0,1504.7619047619048,1450,1500
5.7579569816589355,268,181,63,0.0026666666666666666,1502.1,1501.6666666666667,1450,1500
5.7795867919921875,269,180,63,0.002777777777777778,1502.0,1502.7777777777778,1450,1500
5.801213979721069,270,180,62,0.002976190476190476,1502.0,1504.7619047619048,1450,1500
5.82282280921936,271,181,62,0.002564102564102564,1502.1,1500.6410256410256,1450,1500
5.844449996948242,272,181,62,0.0027472527472527475,1502.1,1502.4725274725274,1450,1500
5.866084814071655,273,181,62,0.002564102564102564,1502.1,1500.6410256410256,1450,1500
5.887850999832153,274,181,62,0.002564102564102564,1502.1,1500.6410256410256,1450,1500
5.909507989883423,275,181,62,0.002564102564102564,1502.1,1500.6410256410256,1450,1500
5.931449890136719,276,181,62,0.002564102564102564,1502.1,1500.6410256410256,1450,1500
5.953118801116943,277,181,62,0.002564102564102564,1502.1,1500.6410256410256,1450,1500
5.974746942520142,278,181,61,0.002403846153846154,1502.1,1499.0384615384614,1450,1500
5.996368885040283,279,181,61,0.002403846153846154,1502.1,1499.0384615384614,1450,1500
6.018113851547241,280,182,61,0.0023148148148148147,1502.2,1498.148148148148,1450,1500
6.0397539138793945,281,182,61,0.002403846153846154,1502.2,1499.0384615384614,1450,1500
6.06137490272522,282,182,61,0.002564102564102564,1502.2,1500.6410256410256,1450,1500
6.083005905151367,283,182,61,0.002403846153846154,1502.2,1499.0384615384614,1450,1500
6.10462498664856,284,182,61,0.002403846153846154,1502.2,1499.0384615384614,1450,1500
6.12631893157959,285,183,61,0.0023148148148148147,1502.3,1498.148148148148,1450,1500
6.148232936859131,286,183,61,0.002564102564102564,1502.3,1500.6410256410256,1450,1500
6.169893980026245,287,183,60,0.002403846153846154,1502.3,1499.0384615384614,1450,1500
6.191511869430542,288,183,60,0.002403846153846154,1502.3,1499.0384615384614,1450,1500
6.213137865066528,289,184,60,0.0023148148148148147,1502.4,1498.148148148148,1450,1500
6.234777927398682,290,184,60,0.0023148148148148147,1502.4,1498.148148148148,1450,1500
6.2563958168029785,291,184,60,0.002564102564102564,1502.4,1500.6410256410256,1450,1500
6.278129816055298,292,184,60,0.002564102564102564,1502.4,1500.6410256410256,1450,1500
6.299731969833374,293,184,60,0.0024691358024691358,1502.4,1499.6913580246915,1450,1500
6.321350812911987,294,184,60,0.002564102564102564,1502.4,1500.6410256410256,1450,1500
6.342990875244141,295,184,59,0.002403846153846154,1502.4,1499.0384615384614,1450,1500
6.364574909210205,296,185,59,0.0023148148148148147,1502.5,1498.148148148148,1450,1500
6.386201858520508,297,185,59,0.0024691358024691358,1502.5,1499.6913580246915,1450,1500
6.407960891723633,298,185,59,0.0023148148148148147,1502.5,1498.148148148148,1450,1500
6.429651975631714,299,185,59,0.0024691358024691358,1502.5,1499.6913580246915,1450,1500
6.451292991638184,300,185,58,0.0023148148148148147,1502.5,1498.148148148148,1450,1500
6.472917795181274,301,185,59,0.002564102564102564,1502.5,1500.6410256410256,1450,1500
6.494532823562622,302,185,58,0.002403846153846154,1502.5,1499.0384615384614,1450,1500
6.516160011291504,303,185,58,0.002232142857142857,1502.5,1497.3214285714287,1450,1500
6.5379087924957275,304,186,58,0.0023148148148148147,1502.6,1498.148148148148,1450,1500
6.5595409870147705,305,186,58,0.0023148148148148147,1502.6,1498.148148148148,1450,1500
6.58116602897644,306,186,58,0.002232142857142857,1502.6,1497.3214285714287,1450,1500
6.6027820110321045,307,186,58,0.0024691358024691358,1502.6,1499.6913580246915,1450,1500
6.624413013458252,308,186,58,0.0024691358024691358,1502.6,1499.6913580246915,1450,1500
6.646029949188232,309,186,57,0.002232142857142857,1502.6,1497.3214285714287,1450,1500
6.667794942855835,310,186,57,0.002232142857142857,1502.6,1497.3214285714287,1450,1500
6.689427852630615,311,187,57,0.0023148148148148147,1502.7,1498.148148148148,1450,1500
6.711050987243652,312,187,57,0.0023148148148148147,1502.7,1498.148148148148,1450,1500
6.732663869857788,313,186,57,0.002232142857142857,1502.6,1497.3214285714287,1450,1500
6.75428581237793,314,187,58,0.0024691358024691358,1502.7,1499.6913580246915,1450,1500
6.775906801223755,315,187,58,0.0024691358024691358,1502.7,1499.6913580246915,1450,1500
6.797514915466309,316,187,58,0.0024691358024691358,1502.7,1499.6913580246915,1450,1500
6.8191328048706055,317,187,58,0.0024691358024691358,1502.7,1499.6913580246915,1450,1500
6.840754985809326,318,187,58,0.0024691358024691358,1502.7,1499.6913580246915,1450,1500
6.862380027770996,319,187,57,0.0023148148148148147,1502.7,1498.148148148148,1450,1500
6.883997917175293,320,187,58,0.0024691358024691358,1502.7,1499.6913580246915,1450,1500
6.905625820159912,321,187,58,0.0024691358024691358,1502.7,1499.6913580246915,1450,1500
6.927228927612305,322,187,58,0.0024691358024691358,1502.7,1499.6913580246915,1450,1500
6.9530158042907715,323,187,58,0.0024691358024691358,1502.7,1499.6913580246915,1450,1500
6.9747889041900635,324,186,58,0.002380952380952381,1502.6,1498.8095238095239,1450,1500
6.9964189529418945,325,187,58,0.0024691358024691358,1502.7,1499.6913580246915,1450,1500
7.0181639194488525,326,187,58,0.0024691358024691358,1502.7,1499.6913580246915,1450,1500
7.0397868156433105,327,187,58,0.0024691358024691358,1502.7,1499.6913580246915,1450,1500
7.061429023742676,328,187,58,0.002380952380952381,1502.7,1498.8095238095239,1450,1500
7.083031892776489,329,187,58,0.0024691358024691358,1502.7,1499.6913580246915,1450,1500
7.104658842086792,330,187,58,0.002380952380952381,1502.7,1498.8095238095239,1450,1500
7.126274824142456,331,187,58,0.0024691358024691358,1502.7,1499.6913580246915,1450,1500
7.148126840591431,332,187,58,0.002380952380952381,1502.7,1498.8095238095239,1450,1500
7.169790029525757,333,188,58,0.0024691358024691358,1502.8,1499.6913580246915,1450,1500
7.191412925720215,334,187,58,0.002380952380952381,1502.7,1498.8095238095239,1450,1500
7.213051795959473,335,187,58,0.0024691358024691358,1502.7,1499.6913580246915,1450,1500
7.234730958938599,336,187,58,0.002380952380952381,1502.7,1498.8095238095239,1450,1500
7.256383895874023,337,187,58,0.002564102564102564,1502.7,1500.6410256410256,1450,1500
7.278122901916504,338,187,58,0.0024691358024691358,1502.7,1499.6913580246915,1450,1500
7.2997448444366455,339,187,58,0.0024691358024691358,1502.7,1499.6913580246915,1450,1500
7.3213818073272705,340,187,58,0.002380952380952381,1502.7,1498.8095238095239,1450,1500
7.3430328369140625,341,187,58,0.002380952380952381,1502.7,1498.8095238095239,1450,1500
7.364672899246216,342,188,58,0.0022988505747126436,1502.8,1497.9885057471265,1450,1500
7.3862998485565186,343,188,58,0.0022988505747126436,1502.8,1497.9885057471265,1450,1500
7.408026933670044,344,187,58,0.002380952380952381,1502.7,1498.8095238095239,1450,1500
7.429665803909302,345,187,58,0.002380952380952381,1502.7,1498.8095238095239,1450,1500
7.451319932937622,346,187,58,0.002380952380952381,1502.7,1498.8095238095239,1450,1500
7.47293496131897,347,187,58,0.002380952380952381,1502.7,1498.8095238095239,1450,1500
7.494545936584473,348,187,58,0.002551020408163265,1502.7,1500.5102040816325,1450,1500
7.516161918640137,349,187,58,0.002380952380952381,1502.7,1498.8095238095239,1450,1500
7.537897825241089,350,187,58,0.0026455026455026454,1502.7,1501.4550264550264,1450,1500
7.559541940689087,351,187,58,0.002380952380952381,1502.7,1498.8095238095239,1450,1500
7.581188917160034,352,187,58,0.0024691358024691358,1502.7,1499.6913580246915,1450,1500
7.602818012237549,353,187,58,0.0024691358024691358,1502.7,1499.6913580246915,1450,1500
7.624449014663696,354,187,58,0.002380952380952381,1502.7,1498.8095238095239,1450,1500
7.646075963973999,355,187,58,0.0023148148148148147,1502.7,1498.148148148148,1450,1500
7.667842864990234,356,187,58,0.0023148148148148147,1502.7,1498.148148148148,1450,1500
7.689499855041504,357,187,58,0.002232142857142857,1502.7,1497.3214285714287,1450,1500
7.711124897003174,358,187,58,0.0023148148148148147,1502.7,1498.148148148148,1450,1500
7.732746839523315,359,187,58,0.0023148148148148147,1502.7,1498.148148148148,1450,1500
7.7543768882751465,360,187,58,0.0024691358024691358,1502.7,1499.6913580246915,1450,1500
7.7760069370269775,361,187,58,0.002380952380952381,1502.7,1498.8095238095239,1450,1500
7.7977659702301025,362,188,58,0.0022988505747126436,1502.8,1497.9885057471265,1450,1500
7.819425821304321,363,187,58,0.002380952380952381,1502.7,1498.8095238095239,1450,1500
7.8410539627075195,364,188,58,0.0022988505747126436,1502.8,1497.9885057471265,1450,1500
7.8626868724823,365,187,58,0.0024691358024691358,1502.7,1499.6913580246915,1450,1500
7.884310007095337,366,188,58,0.0022988505747126436,1502.8,1497.9885057471265,1450,1500
7.905947923660278,367,188,58,0.0022988505747126436,1502.8,1497.9885057471265,1450,1500
7.927562952041626,368,187,58,0.002380952380952381,1502.7,1498.8095238095239,1450,1500
7.949182987213135,369,187,58,0.0024691358024691358,1502.7,1499.6913580246915,1450,1500
7.971088886260986,370,188,58,0.0022988505747126436,1502.8,1497.9885057471265,1450,1500
7.992731809616089,371,187,58,0.002380952380952381,1502.7,1498.8095238095239,1450,1500
8.014348983764648,372,187,58,0.002380952380952381,1502.7,1498.8095238095239,1450,1500
8.035967826843262,373,188,58,0.0022988505747126436,1502.8,1497.9885057471265,1450,1500
8.05759596824646,374,187,58,0.002380952380952381,1502.7,1498.8095238095239,1450,1500
8.079264879226685,375,188,58,0.0022988505747126436,1502.8,1497.9885057471265,1450,1500
8.100881814956665,376,187,58,0.0024691358024691358,1502.7,1499.6913580246915,1450,1500
8.122496843338013,377,188,58,0.0022988505747126436,1502.8,1497.9885057471265,1450,1500
8.14412784576416,378,187,58,0.002380952380952381,1502.7,1498.8095238095239,1450,1500
8.165795803070068,379,187,58,0.002380952380952381,1502.7,1498.8095238095239,1450,1500
8.187417984008789,380,187,58,0.002380952380952381,1502.7,1498.8095238095239,1450,1500
8.209033012390137,381,187,58,0.0024691358024691358,1502.7,1499.6913580246915,1450,1500
8.23066782951355,382,187,58,0.002380952380952381,1502.7,1498.8095238095239,1450,1500
8.252293825149536,383,188,58,0.0024691358024691358,1502.8,1499.6913580246915,1450,1500
8.273919820785522,384,188,58,0.0024691358024691358,1502.8,1499.6913580246915,1450,1500
8.295531988143921,385,188,58,0.0024691358024691358,1502.8,1499.6913580246915,1450,1500
8.317147016525269,386,187,58,0.002564102564102564,1502.7,1500.6410256410256,1450,1500
8.338804006576538,387,187,58,0.002564102564102564,1502.7,1500.6410256410256,1450,1500
8.360456943511963,388,187,58,0.002564102564102564,1502.7,1500.6410256410256,1450,1500
8.38210391998291,389,187,58,0.0027472527472527475,1502.7,1502.4725274725274,1450,1500
8.403771877288818,390,188,58,0.002551020408163265,1502.8,1500.5102040816325,1450,1500
8.42538595199585,391,187,58,0.002564102564102564,1502.7,1500.6410256410256,1450,1500
8.447006940841675,392,187,58,0.0027472527472527475,1502.7,1502.4725274725274,1450,1500
8.468642950057983,393,187,58,0.0027472527472527475,1502.7,1502.4725274725274,1450,1500
8.49026894569397,394,188,58,0.0026455026455026454,1502.8,1501.4550264550264,1450,1500
8.511880874633789,395,187,58,0.002403846153846154,1502.7,1499.0384615384614,1450,1500
8.533493995666504,396,188,59,0.0024691358024691358,1502.8,1499.6913580246915,1450,1500
8.555136919021606,397,188,58,0.0026455026455026454,1502.8,1501.4550264550264,1450,1500
8.576805830001831,398,188,58,0.0026455026455026454,1502.8,1501.4550264550264,1450,1500
8.598503828048706,399,188,58,0.002551020408163265,1502.8,1500.5102040816325,1450,1500
8.620126962661743,400,188,58,0.0026455026455026454,1502.8,1501.4550264550264,1450,1500
8.641748905181885,401,188,58,0.0026455026455026454,1502.8,1501.4550264550264,1450,1500
8.66339898109436,402,188,58,0.0026455026455026454,1502.8,1501.4550264550264,1450,1500
8.685027837753296,403,188,58,0.002551020408163265,1502.8,1500.5102040816325,1450,1500
8.706693887710571,404,188,59,0.0024691358024691358,1502.8,1499.6913580246915,1450,1500
8.728385925292969,405,188,59,0.002564102564102564,1502.8,1500.6410256410256,1450,1500
8.750027894973755,406,188,58,0.0027472527472527475,1502.8,1502.4725274725274,1450,1500
8.77164602279663,407,188,59,0.002564102564102564,1502.8,1500.6410256410256,1450,1500
8.79326581954956,408,188,59,0.002564102564102564,1502.8,1500.6410256410256,1450,1500
8.814881801605225,409,189,59,0.0024691358024691358,1502.9,1499.6913580246915,1450,1500
8.836503982543945,410,189,59,0.0024691358024691358,1502.9,1499.6913580246915,1450,1500
8.858266830444336,411,189,59,0.0024691358024691358,1502.9,1499.6913580246915,1450,1500
8.879903793334961,412,188,58,0.0026455026455026454,1502.8,1501.4550264550264,1450,1500
8.901556015014648,413,189,59,0.0024691358024691358,1502.9,1499.6913580246915,1450,1500
8.923179864883423,414,188,59,0.002564102564102564,1502.8,1500.6410256410256,1450,1500
8.944801807403564,415,189,59,0.0024691358024691358,1502.9,1499.6913580246915,1450,1500
8.966424942016602,416,189,59,0.0024691358024691358,1502.9,1499.6913580246915,1450,1500
8.988495826721191,417,188,59,0.0027472527472527475,1502.8,1502.4725274725274,1450,1500
9.010150909423828,418,189,59,0.0024691358024691358,1502.9,1499.6913580246915,1450,1500
9.031778812408447,419,188,59,0.002564102564102564,1502.8,1500.6410256410256,1450,1500
9.053426027297974,420,189,59,0.0024691358024691358,1502.9,1499.6913580246915,1450,1500
9.075133800506592,421,189,59,0.0024691358024691358,1502.9,1499.6913580246915,1450,1500
9.096813917160034,422,188,59,0.002564102564102564,1502.8,1500.6410256410256,1450,1500
9.118507862091064,423,188,59,0.002564102564102564,1502.8,1500.6410256410256,1450,1500
9.140148878097534,424,188,59,0.002564102564102564,1502.8,1500.6410256410256,1450,1500
9.161828994750977,425,188,59,0.002564102564102564,1502.8,1500.6410256410256,1450,1500
9.18347692489624,426,188,59,0.002564102564102564,1502.8,1500.6410256410256,1450,1500
9.20512080192566,427,189,59,0.002380952380952381,1502.9,1498.8095238095239,1450,1500
9.226891994476318,428,188,59,0.002564102564102564,1502.8,1500.6410256410256,1450,1500
9.248595952987671,429,188,59,0.0024691358024691358,1502.8,1499.6913580246915,1450,1500
9.27024793624878,430,189,59,0.0024691358024691358,1502.9,1499.6913580246915,1450,1500
9.291894912719727,431,188,59,0.002380952380952381,1502.8,1498.8095238095239,1450,1500
9.313537836074829,432,188,59,0.0024691358024691358,1502.8,1499.6913580246915,1450,1500
9.335162878036499,433,188,59,0.002564102564102564,1502.8,1500.6410256410256,1450,1500
9.356799840927124,434,189,59,0.0024691358024691358,1502.9,1499.6913580246915,1450,1500
9.378428936004639,435,188,58,0.0026455026455026454,1502.8,1501.4550264550264,1450,1500
9.400069952011108,436,188,58,0.0026455026455026454,1502.8,1501.4550264550264,1450,1500
9.421695947647095,437,188,58,0.0026455026455026454,1502.8,1501.4550264550264,1450,1500
9.44331693649292,438,189,58,0.0026455026455026454,1502.9,1501.4550264550264,1450,1500
9.464948892593384,439,188,58,0.0027472527472527475,1502.8,1502.4725274725274,1450,1500
9.486617803573608,440,189,59,0.0024691358024691358,1502.9,1499.6913580246915,1450,1500
9.508301973342896,441,189,59,0.0024691358024691358,1502.9,1499.6913580246915,1450,1500
9.529929876327515,442,189,59,0.0024691358024691358,1502.9,1499.6913580246915,1450,1500
9.551572799682617,443,189,59,0.0024691358024691358,1502.9,1499.6913580246915,1450,1500
9.573189973831177,444,188,59,0.002564102564102564,1502.8,1500.6410256410256,1450,1500
9.59480881690979,445,188,58,0.0027472527472527475,1502.8,1502.4725274725274,1450,1500
9.616418838500977,446,189,58,0.002551020408163265,1502.9,1500.5102040816325,1450,1500
9.638161897659302,447,189,58,0.0026455026455026454,1502.9,1501.4550264550264,1450,1500
9.659848928451538,448,189,59,0.0024691358024691358,1502.9,1499.6913580246915,1450,1500
9.681496858596802,449,188,58,0.0027472527472527475,1502.8,1502.4725274725274,1450,1500
9.703141927719116,450,189,58,0.0026455026455026454,1502.9,1501.4550264550264,1450,1500
9.72475790977478,451,189,58,0.0027472527472527475,1502.9,1502.4725274725274,1450,1500
9.74638295173645,452,189,58,0.0026455026455026454,1502.9,1501.4550264550264,1450,1500
9.768133878707886,453,189,58,0.0027472527472527475,1502.9,1502.4725274725274,1450,1500
9.789758920669556,454,189,59,0.0029585798816568047,1502.9,1504.585798816568,1450,1500
9.811378955841064,455,189,58,0.0027472527472527475,1502.9,1502.4725274725274,1450,1500
9.832995891571045,456,190,58,0.0026455026455026454,1503.0,1501.4550264550264,1450,1500
9.854625940322876,457,189,58,0.0027472527472527475,1502.9,1502.4725274725274,1450,1500
9.87623381614685,458,190,58,0.002380952380952381,1503.0,1498.8095238095239,1450,1500
9.897976875305176,459,190,58,0.0027472527472527475,1503.0,1502.4725274725274,1450,1500
9.919605016708374,460,190,58,0.0026455026455026454,1503.0,1501.4550264550264,1450,1500
9.941231966018677,461,190,58,0.0027472527472527475,1503.0,1502.4725274725274,1450,1500
9.962859869003296,462,190,58,0.0027472527472527475,1503.0,1502.4725274725274,1450,1500
9.98476791381836,463,190,58,0.002564102564102564,1503.0,1500.6410256410256,1450,1500
10.006410837173462,464,190,58,0.002564102564102564,1503.0,1500.6410256410256,1450,1500
10.02816390991211,465,190,58,0.002564102564102564,1503.0,1500.6410256410256,1450,1500
10.049790859222412,466,190,58,0.002564102564102564,1503.0,1500.6410256410256,1450,1500
10.071420907974243,467,190,58,0.002564102564102564,1503.0,1500.6410256410256,1450,1500
10.09302282333374,468,190,58,0.002564102564102564,1503.0,1500.6410256410256,1450,1500
10.114634990692139,469,191,58,0.0024691358024691358,1503.1,1499.6913580246915,1450,1500
10.136266946792603,470,190,58,0.0027472527472527475,1503.0,1502.4725274725274,1450,1500
10.158030986785889,471,190,58,0.0027472527472527475,1503.0,1502.4725274725274,1450,1500
10.179663896560669,472,190,58,0.002564102564102564,1503.0,1500.6410256410256,1450,1500
10.201282978057861,473,190,58,0.002564102564102564,1503.0,1500.6410256410256,1450,1500
10.22293496131897,474,190,58,0.0024691358024691358,1503.0,1499.6913580246915,1450,1500
10.244554996490479,475,190,59,0.002564102564102564,1503.0,1500.6410256410256,1450,1500
10.266185998916626,476,190,59,0.002564102564102564,1503.0,1500.6410256410256,1450,1500
10.287935018539429,477,190,58,0.002403846153846154,1503.0,1499.0384615384614,1450,1500
10.309566974639893,478,190,58,0.0027472527472527475,1503.0,1502.4725274725274,1450,1500
10.331188917160034,479,191,58,0.0023148148148148147,1503.1,1498.148148148148,1450,1500
10.352847814559937,480,191,59,0.0024691358024691358,1503.1,1499.6913580246915,1450,1500
10.37448501586914,481,191,58,0.0027472527472527475,1503.1,1502.4725274725274,1450,1500
10.396111011505127,482,191,58,0.002564102564102564,1503.1,1500.6410256410256,1450,1500
10.417873859405518,483,191,58,0.002564102564102564,1503.1,1500.6410256410256,1450,1500
10.439507961273193,484,191,58,0.0027472527472527475,1503.1,1502.4725274725274,1450,1500
10.461148023605347,485,191,58,0.0027472527472527475,1503.1,1502.4725274725274,1450,1500
10.482765913009644,486,191,58,0.0027472527472527475,1503.1,1502.4725274725274,1450,1500
10.504381895065308,487,191,58,0.0027472527472527475,1503.1,1502.4725274725274,1450,1500
10.526013851165771,488,191,58,0.002564102564102564,1503.1,1500.6410256410256,1450,1500
10.547868967056274,489,191,58,0.002564102564102564,1503.1,1500.6410256410256,1450,1500
10.569530010223389,490,191,58,0.002564102564102564,1503.1,1500.6410256410256,1450,1500
10.591162919998169,491,191,58,0.002403846153846154,1503.1,1499.0384615384614,1450,1500
10.61279582977295,492,191,58,0.002564102564102564,1503.1,1500.6410256410256,1450,1500
10.634416818618774,493,191,58,0.0027472527472527475,1503.1,1502.4725274725274,1450,1500
10.656080961227417,494,191,58,0.002564102564102564,1503.1,1500.6410256410256,1450,1500
10.677825927734375,495,191,58,0.002564102564102564,1503.1,1500.6410256410256,1450,1500
10.699469804763794,496,191,58,0.002564102564102564,1503.1,1500.6410256410256,1450,1500
10.72109079360962,497,191,58,0.002564102564102564,1503.1,1500.6410256410256,1450,1500
10.742714881896973,498,191,58,0.002564102564102564,1503.1,1500.6410256410256,1450,1500
10.764360904693604,499,191,59,0.002564102564102564,1503.1,1500.6410256410256,1450,1500
10.786014795303345,500,191,58,0.002403846153846154,1503.1,1499.0384615384614,1450,1500
10.807767868041992,501,191,58,0.002403846153846154,1503.1,1499.0384615384614,1450,1500
10.8294198513031,502,191,58,0.0027472527472527475,1503.1,1502.4725274725274,1450,1500
10.851064920425415,503,191,58,0.002564102564102564,1503.1,1500.6410256410256,1450,1500
10.872680902481079,504,191,58,0.0026455026455026454,1503.1,1501.4550264550264,1450,1500
10.894303798675537,505,191,58,0.002564102564102564,1503.1,1500.6410256410256,1450,1500
10.91595196723938,506,191,58,0.0027472527472527475,1503.1,1502.4725274725274,1450,1500
10.937569856643677,507,191,58,0.0027472527472527475,1503.1,1502.4725274725274,1450,1500
10.959194898605347,508,191,58,0.0027472527472527475,1503.1,1502.4725274725274,1450,1500
10.980809926986694,509,191,58,0.002564102564102564,1503.1,1500.6410256410256,1450,1500
11.002722978591919,510,191,58,0.0026455026455026454,1503.1,1501.4550264550264,1450,1500
11.024374961853027,511,191,58,0.002564102564102564,1503.1,1500.6410256410256,1450,1500
11.045987844467163,512,191,58,0.0027472527472527475,1503.1,1502.4725274725274,1450,1500
11.067639827728271,513,191,58,0.0027472527472527475,1503.1,1502.4725274725274,1450,1500
11.089277029037476,514,191,58,0.002564102564102564,1503.1,1500.6410256410256,1450,1500
11.110901832580566,515,191,58,0.002564102564102564,1503.1,1500.6410256410256,1450,1500
11.132513999938965,516,191,58,0.002564102564102564,1503.1,1500.6410256410256,1450,1500
11.154188871383667,517,191,58,0.002564102564102564,1503.1,1500.6410256410256,1450,1500
11.175825834274292,518,191,58,0.0027472527472527475,1503.1,1502.4725274725274,1450,1500
11.197471857070923,519,191,58,0.0027472527472527475,1503.1,1502.4725274725274,1450,1500
11.219132900238037,520,191,58,0.0024691358024691358,1503.1,1499.6913580246915,1450,1500
11.240752935409546,521,191,58,0.002564102564102564,1503.1,1500.6410256410256,1450,1500
11.262380838394165,522,191,58,0.0027472527472527475,1503.1,1502.4725274725274,1450,1500
11.284005880355835,523,191,58,0.002564102564102564,1503.1,1500.6410256410256,1450,1500
11.305624008178711,524,191,58,0.002857142857142857,1503.1,1503.5714285714287,1450,1500
11.327247858047485,525,190,58,0.0026455026455026454,1503.0,1501.4550264550264,1450,1500
11.348898887634277,526,190,58,0.0027472527472527475,1503.0,1502.4725274725274,1450,1500
11.370534896850586,527,190,58,0.0027472527472527475,1503.0,1502.4725274725274,1450,1500
11.392154932022095,528,190,58,0.0027472527472527475,1503.0,1502.4725274725274,1450,1500
11.413774013519287,529,189,58,0.0027472527472527475,1502.9,1502.4725274725274,1450,1500
11.435391902923584,530,190,58,0.0026455026455026454,1503.0,1501.4550264550264,1450,1500
11.457008838653564,531,189,59,0.002564102564102564,1502.9,1500.6410256410256,1450,1500
11.478628873825073,532,188,59,0.002564102564102564,1502.8,1500.6410256410256,1450,1500
11.500236988067627,533,188,58,0.0023148148148148147,1502.8,1498.148148148148,1450,1500
11.521857023239136,534,188,58,0.0023148148148148147,1502.8,1498.148148148148,1450,1500
11.543462991714478,535,188,58,0.0023148148148148147,1502.8,1498.148148148148,1450,1500
11.56508183479309,536,187,58,0.002232142857142857,1502.7,1497.3214285714287,1450,1500
11.586752891540527,537,186,58,0.002403846153846154,1502.6,1499.0384615384614,1450,1500
11.608431816101074,538,186,58,0.0023148148148148147,1502.6,1498.148148148148,1450,1500
11.630070924758911,539,185,58,0.0022624434389140274,1502.5,1497.6244343891403,1450,1500
11.651737928390503,540,185,58,0.002178649237472767,1502.5,1496.7864923747277,1450,1500
11.673380851745605,541,184,58,0.0022624434389140274,1502.4,1497.6244343891403,1450,1500
11.695000886917114,542,183,57,0.002136752136752137,1502.3,1496.3675213675215,1450,1500
11.716661930084229,543,184,57,0.0023148148148148147,1502.4,1498.148148148148,1450,1500
11.738366842269897,544,182,57,0.002136752136752137,1502.2,1496.3675213675215,1450,1500
11.76000690460205,545,184,57,0.0024154589371980675,1502.4,1499.1545893719806,1450,1500
11.781624794006348,546,182,58,0.002352941176470588,1502.2,1498.5294117647059,1450,1500
11.803242921829224,547,182,57,0.0022222222222222222,1502.2,1497.2222222222222,1450,1500
11.824857950210571,548,181,57,0.0024154589371980675,1502.1,1499.1545893719806,1450,1500
11.846476793289185,549,182,57,0.0023148148148148147,1502.2,1498.148148148148,1450,1500
11.86821985244751,550,181,58,0.0021929824561403508,1502.1,1496.9298245614036,1450,1500
11.889841794967651,551,181,58,0.0024154589371980675,1502.1,1499.1545893719806,1450,1500
11.911468982696533,552,181,59,0.0025575447570332483,1502.1,1500.5754475703325,1450,1500
11.93308401107788,553,181,58,0.0025252525252525255,1502.1,1500.2525252525252,1450,1500
11.954705953598022,554,182,58,0.0024154589371980675,1502.2,1499.1545893719806,1450,1500
11.976330995559692,555,182,58,0.0024154589371980675,1502.2,1499.1545893719806,1450,1500
12.003580808639526,556,182,58,0.002288329519450801,1502.2,1497.883295194508,1450,1500
12.025357007980347,557,182,59,0.00267379679144385,1502.2,1501.7379679144385,1450,1500
12.047017812728882,558,183,58,0.0025575447570332483,1502.3,1500.5754475703325,1450,1500
12.068684816360474,559,183,59,0.0025575447570332483,1502.3,1500.5754475703325,1450,1500
12.090313911437988,560,183,59,0.0025575447570332483,1502.3,1500.5754475703325,1450,1500
12.11195683479309,561,183,59,0.0024509803921568627,1502.3,1499.5098039215686,1450,1500
12.133586883544922,562,183,58,0.0026041666666666665,1502.3,1501.0416666666667,1450,1500
12.155252933502197,563,183,59,0.0024509803921568627,1502.3,1499.5098039215686,1450,1500
12.176885843276978,564,184,58,0.0026041666666666665,1502.4,1501.0416666666667,1450,1500
12.198517799377441,565,184,58,0.0026041666666666665,1502.4,1501.0416666666667,1450,1500
12.220170974731445,566,185,58,0.002717391304347826,1502.5,1502.1739130434783,1450,1500
12.24179482460022,567,185,59,0.0026666666666666666,1502.5,1501.6666666666667,1450,1500
12.263417959213257,568,186,59,0.002898550724637681,1502.6,1503.9855072463768,1450,1500
12.28504490852356,569,186,58,0.0026041666666666665,1502.6,1501.0416666666667,1450,1500
12.306712865829468,570,187,58,0.002717391304347826,1502.7,1502.1739130434783,1450,1500
12.328399896621704,571,186,58,0.0026041666666666665,1502.6,1501.0416666666667,1450,1500
12.350052833557129,572,187,58,0.002840909090909091,1502.7,1503.409090909091,1450,1500
12.371665000915527,573,187,59,0.002898550724637681,1502.7,1503.9855072463768,1450,1500
12.39328384399414,574,187,58,0.002840909090909091,1502.7,1503.409090909091,1450,1500
12.414910793304443,575,188,58,0.002717391304347826,1502.8,1502.1739130434783,1450,1500
12.436583995819092,576,188,59,0.0030303030303030303,1502.8,1505.3030303030303,1450,1500
12.458303928375244,577,188,59,0.0031746031746031746,1502.8,1506.7460317460318,1450,1500
12.47993779182434,578,189,59,0.0031746031746031746,1502.9,1506.7460317460318,1450,1500
12.5015549659729,579,189,59,0.0031746031746031746,1502.9,1506.7460317460318,1450,1500
12.523165941238403,580,189,58,0.003246753246753247,1502.9,1507.4675324675325,1450,1500
12.5447838306427,581,188,58,0.0038461538461538464,1502.8,1513.4615384615386,1450,1500
12.566420793533325,582,189,58,0.0035714285714285713,1502.9,1510.7142857142858,1450,1500
12.588173866271973,583,189,58,0.0035714285714285713,1502.9,1510.7142857142858,1450,1500
12.609809875488281,584,189,58,0.0035714285714285713,1502.9,1510.7142857142858,1450,1500
12.631428003311157,585,189,58,0.0035714285714285713,1502.9,1510.7142857142858,1450,1500
12.653071880340576,586,189,57,0.0035714285714285713,1502.9,1510.7142857142858,1450,1500
12.674690961837769,587,190,58,0.0033333333333333335,1503.0,1508.3333333333333,1450,1500
12.696306943893433,588,190,58,0.0031746031746031746,1503.0,1506.7460317460318,1450,1500
12.718043804168701,589,189,57,0.004048582995951417,1502.9,1515.4858299595141,1450,1500
12.739699840545654,590,190,58,0.0031746031746031746,1503.0,1506.7460317460318,1450,1500
12.761340856552124,591,189,58,0.003246753246753247,1502.9,1507.4675324675325,1450,1500
12.782976865768433,592,188,57,0.0038461538461538464,1502.8,1513.4615384615386,1450,1500
12.804601907730103,593,189,58,0.0038461538461538464,1502.9,1513.4615384615386,1450,1500
12.826236009597778,594,190,58,0.0031746031746031746,1503.0,1506.7460317460318,1450,1500
12.848116874694824,595,188,57,0.0037593984962406013,1502.8,1512.593984962406,1450,1500
12.869789838790894,596,189,58,0.003246753246753247,1502.9,1507.4675324675325,1450,1500
12.891419887542725,597,189,58,0.003246753246753247,1502.9,1507.4675324675325,1450,1500
12.91306185722351,598,189,58,0.003401360544217687,1502.9,1509.0136054421769,1450,1500
12.934693813323975,599,189,58,0.0031746031746031746,1502.9,1506.7460317460318,1450,1500
12.956324815750122,600,188,58,0.003246753246753247,1502.8,1507.4675324675325,1450,1500
12.97807002067566,601,188,58,0.003246753246753247,1502.8,1507.4675324675325,1450,1500
12.999703884124756,602,187,58,0.0034965034965034965,1502.7,1509.9650349650349,1450,1500
13.021644830703735,603,188,59,0.004329004329004329,1502.8,1518.2900432900433,1450,1500
13.043315887451172,604,188,58,0.003663003663003663,1502.8,1511.6300366300366,1450,1500
13.064989805221558,605,187,58,0.0035714285714285713,1502.7,1510.7142857142858,1450,1500
13.086659908294678,606,187,58,0.003246753246753247,1502.7,1507.4675324675325,1450,1500
13.10834002494812,607,187,58,0.003246753246753247,1502.7,1507.4675324675325,1450,1500
13.129978895187378,608,187,58,0.002717391304347826,1502.7,1502.1739130434783,1450,1500
13.151681900024414,609,187,59,0.002898550724637681,1502.7,1503.9855072463768,1450,1500
13.173319816589355,610,187,59,0.002898550724637681,1502.7,1503.9855072463768,1450,1500
13.194959878921509,611,186,59,0.002898550724637681,1502.6,1503.9855072463768,1450,1500
13.216667890548706,612,186,59,0.002777777777777778,1502.6,1502.7777777777778,1450,1500
13.238372802734375,613,186,58,0.002717391304347826,1502.6,1502.1739130434783,1450,1500
13.260025978088379,614,186,59,0.002898550724637681,1502.6,1503.9855072463768,1450,1500
13.281657934188843,615,186,59,0.002717391304347826,1502.6,1502.1739130434783,1450,1500
13.3032808303833,616,186,59,0.0025575447570332483,1502.6,1500.5754475703325,1450,1500
13.324906826019287,617,185,59,0.0025,1502.5,1500.0,1450,1500
13.346588850021362,618,185,59,0.002717391304347826,1502.5,1502.1739130434783,1450,1500
13.368305921554565,619,184,59,0.0026041666666666665,1502.4,1501.0416666666667,1450,1500
13.389941930770874,620,184,59,0.0026041666666666665,1502.4,1501.0416666666667,1450,1500
13.411566972732544,621,183,60,0.0024509803921568627,1502.3,1499.5098039215686,1450,1500
13.43319296836853,622,183,59,0.0026041666666666665,1502.3,1501.0416666666667,1450,1500
13.454819917678833,623,183,59,0.0025,1502.3,1500.0,1450,1500
13.476387023925781,624,183,60,0.0024509803921568627,1502.3,1499.5098039215686,1450,1500
13.498102903366089,625,183,60,0.0025575447570332483,1502.3,1500.5754475703325,1450,1500
13.519706964492798,626,182,60,0.0024509803921568627,1502.2,1499.5098039215686,1450,1500
13.541326999664307,627,182,60,0.0025575447570332483,1502.2,1500.5754475703325,1450,1500
13.56294584274292,628,182,60,0.0025575447570332483,1502.2,1500.5754475703325,1450,1500
13.584579944610596,629,183,60,0.002352941176470588,1502.3,1498.5294117647059,1450,1500
13.60623288154602,630,183,59,0.0025,1502.3,1500.0,1450,1500
13.627946853637695,631,181,59,0.00267379679144385,1502.1,1501.7379679144385,1450,1500
13.64962887763977,632,181,59,0.002403846153846154,1502.1,1499.0384615384614,1450,1500
13.671252012252808,633,181,59,0.002717391304347826,1502.1,1502.1739130434783,1450,1500
13.692860841751099,634,181,59,0.002717391304347826,1502.1,1502.1739130434783,1450,1500
13.714457988739014,635,182,58,0.002403846153846154,1502.2,1499.0384615384614,1450,1500
13.736076831817627,636,182,58,0.0025,1502.2,1500.0,1450,1500
13.757786989212036,637,182,58,0.002403846153846154,1502.2,1499.0384615384614,1450,1500
13.779428958892822,638,182,58,0.002403846153846154,1502.2,1499.0384615384614,1450,1500
13.801040887832642,639,182,58,0.002403846153846154,1502.2,1499.0384615384614,1450,1500
13.8226478099823,640,182,58,0.0023148148148148147,1502.2,1498.148148148148,1450,1500
13.84425687789917,641,182,59,0.002564102564102564,1502.2,1500.6410256410256,1450,1500
13.86588191986084,642,183,59,0.0024691358024691358,1502.3,1499.6913580246915,1450,1500
13.887501001358032,643,182,59,0.002564102564102564,1502.2,1500.6410256410256,1450,1500
13.909127950668335,644,183,58,0.0024691358024691358,1502.3,1499.6913580246915,1450,1500
13.930759906768799,645,182,59,0.0029585798816568047,1502.2,1504.585798816568,1450,1500
13.95239782333374,646,183,58,0.0026455026455026454,1502.3,1501.4550264550264,1450,1500
13.974020957946777,647,182,58,0.0027472527472527475,1502.2,1502.4725274725274,1450,1500
13.99563479423523,648,183,58,0.002564102564102564,1502.3,1500.6410256410256,1450,1500
14.017232894897461,649,182,58,0.002777777777777778,1502.2,1502.7777777777778,1450,1500
14.039125919342041,650,183,58,0.0026666666666666666,1502.3,1501.6666666666667,1450,1500
14.060804843902588,651,183,58,0.002564102564102564,1502.3,1500.6410256410256,1450,1500
14.082419872283936,652,184,58,0.0024691358024691358,1502.4,1499.6913580246915,1450,1500
14.104030847549438,653,184,57,0.0024691358024691358,1502.4,1499.6913580246915,1450,1500
14.125643968582153,654,184,57,0.002564102564102564,1502.4,1500.6410256410256,1450,1500
14.147251844406128,655,184,57,0.002564102564102564,1502.4,1500.6410256410256,1450,1500
14.168924808502197,656,184,57,0.002564102564102564,1502.4,1500.6410256410256,1450,1500
14.190552949905396,657,184,56,0.0026455026455026454,1502.4,1501.4550264550264,1450,1500
14.212181806564331,658,184,57,0.002849002849002849,1502.4,1503.4900284900284,1450,1500
14.233827829360962,659,184,58,0.0029585798816568047,1502.4,1504.585798816568,1450,1500
14.255466938018799,660,185,57,0.0030864197530864196,1502.5,1505.8641975308642,1450,1500
14.277084827423096,661,185,57,0.0030864197530864196,1502.5,1505.8641975308642,1450,1500
14.29870080947876,662,185,57,0.0030864197530864196,1502.5,1505.8641975308642,1450,1500
14.320316791534424,663,185,57,0.0027472527472527475,1502.5,1502.4725274725274,1450,1500
14.34197187423706,664,185,57,0.002976190476190476,1502.5,1504.7619047619048,1450,1500
14.363615989685059,665,185,57,0.0030864197530864196,1502.5,1505.8641975308642,1450,1500
14.385255813598633,666,186,57,0.002652519893899204,1502.6,1501.525198938992,1450,1500
14.406888961791992,667,185,57,0.0030864197530864196,1502.5,1505.8641975308642,1450,1500
14.428510904312134,668,185,57,0.0030864197530864196,1502.5,1505.8641975308642,1450,1500
14.450141906738281,669,186,57,0.0030864197530864196,1502.6,1505.8641975308642,1450,1500
14.471788883209229,670,186,57,0.0026455026455026454,1502.6,1501.4550264550264,1450,1500
14.493402004241943,671,186,57,0.002380952380952381,1502.6,1498.8095238095239,1450,1500
14.515013933181763,672,186,56,0.002551020408163265,1502.6,1500.5102040816325,1450,1500
14.536691904067993,673,186,57,0.002380952380952381,1502.6,1498.8095238095239,1450,1500
14.558379888534546,674,186,56,0.002551020408163265,1502.6,1500.5102040816325,1450,1500
14.57999300956726,675,187,56,0.0024630541871921183,1502.7,1499.6305418719212,1450,1500
14.601609945297241,676,187,56,0.0024630541871921183,1502.7,1499.6305418719212,1450,1500
14.623224973678589,677,186,56,0.0026455026455026454,1502.6,1501.4550264550264,1450,1500
14.64484190940857,678,187,56,0.0024630541871921183,1502.7,1499.6305418719212,1450,1500
14.666478872299194,679,186,56,0.0027472527472527475,1502.6,1502.4725274725274,1450,1500
14.688215017318726,680,187,56,0.002551020408163265,1502.7,1500.5102040816325,1450,1500
14.709832906723022,681,185,56,0.002551020408163265,1502.5,1500.5102040816325,1450,1500
14.73145079612732,682,186,56,0.0027472527472527475,1502.6,1502.4725274725274,1450,1500
14.753076791763306,683,186,56,0.0027472527472527475,1502.6,1502.4725274725274,1450,1500
14.774701833724976,684,186,56,0.0027472527472527475,1502.6,1502.4725274725274,1450,1500
14.796337842941284,685,186,56,0.0027472527472527475,1502.6,1502.4725274725274,1450,1500
14.818084001541138,686,186,56,0.0027472527472527475,1502.6,1502.4725274725274,1450,1500
14.839711904525757,687,186,56,0.0027472527472527475,1502.6,1502.4725274725274,1450,1500
14.86133885383606,688,186,56,0.0027472527472527475,1502.6,1502.4725274725274,1450,1500
14.882965803146362,689,187,56,0.002551020408163265,1502.7,1500.5102040816325,1450,1500
14.904613971710205,690,187,56,0.0026455026455026454,1502.7,1501.4550264550264,1450,1500
14.92622685432434,691,187,56,0.002551020408163265,1502.7,1500.5102040816325,1450,1500
14.948099851608276,692,187,56,0.002551020408163265,1502.7,1500.5102040816325,1450,1500
14.969743013381958,693,187,56,0.002551020408163265,1502.7,1500.5102040816325,1450,1500
14.991361856460571,694,187,56,0.002551020408163265,1502.7,1500.5102040816325,1450,1500
15.012984991073608,695,187,56,0.002551020408163265,1502.7,1500.5102040816325,1450,1500
15.034605026245117,696,187,56,0.002551020408163265,1502.7,1500.5102040816325,1450,1500
15.056521892547607,697,187,57,0.002849002849002849,1502.7,1503.4900284900284,1450,1500
15.078284978866577,698,188,56,0.0024630541871921183,1502.8,1499.6305418719212,1450,1500
15.099912881851196,699,187,56,0.002551020408163265,1502.7,1500.5102040816325,1450,1500
15.121527910232544,700,187,56,0.0026455026455026454,1502.7,1501.4550264550264,1450,1500
15.143157005310059,701,188,56,0.002551020408163265,1502.8,1500.5102040816325,1450,1500
15.164837837219238,702,188,56,0.002551020408163265,1502.8,1500.5102040816325,1450,1500
15.186476945877075,703,187,56,0.0027472527472527475,1502.7,1502.4725274725274,1450,1500
15.208244800567627,704,187,57,0.0029585798816568047,1502.7,1504.585798816568,1450,1500
15.229915857315063,705,188,56,0.002551020408163265,1502.8,1500.5102040816325,1450,1500
15.251559019088745,706,188,56,0.002551020408163265,1502.8,1500.5102040816325,1450,1500
15.273205995559692,707,188,56,0.002551020408163265,1502.8,1500.5102040816325,1450,1500
15.294817924499512,708,187,56,0.0027472527472527475,1502.7,1502.4725274725274,1450,1500
15.316423892974854,709,187,56,0.0027472527472527475,1502.7,1502.4725274725274,1450,1500
15.33816385269165,710,188,57,0.002849002849002849,1502.8,1503.4900284900284,1450,1500
15.35979700088501,711,188,57,0.0027472527472527475,1502.8,1502.4725274725274,1450,1500
15.381408929824829,712,187,57,0.0029585798816568047,1502.7,1504.585798816568,1450,1500
15.403033971786499,713,188,57,0.002849002849002849,1502.8,1503.4900284900284,1450,1500
15.424640893936157,714,188,57,0.0027472527472527475,1502.8,1502.4725274725274,1450,1500
15.446244955062866,715,188,57,0.0027472527472527475,1502.8,1502.4725274725274,1450,1500
15.468014001846313,716,188,56,0.002551020408163265,1502.8,1500.5102040816325,1450,1500
15.489653825759888,717,188,56,0.002551020408163265,1502.8,1500.5102040816325,1450,1500
15.511263847351074,718,188,56,0.0026455026455026454,1502.8,1501.4550264550264,1450,1500
15.532876968383789,719,188,57,0.0024691358024691358,1502.8,1499.6913580246915,1450,1500
15.554510831832886,720,189,57,0.0022988505747126436,1502.9,1497.9885057471265,1450,1500
15.576149940490723,721,188,57,0.0026455026455026454,1502.8,1501.4550264550264,1450,1500
15.597915887832642,722,188,57,0.0026455026455026454,1502.8,1501.4550264550264,1450,1500
15.619539976119995,723,188,56,0.0026455026455026454,1502.8,1501.4550264550264,1450,1500
15.64118480682373,724,188,57,0.002380952380952381,1502.8,1498.8095238095239,1450,1500
15.662845849990845,725,188,57,0.0026455026455026454,1502.8,1501.4550264550264,1450,1500
