time,frame,x,y,size_inv,roll,pitch,thrust,yaw
0.00026798248291015625,1,,,,1500.0,1490.0,1150.0,1500
0.021922826766967773,2,,,,1500.0,1490.0,1150.0,1500
0.043128013610839844,3,,,,1500.0,1490.0,1150.0,1500
0.06422901153564453,4,,,,1500.0,1490.0,1150.0,1500
0.0853278636932373,5,,,,1500.0,1490.0,1150.0,1500
0.1064448356628418,6,,,,1500.0,1490.0,1150.0,1500
0.1276378631591797,7,,,,1500.0,1490.0,1150.0,1500
0.14899396896362305,8,,,,1500.0,1490.0,1150.0,1500
0.17019987106323242,9,,,,1500.0,1490.0,1150.0,1500
0.1913440227508545,10,,,,1500.0,1490.0,1150.0,1500
0.21259784698486328,11,,,,1500.0,1490.0,1150.0,1500
0.23400282859802246,12,,,,1500.0,1490.0,1150.0,1500
0.2553880214691162,13,,,,1500.0,1490.0,1150.0,1500
0.2767658233642578,14,,,,1500.0,1490.0,1150.0,1500
0.29818081855773926,15,,,,1500.0,1490.0,1150.0,1500
0.3195810317993164,16,,,,1500.0,1490.0,1150.0,1500
0.34098196029663086,17,,,,1500.0,1490.0,1150.0,1500
0.3623688220977783,18,,,,1500.0,1490.0,1150.0,1500
0.3837418556213379,19,,,,1500.0,1490.0,1150.0,1500
0.40511202812194824,20,,,,1500.0,1490.0,1150.0,1500
0.426494836807251,21,,,,1500.0,1490.0,1150.0,1500
0.4479539394378662,22,,,,1500.0,1490.0,1150.0,1500
0.46942687034606934,23,,,,1500.0,1490.0,1150.0,1500
0.4908030033111572,24,,,,1500.0,1490.0,1150.0,1500
0.5121738910675049,25,,,,1500.0,1490.0,1150.0,1500
0.5335240364074707,26,,,,1500.0,1490.0,1150.0,1500
0.554893970489502,27,,,,1500.0,1490.0,1150.0,1500
0.5762438774108887,28,,,,1500.0,1490.0,1150.0,1500
0.5976529121398926,29,,,,1500.0,1490.0,1150.0,1500
0.6190869808197021,30,,,,1500.0,1490.0,1150.0,1500
0.6404650211334229,31,,,,1500.0,1490.0,1150.0,1500
0.6618640422821045,32,,,,1500.0,1490.0,1150.0,1500
0.6832399368286133,33,,,,1500.0,1490.0,1150.0,1500
0.7046208381652832,34,,,,1500.0,1490.0,1150.0,1500
0.7259998321533203,35,,,,1500.0,1490.0,1150.0,1500
0.7473769187927246,36,,,,1500.0,1490.0,1150.0,1500
0.768744945526123,37,,,,1500.0,1490.0,1150.0,1500
0.7901320457458496,38,,,,1500.0,1490.0,1150.0,1500
0.8115320205688477,39,,,,1500.0,1490.0,1150.0,1500
0.8329319953918457,40,,,,1500.0,1490.0,1150.0,1500
0.854334831237793,41,,,,1500.0,1490.0,1150.0,1500
0.8757359981536865,42,,,,1500.0,1490.0,1150.0,1500
0.8971199989318848,43,,,,1500.0,1490.0,1150.0,1500
0.9184739589691162,44,,,,1500.0,1490.0,1150.0,1500
0.9398388862609863,45,,,,1500.0,1490.0,1150.0,1500
0.9612100124359131,46,,,,1500.0,1490.0,1150.0,1500
0.9825890064239502,47,,,,1500.0,1490.0,1150.0,1500
1.0039558410644531,48,,,,1500.0,1490.0,1150.0,1500
1.025317907333374,49,,,,1500.0,1490.0,1150.0,1500
1.046679973602295,50,,,,1500.0,1490.0,1150.0,1500
1.068126916885376,51,,,,1500.0,1490.0,1150.0,1500
1.0896148681640625,52,,,,1500.0,1490.0,1150.0,1500
1.1110029220581055,53,,,,1500.0,1490.0,1150.0,1500
1.132369041442871,54,,,,1500.0,1490.0,1150.0,1500
1.1537408828735352,55,,,,1500.0,1490.0,1150.0,1500
1.1751599311828613,56,,,,1500.0,1490.0,1150.0,1500
1.196558952331543,57,,,,1500.0,1490.0,1150.0,1500
1.218005895614624,58,,,,1500.0,1490.0,1150.0,1500
1.2394590377807617,59,,,,1500.0,1490.0,1150.0,1500
1.2608418464660645,60,,,,1500.0,1490.0,1150.0,1500
1.2822139263153076,61,,,,1500.0,1490.0,1150.0,1500
1.303576946258545,62,,,,1500.0,1490.0,1150.0,1500
1.3249540328979492,63,,,,1500.0,1490.0,1150.0,1500
1.3463289737701416,64,,,,1500.0,1490.0,1150.0,1500
1.3677270412445068,65,,,,1500.0,1490.0,1150.0,1500
1.3892109394073486,66,,,,1500.0,1490.0,1150.0,1500
1.4106018543243408,67,,,,1500.0,1490.0,1150.0,1500
1.4319748878479004,68,,,,1500.0,1490.0,1150.0,1500
1.4533329010009766,69,,,,1500.0,1490.0,1150.0,1500
1.4747140407562256,70,,,,1500.0,1490.0,1150.0,1500
1.4960899353027344,71,,,,1500.0,1490.0,1150.0,1500
1.5175518989562988,72,132,99,0.022727272727272728,1497.3399999999999,1500,1150.25,1500
1.5391478538513184,73,,,,1500.1400000000001,1500,1150.0,1500
1.5604989528656006,74,,,,1500.1400000000001,1500,1150.0,1500
1.581840991973877,75,,,,1500.1400000000001,1500,1150.0,1500
1.6031548976898193,76,,,,1500.1400000000001,1500,1150.0,1500
1.6244869232177734,77,,,,1498.46,1500,1150.0,1500
1.646064043045044,78,,,,1498.46,1500,1150.0,1500
1.667409896850586,79,,,,1498.46,1500,1150.0,1500
1.6887338161468506,80,,,,1498.46,1500,1150.0,1500
1.710068941116333,81,,,,1498.46,1500,1150.0,1500
1.7314050197601318,82,,,,1500.0,1490.0,1150.0,1500
1.7527790069580078,83,,,,1500.0,1490.0,1150.0,1500
1.7741830348968506,84,,,,1500.0,1490.0,1150.0,1500
1.795569896697998,85,,,,1500.0,1490.0,1150.0,1500
1.816946029663086,86,,,,1500.0,1490.0,1150.0,1500
1.8383209705352783,87,,,,1500.0,1490.0,1150.0,1500
1.8597240447998047,88,,,,1500.0,1490.0,1150.0,1500
1.881108045578003,89,,,,1500.0,1490.0,1150.0,1500
1.902472972869873,90,,,,1500.0,1490.0,1150.0,1500
1.9238619804382324,91,,,,1500.0,1490.0,1150.0,1500
1.9452450275421143,92,,,,1500.0,1490.0,1150.0,1500
1.9666168689727783,93,,,,1500.0,1490.0,1150.0,1500
1.9880359172821045,94,,,,1500.0,1490.0,1150.0,1500
2.009464979171753,95,,,,1500.0,1490.0,1150.0,1500
2.030834913253784,96,,,,1500.0,1490.0,1150.0,1500
2.0521929264068604,97,,,,1500.0,1490.0,1150.0,1500
2.073560953140259,98,,,,1500.0,1490.0,1150.0,1500
2.0949349403381348,99,,,,1500.0,1490.0,1150.0,1500
2.116292953491211,100,,,,1500.0,1490.0,1150.0,1500
2.1376399993896484,101,,,,1500.0,1490.0,1150.0,1500
2.1591548919677734,102,,,,1500.0,1490.0,1150.0,1500
2.1805648803710938,103,,,,1500.0,1490.0,1150.0,1500
2.2020058631896973,104,,,,1500.0,1490.0,1150.0,1500
2.2234928607940674,105,,,,1500.0,1490.0,1150.0,1500
2.244870901107788,106,,,,1500.0,1490.0,1150.0,1500
2.266235828399658,107,,,,1500.0,1490.0,1150.0,1500
2.287605047225952,108,,,,1500.0,1490.0,1150.0,1500
2.309271812438965,109,,,,1500.0,1490.0,1150.0,1500
2.3306918144226074,110,,,,1500.0,1490.0,1150.0,1500
2.3520689010620117,111,,,,1500.0,1490.0,1150.0,1500
2.3734660148620605,112,,,,1500.0,1490.0,1150.0,1500
2.3948400020599365,113,,,,1500.0,1490.0,1150.0,1500
2.416208028793335,114,,,,1500.0,1490.0,1150.0,1500
2.437563896179199,115,,,,1500.0,1490.0,1150.0,1500
2.4590349197387695,116,,,,1500.0,1490.0,1150.0,1500
2.4804208278656006,117,,,,1500.0,1490.0,1150.0,1500
2.50178599357605,118,,,,1500.0,1490.0,1150.0,1500
2.523149013519287,119,,,,1500.0,1490.0,1150.0,1500
2.5445098876953125,120,,,,1500.0,1490.0,1150.0,1500
2.5658910274505615,121,,,,1500.0,1490.0,1150.0,1500
2.58728289604187,122,,,,1500.0,1490.0,1150.0,1500
2.6087069511413574,123,,,,1500.0,1490.0,1150.0,1500
2.6302969455718994,124,,,,1500.0,1490.0,1150.0,1500
2.651707887649536,125,,,,1500.0,1490.0,1150.0,1500
2.673092842102051,126,,,,1500.0,1490.0,1150.0,1500
2.694459915161133,127,,,,1500.0,1490.0,1150.0,1500
2.7158238887786865,128,,,,1500.0,1490.0,1150.0,1500
2.7371888160705566,129,,,,1500.0,1490.0,1150.0,1500
2.7585630416870117,130,,,,1500.0,1490.0,1150.0,1500
2.779958963394165,131,,,,1500.0,1490.0,1150.0,1500
2.801323890686035,132,,,,1500.0,1490.0,1150.0,1500
2.8227059841156006,133,,,,1500.0,1490.0,1150.0,1500
2.8440868854522705,134,,,,1500.0,1490.0,1150.0,1500
2.86545991897583,135,,,,1500.0,1490.0,1150.0,1500
2.8868119716644287,136,,,,1500.0,1490.0,1150.0,1500
2.9081928730010986,137,,,,1500.0,1490.0,1150.0,1500
2.929569959640503,138,,,,1500.0,1490.0,1150.0,1500
2.9509379863739014,139,,,,1500.0,1490.0,1150.0,1500
2.9723339080810547,140,,,,1500.0,1490.0,1150.0,1500
2.993703842163086,141,,,,1500.0,1490.0,1150.0,1500
3.015061855316162,142,,,,1500.0,1490.0,1150.0,1500
3.036393880844116,143,,,,1500.0,1490.0,1150.0,1500
3.0577738285064697,144,,,,1500.0,1490.0,1150.0,1500
3.0792429447174072,145,,,,1500.0,1490.0,1150.0,1500
3.100627899169922,146,,,,1500.0,1490.0,1150.0,1500
3.1219828128814697,147,,,,1500.0,1490.0,1150.0,1500
3.1436970233917236,148,,,,1500.0,1490.0,1150.0,1500
3.1662638187408447,149,,,,1500.0,1490.0,1150.0,1500
3.1888039112091064,150,,,,1500.0,1490.0,1150.0,1500
3.2113540172576904,151,,,,1500.0,1490.0,1150.0,1500
3.234189987182617,152,,,,1500.0,1490.0,1150.0,1500
3.2569420337677,153,,,,1500.0,1490.0,1150.0,1500
3.2797629833221436,154,,,,1500.0,1490.0,1150.0,1500
3.302548885345459,155,,,,1500.0,1490.0,1150.0,1500
3.3253049850463867,156,,,,1500.0,1490.0,1150.0,1500
3.3485958576202393,157,,,,1500.0,1490.0,1150.0,1500
3.371708869934082,158,134,97,0.047619047619047616,1497.53,1500,1150.75,1500
3.3947858810424805,159,,,,1500.1300000000001,1500,1150.0,1500
3.417482852935791,160,,,,1500.1300000000001,1500,1150.0,1500
3.4404380321502686,161,,,,1500.1300000000001,1500,1150.0,1500
3.4631409645080566,162,,,,1500.1300000000001,1500,1150.0,1500
3.4858129024505615,163,,,,1498.5699999999999,1500,1150.0,1500
3.5085699558258057,164,,,,1498.5699999999999,1500,1150.0,1500
3.531256914138794,165,,,,1498.5699999999999,1500,1150.0,1500
3.553925037384033,166,,,,1498.5699999999999,1500,1150.0,1500
3.576637029647827,167,,,,1498.5699999999999,1500,1150.0,1500
3.599397897720337,168,,,,1500.0,1490.0,1150.0,1500
3.622138023376465,169,,,,1500.0,1490.0,1150.0,1500
3.644946813583374,170,,,,1500.0,1490.0,1150.0,1500
3.667780876159668,171,,,,1500.0,1490.0,1150.0,1500
3.690837860107422,172,,,,1500.0,1490.0,1150.0,1500
3.713627815246582,173,,,,1500.0,1490.0,1150.0,1500
3.7363829612731934,174,,,,1500.0,1490.0,1150.0,1500
3.75921893119812,175,,,,1500.0,1490.0,1150.0,1500
3.7820169925689697,176,,,,1500.0,1490.0,1150.0,1500
3.804764986038208,177,,,,1500.0,1490.0,1150.0,1500
3.8275198936462402,178,,,,1500.0,1490.0,1150.0,1500
3.850580930709839,179,,,,1500.0,1490.0,1150.0,1500
3.873351812362671,180,,,,1500.0,1490.0,1150.0,1500
3.896108865737915,181,,,,1500.0,1490.0,1150.0,1500
3.9189560413360596,182,,,,1500.0,1490.0,1150.0,1500
3.9417049884796143,183,,,,1500.0,1490.0,1150.0,1500
3.9644899368286133,184,,,,1500.0,1490.0,1150.0,1500
3.9872748851776123,185,,,,1500.0,1490.0,1150.0,1500
4.010257005691528,186,,,,1500.0,1490.0,1150.0,1500
4.033030033111572,187,,,,1500.0,1490.0,1150.0,1500
4.055778980255127,188,,,,1500.0,1490.0,1150.0,1500
4.078577995300293,189,,,,1500.0,1490.0,1150.0,1500
4.101351022720337,190,,,,1500.0,1490.0,1150.0,1500
4.124102830886841,191,,,,1500.0,1490.0,1150.0,1500
4.1468729972839355,192,,,,1500.0,1490.0,1150.0,1500
4.169457912445068,193,,,,1500.0,1490.0,1150.0,1500
4.191980838775635,194,,,,1500.0,1490.0,1150.0,1500
4.214478015899658,195,,,,1500.0,1490.0,1150.0,1500
4.237004041671753,196,,,,1500.0,1490.0,1150.0,1500
4.259476900100708,197,,,,1500.0,1490.0,1150.0,1500
4.281961917877197,198,,,,1500.0,1490.0,1150.0,1500
4.304442882537842,199,,,,1500.0,1490.0,1150.0,1500
4.327055931091309,200,130,99,0.047619047619047616,1497.1500000000001,1500,1150.25,1500
4.349701881408691,201,,,,1500.1500000000001,1500,1150.0,1500
4.372135877609253,202,,,,1500.1500000000001,1500,1150.0,1500
4.3945348262786865,203,,,,1500.1500000000001,1500,1150.0,1500
4.416920900344849,204,,,,1500.1500000000001,1500,1150.0,1500
4.439285039901733,205,,,,1498.3499999999999,1500,1150.0,1500
4.461724042892456,206,,,,1498.3499999999999,1500,1150.0,1500
4.484194040298462,207,,,,1498.3499999999999,1500,1150.0,1500
4.50659704208374,208,,,,1498.3499999999999,1500,1150.0,1500
4.529016017913818,209,,,,1498.3499999999999,1500,1150.0,1500
4.551446914672852,210,,,,1500.0,1490.0,1150.0,1500
4.57419490814209,211,,,,1500.0,1490.0,1150.0,1500
4.596982955932617,212,,,,1500.0,1490.0,1150.0,1500
4.619813919067383,213,,,,1500.0,1490.0,1150.0,1500
4.642570972442627,214,,,,1500.0,1490.0,1150.0,1500
4.665350914001465,215,,,,1500.0,1490.0,1150.0,1500
4.688252925872803,216,,,,1500.0,1490.0,1150.0,1500
4.711318016052246,217,129,99,0.05555555555555555,1497.0550000000001,1500,1150.25,1500
4.734230041503906,218,,,,1500.155,1500,1150.0,1500
4.756901025772095,219,,,,1500.155,1500,1150.0,1500
4.779825925827026,220,132,95,0.047619047619047616,1497.4949999999999,1500,1151.25,1500
4.8027708530426025,221,,,,1500.2950000000001,1500,1150.0,1500
4.825456857681274,222,,,,1498.4349999999999,1500,1150.0,1500
4.8482818603515625,223,,,,1498.4349999999999,1500,1150.0,1500
4.87114691734314,224,,,,1498.4349999999999,1500,1150.0,1500
4.893833875656128,225,,,,1496.7550000000001,1500,1150.0,1500
4.916514873504639,226,,,,1496.7550000000001,1500,1150.0,1500
4.9392359256744385,227,,,,1498.46,1500,1150.0,1500
4.962218999862671,228,,,,1498.46,1500,1150.0,1500
4.985092878341675,229,131,96,0.05,1495.7049999999999,1500,1151.0,1500
5.008119821548462,230,,,,1500.145,1500,1150.0,1500
5.0309529304504395,231,,,,1500.145,1500,1150.0,1500
5.0536298751831055,232,,,,1500.145,1500,1150.0,1500
5.0763280391693115,233,,,,1500.145,1500,1150.0,1500
5.099076986312866,234,,,,1498.405,1500,1150.0,1500
5.121765851974487,235,,,,1498.405,1500,1150.0,1500
5.144464015960693,236,,,,1498.405,1500,1150.0,1500
5.167217969894409,237,,,,1498.405,1500,1150.0,1500
5.190119028091431,238,,,,1498.405,1500,1150.0,1500
5.212849855422974,239,,,,1500.0,1490.0,1150.0,1500
5.235674858093262,240,,,,1500.0,1490.0,1150.0,1500
5.258544921875,241,,,,1500.0,1490.0,1150.0,1500
5.2814459800720215,242,,,,1500.0,1490.0,1150.0,1500
5.3039870262146,243,,,,1500.0,1490.0,1150.0,1500
5.326485872268677,244,,,,1500.0,1490.0,1150.0,1500
