time,frame,x,y,size_inv,roll,pitch,thrust,yaw
0.00023412704467773438,1,,,,1500.0,1490.0,1400.0,1500
0.022024154663085938,2,,,,1500.0,1490.0,1400.0,1500
0.04372906684875488,3,162,56,0.05,1500.2,1530,1415,1500
0.06529998779296875,4,165,49,0.01818181818181818,1500.5,1530,1415,1500
0.08682012557983398,5,167,50,0.011363636363636364,1500.7,1530,1415,1500
0.10831713676452637,6,168,46,0.009615384615384616,1500.8,1530,1415,1500
0.12987995147705078,7,170,50,0.003663003663003663,1501.0,1462.2600732600733,1415,1500
0.151414155960083,8,171,49,0.003105590062111801,1501.0999999999999,1451.111801242236,1415,1500
0.17300915718078613,9,174,49,0.0025,1501.4000000000001,1450,1415,1500
0.19454407691955566,10,177,48,0.0022222222222222222,1501.7,1450,1415,1500
0.21624302864074707,11,179,47,0.0019230769230769232,1501.9000000000001,1450,1415,1500
0.23805499076843262,12,183,46,0.0017391304347826088,1502.3,1450,1415,1500
0.2599070072174072,13,184,45,0.0016025641025641025,1502.4000000000001,1450,1415,1500
0.28166699409484863,14,187,44,0.0014285714285714286,1502.7,1450,1415,1500
0.3036019802093506,15,189,43,0.0014285714285714286,1502.9000000000001,1450,1415,1500
0.3253800868988037,16,190,41,0.0013440860215053765,1503.0,1450,1415,1500
0.34720802307128906,17,192,40,0.001402524544179523,1503.2,1450,1415,1500
0.36918210983276367,18,193,38,0.001466275659824047,1503.3,1450,1415,1500
0.39104509353637695,19,199,35,0.001287001287001287,1503.9000000000001,1450,1415,1500
0.4128530025482178,20,201,34,0.0011904761904761906,1504.0999999999999,1450,1415,1500
0.4347069263458252,21,202,33,0.001142857142857143,1504.2,1450,1415,1500
0.4565000534057617,22,204,32,0.001098901098901099,1504.4000000000001,1450,1415,1500
0.4783329963684082,23,205,31,0.0010683760683760685,1504.5,1450,1415,1500
0.500136137008667,24,207,31,0.0010582010582010583,1504.7,1450,1415,1500
0.5220460891723633,25,208,31,0.00102880658436214,1504.8,1450,1415,1500
0.5439131259918213,26,210,31,0.000949667616334283,1505.0,1450,1415,1500
0.565748929977417,27,211,31,0.0010256410256410256,1505.0999999999999,1450,1415,1500
0.5875570774078369,28,211,31,0.0010683760683760685,1505.0999999999999,1450,1415,1500
0.6093180179595947,29,211,31,0.0010869565217391304,1505.0999999999999,1450,1415,1500
0.6311259269714355,30,211,31,0.0011655011655011655,1505.0999999999999,1450,1415,1500
0.652940034866333,31,211,31,0.0011148272017837235,1505.0999999999999,1450,1415,1500
0.6748471260070801,32,210,31,0.0010869565217391304,1505.0,1450,1415,1500
0.6969020366668701,33,209,31,0.0011655011655011655,1504.9000000000001,1450,1415,1500
0.7187819480895996,34,206,32,0.0010869565217391304,1504.5999999999999,1450,1415,1500
0.7406039237976074,35,205,33,0.0010604453870625664,1504.5,1450,1415,1500
0.7624311447143555,36,203,34,0.0009302325581395349,1504.3,1450,1415,1500
0.7842209339141846,37,201,34,0.0009380863039399625,1504.0999999999999,1450,1415,1500
0.8060779571533203,38,199,36,0.001,1503.9000000000001,1450,1415,1500
0.8278610706329346,39,198,36,0.0009615384615384616,1503.8,1450,1415,1500
0.8496479988098145,40,197,37,0.000949667616334283,1503.7,1450,1415,1500
0.8714010715484619,41,195,38,0.0010256410256410256,1503.5,1450,1415,1500
0.8934080600738525,42,193,39,0.0009746588693957114,1503.3,1450,1415,1500
0.9152450561523438,43,191,40,0.0009746588693957114,1503.0999999999999,1450,1415,1500
0.9370541572570801,44,190,41,0.0009319664492078285,1503.0,1450,1415,1500
0.9588229656219482,45,187,42,0.0011160714285714285,1502.7,1450,1415,1500
0.9806859493255615,46,185,44,0.0011123470522803114,1502.5,1450,1415,1500
1.002573013305664,47,183,46,0.0012345679012345679,1502.3,1450,1415,1500
1.024616003036499,48,181,46,0.0011494252873563218,1502.0999999999999,1450,1415,1500
1.0464420318603516,49,179,47,0.0012345679012345679,1501.9000000000001,1450,1415,1500
1.0683259963989258,50,177,50,0.0015527950310559005,1501.7,1450,1415,1500
1.090162992477417,51,175,50,0.0016666666666666668,1501.5,1450,1415,1500
1.1120691299438477,52,176,53,0.001949317738791423,1501.5999999999999,1450,1415,1500
1.1339080333709717,53,176,52,0.0018148820326678765,1501.5999999999999,1450,1415,1500
1.1559360027313232,54,176,54,0.002232142857142857,1501.5999999999999,1450,1415,1500
1.1777629852294922,55,176,55,0.002232142857142857,1501.5999999999999,1450,1415,1500
1.1995999813079834,56,177,58,0.003787878787878788,1501.7,1464.7575757575758,1415,1500
1.2214770317077637,57,179,56,0.0034965034965034965,1501.9000000000001,1458.93006993007,1415,1500
1.2434000968933105,58,178,59,0.006944444444444444,1501.8,1527.8888888888889,1415,1500
1.265254020690918,59,180,60,0.041666666666666664,1502.0,1530,1415,1500
1.2870731353759766,60,180,60,0.037037037037037035,1502.0,1530,1415,1500
1.308833122253418,61,,,,1500.0,1490.0,1400.0,1500
1.3305721282958984,62,,,,1500.0,1490.0,1400.0,1500
1.3523449897766113,63,,,,1500.0,1490.0,1400.0,1500
1.3741669654846191,64,,,,1500.0,1490.0,1400.0,1500
1.3958311080932617,65,,,,1500.0,1490.0,1400.0,1500
1.4174830913543701,66,,,,1500.0,1490.0,1400.0,1500
1.4391050338745117,67,,,,1500.0,1490.0,1400.0,1500
1.4608030319213867,68,,,,1500.0,1490.0,1400.0,1500
1.4824259281158447,69,,,,1500.0,1490.0,1400.0,1500
1.5041050910949707,70,,,,1500.0,1490.0,1400.0,1500
1.5257160663604736,71,,,,1500.0,1490.0,1400.0,1500
1.547356128692627,72,,,,1500.0,1490.0,1400.0,1500
1.568984031677246,73,,,,1500.0,1490.0,1400.0,1500
1.590644121170044,74,,,,1500.0,1490.0,1400.0,1500
1.612381935119629,75,,,,1500.0,1490.0,1400.0,1500
1.6341681480407715,76,,,,1500.0,1490.0,1400.0,1500
1.6557910442352295,77,,,,1500.0,1490.0,1400.0,1500
1.677427053451538,78,,,,1500.0,1490.0,1400.0,1500
1.6990320682525635,79,,,,1500.0,1490.0,1400.0,1500
1.7207629680633545,80,,,,1500.0,1490.0,1400.0,1500
1.7423789501190186,81,,,,1500.0,1490.0,1400.0,1500
1.7641561031341553,82,198,30,0.04,1503.8,1530,1415,1500
1.785952091217041,83,198,34,0.005263157894736842,1503.8,1494.2631578947369,1415,1500
1.807826042175293,84,202,34,0.0030303030303030303,1504.2,1450,1415,1500
1.8296160697937012,85,206,33,0.0019047619047619048,1504.5999999999999,1450,1415,1500
1.8514399528503418,86,210,33,0.0016420361247947454,1505.0,1450,1415,1500
1.8731861114501953,87,213,32,0.0012987012987012987,1505.3,1450,1415,1500
1.8950660228729248,88,212,32,0.0014005602240896359,1505.2,1450,1415,1500
1.9168810844421387,89,215,31,0.0012285012285012285,1505.5,1450,1415,1500
1.938715934753418,90,215,31,0.0012285012285012285,1505.5,1450,1415,1500
1.9604909420013428,91,215,32,0.0011441647597254005,1505.5,1450,1415,1500
1.9823789596557617,92,215,31,0.0010964912280701754,1505.5,1450,1415,1500
2.00423002243042,93,215,31,0.0011363636363636363,1505.5,1450,1415,1500
2.0260491371154785,94,215,31,0.0010869565217391304,1505.5,1450,1415,1500
2.0478079319000244,95,215,31,0.0010869565217391304,1505.5,1450,1415,1500
2.0696470737457275,96,214,30,0.0010416666666666667,1505.4000000000001,1450,1415,1500
2.0914230346679688,97,213,30,0.0011363636363636363,1505.3,1450,1415,1500
2.113248109817505,98,212,30,0.0011363636363636363,1505.2,1450,1415,1500
2.135025978088379,99,212,30,0.0010869565217391304,1505.2,1450,1415,1500
2.1568820476531982,100,211,30,0.0010869565217391304,1505.0999999999999,1450,1415,1500
2.1787750720977783,101,210,30,0.0011363636363636363,1505.0,1450,1415,1500
2.200695037841797,102,209,30,0.0010416666666666667,1504.9000000000001,1450,1415,1500
2.222490072250366,103,208,31,0.0010869565217391304,1504.8,1450,1415,1500
2.244338035583496,104,208,30,0.0010416666666666667,1504.8,1450,1415,1500
2.266170024871826,105,207,31,0.001,1504.7,1450,1415,1500
2.2879409790039062,106,207,31,0.000975609756097561,1504.7,1450,1415,1500
2.3097360134124756,107,206,31,0.001,1504.5999999999999,1450,1415,1500
2.331547975540161,108,205,31,0.001,1504.5,1450,1415,1500
2.3533620834350586,109,204,31,0.001,1504.4000000000001,1450,1415,1500
2.3751649856567383,110,203,31,0.0010416666666666667,1504.3,1450,1415,1500
2.397005081176758,111,203,31,0.0008944543828264759,1504.3,1450,1415,1500
2.4190189838409424,112,202,31,0.0008944543828264759,1504.2,1450,1415,1500
2.440916061401367,113,201,32,0.0009302325581395349,1504.0999999999999,1450,1415,1500
2.4629931449890137,114,200,31,0.0008944543828264759,1504.0,1450,1415,1500
2.484889030456543,115,199,32,0.0009302325581395349,1503.9000000000001,1450,1415,1500
2.5067241191864014,116,198,32,0.0008944543828264759,1503.8,1450,1415,1500
2.528589963912964,117,195,32,0.0008741258741258741,1503.5,1450,1415,1500
2.5504019260406494,118,194,32,0.0008741258741258741,1503.4000000000001,1450,1415,1500
2.5723230838775635,119,193,32,0.0008741258741258741,1503.3,1450,1415,1500
2.594460964202881,120,192,33,0.0008230452674897119,1503.2,1450,1415,1500
2.6165599822998047,121,190,33,0.0008417508417508417,1503.0,1450,1415,1500
2.638622999191284,122,191,33,0.0009033423667570009,1503.0999999999999,1450,1415,1500
2.660243034362793,123,188,33,0.0008613264427217916,1502.8,1450,1415,1500
2.6818299293518066,124,187,33,0.0008230452674897119,1502.7,1450,1415,1500
2.7035579681396484,125,185,33,0.0008417508417508417,1502.5,1450,1415,1500
2.725085973739624,126,184,33,0.0008230452674897119,1502.4000000000001,1450,1415,1500
2.7465691566467285,127,182,33,0.0008417508417508417,1502.2,1450,1415,1500
2.76808500289917,128,182,33,0.0008230452674897119,1502.2,1450,1415,1500
2.789525032043457,129,181,33,0.0008230452674897119,1502.0999999999999,1450,1415,1500
2.811037063598633,130,180,33,0.0008417508417508417,1502.0,1450,1415,1500
2.8324711322784424,131,180,33,0.0008230452674897119,1502.0,1450,1415,1500
2.853956937789917,132,179,32,0.0008230452674897119,1501.9000000000001,1450,1415,1500
2.8753790855407715,133,178,32,0.0008230452674897119,1501.8,1450,1415,1500
2.896899938583374,134,177,31,0.0008547008547008547,1501.7,1450,1415,1500
2.9184250831604004,135,175,31,0.0008417508417508417,1501.5,1450,1415,1500
2.939940929412842,136,174,31,0.0009090909090909091,1501.4000000000001,1450,1415,1500
2.9614410400390625,137,174,30,0.0008741258741258741,1501.4000000000001,1450,1415,1500
2.9830269813537598,138,173,30,0.0008741258741258741,1501.3,1450,1415,1500
3.004477024078369,139,173,30,0.0009302325581395349,1501.3,1450,1415,1500
3.0259110927581787,140,172,30,0.0009302325581395349,1501.2,1450,1415,1500
3.047657012939453,141,172,30,0.0009090909090909091,1501.2,1450,1415,1500
3.0701301097869873,142,171,30,0.0009090909090909091,1501.0999999999999,1450,1415,1500
3.092674970626831,143,171,30,0.0009157509157509158,1501.0999999999999,1450,1415,1500
3.1152689456939697,144,170,30,0.0008741258741258741,1501.0,1450,1415,1500
3.137648105621338,145,170,30,0.0008944543828264759,1501.0,1450,1415,1500
3.1599550247192383,146,171,30,0.0008944543828264759,1501.0999999999999,1450,1415,1500
3.182431936264038,147,169,30,0.0008741258741258741,1500.9000000000001,1450,1415,1500
3.2050600051879883,148,169,30,0.0008944543828264759,1500.9000000000001,1450,1415,1500
3.2275540828704834,149,168,31,0.0008613264427217916,1500.8,1450,1415,1500
3.2499070167541504,150,167,31,0.0008417508417508417,1500.7,1450,1415,1500
3.2723350524902344,151,167,31,0.0008417508417508417,1500.7,1450,1415,1500
3.2949039936065674,152,167,31,0.0008944543828264759,1500.7,1450,1415,1500
3.3176541328430176,153,167,32,0.0008613264427217916,1500.7,1450,1415,1500
3.3401379585266113,154,166,32,0.0008613264427217916,1500.5999999999999,1450,1415,1500
3.362605094909668,155,166,32,0.0008116883116883117,1500.5999999999999,1450,1415,1500
3.3851430416107178,156,166,33,0.0008613264427217916,1500.5999999999999,1450,1415,1500
3.4075591564178467,157,166,33,0.0008944543828264759,1500.5999999999999,1450,1415,1500
3.429903030395508,158,166,33,0.0008944543828264759,1500.5999999999999,1450,1415,1500
3.452410936355591,159,166,34,0.0008613264427217916,1500.5999999999999,1450,1415,1500
3.475074052810669,160,166,34,0.0008613264427217916,1500.5999999999999,1450,1415,1500
3.4974911212921143,161,166,34,0.0008944543828264759,1500.5999999999999,1450,1415,1500
3.5198590755462646,162,166,35,0.0008613264427217916,1500.5999999999999,1450,1415,1500
3.542246103286743,163,166,35,0.0008613264427217916,1500.5999999999999,1450,1415,1500
3.5646719932556152,164,166,35,0.0008944543828264759,1500.5999999999999,1450,1415,1500
3.587433099746704,165,166,35,0.0008944543828264759,1500.5999999999999,1450,1415,1500
3.6098411083221436,166,166,35,0.0008944543828264759,1500.5999999999999,1450,1415,1500
3.632301092147827,167,166,35,0.0008944543828264759,1500.5999999999999,1450,1415,1500
3.6548080444335938,168,166,36,0.0008944543828264759,1500.5999999999999,1450,1415,1500
3.677351951599121,169,166,36,0.0009523809523809524,1500.5999999999999,1450,1415,1500
3.700155019760132,170,166,37,0.0009523809523809524,1500.5999999999999,1450,1415,1500
3.7228660583496094,171,166,37,0.000975609756097561,1500.5999999999999,1450,1415,1500
3.745537042617798,172,166,37,0.000975609756097561,1500.5999999999999,1450,1415,1500
3.768199920654297,173,166,37,0.0010162601626016261,1500.5999999999999,1450,1415,1500
3.7907800674438477,174,166,38,0.000975609756097561,1500.5999999999999,1450,1415,1500
3.8135621547698975,175,165,38,0.0010256410256410256,1500.5,1450,1415,1500
3.8361740112304688,176,165,38,0.0010683760683760685,1500.5,1450,1415,1500
3.8587801456451416,177,166,38,0.0010683760683760685,1500.5999999999999,1450,1415,1500
3.8814821243286133,178,165,39,0.001,1500.5,1450,1415,1500
3.9043450355529785,179,166,39,0.0010683760683760685,1500.5999999999999,1450,1415,1500
3.927061080932617,180,166,39,0.0010683760683760685,1500.5999999999999,1450,1415,1500
3.949744939804077,181,166,39,0.0010683760683760685,1500.5999999999999,1450,1415,1500
3.972537040710449,182,166,40,0.0010256410256410256,1500.5999999999999,1450,1415,1500
3.9955170154571533,183,166,40,0.0010683760683760685,1500.5999999999999,1450,1415,1500
4.01813006401062,184,166,40,0.0010683760683760685,1500.5999999999999,1450,1415,1500
4.040765047073364,185,166,41,0.0010683760683760685,1500.5999999999999,1450,1415,1500
4.063555002212524,186,166,41,0.0010683760683760685,1500.5999999999999,1450,1415,1500
4.08617901802063,187,166,41,0.0010683760683760685,1500.5999999999999,1450,1415,1500
4.108739137649536,188,166,42,0.0011148272017837235,1500.5999999999999,1450,1415,1500
4.131557941436768,189,166,42,0.0011750881316098707,1500.5999999999999,1450,1415,1500
4.154561996459961,190,166,43,0.0011750881316098707,1500.5999999999999,1450,1415,1500
4.1773481369018555,191,165,43,0.0012077294685990338,1500.5,1450,1415,1500
4.200047969818115,192,165,43,0.0012077294685990338,1500.5,1450,1415,1500
4.222798109054565,193,165,43,0.0012422360248447205,1500.5,1450,1415,1500
4.245687007904053,194,165,43,0.0012422360248447205,1500.5,1450,1415,1500
4.268187999725342,195,164,44,0.0012787723785166241,1500.4000000000001,1450,1415,1500
4.290627956390381,196,164,44,0.0012077294685990338,1500.4000000000001,1450,1415,1500
4.313704013824463,197,164,44,0.0012987012987012987,1500.4000000000001,1450,1415,1500
4.336611986160278,198,164,44,0.0012987012987012987,1500.4000000000001,1450,1415,1500
4.359267950057983,199,164,45,0.0012422360248447205,1500.4000000000001,1450,1415,1500
4.381706953048706,200,163,45,0.001336898395721925,1500.3,1450,1415,1500
4.4042041301727295,201,163,45,0.0012987012987012987,1500.3,1450,1415,1500
4.4265570640563965,202,163,45,0.0012987012987012987,1500.3,1450,1415,1500
4.448931932449341,203,162,45,0.001336898395721925,1500.2,1450,1415,1500
4.471349000930786,204,162,46,0.0012987012987012987,1500.2,1450,1415,1500
4.493725061416626,205,162,46,0.0012987012987012987,1500.2,1450,1415,1500
4.51606011390686,206,161,46,0.0012626262626262627,1500.0999999999999,1450,1415,1500
4.5384299755096436,207,161,46,0.0012987012987012987,1500.0999999999999,1450,1415,1500
4.56092095375061,208,161,47,0.0013605442176870747,1500.0999999999999,1450,1415,1500
4.58344292640686,209,160,48,0.0013605442176870747,1500.0,1450,1415,1500
4.605842113494873,210,159,47,0.0014705882352941176,1499.9000000000001,1450,1415,1500
4.628170013427734,211,159,48,0.0014285714285714286,1499.9000000000001,1450,1415,1500
4.650586128234863,212,158,48,0.0014705882352941176,1499.8,1450,1415,1500
4.6734819412231445,213,158,49,0.0014705882352941176,1499.8,1450,1415,1500
4.696272134780884,214,157,49,0.0014705882352941176,1499.7,1450,1415,1500
4.719459056854248,215,157,50,0.0014705882352941176,1499.7,1450,1415,1500
4.742331027984619,216,156,50,0.0015625,1499.5999999999999,1450,1415,1500
4.765207052230835,217,156,51,0.001697792869269949,1499.5999999999999,1450,1415,1500
4.787882089614868,218,156,51,0.0016129032258064516,1499.5999999999999,1450,1415,1500
4.810621023178101,219,155,51,0.0016666666666666668,1499.5,1450,1415,1500
4.83332896232605,220,156,52,0.001697792869269949,1499.5999999999999,1450,1415,1500
4.856001138687134,221,155,52,0.0017543859649122807,1499.5,1450,1415,1500
4.878557920455933,222,156,52,0.001697792869269949,1499.5999999999999,1450,1415,1500
4.901257038116455,223,156,52,0.0015625,1499.5999999999999,1450,1415,1500
4.923891067504883,224,156,53,0.001697792869269949,1499.5999999999999,1450,1415,1500
4.946537971496582,225,156,53,0.001697792869269949,1499.5999999999999,1450,1415,1500
4.969243049621582,226,156,53,0.001697792869269949,1499.5999999999999,1450,1415,1500
4.991917133331299,227,156,53,0.0017921146953405018,1499.5999999999999,1450,1415,1500
5.014898061752319,228,156,53,0.001851851851851852,1499.5999999999999,1450,1415,1500
5.037693977355957,229,156,54,0.0017543859649122807,1499.5999999999999,1450,1415,1500
5.060383081436157,230,156,54,0.0017543859649122807,1499.5999999999999,1450,1415,1500
5.083066940307617,231,157,55,0.001697792869269949,1499.7,1450,1415,1500
5.1057209968566895,232,157,55,0.001697792869269949,1499.7,1450,1415,1500
5.1283860206604,233,157,55,0.001697792869269949,1499.7,1450,1415,1500
5.150967121124268,234,157,55,0.0017543859649122807,1499.7,1450,1415,1500
5.173784971237183,235,157,56,0.0017543859649122807,1499.7,1450,1415,1500
5.196470022201538,236,158,56,0.001697792869269949,1499.8,1450,1415,1500
5.219113111495972,237,158,56,0.001697792869269949,1499.8,1450,1415,1500
5.241786003112793,238,158,57,0.0017543859649122807,1499.8,1450,1415,1500
5.264837980270386,239,158,57,0.0017543859649122807,1499.8,1450,1415,1500
5.28757905960083,240,158,57,0.0017543859649122807,1499.8,1450,1415,1500
5.310265064239502,241,159,57,0.0018148820326678765,1499.9000000000001,1450,1415,1500
5.332956075668335,242,159,57,0.0018148820326678765,1499.9000000000001,1450,1415,1500
5.355752944946289,243,159,57,0.0018148820326678765,1499.9000000000001,1450,1415,1500
5.378368139266968,244,159,57,0.0017543859649122807,1499.9000000000001,1450,1415,1500
5.400994062423706,245,158,57,0.0018796992481203006,1499.8,1450,1415,1500
5.423712968826294,246,158,57,0.0018796992481203006,1499.8,1450,1415,1500
5.446380138397217,247,158,57,0.0018796992481203006,1499.8,1450,1415,1500
5.4690611362457275,248,159,57,0.0018796992481203006,1499.9000000000001,1450,1415,1500
5.492138147354126,249,159,57,0.0018796992481203006,1499.9000000000001,1450,1415,1500
5.515171051025391,250,159,57,0.0018796992481203006,1499.9000000000001,1450,1415,1500
5.538037061691284,251,159,57,0.00205761316872428,1499.9000000000001,1450,1415,1500
5.560887098312378,252,159,57,0.001984126984126984,1499.9000000000001,1450,1415,1500
5.583766937255859,253,158,57,0.001984126984126984,1499.8,1450,1415,1500
5.606636047363281,254,159,57,0.0019157088122605363,1499.9000000000001,1450,1415,1500
5.629560947418213,255,158,58,0.0018796992481203006,1499.8,1450,1415,1500
5.652611017227173,256,158,58,0.001949317738791423,1499.8,1450,1415,1500
5.675612926483154,257,158,58,0.001984126984126984,1499.8,1450,1415,1500
5.698472023010254,258,158,58,0.0018796992481203006,1499.8,1450,1415,1500
5.721282005310059,259,158,58,0.00205761316872428,1499.8,1450,1415,1500
5.744328022003174,260,158,58,0.00205761316872428,1499.8,1450,1415,1500
5.767364978790283,261,158,59,0.0018148820326678765,1499.8,1450,1415,1500
5.7903969287872314,262,157,59,0.0018796992481203006,1499.7,1450,1415,1500
5.813218116760254,263,157,59,0.00205761316872428,1499.7,1450,1415,1500
5.836132049560547,264,157,59,0.001984126984126984,1499.7,1450,1415,1500
5.858999013900757,265,156,59,0.001984126984126984,1499.5999999999999,1450,1415,1500
5.881935119628906,266,156,60,0.0021008403361344537,1499.5999999999999,1450,1415,1500
5.905375003814697,267,156,60,0.002178649237472767,1499.5999999999999,1450,1415,1500
5.928399085998535,268,156,60,0.002178649237472767,1499.5999999999999,1450,1415,1500
5.951221942901611,269,155,61,0.0021008403361344537,1499.5,1450,1415,1500
5.974215984344482,270,155,61,0.002178649237472767,1499.5,1450,1415,1500
5.997009038925171,271,155,61,0.0023148148148148147,1499.5,1450,1415,1500
6.019964933395386,272,155,61,0.0023148148148148147,1499.5,1450,1415,1500
6.042915105819702,273,154,62,0.0023148148148148147,1499.4000000000001,1450,1415,1500
6.065902948379517,274,154,62,0.0023148148148148147,1499.4000000000001,1450,1415,1500
6.0887250900268555,275,154,62,0.0023148148148148147,1499.4000000000001,1450,1415,1500
6.1114280223846436,276,153,62,0.002403846153846154,1499.3,1450,1415,1500
6.1340861320495605,277,153,62,0.002403846153846154,1499.3,1450,1415,1500
6.156708002090454,278,153,62,0.002403846153846154,1499.3,1450,1415,1500
6.1793811321258545,279,153,62,0.002403846153846154,1499.3,1450,1415,1500
6.202243089675903,280,153,62,0.002403846153846154,1499.3,1450,1415,1500
6.225023031234741,281,153,63,0.002564102564102564,1499.3,1450,1415,1500
6.24778413772583,282,153,63,0.002564102564102564,1499.3,1450,1415,1500
6.270447015762329,283,153,63,0.002403846153846154,1499.3,1450,1415,1500
6.293101072311401,284,153,63,0.002403846153846154,1499.3,1450,1415,1500
6.315834999084473,285,153,63,0.002403846153846154,1499.3,1450,1415,1500
6.338492155075073,286,153,64,0.002564102564102564,1499.3,1450,1415,1500
6.361104965209961,287,153,64,0.002564102564102564,1499.3,1450,1415,1500
6.38396692276001,288,153,64,0.002564102564102564,1499.3,1450,1415,1500
6.406630039215088,289,153,64,0.0026041666666666665,1499.3,1450,1415,1500
6.429245948791504,290,153,64,0.002717391304347826,1499.3,1450,1415,1500
6.452031135559082,291,154,64,0.0025,1499.4000000000001,1450,1415,1500
6.474916934967041,292,154,65,0.002898550724637681,1499.4000000000001,1450,1415,1500
6.497655153274536,293,154,65,0.0025,1499.4000000000001,1450,1415,1500
6.520236968994141,294,154,66,0.002898550724637681,1499.4000000000001,1450,1415,1500
6.542878150939941,295,154,66,0.002777777777777778,1499.4000000000001,1450,1415,1500
6.565593004226685,296,154,66,0.0026041666666666665,1499.4000000000001,1450,1415,1500
6.588248014450073,297,155,67,0.002898550724637681,1499.5,1450,1415,1500
6.610798120498657,298,155,67,0.002898550724637681,1499.5,1450,1415,1500
6.633500099182129,299,155,67,0.002898550724637681,1499.5,1450,1415,1500
6.656119108200073,300,155,67,0.002898550724637681,1499.5,1450,1415,1500
6.67882513999939,301,155,67,0.0030303030303030303,1499.5,1450,1415,1500
6.701934099197388,302,155,67,0.0030303030303030303,1499.5,1450,1415,1500
6.7247841358184814,303,156,67,0.002717391304347826,1499.5999999999999,1450,1415,1500
6.747491121292114,304,155,67,0.0030303030303030303,1499.5,1450,1415,1500
6.7701499462127686,305,156,67,0.002898550724637681,1499.5999999999999,1450,1415,1500
6.7928831577301025,306,156,67,0.002898550724637681,1499.5999999999999,1450,1415,1500
6.815794944763184,307,156,67,0.003105590062111801,1499.5999999999999,1451.111801242236,1415,1500
6.838510990142822,308,156,67,0.002717391304347826,1499.5999999999999,1450,1415,1500
6.861129999160767,309,156,68,0.002898550724637681,1499.5999999999999,1450,1415,1500
6.883871078491211,310,156,68,0.002898550724637681,1499.5999999999999,1450,1415,1500
6.906505107879639,311,156,68,0.002777777777777778,1499.5999999999999,1450,1415,1500
6.929080963134766,312,156,68,0.003105590062111801,1499.5999999999999,1451.111801242236,1415,1500
6.951902151107788,313,156,68,0.002898550724637681,1499.5999999999999,1450,1415,1500
6.974873065948486,314,156,68,0.003105590062111801,1499.5999999999999,1451.111801242236,1415,1500
6.997712135314941,315,156,68,0.003105590062111801,1499.5999999999999,1451.111801242236,1415,1500
7.020431041717529,316,156,68,0.003105590062111801,1499.5999999999999,1451.111801242236,1415,1500
7.0432000160217285,317,156,69,0.003246753246753247,1499.5999999999999,1453.9350649350649,1415,1500
7.0660951137542725,318,156,69,0.002898550724637681,1499.5999999999999,1450,1415,1500
7.0891969203948975,319,156,69,0.002898550724637681,1499.5999999999999,1450,1415,1500
7.111951112747192,320,156,69,0.003105590062111801,1499.5999999999999,1451.111801242236,1415,1500
7.135075092315674,321,155,69,0.003246753246753247,1499.5,1453.9350649350649,1415,1500
7.157896995544434,322,155,70,0.0034965034965034965,1499.5,1458.93006993007,1415.0,1500
7.180742979049683,323,155,70,0.003246753246753247,1499.5,1453.9350649350649,1415.0,1500
7.203634977340698,324,155,70,0.003246753246753247,1499.5,1453.9350649350649,1415.0,1500
7.226474046707153,325,155,70,0.003246753246753247,1499.5,1453.9350649350649,1415.0,1500
7.2492289543151855,326,154,71,0.004048582995951417,1499.4000000000001,1469.9716599190283,1414.5,1500
7.272330045700073,327,154,71,0.004048582995951417,1499.4000000000001,1469.9716599190283,1414.5,1500
7.295345067977905,328,153,72,0.0038461538461538464,1499.3,1465.9230769230769,1414.0,1500
7.318311929702759,329,153,72,0.004048582995951417,1499.3,1469.9716599190283,1414.0,1500
7.341091156005859,330,153,72,0.0043859649122807015,1499.3,1476.719298245614,1414.0,1500
7.36409592628479,331,153,72,0.0043859649122807015,1499.3,1476.719298245614,1414.0,1500
7.386896133422852,332,153,73,0.004048582995951417,1499.3,1469.9716599190283,1413.5,1500
7.409830093383789,333,153,73,0.004048582995951417,1499.3,1469.9716599190283,1413.5,1500
7.432834148406982,334,153,73,0.004048582995951417,1499.3,1469.9716599190283,1413.5,1500
7.455980062484741,335,153,73,0.004048582995951417,1499.3,1469.9716599190283,1413.5,1500
7.478790998458862,336,153,73,0.004048582995951417,1499.3,1469.9716599190283,1413.5,1500
7.5017409324646,337,153,73,0.0038461538461538464,1499.3,1465.9230769230769,1413.5,1500
7.52495813369751,338,153,73,0.004048582995951417,1499.3,1469.9716599190283,1413.5,1500
7.547924041748047,339,153,73,0.0038461538461538464,1499.3,1465.9230769230769,1413.5,1500
7.570750951766968,340,153,73,0.0038461538461538464,1499.3,1465.9230769230769,1413.5,1500
7.593701124191284,341,153,73,0.0038461538461538464,1499.3,1465.9230769230769,1413.5,1500
7.616518974304199,342,154,73,0.0043859649122807015,1499.4000000000001,1476.719298245614,1413.5,1500
7.639320135116577,343,154,73,0.004166666666666667,1499.4000000000001,1472.3333333333333,1413.5,1500
7.66237998008728,344,154,73,0.0043859649122807015,1499.4000000000001,1476.719298245614,1413.5,1500
7.685431957244873,345,154,73,0.0043859649122807015,1499.4000000000001,1476.719298245614,1413.5,1500
7.708295106887817,346,154,73,0.0043859649122807015,1499.4000000000001,1476.719298245614,1413.5,1500
7.7311201095581055,347,154,73,0.004166666666666667,1499.4000000000001,1472.3333333333333,1413.5,1500
7.754017114639282,348,154,74,0.0038461538461538464,1499.4000000000001,1465.9230769230769,1413.0,1500
7.776862144470215,349,155,74,0.004048582995951417,1499.5,1469.9716599190283,1413.0,1500
7.7997119426727295,350,155,74,0.004048582995951417,1499.5,1469.9716599190283,1413.0,1500
7.822729110717773,351,155,74,0.004048582995951417,1499.5,1469.9716599190283,1413.0,1500
7.845731019973755,352,155,74,0.004048582995951417,1499.5,1469.9716599190283,1413.0,1500
7.868674039840698,353,155,74,0.004048582995951417,1499.5,1469.9716599190283,1413.0,1500
7.8916871547698975,354,155,74,0.004048582995951417,1499.5,1469.9716599190283,1413.0,1500
7.915013074874878,355,155,74,0.004048582995951417,1499.5,1469.9716599190283,1413.0,1500
7.937916994094849,356,155,74,0.0038461538461538464,1499.5,1465.9230769230769,1413.0,1500
7.960767030715942,357,155,74,0.0038461538461538464,1499.5,1465.9230769230769,1413.0,1500
7.983566045761108,358,155,74,0.0038461538461538464,1499.5,1465.9230769230769,1413.0,1500
8.006402969360352,359,156,74,0.004048582995951417,1499.5999999999999,1469.9716599190283,1413.0,1500
8.029160022735596,360,156,74,0.004048582995951417,1499.5999999999999,1469.9716599190283,1413.0,1500
8.052264928817749,361,156,74,0.004048582995951417,1499.5999999999999,1469.9716599190283,1413.0,1500
8.075329065322876,362,156,74,0.004048582995951417,1499.5999999999999,1469.9716599190283,1413.0,1500
8.098567008972168,363,156,74,0.004048582995951417,1499.5999999999999,1469.9716599190283,1413.0,1500
8.121639966964722,364,155,74,0.004629629629629629,1499.5,1481.5925925925926,1413.0,1500
8.144638061523438,365,155,74,0.004273504273504274,1499.5,1474.4700854700855,1413.0,1500
8.167482137680054,366,155,74,0.004273504273504274,1499.5,1474.4700854700855,1413.0,1500
8.190360069274902,367,155,74,0.004273504273504274,1499.5,1474.4700854700855,1413.0,1500
8.213150024414062,368,156,74,0.004048582995951417,1499.5999999999999,1469.9716599190283,1413.0,1500
8.236102104187012,369,156,74,0.004048582995951417,1499.5999999999999,1469.9716599190283,1413.0,1500
8.258930921554565,370,155,74,0.004629629629629629,1499.5,1481.5925925925926,1413.0,1500
8.281825065612793,371,156,74,0.0043859649122807015,1499.5999999999999,1476.719298245614,1413.0,1500
8.305135011672974,372,155,74,0.004629629629629629,1499.5,1481.5925925925926,1413.0,1500
8.328068017959595,373,156,74,0.0043859649122807015,1499.5999999999999,1476.719298245614,1413.0,1500
8.350916147232056,374,156,74,0.0043859649122807015,1499.5999999999999,1476.719298245614,1413.0,1500
8.374006032943726,375,155,74,0.004629629629629629,1499.5,1481.5925925925926,1413.0,1500
8.396853923797607,376,155,74,0.0043859649122807015,1499.5,1476.719298245614,1413.0,1500
8.41965103149414,377,155,75,0.004048582995951417,1499.5,1469.9716599190283,1412.5,1500
8.442662000656128,378,155,75,0.0043859649122807015,1499.5,1476.719298245614,1412.5,1500
8.465671062469482,379,155,75,0.0043859649122807015,1499.5,1476.719298245614,1412.5,1500
8.488547086715698,380,155,75,0.0043859649122807015,1499.5,1476.719298245614,1412.5,1500
8.511336088180542,381,155,75,0.0043859649122807015,1499.5,1476.719298245614,1412.5,1500
8.534332036972046,382,154,75,0.004629629629629629,1499.4000000000001,1481.5925925925926,1412.5,1500
8.557140111923218,383,154,75,0.004629629629629629,1499.4000000000001,1481.5925925925926,1412.5,1500
8.580145120620728,384,154,75,0.004629629629629629,1499.4000000000001,1481.5925925925926,1412.5,1500
8.603132963180542,385,154,76,0.005050505050505051,1499.4000000000001,1490.0101010101009,1412.0,1500
8.626080989837646,386,154,75,0.004629629629629629,1499.4000000000001,1481.5925925925926,1412.5,1500
8.64889907836914,387,154,76,0.005050505050505051,1499.4000000000001,1490.0101010101009,1412.0,1500
8.671962022781372,388,154,76,0.005050505050505051,1499.4000000000001,1490.0101010101009,1412.0,1500
8.695340156555176,389,154,76,0.005050505050505051,1499.4000000000001,1490.0101010101009,1412.0,1500
8.718322992324829,390,154,76,0.005050505050505051,1499.4000000000001,1490.0101010101009,1412.0,1500
8.741119146347046,391,154,76,0.005050505050505051,1499.4000000000001,1490.0101010101009,1412.0,1500
8.764132976531982,392,154,76,0.005050505050505051,1499.4000000000001,1490.0101010101009,1412.0,1500
8.786939144134521,393,154,76,0.005050505050505051,1499.4000000000001,1490.0101010101009,1412.0,1500
8.809837102890015,394,154,76,0.005050505050505051,1499.4000000000001,1490.0101010101009,1412.0,1500
8.832849979400635,395,154,76,0.005050505050505051,1499.4000000000001,1490.0101010101009,1412.0,1500
8.85590410232544,396,154,76,0.004629629629629629,1499.4000000000001,1481.5925925925926,1412.0,1500
8.878742933273315,397,154,76,0.004629629629629629,1499.4000000000001,1481.5925925925926,1412.0,1500
8.901608943939209,398,154,76,0.004629629629629629,1499.4000000000001,1481.5925925925926,1412.0,1500
8.924638986587524,399,154,76,0.004629629629629629,1499.4000000000001,1481.5925925925926,1412.0,1500
8.947459936141968,400,154,76,0.004629629629629629,1499.4000000000001,1481.5925925925926,1412.0,1500
8.970341920852661,401,154,77,0.005050505050505051,1499.4000000000001,1490.0101010101009,1411.5,1500
8.993191003799438,402,154,76,0.004629629629629629,1499.4000000000001,1481.5925925925926,1412.0,1500
9.016070127487183,403,154,77,0.005050505050505051,1499.4000000000001,1490.0101010101009,1411.5,1500
9.038908004760742,404,155,77,0.005050505050505051,1499.5,1490.0101010101009,1411.5,1500
9.062368154525757,405,155,77,0.005050505050505051,1499.5,1490.0101010101009,1411.5,1500
9.085431098937988,406,155,77,0.005050505050505051,1499.5,1490.0101010101009,1411.5,1500
9.10831904411316,407,155,77,0.005050505050505051,1499.5,1490.0101010101009,1411.5,1500
9.131116151809692,408,155,77,0.005050505050505051,1499.5,1490.0101010101009,1411.5,1500
9.153977155685425,409,155,77,0.005050505050505051,1499.5,1490.0101010101009,1411.5,1500
9.176819086074829,410,156,77,0.0053475935828877,1499.5999999999999,1495.9518716577541,1411.5,1500
9.199625968933105,411,155,77,0.005681818181818182,1499.5,1502.6363636363637,1411.5,1500
9.222651958465576,412,156,77,0.005050505050505051,1499.5999999999999,1490.0101010101009,1411.5,1500
9.24565601348877,413,156,77,0.005050505050505051,1499.5999999999999,1490.0101010101009,1411.5,1500
9.26854395866394,414,156,77,0.005050505050505051,1499.5999999999999,1490.0101010101009,1411.5,1500
9.291423082351685,415,156,77,0.005050505050505051,1499.5999999999999,1490.0101010101009,1411.5,1500
9.314549922943115,416,156,77,0.005050505050505051,1499.5999999999999,1490.0101010101009,1411.5,1500
9.337309122085571,417,156,77,0.005681818181818182,1499.5999999999999,1502.6363636363637,1411.5,1500
9.360252141952515,418,156,77,0.005681818181818182,1499.5999999999999,1502.6363636363637,1411.5,1500
9.383059978485107,419,156,77,0.005681818181818182,1499.5999999999999,1502.6363636363637,1411.5,1500
9.405965089797974,420,156,77,0.006060606060606061,1499.5999999999999,1510.2121212121212,1411.5,1500
9.42878007888794,421,156,77,0.005681818181818182,1499.5999999999999,1502.6363636363637,1411.5,1500
9.451596975326538,422,156,77,0.005681818181818182,1499.5999999999999,1502.6363636363637,1411.5,1500
9.474661111831665,423,156,77,0.005681818181818182,1499.5999999999999,1502.6363636363637,1411.5,1500
9.497524976730347,424,156,77,0.005681818181818182,1499.5999999999999,1502.6363636363637,1411.5,1500
9.52039909362793,425,156,77,0.005681818181818182,1499.5999999999999,1502.6363636363637,1411.5,1500
9.543262004852295,426,156,77,0.006666666666666667,1499.5999999999999,1522.3333333333333,1411.5,1500
9.566173076629639,427,155,77,0.00625,1499.5,1514.0,1411.5,1500
9.588964939117432,428,156,77,0.0058823529411764705,1499.5999999999999,1506.6470588235295,1411.5,1500
9.611755132675171,429,155,77,0.006666666666666667,1499.5,1522.3333333333333,1411.5,1500
9.634954929351807,430,155,78,0.005681818181818182,1499.5,1502.6363636363637,1411.0,1500
9.657756090164185,431,155,78,0.005681818181818182,1499.5,1502.6363636363637,1411.0,1500
9.680622100830078,432,155,78,0.006060606060606061,1499.5,1510.2121212121212,1411.0,1500
9.70340895652771,433,155,78,0.006060606060606061,1499.5,1510.2121212121212,1411.0,1500
9.726305961608887,434,155,78,0.006666666666666667,1499.5,1522.3333333333333,1411.0,1500
9.749104976654053,435,154,78,0.00625,1499.4000000000001,1514.0,1411.0,1500
9.772078037261963,436,154,78,0.00625,1499.4000000000001,1514.0,1411.0,1500
9.794924974441528,437,154,78,0.006666666666666667,1499.4000000000001,1522.3333333333333,1411.0,1500
9.817745923995972,438,154,78,0.00625,1499.4000000000001,1514.0,1411.0,1500
9.84055209159851,439,154,79,0.005681818181818182,1499.4000000000001,1502.6363636363637,1410.5,1500
9.863424062728882,440,154,79,0.006666666666666667,1499.4000000000001,1522.3333333333333,1410.5,1500
9.886337995529175,441,153,79,0.006493506493506494,1499.3,1518.8701298701299,1410.5,1500
9.909207105636597,442,154,79,0.006666666666666667,1499.4000000000001,1522.3333333333333,1410.5,1500
9.932305097579956,443,153,79,0.00625,1499.3,1514.0,1410.5,1500
9.955337047576904,444,153,79,0.00625,1499.3,1514.0,1410.5,1500
9.978191137313843,445,153,79,0.00625,1499.3,1514.0,1410.5,1500
10.001009941101074,446,153,79,0.00625,1499.3,1514.0,1410.5,1500
10.023761987686157,447,153,79,0.00625,1499.3,1514.0,1410.5,1500
10.04668402671814,448,153,79,0.006666666666666667,1499.3,1522.3333333333333,1410.5,1500
10.06950306892395,449,153,79,0.006666666666666667,1499.3,1522.3333333333333,1410.5,1500
10.09286093711853,450,153,79,0.006666666666666667,1499.3,1522.3333333333333,1410.5,1500
10.115862131118774,451,153,79,0.007142857142857143,1499.3,1530,1410.5,1500
10.138605117797852,452,154,79,0.006666666666666667,1499.4000000000001,1522.3333333333333,1410.5,1500
10.161386013031006,453,154,79,0.006666666666666667,1499.4000000000001,1522.3333333333333,1410.5,1500
10.184507131576538,454,154,79,0.006666666666666667,1499.4000000000001,1522.3333333333333,1410.5,1500
10.207313060760498,455,154,80,0.007407407407407408,1499.4000000000001,1530,1410.0,1500
10.23016095161438,456,154,79,0.006666666666666667,1499.4000000000001,1522.3333333333333,1410.5,1500
10.252998113632202,457,154,79,0.006666666666666667,1499.4000000000001,1522.3333333333333,1410.5,1500
10.275870084762573,458,154,79,0.006666666666666667,1499.4000000000001,1522.3333333333333,1410.5,1500
10.298807144165039,459,154,80,0.00625,1499.4000000000001,1514.0,1410.0,1500
10.321593999862671,460,154,80,0.006493506493506494,1499.4000000000001,1518.8701298701299,1410.0,1500
10.344681024551392,461,155,80,0.006666666666666667,1499.5,1522.3333333333333,1410.0,1500
10.367601156234741,462,155,80,0.006666666666666667,1499.5,1522.3333333333333,1410.0,1500
10.390522003173828,463,155,80,0.00625,1499.5,1514.0,1410.0,1500
10.4132559299469,464,155,80,0.006666666666666667,1499.5,1522.3333333333333,1410.0,1500
10.4362051486969,465,155,80,0.006666666666666667,1499.5,1522.3333333333333,1410.0,1500
10.459012985229492,466,156,80,0.006666666666666667,1499.5999999999999,1522.3333333333333,1410.0,1500
10.48188304901123,467,156,80,0.006666666666666667,1499.5999999999999,1522.3333333333333,1410.0,1500
10.505094051361084,468,156,80,0.006666666666666667,1499.5999999999999,1522.3333333333333,1410.0,1500
10.527959108352661,469,156,80,0.006666666666666667,1499.5999999999999,1522.3333333333333,1410.0,1500
10.550786018371582,470,156,80,0.006666666666666667,1499.5999999999999,1522.3333333333333,1410.0,1500
10.573657989501953,471,156,80,0.006666666666666667,1499.5999999999999,1522.3333333333333,1410.0,1500
10.596549987792969,472,156,80,0.006666666666666667,1499.5999999999999,1522.3333333333333,1410.0,1500
10.619395971298218,473,156,80,0.00625,1499.5999999999999,1514.0,1410.0,1500
10.642467975616455,474,156,80,0.00625,1499.5999999999999,1514.0,1410.0,1500
10.665502071380615,475,156,80,0.006666666666666667,1499.5999999999999,1522.3333333333333,1410.0,1500
10.688454151153564,476,156,81,0.007407407407407408,1499.5999999999999,1530,1409.5,1500
10.711400032043457,477,156,80,0.006666666666666667,1499.5999999999999,1522.3333333333333,1410.0,1500
10.734530925750732,478,156,80,0.00625,1499.5999999999999,1514.0,1410.0,1500
10.757379055023193,479,156,81,0.00625,1499.5999999999999,1514.0,1409.5,1500
10.780287027359009,480,156,81,0.007407407407407408,1499.5999999999999,1530,1409.5,1500
10.803116083145142,481,156,81,0.006666666666666667,1499.5999999999999,1522.3333333333333,1409.5,1500
10.82596206665039,482,156,81,0.006666666666666667,1499.5999999999999,1522.3333333333333,1409.5,1500
10.848850965499878,483,156,81,0.006666666666666667,1499.5999999999999,1522.3333333333333,1409.5,1500
10.87161898612976,484,156,81,0.006666666666666667,1499.5999999999999,1522.3333333333333,1409.5,1500
10.894976139068604,485,156,81,0.006666666666666667,1499.5999999999999,1522.3333333333333,1409.5,1500
10.917802095413208,486,156,81,0.006666666666666667,1499.5999999999999,1522.3333333333333,1409.5,1500
10.940670013427734,487,156,82,0.007407407407407408,1499.5999999999999,1530,1409.0,1500
10.963335037231445,488,156,82,0.007407407407407408,1499.5999999999999,1530,1409.0,1500
10.986179113388062,489,156,81,0.006666666666666667,1499.5999999999999,1522.3333333333333,1409.5,1500
11.008983135223389,490,155,82,0.007936507936507936,1499.5,1530,1409.0,1500
11.031646966934204,491,155,82,0.007936507936507936,1499.5,1530,1409.0,1500
11.054732084274292,492,155,82,0.007407407407407408,1499.5,1530,1409.0,1500
11.077415943145752,493,155,82,0.007407407407407408,1499.5,1530,1409.0,1500
11.100237131118774,494,155,82,0.007407407407407408,1499.5,1530,1409.0,1500
11.123271942138672,495,155,82,0.007407407407407408,1499.5,1530,1409.0,1500
11.14609694480896,496,155,82,0.006666666666666667,1499.5,1522.3333333333333,1409.0,1500
11.16912293434143,497,154,82,0.007936507936507936,1499.4000000000001,1530,1409.0,1500
11.191830158233643,498,155,82,0.007407407407407408,1499.5,1530,1409.0,1500
11.214859962463379,499,154,82,0.007142857142857143,1499.4000000000001,1530,1409.0,1500
11.237543106079102,500,155,82,0.006666666666666667,1499.5,1522.3333333333333,1409.0,1500
11.260525941848755,501,154,82,0.007142857142857143,1499.4000000000001,1530,1409.0,1500
11.283231019973755,502,154,82,0.007142857142857143,1499.4000000000001,1530,1409.0,1500
11.306133031845093,503,154,82,0.007142857142857143,1499.4000000000001,1530,1409.0,1500
11.328855991363525,504,154,82,0.007936507936507936,1499.4000000000001,1530,1409.0,1500
11.351617097854614,505,155,82,0.007407407407407408,1499.5,1530,1409.0,1500
11.374515056610107,506,154,82,0.007142857142857143,1499.4000000000001,1530,1409.0,1500
11.397264003753662,507,155,82,0.006666666666666667,1499.5,1522.3333333333333,1409.0,1500
11.420040130615234,508,155,83,0.007407407407407408,1499.5,1530,1408.5,1500
11.442788124084473,509,155,83,0.007407407407407408,1499.5,1530,1408.5,1500
11.465649127960205,510,155,83,0.007407407407407408,1499.5,1530,1408.5,1500
11.488409996032715,511,155,83,0.007407407407407408,1499.5,1530,1408.5,1500
11.511250019073486,512,155,83,0.007407407407407408,1499.5,1530,1408.5,1500
11.533905029296875,513,155,83,0.007407407407407408,1499.5,1530,1408.5,1500
11.556709051132202,514,155,83,0.007407407407407408,1499.5,1530,1408.5,1500
11.579371929168701,515,155,83,0.007407407407407408,1499.5,1530,1408.5,1500
11.602226972579956,516,155,83,0.007407407407407408,1499.5,1530,1408.5,1500
11.625016927719116,517,155,83,0.007936507936507936,1499.5,1530,1408.5,1500
11.647697925567627,518,155,83,0.007936507936507936,1499.5,1530,1408.5,1500
11.67051100730896,519,156,83,0.007407407407407408,1499.5999999999999,1530,1408.5,1500
11.693295955657959,520,155,83,0.007936507936507936,1499.5,1530,1408.5,1500
11.715966939926147,521,156,83,0.007407407407407408,1499.5999999999999,1530,1408.5,1500
11.738753080368042,522,156,84,0.007407407407407408,1499.5999999999999,1530,1408.0,1500
11.761436939239502,523,156,83,0.007407407407407408,1499.5999999999999,1530,1408.5,1500
11.784390926361084,524,156,83,0.008333333333333333,1499.5999999999999,1530,1408.5,1500
11.807110071182251,525,156,83,0.006666666666666667,1499.5999999999999,1522.3333333333333,1408.5,1500
11.829927921295166,526,156,83,0.007142857142857143,1499.5999999999999,1530,1408.5,1500
11.852779150009155,527,156,84,0.007936507936507936,1499.5999999999999,1530,1408.0,1500
11.875607967376709,528,156,84,0.007936507936507936,1499.5999999999999,1530,1408.0,1500
11.898406028747559,529,156,84,0.007936507936507936,1499.5999999999999,1530,1408.0,1500
11.921162128448486,530,156,84,0.007936507936507936,1499.5999999999999,1530,1408.0,1500
11.943885087966919,531,156,84,0.007936507936507936,1499.5999999999999,1530,1408.0,1500
11.966691970825195,532,156,84,0.007936507936507936,1499.5999999999999,1530,1408.0,1500
11.989383935928345,533,156,84,0.007936507936507936,1499.5999999999999,1530,1408.0,1500
12.0123291015625,534,156,84,0.007936507936507936,1499.5999999999999,1530,1408.0,1500
12.03521203994751,535,156,84,0.007936507936507936,1499.5999999999999,1530,1408.0,1500
12.057965993881226,536,156,84,0.007936507936507936,1499.5999999999999,1530,1408.0,1500
12.080727100372314,537,156,84,0.007936507936507936,1499.5999999999999,1530,1408.0,1500
12.10347294807434,538,156,84,0.007936507936507936,1499.5999999999999,1530,1408.0,1500
12.126259088516235,539,156,84,0.007936507936507936,1499.5999999999999,1530,1408.0,1500
12.14906096458435,540,157,84,0.007407407407407408,1499.7,1530,1408.0,1500
12.17171597480774,541,156,84,0.008928571428571428,1499.5999999999999,1530,1408.0,1500
12.194770097732544,542,157,85,0.007407407407407408,1499.7,1530,1407.5,1500
12.217448949813843,543,157,84,0.008333333333333333,1499.7,1530,1408.0,1500
12.244298934936523,544,156,84,0.008928571428571428,1499.5999999999999,1530,1408.0,1500
12.267168998718262,545,156,84,0.008928571428571428,1499.5999999999999,1530,1408.0,1500
12.289895057678223,546,156,84,0.008928571428571428,1499.5999999999999,1530,1408.0,1500
12.312839984893799,547,156,84,0.008928571428571428,1499.5999999999999,1530,1408.0,1500
12.33580207824707,548,156,84,0.008928571428571428,1499.5999999999999,1530,1408.0,1500
12.358662128448486,549,156,84,0.008928571428571428,1499.5999999999999,1530,1408.0,1500
12.381384134292603,550,156,84,0.008928571428571428,1499.5999999999999,1530,1408.0,1500
12.404330015182495,551,156,84,0.008928571428571428,1499.5999999999999,1530,1408.0,1500
12.427041053771973,552,156,84,0.008928571428571428,1499.5999999999999,1530,1408.0,1500
12.449743032455444,553,156,84,0.008928571428571428,1499.5999999999999,1530,1408.0,1500
12.472634077072144,554,156,84,0.008928571428571428,1499.5999999999999,1530,1408.0,1500
12.495455980300903,555,156,84,0.007936507936507936,1499.5999999999999,1530,1408.0,1500
12.51821494102478,556,156,84,0.007936507936507936,1499.5999999999999,1530,1408.0,1500
12.541003942489624,557,156,84,0.007936507936507936,1499.5999999999999,1530,1408.0,1500
12.563689947128296,558,156,84,0.007936507936507936,1499.5999999999999,1530,1408.0,1500
12.586498022079468,559,156,84,0.007936507936507936,1499.5999999999999,1530,1408.0,1500
12.60924506187439,560,156,84,0.007936507936507936,1499.5999999999999,1530,1408.0,1500
12.631967067718506,561,155,84,0.010101010101010102,1499.5,1530,1408.0,1500
12.654986143112183,562,156,84,0.008928571428571428,1499.5999999999999,1530,1408.0,1500
12.677711963653564,563,156,84,0.007407407407407408,1499.5999999999999,1530,1408.0,1500
12.700591087341309,564,156,84,0.007407407407407408,1499.5999999999999,1530,1408.0,1500
12.723546028137207,565,155,84,0.007936507936507936,1499.5,1530,1408.0,1500
12.746318101882935,566,155,84,0.007936507936507936,1499.5,1530,1408.0,1500
12.769063949584961,567,155,84,0.007936507936507936,1499.5,1530,1408.0,1500
12.791710138320923,568,155,84,0.007936507936507936,1499.5,1530,1408.0,1500
12.814723014831543,569,155,84,0.007936507936507936,1499.5,1530,1408.0,1500
12.837422132492065,570,155,84,0.007936507936507936,1499.5,1530,1408.0,1500
12.860135078430176,571,155,84,0.007936507936507936,1499.5,1530,1408.0,1500
12.882914066314697,572,155,84,0.007936507936507936,1499.5,1530,1408.0,1500
12.905622005462646,573,155,84,0.007936507936507936,1499.5,1530,1408.0,1500
12.92840313911438,574,155,84,0.007936507936507936,1499.5,1530,1408.0,1500
12.95117998123169,575,155,84,0.007936507936507936,1499.5,1530,1408.0,1500
12.9738290309906,576,155,84,0.007936507936507936,1499.5,1530,1408.0,1500
12.996638059616089,577,155,84,0.007936507936507936,1499.5,1530,1408.0,1500
13.019320011138916,578,155,84,0.007936507936507936,1499.5,1530,1408.0,1500
13.042192935943604,579,155,84,0.007936507936507936,1499.5,1530,1408.0,1500
13.065091133117676,580,155,84,0.007936507936507936,1499.5,1530,1408.0,1500
13.087793111801147,581,155,84,0.007936507936507936,1499.5,1530,1408.0,1500
13.11056113243103,582,155,84,0.007936507936507936,1499.5,1530,1408.0,1500
13.133361101150513,583,155,84,0.007936507936507936,1499.5,1530,1408.0,1500
13.156090021133423,584,156,84,0.007407407407407408,1499.5999999999999,1530,1408.0,1500
13.178879976272583,585,156,84,0.007407407407407408,1499.5999999999999,1530,1408.0,1500
13.201590061187744,586,156,84,0.007407407407407408,1499.5999999999999,1530,1408.0,1500
13.224578142166138,587,156,83,0.006666666666666667,1499.5999999999999,1522.3333333333333,1408.5,1500
13.247400045394897,588,156,84,0.007407407407407408,1499.5999999999999,1530,1408.0,1500
13.270144939422607,589,156,83,0.007407407407407408,1499.5999999999999,1530,1408.5,1500
13.292914152145386,590,156,83,0.007407407407407408,1499.5999999999999,1530,1408.5,1500
13.315722942352295,591,156,83,0.007407407407407408,1499.5999999999999,1530,1408.5,1500
13.3387291431427,592,156,83,0.007407407407407408,1499.5999999999999,1530,1408.5,1500
13.36189603805542,593,156,83,0.007936507936507936,1499.5999999999999,1530,1408.5,1500
13.385020971298218,594,156,83,0.007936507936507936,1499.5999999999999,1530,1408.5,1500
13.407742977142334,595,156,82,0.007142857142857143,1499.5999999999999,1530,1409.0,1500
13.430545091629028,596,156,82,0.007142857142857143,1499.5999999999999,1530,1409.0,1500
13.453315019607544,597,156,83,0.007936507936507936,1499.5999999999999,1530,1408.5,1500
13.475980997085571,598,156,82,0.007142857142857143,1499.5999999999999,1530,1409.0,1500
13.498836994171143,599,157,82,0.006666666666666667,1499.7,1522.3333333333333,1409.0,1500
13.521626949310303,600,157,82,0.007407407407407408,1499.7,1530,1409.0,1500
13.544713020324707,601,156,82,0.007142857142857143,1499.5999999999999,1530,1409.0,1500
13.567703008651733,602,156,82,0.007936507936507936,1499.5999999999999,1530,1409.0,1500
13.590584993362427,603,156,82,0.007936507936507936,1499.5999999999999,1530,1409.0,1500
13.61332392692566,604,156,82,0.007936507936507936,1499.5999999999999,1530,1409.0,1500
13.63602614402771,605,157,82,0.007407407407407408,1499.7,1530,1409.0,1500
13.658793926239014,606,157,82,0.007407407407407408,1499.7,1530,1409.0,1500
13.681548118591309,607,157,82,0.007407407407407408,1499.7,1530,1409.0,1500
13.70442509651184,608,156,82,0.007936507936507936,1499.5999999999999,1530,1409.0,1500
13.727200031280518,609,157,82,0.007407407407407408,1499.7,1530,1409.0,1500
13.749846935272217,610,157,82,0.007407407407407408,1499.7,1530,1409.0,1500
13.772793054580688,611,156,82,0.007936507936507936,1499.5999999999999,1530,1409.0,1500
13.79550313949585,612,157,82,0.007407407407407408,1499.7,1530,1409.0,1500
13.81821608543396,613,156,82,0.007936507936507936,1499.5999999999999,1530,1409.0,1500
13.840968132019043,614,157,82,0.007407407407407408,1499.7,1530,1409.0,1500
13.863739967346191,615,157,81,0.006666666666666667,1499.7,1522.3333333333333,1409.5,1500
13.88670015335083,616,157,81,0.006666666666666667,1499.7,1522.3333333333333,1409.5,1500
13.909549951553345,617,157,81,0.006666666666666667,1499.7,1522.3333333333333,1409.5,1500
13.932553052902222,618,156,81,0.007936507936507936,1499.5999999999999,1530,1409.5,1500
13.955595016479492,619,157,81,0.006666666666666667,1499.7,1522.3333333333333,1409.5,1500
13.978524923324585,620,157,81,0.006944444444444444,1499.7,1527.8888888888889,1409.5,1500
14.001366138458252,621,157,81,0.007407407407407408,1499.7,1530,1409.5,1500
14.024039030075073,622,157,80,0.006666666666666667,1499.7,1522.3333333333333,1410.0,1500
14.046990156173706,623,157,80,0.006666666666666667,1499.7,1522.3333333333333,1410.0,1500
14.069854021072388,624,157,80,0.006666666666666667,1499.7,1522.3333333333333,1410.0,1500
14.092834949493408,625,157,80,0.006666666666666667,1499.7,1522.3333333333333,1410.0,1500
14.115646123886108,626,157,80,0.006666666666666667,1499.7,1522.3333333333333,1410.0,1500
14.138564109802246,627,157,80,0.006666666666666667,1499.7,1522.3333333333333,1410.0,1500
14.161427974700928,628,157,80,0.00625,1499.7,1514.0,1410.0,1500
14.184437036514282,629,157,79,0.006666666666666667,1499.7,1522.3333333333333,1410.5,1500
14.20731806755066,630,157,79,0.006666666666666667,1499.7,1522.3333333333333,1410.5,1500
14.230133056640625,631,157,79,0.006666666666666667,1499.7,1522.3333333333333,1410.5,1500
14.253026008605957,632,157,79,0.006666666666666667,1499.7,1522.3333333333333,1410.5,1500
14.275917053222656,633,157,79,0.006666666666666667,1499.7,1522.3333333333333,1410.5,1500
14.298948049545288,634,156,79,0.007142857142857143,1499.5999999999999,1530,1410.5,1500
14.321757078170776,635,156,79,0.00625,1499.5999999999999,1514.0,1410.5,1500
14.344784021377563,636,156,79,0.006666666666666667,1499.5999999999999,1522.3333333333333,1410.5,1500
14.367679119110107,637,156,79,0.006666666666666667,1499.5999999999999,1522.3333333333333,1410.5,1500
14.390571117401123,638,156,79,0.006666666666666667,1499.5999999999999,1522.3333333333333,1410.5,1500
14.413470029830933,639,156,79,0.006666666666666667,1499.5999999999999,1522.3333333333333,1410.5,1500
14.436573028564453,640,156,79,0.00625,1499.5999999999999,1514.0,1410.5,1500
14.459444046020508,641,156,79,0.005681818181818182,1499.5999999999999,1502.6363636363637,1410.5,1500
14.482453107833862,642,156,79,0.005681818181818182,1499.5999999999999,1502.6363636363637,1410.5,1500
14.505521059036255,643,156,79,0.00625,1499.5999999999999,1514.0,1410.5,1500
14.528305053710938,644,156,79,0.005681818181818182,1499.5999999999999,1502.6363636363637,1410.5,1500
14.551237106323242,645,156,79,0.005681818181818182,1499.5999999999999,1502.6363636363637,1410.5,1500
14.574151039123535,646,156,79,0.005681818181818182,1499.5999999999999,1502.6363636363637,1410.5,1500
14.597084045410156,647,156,78,0.00625,1499.5999999999999,1514.0,1411.0,1500
14.619858980178833,648,156,78,0.006666666666666667,1499.5999999999999,1522.3333333333333,1411.0,1500
14.642836093902588,649,156,78,0.005681818181818182,1499.5999999999999,1502.6363636363637,1411.0,1500
14.665655136108398,650,156,78,0.005681818181818182,1499.5999999999999,1502.6363636363637,1411.0,1500
14.688647031784058,651,156,78,0.005681818181818182,1499.5999999999999,1502.6363636363637,1411.0,1500
14.711764097213745,652,156,78,0.006060606060606061,1499.5999999999999,1510.2121212121212,1411.0,1500
14.734862089157104,653,156,78,0.005681818181818182,1499.5999999999999,1502.6363636363637,1411.0,1500
14.75775694847107,654,156,77,0.006060606060606061,1499.5999999999999,1510.2121212121212,1411.5,1500
14.78075098991394,655,157,77,0.005050505050505051,1499.7,1490.0101010101009,1411.5,1500
14.803554058074951,656,157,77,0.005050505050505051,1499.7,1490.0101010101009,1411.5,1500
14.826401948928833,657,157,77,0.005050505050505051,1499.7,1490.0101010101009,1411.5,1500
14.849211931228638,658,157,77,0.005050505050505051,1499.7,1490.0101010101009,1411.5,1500
14.872197151184082,659,157,77,0.005050505050505051,1499.7,1490.0101010101009,1411.5,1500
14.895228147506714,660,157,76,0.005555555555555556,1499.7,1500.1111111111111,1412.0,1500
14.918060064315796,661,157,76,0.005050505050505051,1499.7,1490.0101010101009,1412.0,1500
14.940999984741211,662,157,76,0.005050505050505051,1499.7,1490.0101010101009,1412.0,1500
14.963876008987427,663,157,76,0.005050505050505051,1499.7,1490.0101010101009,1412.0,1500
14.986757040023804,664,157,76,0.005050505050505051,1499.7,1490.0101010101009,1412.0,1500
15.009588956832886,665,157,76,0.005050505050505051,1499.7,1490.0101010101009,1412.0,1500
15.032560110092163,666,157,76,0.005050505050505051,1499.7,1490.0101010101009,1412.0,1500
15.055617094039917,667,157,76,0.005050505050505051,1499.7,1490.0101010101009,1412.0,1500
15.078416109085083,668,157,76,0.005050505050505051,1499.7,1490.0101010101009,1412.0,1500
15.101310968399048,669,157,76,0.005050505050505051,1499.7,1490.0101010101009,1412.0,1500
15.12407112121582,670,157,76,0.005050505050505051,1499.7,1490.0101010101009,1412.0,1500
15.147016048431396,671,157,76,0.005050505050505051,1499.7,1490.0101010101009,1412.0,1500
15.169860124588013,672,157,76,0.005050505050505051,1499.7,1490.0101010101009,1412.0,1500
15.192883014678955,673,156,76,0.005050505050505051,1499.5999999999999,1490.0101010101009,1412.0,1500
15.21599292755127,674,156,76,0.005050505050505051,1499.5999999999999,1490.0101010101009,1412.0,1500
15.238959074020386,675,157,76,0.004784688995215311,1499.7,1484.6937799043062,1412.0,1500
15.261795997619629,676,156,75,0.005050505050505051,1499.5999999999999,1490.0101010101009,1412.5,1500
15.284943103790283,677,156,75,0.005050505050505051,1499.5999999999999,1490.0101010101009,1412.5,1500
15.30781102180481,678,156,75,0.005050505050505051,1499.5999999999999,1490.0101010101009,1412.5,1500
15.330727100372314,679,156,75,0.005050505050505051,1499.5999999999999,1490.0101010101009,1412.5,1500
15.353584051132202,680,156,75,0.005050505050505051,1499.5999999999999,1490.0101010101009,1412.5,1500
15.376491069793701,681,156,74,0.005050505050505051,1499.5999999999999,1490.0101010101009,1413.0,1500
15.399304151535034,682,156,74,0.005050505050505051,1499.5999999999999,1490.0101010101009,1413.0,1500
15.422632932662964,683,156,74,0.005050505050505051,1499.5999999999999,1490.0101010101009,1413.0,1500
15.445722103118896,684,156,74,0.004784688995215311,1499.5999999999999,1484.6937799043062,1413.0,1500
15.468594074249268,685,156,73,0.0043859649122807015,1499.5999999999999,1476.719298245614,1413.5,1500
15.491657972335815,686,156,73,0.005050505050505051,1499.5999999999999,1490.0101010101009,1413.5,1500
15.515048027038574,687,156,73,0.004784688995215311,1499.5999999999999,1484.6937799043062,1413.5,1500
15.538110971450806,688,156,73,0.005050505050505051,1499.5999999999999,1490.0101010101009,1413.5,1500
15.561315059661865,689,156,73,0.004784688995215311,1499.5999999999999,1484.6937799043062,1413.5,1500
15.584437131881714,690,156,73,0.004784688995215311,1499.5999999999999,1484.6937799043062,1413.5,1500
15.607514142990112,691,156,73,0.004784688995215311,1499.5999999999999,1484.6937799043062,1413.5,1500
15.63054895401001,692,156,72,0.004629629629629629,1499.5999999999999,1481.5925925925926,1414.0,1500
15.653736114501953,693,156,72,0.0043859649122807015,1499.5999999999999,1476.719298245614,1414.0,1500
15.676830053329468,694,156,72,0.004629629629629629,1499.5999999999999,1481.5925925925926,1414.0,1500
15.69991397857666,695,157,72,0.0043859649122807015,1499.7,1476.719298245614,1414.0,1500
15.723037958145142,696,156,72,0.004629629629629629,1499.5999999999999,1481.5925925925926,1414.0,1500
15.746190071105957,697,157,72,0.0043859649122807015,1499.7,1476.719298245614,1414.0,1500
15.769268989562988,698,157,72,0.0043859649122807015,1499.7,1476.719298245614,1414.0,1500
15.79247498512268,699,157,72,0.0043859649122807015,1499.7,1476.719298245614,1414.0,1500
15.815680027008057,700,157,72,0.0043859649122807015,1499.7,1476.719298245614,1414.0,1500
15.83875298500061,701,157,72,0.004048582995951417,1499.7,1469.9716599190283,1414.0,1500
15.86177110671997,702,157,71,0.0043859649122807015,1499.7,1476.719298245614,1414.5,1500
15.885262966156006,703,157,71,0.0043859649122807015,1499.7,1476.719298245614,1414.5,1500
15.908316135406494,704,157,71,0.0043859649122807015,1499.7,1476.719298245614,1414.5,1500
15.931565999984741,705,157,71,0.004166666666666667,1499.7,1472.3333333333333,1414.5,1500
15.95476508140564,706,157,71,0.0043859649122807015,1499.7,1476.719298245614,1414.5,1500
15.977846145629883,707,157,71,0.004166666666666667,1499.7,1472.3333333333333,1414.5,1500
16.00095796585083,708,157,71,0.004166666666666667,1499.7,1472.3333333333333,1414.5,1500
16.02414608001709,709,157,71,0.0043859649122807015,1499.7,1476.719298245614,1414.5,1500
