time,frame,x,y,size_inv,roll,pitch,thrust,yaw
0,1,158,99,0.00026497085320614734,1499.8,1480,1421.0,1500
0.05,2,158,99,0.00026860059092130003,1499.8,1480,1421.0,1500
0.1,3,157,98,0.00026497085320614734,1499.7,1480,1422.0,1500
0.15000000000000002,4,157,96,0.00026860059092130003,1499.7,1480,1424.0,1500
0.2,5,156,95,0.00026497085320614734,1499.6,1480,1425.0,1500
0.25,6,157,93,0.0002469135802469136,1499.7,1480,1427.0,1500
0.3,7,157,92,0.00024366471734892786,1499.7,1480,1428.0,1500
0.35,8,157,91,0.00024826216484607745,1499.7,1480,1429.0,1500
0.39999999999999997,9,157,91,0.00024826216484607745,1499.7,1480,1429.0,1500
0.44999999999999996,10,157,91,0.00025157232704402514,1499.7,1480,1429.0,1500
0.49999999999999994,11,157,91,0.0002564102564102564,1499.7,1480,1429.0,1500
0.5499999999999999,12,157,92,0.00024826216484607745,1499.7,1480,1428.0,1500
0.6,13,158,94,0.00024826216484607745,1499.8,1480,1426.0,1500
0.65,14,159,96,0.0002405002405002405,1499.9,1480,1424.0,1500
0.7000000000000001,15,160,102,0.0002450379808870375,1500.0,1480,1418.0,1500
0.7500000000000001,16,161,105,0.0002405002405002405,1500.1,1480,1415.0,1500
0.8000000000000002,17,161,110,0.0002450379808870375,1500.1,1480,1410.0,1500
0.8500000000000002,18,161,112,0.00024975024975024975,1500.1,1480,1408.0,1500
0.9000000000000002,19,160,115,0.00025464731347084286,1500.0,1480,1405.0,1500
0.9500000000000003,20,160,115,0.00024342745861733204,1500.0,1480,1405.0,1500
1.0000000000000002,21,159,114,0.0002314814814814815,1499.9,1480,1406.0,1500
1.0500000000000003,22,160,113,0.0002244668911335578,1500.0,1480,1407.0,1500
1.1000000000000003,23,159,110,0.00021258503401360543,1499.9,1480,1410.0,1500
1.1500000000000004,24,159,106,0.0001893939393939394,1499.9,1480,1414.0,1500
1.2000000000000004,25,159,103,0.00017921146953405018,1499.9,1480,1417.0,1500
1.2500000000000004,26,160,100,0.00017067759003242875,1500.0,1480,1420.0,1500
1.3000000000000005,27,160,98,0.00016366612111292964,1500.0,1480,1422.0,1500
1.3500000000000005,28,161,95,0.00015386982612709647,1500.1,1480,1425.0,1500
1.4000000000000006,29,160,94,0.00014940983116689077,1500.0,1480,1426.0,1500
1.4500000000000006,30,159,93,0.00015160703456640388,1499.9,1480,1427.0,1500
1.5000000000000007,31,159,95,0.0001478852410529429,1499.9,1480,1425.0,1500
1.5500000000000007,32,160,96,0.00015006002400960383,1500.0,1480,1424.0,1500
1.6000000000000008,33,161,98,0.00015386982612709647,1500.1,1480,1422.0,1500
1.6500000000000008,34,164,100,0.00015620118712902218,1500.4,1480,1420.0,1500
1.7000000000000008,35,165,101,0.00015620118712902218,1500.5,1480,1419.0,1500
1.7500000000000009,36,167,103,0.00015860428231562253,1500.7,1480,1417.0,1500
1.800000000000001,37,167,105,0.00015860428231562253,1500.7,1480,1415.0,1500
1.850000000000001,38,167,106,0.00015620118712902218,1500.7,1480,1414.0,1500
1.900000000000001,39,167,107,0.00015620118712902218,1500.7,1480,1413.0,1500
1.950000000000001,40,166,109,0.00016194331983805668,1500.6,1480,1411.0,1500
2.000000000000001,41,166,110,0.00016194331983805668,1500.6,1480,1410.0,1500
2.0500000000000007,42,165,110,0.00016366612111292964,1500.5,1480,1410.0,1500
2.1000000000000005,43,164,109,0.00016118633139909736,1500.4,1480,1411.0,1500
2.1500000000000004,44,164,107,0.00016291951775822744,1500.4,1480,1413.0,1500
2.2,45,164,102,0.00016801075268817206,1500.4,1480,1418.0,1500
2.25,46,163,99,0.00016983695652173913,1500.3,1480,1421.0,1500
2.3,47,163,96,0.0001725327812284334,1500.3,1480,1424.0,1500
2.3499999999999996,48,163,95,0.00017442874585731728,1500.3,1480,1425.0,1500
2.3999999999999995,49,163,93,0.00017921146953405018,1500.3,1480,1427.0,1500
2.4499999999999993,50,163,94,0.00017921146953405018,1500.3,1480,1426.0,1500
2.499999999999999,51,165,95,0.0001812250815512867,1500.5,1480,1425.0,1500
2.549999999999999,52,166,96,0.0001772421127259837,1500.6,1480,1424.0,1500
2.5999999999999988,53,166,98,0.00017834849295523454,1500.6,1480,1422.0,1500
2.6499999999999986,54,167,97,0.0001772421127259837,1500.7,1480,1423.0,1500
2.6999999999999984,55,167,97,0.00017921146953405018,1500.7,1480,1423.0,1500
2.7499999999999982,56,167,97,0.0001812250815512867,1500.7,1480,1423.0,1500
2.799999999999998,57,168,97,0.00017921146953405018,1500.8,1480,1423.0,1500
2.849999999999998,58,168,97,0.0001841959845275373,1500.8,1480,1423.0,1500
2.8999999999999977,59,168,96,0.00018328445747800586,1500.8,1480,1424.0,1500
2.9499999999999975,60,169,96,0.0001812250815512867,1500.9,1480,1424.0,1500
2.9999999999999973,61,169,96,0.00017921146953405018,1500.9,1480,1424.0,1500
3.049999999999997,62,169,96,0.0001812250815512867,1500.9,1480,1424.0,1500
3.099999999999997,63,169,97,0.0001841959845275373,1500.9,1480,1423.0,1500
3.149999999999997,64,168,97,0.00018628912071535022,1500.8,1480,1423.0,1500
3.1999999999999966,65,168,97,0.0001841959845275373,1500.8,1480,1423.0,1500
3.2499999999999964,66,168,96,0.00018628912071535022,1500.8,1480,1424.0,1500
3.2999999999999963,67,167,95,0.0001893939393939394,1500.7,1480,1425.0,1500
3.349999999999996,68,168,95,0.00018628912071535022,1500.8,1480,1425.0,1500
3.399999999999996,69,168,95,0.00018328445747800586,1500.8,1480,1425.0,1500
3.4499999999999957,70,167,95,0.00018628912071535022,1500.7,1480,1425.0,1500
3.4999999999999956,71,167,96,0.0001884303749764462,1500.7,1480,1424.0,1500
3.5499999999999954,72,166,95,0.00019157088122605365,1500.6,1480,1425.0,1500
3.599999999999995,73,166,96,0.0001884303749764462,1500.6,1480,1424.0,1500
3.649999999999995,74,164,95,0.00018328445747800586,1500.4,1480,1425.0,1500
3.699999999999995,75,164,95,0.00018628912071535022,1500.4,1480,1425.0,1500
3.7499999999999947,76,165,95,0.0001853911753800519,1500.5,1480,1425.0,1500
3.7999999999999945,77,165,96,0.0001853911753800519,1500.5,1480,1424.0,1500
3.8499999999999943,78,165,100,0.00018328445747800586,1500.5,1480,1420.0,1500
3.899999999999994,79,166,104,0.0001812250815512867,1500.6,1480,1416.0,1500
3.949999999999994,80,166,112,0.00017834849295523454,1500.6,1480,1408.0,1500
3.999999999999994,81,167,118,0.0001812250815512867,1500.7,1480,1402.0,1500
4.049999999999994,82,166,123,0.00018628912071535022,1500.6,1480,1397.0,1500
4.099999999999993,83,166,128,0.0001926040061633282,1500.6,1480,1392.0,1500
4.149999999999993,84,166,128,0.00019817677368212446,1500.6,1480,1392.0,1500
4.199999999999993,85,166,126,0.00020764119601328904,1500.6,1480,1394.0,1500
4.249999999999993,86,166,114,0.00031426775612822125,1500.6,1480,1406.0,1500
4.299999999999993,87,167,119,0.00019817677368212446,1500.7,1480,1401.0,1500
4.3499999999999925,88,167,115,0.0001948178453146308,1500.7,1480,1405.0,1500
4.399999999999992,89,167,109,0.00019157088122605365,1500.7,1480,1411.0,1500
4.449999999999992,90,166,106,0.00019708316909735908,1500.6,1480,1414.0,1500
4.499999999999992,91,166,102,0.0001937984496124031,1500.6,1480,1418.0,1500
4.549999999999992,92,166,101,0.00019708316909735908,1500.6,1480,1419.0,1500
4.599999999999992,93,166,102,0.00018628912071535022,1500.6,1480,1418.0,1500
4.6499999999999915,94,165,103,0.00018328445747800586,1500.5,1480,1417.0,1500
4.699999999999991,95,164,105,0.00018328445747800586,1500.4,1480,1415.0,1500
4.749999999999991,96,164,106,0.0001884303749764462,1500.4,1480,1414.0,1500
4.799999999999991,97,163,105,0.00019157088122605365,1500.3,1480,1415.0,1500
4.849999999999991,98,163,104,0.00019157088122605365,1500.3,1480,1416.0,1500
4.899999999999991,99,162,104,0.00019062142584826535,1500.2,1480,1416.0,1500
4.94999999999999,100,162,103,0.0001884303749764462,1500.2,1480,1417.0,1500
4.99999999999999,101,162,101,0.0001884303749764462,1500.2,1480,1419.0,1500
5.04999999999999,102,162,99,0.00018628912071535022,1500.2,1480,1421.0,1500
5.09999999999999,103,162,97,0.00018628912071535022,1500.2,1480,1423.0,1500
5.14999999999999,104,162,93,0.00018628912071535022,1500.2,1480,1427.0,1500
5.1999999999999895,105,162,89,0.0001893939393939394,1500.2,1480,1431.0,1500
5.249999999999989,106,162,83,0.0001893939393939394,1500.2,1480,1437.0,1500
5.299999999999989,107,162,79,0.0001893939393939394,1500.2,1480,1441.0,1500
5.349999999999989,108,162,74,0.00018628912071535022,1500.2,1480,1446.0,1500
5.399999999999989,109,161,69,0.0001853911753800519,1500.1,1480,1451.0,1500
5.449999999999989,110,161,65,0.00018628912071535022,1500.1,1480,1455.0,1500
5.4999999999999885,111,160,63,0.00018628912071535022,1500.0,1480,1457.0,1500
5.549999999999988,112,159,62,0.00018628912071535022,1499.9,1480,1458.0,1500
5.599999999999988,113,159,62,0.0001893939393939394,1499.9,1480,1458.0,1500
5.649999999999988,114,159,64,0.0001841959845275373,1499.9,1480,1456.0,1500
5.699999999999988,115,158,65,0.00018328445747800586,1499.8,1480,1455.0,1500
5.749999999999988,116,158,67,0.0001884303749764462,1499.8,1480,1453.0,1500
5.799999999999987,117,157,68,0.0001884303749764462,1499.7,1480,1452.0,1500
5.849999999999987,118,157,69,0.0001853911753800519,1499.7,1480,1451.0,1500
5.899999999999987,119,156,71,0.00018628912071535022,1499.6,1480,1449.0,1500
5.949999999999987,120,156,71,0.00019062142584826535,1499.6,1480,1449.0,1500
5.999999999999987,121,155,72,0.000195160031225605,1499.5,1480,1448.0,1500
6.0499999999999865,122,157,73,0.0001884303749764462,1499.7,1480,1447.0,1500
6.099999999999986,123,157,74,0.0001884303749764462,1499.7,1480,1446.0,1500
6.149999999999986,124,156,75,0.00019062142584826535,1499.6,1480,1445.0,1500
6.199999999999986,125,156,76,0.00019062142584826535,1499.6,1480,1444.0,1500
6.249999999999986,126,156,77,0.00019286403085824494,1499.6,1480,1443.0,1500
6.299999999999986,127,156,77,0.00019062142584826535,1499.6,1480,1443.0,1500
6.349999999999985,128,156,76,0.00019940179461615153,1499.6,1480,1444.0,1500
6.399999999999985,129,156,75,0.00019708316909735908,1499.6,1480,1445.0,1500
6.449999999999985,130,156,74,0.000196078431372549,1499.6,1480,1446.0,1500
6.499999999999985,131,156,73,0.00019940179461615153,1499.6,1480,1447.0,1500
6.549999999999985,132,156,72,0.00019940179461615153,1499.6,1480,1448.0,1500
6.5999999999999845,133,156,67,0.00019940179461615153,1499.6,1480,1453.0,1500
6.649999999999984,134,155,63,0.00020885547201336674,1499.5,1480,1457.0,1500
6.699999999999984,135,155,56,0.0002190580503833516,1499.5,1480,1464.0,1500
6.749999999999984,136,155,52,0.0002190580503833516,1499.5,1480,1468.0,1500
6.799999999999984,137,154,47,0.00022311468094600624,1499.4,1480,1470,1500
6.849999999999984,138,154,46,0.0002190580503833516,1499.4,1480,1470,1500
6.8999999999999835,139,154,44,0.0002204585537918871,1499.4,1480,1470,1500
6.949999999999983,140,154,45,0.00022583559168925022,1499.4,1480,1470,1500
6.999999999999983,141,154,44,0.00022583559168925022,1499.4,1480,1470,1500
7.049999999999983,142,156,45,0.0002190580503833516,1499.6,1480,1470,1500
7.099999999999983,143,156,44,0.00022862368541380886,1499.6,1480,1470,1500
7.149999999999983,144,156,44,0.00022862368541380886,1499.6,1480,1470,1500
7.199999999999982,145,157,45,0.0002244668911335578,1499.7,1480,1470,1500
7.249999999999982,146,157,46,0.00022172949002217295,1499.7,1480,1470,1500
7.299999999999982,147,158,46,0.00022862368541380886,1499.8,1480,1470,1500
7.349999999999982,148,157,46,0.0002314814814814815,1499.7,1480,1470,1500
7.399999999999982,149,158,45,0.00022583559168925022,1499.8,1480,1470,1500
7.4499999999999815,150,159,44,0.00022862368541380886,1499.9,1480,1470,1500
7.499999999999981,151,159,44,0.0002300966405890474,1499.9,1480,1470,1500
7.549999999999981,152,159,44,0.0002244668911335578,1499.9,1480,1470,1500
7.599999999999981,153,159,44,0.00022583559168925022,1499.9,1480,1470,1500
7.649999999999981,154,159,44,0.00022862368541380886,1499.9,1480,1470,1500
7.699999999999981,155,158,44,0.0002314814814814815,1499.8,1480,1470,1500
7.7499999999999805,156,159,43,0.00023293733985557886,1499.9,1480,1470,1500
7.79999999999998,157,159,42,0.00022862368541380886,1499.9,1480,1470,1500
7.84999999999998,158,159,41,0.00023293733985557886,1499.9,1480,1470,1500
7.89999999999998,159,159,41,0.00023293733985557886,1499.9,1480,1470,1500
7.94999999999998,160,159,41,0.00022862368541380886,1499.9,1480,1470,1500
7.99999999999998,161,159,41,0.00022862368541380886,1499.9,1480,1470,1500
8.04999999999998,162,159,41,0.0002314814814814815,1499.9,1480,1470,1500
8.09999999999998,163,159,41,0.00022862368541380886,1499.9,1480,1470,1500
8.14999999999998,164,159,40,0.00022862368541380886,1499.9,1480,1470,1500
8.199999999999982,165,159,39,0.00023293733985557886,1499.9,1480,1470,1500
8.249999999999982,166,159,39,0.00023293733985557886,1499.9,1480,1470,1500
8.299999999999983,167,159,38,0.00022862368541380886,1499.9,1480,1470,1500
8.349999999999984,168,159,39,0.00023293733985557886,1499.9,1480,1470,1500
8.399999999999984,169,158,38,0.0002358490566037736,1499.8,1480,1470,1500
8.449999999999985,170,159,38,0.00023293733985557886,1499.9,1480,1470,1500
8.499999999999986,171,158,38,0.0002314814814814815,1499.8,1480,1470,1500
8.549999999999986,172,158,38,0.0002358490566037736,1499.8,1480,1470,1500
8.599999999999987,173,159,39,0.00023293733985557886,1499.9,1480,1470,1500
8.649999999999988,174,159,39,0.00022862368541380886,1499.9,1480,1470,1500
8.699999999999989,175,159,40,0.00023293733985557886,1499.9,1480,1470,1500
8.74999999999999,176,159,39,0.0002314814814814815,1499.9,1480,1470,1500
8.79999999999999,177,159,39,0.0002403846153846154,1499.9,1480,1470,1500
8.84999999999999,178,159,39,0.0002358490566037736,1499.9,1480,1470,1500
8.899999999999991,179,160,39,0.0002403846153846154,1500.0,1480,1470,1500
8.949999999999992,180,160,39,0.0002358490566037736,1500.0,1480,1470,1500
8.999999999999993,181,160,39,0.0002403846153846154,1500.0,1480,1470,1500
9.049999999999994,182,160,39,0.00024342745861733204,1500.0,1480,1470,1500
9.099999999999994,183,160,39,0.0002482005460412013,1500.0,1480,1470,1500
9.149999999999995,184,160,38,0.00024342745861733204,1500.0,1480,1470,1500
9.199999999999996,185,160,36,0.0002482005460412013,1500.0,1480,1470,1500
9.249999999999996,186,159,35,0.0002482005460412013,1499.9,1480,1470,1500
9.299999999999997,187,159,34,0.0002482005460412013,1499.9,1480,1470,1500
9.349999999999998,188,158,33,0.0002482005460412013,1499.8,1480,1470,1500
9.399999999999999,189,158,33,0.00025510204081632655,1499.8,1480,1470,1500
9.45,190,158,32,0.0002482005460412013,1499.8,1480,1470,1500
9.5,191,158,32,0.00025316455696202533,1499.8,1480,1470,1500
9.55,192,158,31,0.0002482005460412013,1499.8,1480,1470,1500
9.600000000000001,193,158,30,0.00025316455696202533,1499.8,1480,1470,1500
9.650000000000002,194,159,30,0.0002583311805734952,1499.9,1480,1470,1500
9.700000000000003,195,158,30,0.00026164311878597594,1499.8,1480,1470,1500
9.750000000000004,196,158,30,0.00026164311878597594,1499.8,1480,1470,1500
9.800000000000004,197,158,30,0.00026164311878597594,1499.8,1480,1470,1500
9.850000000000005,198,158,30,0.0002583311805734952,1499.8,1480,1470,1500
9.900000000000006,199,158,29,0.0002670940170940171,1499.8,1480,1470,1500
9.950000000000006,200,159,30,0.000275178866263071,1499.9,1480,1470,1500
10.000000000000007,201,158,28,0.0002564102564102564,1499.8,1480,1470,1500
10.050000000000008,202,158,28,0.00025316455696202533,1499.8,1480,1470,1500
10.100000000000009,203,158,29,0.0002583311805734952,1499.8,1480,1470,1500
10.15000000000001,204,158,30,0.0002583311805734952,1499.8,1480,1470,1500
10.20000000000001,205,157,29,0.0002564102564102564,1499.7,1480,1470,1500
10.25000000000001,206,158,29,0.00026504108136761196,1499.8,1480,1470,1500
10.300000000000011,207,158,29,0.00026504108136761196,1499.8,1480,1470,1500
10.350000000000012,208,158,28,0.00026164311878597594,1499.8,1480,1470,1500
10.400000000000013,209,158,28,0.0002670940170940171,1499.8,1480,1470,1500
10.450000000000014,210,158,28,0.00027056277056277056,1499.8,1480,1470,1500
10.500000000000014,211,158,27,0.0002685284640171858,1499.8,1480,1470,1500
10.550000000000015,212,158,26,0.0002685284640171858,1499.8,1480,1470,1500
10.600000000000016,213,159,23,0.00027056277056277056,1499.9,1480,1470,1500
10.650000000000016,214,158,21,0.0002990430622009569,1499.8,1480,1470,1500
10.700000000000017,215,159,19,0.000333000333000333,1499.9,1480,1470,1500
10.750000000000018,216,159,16,0.0003819709702062643,1499.9,1480,1470,1500
10.800000000000018,217,159,12,0.0005060728744939271,1499.9,1480.0607287449393,1470,1500
10.85000000000002,218,159,10,0.0005980861244019139,1499.9,1480.9808612440193,1470,1500
10.90000000000002,219,156,8,0.0008403361344537816,1499.6,1483.4033613445379,1470,1500
10.95000000000002,220,150,7,0.0011904761904761906,1499.0,1486.904761904762,1470,1500
11.000000000000021,221,159,6,0.0010395010395010396,1499.9,1485.3950103950103,1470,1500
11.050000000000022,222,159,6,0.0010395010395010396,1499.9,1485.3950103950103,1470,1500
11.100000000000023,223,159,6,0.0010395010395010396,1499.9,1485.3950103950103,1470,1500
11.150000000000023,224,157,5,0.0011737089201877935,1499.7,1486.737089201878,1470,1500
11.200000000000024,225,157,6,0.0010834236186348862,1499.7,1485.8342361863488,1470,1500
11.250000000000025,226,158,6,0.001053740779768177,1499.8,1485.5374077976817,1470,1500
11.300000000000026,227,157,6,0.0010834236186348862,1499.7,1485.8342361863488,1470,1500
11.350000000000026,228,156,6,0.001098901098901099,1499.6,1485.989010989011,1470,1500
11.400000000000027,229,145,7,0.0016366612111292963,1498.5,1491.3666121112929,1470,1500
11.450000000000028,230,157,6,0.0010834236186348862,1499.7,1485.8342361863488,1470,1500
11.500000000000028,231,157,6,0.0010395010395010396,1499.7,1485.3950103950103,1470,1500
11.55000000000003,232,156,6,0.001006036217303823,1499.6,1485.0603621730381,1470,1500
11.60000000000003,233,157,6,0.001053740779768177,1499.7,1485.5374077976817,1470,1500
11.65000000000003,234,156,6,0.0010834236186348862,1499.6,1485.8342361863488,1470,1500
11.700000000000031,235,156,6,0.0010683760683760685,1499.6,1485.6837606837607,1470,1500
11.750000000000032,236,156,6,0.0010834236186348862,1499.6,1485.8342361863488,1470,1500
11.800000000000033,237,157,6,0.001053740779768177,1499.7,1485.5374077976817,1470,1500
11.850000000000033,238,157,6,0.001053740779768177,1499.7,1485.5374077976817,1470,1500
11.900000000000034,239,156,6,0.0010683760683760685,1499.6,1485.6837606837607,1470,1500
11.950000000000035,240,156,6,0.001053740779768177,1499.6,1485.5374077976817,1470,1500
12.000000000000036,241,156,6,0.0010683760683760685,1499.6,1485.6837606837607,1470,1500
12.050000000000036,242,155,6,0.000992063492063492,1499.5,1484.920634920635,1470,1500
12.100000000000037,243,156,6,0.0010395010395010396,1499.6,1485.3950103950103,1470,1500
12.150000000000038,244,155,6,0.001006036217303823,1499.5,1485.0603621730381,1470,1500
12.200000000000038,245,148,6,0.0012531328320802004,1498.8,1487.531328320802,1470,1500
12.250000000000039,246,155,7,0.0009389671361502347,1499.5,1484.3896713615025,1470,1500
12.30000000000004,247,155,6,0.000992063492063492,1499.5,1484.920634920635,1470,1500
12.35000000000004,248,153,7,0.000980392156862745,1499.3,1484.8039215686274,1470,1500
12.400000000000041,249,154,7,0.0009389671361502347,1499.4,1484.3896713615025,1470,1500
12.450000000000042,250,153,7,0.000980392156862745,1499.3,1484.8039215686274,1470,1500
12.500000000000043,251,154,7,0.000925925925925926,1499.4,1484.2592592592594,1470,1500
12.550000000000043,252,153,7,0.000966183574879227,1499.3,1484.6618357487923,1470,1500
12.600000000000044,253,154,7,0.0008802816901408451,1499.4,1483.8028169014085,1470,1500
12.650000000000045,254,154,7,0.0009389671361502347,1499.4,1484.3896713615025,1470,1500
12.700000000000045,255,153,7,0.0008680555555555555,1499.3,1483.6805555555557,1470,1500
12.750000000000046,256,153,7,0.0009389671361502347,1499.3,1484.3896713615025,1470,1500
12.800000000000047,257,153,7,0.000925925925925926,1499.3,1484.2592592592594,1470,1500
12.850000000000048,258,152,7,0.0009523809523809524,1499.2,1484.5238095238096,1470,1500
12.900000000000048,259,152,7,0.000966183574879227,1499.2,1484.6618357487923,1470,1500
12.950000000000049,260,152,7,0.000925925925925926,1499.2,1484.2592592592594,1470,1500
13.00000000000005,261,152,7,0.0008680555555555555,1499.2,1483.6805555555557,1470,1500
13.05000000000005,262,152,7,0.000925925925925926,1499.2,1484.2592592592594,1470,1500
13.100000000000051,263,152,7,0.00101010101010101,1499.2,1485.1010101010102,1470,1500
13.150000000000052,264,152,7,0.0008680555555555555,1499.2,1483.6805555555557,1470,1500
13.200000000000053,265,152,7,0.0008680555555555555,1499.2,1483.6805555555557,1470,1500
13.250000000000053,266,152,7,0.000925925925925926,1499.2,1484.2592592592594,1470,1500
13.300000000000054,267,152,7,0.000925925925925926,1499.2,1484.2592592592594,1470,1500
13.350000000000055,268,152,6,0.000992063492063492,1499.2,1484.920634920635,1470,1500
13.400000000000055,269,152,6,0.0010834236186348862,1499.2,1485.8342361863488,1470,1500
13.450000000000056,270,152,4,0.0014285714285714286,1499.2,1489.2857142857142,1470,1500
13.500000000000057,271,143,2,0.0038461538461538464,1498.3,1513.4615384615386,1470,1500
13.550000000000058,271,,,,1500.0,1500.0,1420.0,1500
13.600000000000058,271,,,,1500.0,1500.0,1420.0,1500
13.650000000000059,271,,,,1500.0,1500.0,1420.0,1500
13.70000000000006,271,,,,1500.0,1500.0,1420.0,1500
13.75000000000006,271,,,,1500.0,1500.0,1420.0,1500
13.800000000000061,271,,,,1500.0,1500.0,1420.0,1500
13.850000000000062,271,,,,1500.0,1500.0,1420.0,1500
13.900000000000063,271,,,,1500.0,1500.0,1420.0,1500
13.950000000000063,271,,,,1500.0,1500.0,1420.0,1500
14.000000000000064,271,,,,1500.0,1500.0,1420.0,1500
14.050000000000065,271,,,,1500.0,1500.0,1420.0,1500
14.100000000000065,271,,,,1500.0,1500.0,1420.0,1500
14.150000000000066,271,,,,1500.0,1500.0,1420.0,1500
14.200000000000067,271,,,,1500.0,1500.0,1420.0,1500
14.250000000000068,271,,,,1500.0,1500.0,1420.0,1500
14.300000000000068,271,,,,1500.0,1500.0,1420.0,1500
14.350000000000069,271,,,,1500.0,1500.0,1420.0,1500
14.40000000000007,271,,,,1500.0,1500.0,1420.0,1500
14.45000000000007,271,,,,1500.0,1500.0,1420.0,1500
14.500000000000071,271,,,,1500.0,1500.0,1420.0,1500
14.550000000000072,271,,,,1500.0,1500.0,1420.0,1500
14.600000000000072,271,,,,1500.0,1500.0,1420.0,1500
14.650000000000073,271,,,,1500.0,1500.0,1420.0,1500
14.700000000000074,271,,,,1500.0,1500.0,1420.0,1500
14.750000000000075,271,,,,1500.0,1500.0,1420.0,1500
14.800000000000075,271,,,,1500.0,1500.0,1420.0,1500
14.850000000000076,271,,,,1500.0,1500.0,1420.0,1500
14.900000000000077,271,,,,1500.0,1500.0,1420.0,1500
14.950000000000077,271,,,,1500.0,1500.0,1420.0,1500
15.000000000000078,271,,,,1500.0,1500.0,1420.0,1500
15.050000000000079,271,,,,1500.0,1500.0,1420.0,1500
15.10000000000008,271,,,,1500.0,1500.0,1420.0,1500
15.15000000000008,271,,,,1500.0,1500.0,1420.0,1500
15.200000000000081,271,,,,1500.0,1500.0,1420.0,1500
15.250000000000082,271,,,,1500.0,1500.0,1420.0,1500
15.300000000000082,271,,,,1500.0,1500.0,1420.0,1500
15.350000000000083,271,,,,1500.0,1500.0,1420.0,1500
15.400000000000084,271,,,,1500.0,1500.0,1420.0,1500
15.450000000000085,271,,,,1500.0,1500.0,1420.0,1500
15.500000000000085,271,,,,1500.0,1500.0,1420.0,1500
15.550000000000086,271,,,,1500.0,1500.0,1420.0,1500
15.600000000000087,271,,,,1500.0,1500.0,1420.0,1500
15.650000000000087,271,,,,1500.0,1500.0,1420.0,1500
15.700000000000088,271,,,,1500.0,1500.0,1420.0,1500
15.750000000000089,271,,,,1500.0,1500.0,1420.0,1500
15.80000000000009,271,,,,1500.0,1500.0,1420.0,1500
15.85000000000009,271,,,,1500.0,1500.0,1420.0,1500
15.900000000000091,271,,,,1500.0,1500.0,1420.0,1500
15.950000000000092,272,148,2,0.0033333333333333335,1498.8,1508.3333333333333,1470,1500
16.000000000000092,273,150,5,0.0016339869281045752,1499.0,1491.3398692810458,1470,1500
16.050000000000093,274,164,7,0.0008438818565400844,1500.4,1483.4388185654009,1470,1500
16.100000000000094,275,163,8,0.0007215007215007215,1500.3,1482.2150072150073,1470,1500
16.150000000000095,276,163,9,0.0006493506493506494,1500.3,1481.4935064935064,1470,1500
16.200000000000095,277,162,11,0.0005555555555555556,1500.2,1480.5555555555557,1470,1500
16.250000000000096,278,162,12,0.0005128205128205128,1500.2,1480.128205128205,1470,1500
16.300000000000097,279,162,13,0.00046992481203007516,1500.2,1480,1470,1500
16.350000000000097,280,162,15,0.00042444821731748726,1500.2,1480,1470,1500
16.400000000000098,281,162,15,0.00043591979075850045,1500.2,1480,1470,1500
16.4500000000001,282,163,16,0.00040404040404040404,1500.3,1480,1470,1500
16.5000000000001,283,162,16,0.000397456279809221,1500.2,1480,1470,1500
16.5500000000001,284,163,17,0.00038095238095238096,1500.3,1480,1470,1500
16.6000000000001,285,163,17,0.00038095238095238096,1500.3,1480,1470,1500
16.6500000000001,286,162,17,0.00037537537537537537,1500.2,1480,1470,1500
16.700000000000102,287,162,17,0.00037537537537537537,1500.2,1480,1470,1500
16.750000000000103,288,162,17,0.00037537537537537537,1500.2,1480,1470,1500
16.800000000000104,289,162,18,0.0003652300949598247,1500.2,1480,1470,1500
16.850000000000104,290,162,19,0.0003861003861003861,1500.2,1480,1470,1500
16.900000000000105,291,162,18,0.00035561877667140827,1500.2,1480,1470,1500
16.950000000000106,292,162,18,0.00035561877667140827,1500.2,1480,1470,1500
17.000000000000107,293,162,18,0.00035561877667140827,1500.2,1480,1470,1500
17.050000000000107,294,162,18,0.00035561877667140827,1500.2,1480,1470,1500
17.100000000000108,295,162,18,0.00036036036036036037,1500.2,1480,1470,1500
17.15000000000011,296,161,18,0.0003652300949598247,1500.1,1480,1470,1500
17.20000000000011,297,161,18,0.0003652300949598247,1500.1,1480,1470,1500
17.25000000000011,298,161,18,0.0003652300949598247,1500.1,1480,1470,1500
17.30000000000011,299,161,18,0.00037023324694557573,1500.1,1480,1470,1500
17.35000000000011,300,161,18,0.00037023324694557573,1500.1,1480,1470,1500
17.400000000000112,301,161,18,0.0003652300949598247,1500.1,1480,1470,1500
17.450000000000113,302,161,18,0.0003652300949598247,1500.1,1480,1470,1500
17.500000000000114,303,161,18,0.0003652300949598247,1500.1,1480,1470,1500
17.550000000000114,304,161,17,0.00037537537537537537,1500.1,1480,1470,1500
17.600000000000115,305,161,17,0.00037037037037037035,1500.1,1480,1470,1500
17.650000000000116,306,161,17,0.00037037037037037035,1500.1,1480,1470,1500
17.700000000000117,307,161,17,0.00037537537537537537,1500.1,1480,1470,1500
17.750000000000117,308,160,17,0.00037537537537537537,1500.0,1480,1470,1500
17.800000000000118,309,161,17,0.00038095238095238096,1500.1,1480,1470,1500
17.85000000000012,310,162,17,0.00038095238095238096,1500.2,1480,1470,1500
17.90000000000012,311,161,17,0.00037037037037037035,1500.1,1480,1470,1500
17.95000000000012,312,160,17,0.0003861003861003861,1500.0,1480,1470,1500
18.00000000000012,313,161,17,0.00038095238095238096,1500.1,1480,1470,1500
18.05000000000012,314,160,17,0.0003861003861003861,1500.0,1480,1470,1500
18.100000000000122,315,161,17,0.00038095238095238096,1500.1,1480,1470,1500
18.150000000000123,316,161,17,0.00038095238095238096,1500.1,1480,1470,1500
18.200000000000124,317,161,17,0.00038095238095238096,1500.1,1480,1470,1500
18.250000000000124,318,161,17,0.00038095238095238096,1500.1,1480,1470,1500
18.300000000000125,319,161,17,0.00037593984962406017,1500.1,1480,1470,1500
18.350000000000126,320,161,17,0.00038095238095238096,1500.1,1480,1470,1500
18.400000000000126,321,161,17,0.00038095238095238096,1500.1,1480,1470,1500
18.450000000000127,322,161,17,0.00038095238095238096,1500.1,1480,1470,1500
18.500000000000128,323,161,17,0.00038095238095238096,1500.1,1480,1470,1500
18.55000000000013,324,160,17,0.0003861003861003861,1500.0,1480,1470,1500
18.60000000000013,325,160,17,0.0003861003861003861,1500.0,1480,1470,1500
18.65000000000013,326,160,17,0.0003861003861003861,1500.0,1480,1470,1500
18.70000000000013,327,159,16,0.000397456279809221,1499.9,1480,1470,1500
18.75000000000013,328,159,16,0.00040290088638195,1499.9,1480,1470,1500
18.800000000000132,329,159,16,0.00040290088638195,1499.9,1480,1470,1500
18.850000000000133,330,159,17,0.0003861003861003861,1499.9,1480,1470,1500
18.900000000000134,331,159,16,0.00040290088638195,1499.9,1480,1470,1500
18.950000000000134,332,159,17,0.0003913894324853229,1499.9,1480,1470,1500
19.000000000000135,333,159,17,0.0003913894324853229,1499.9,1480,1470,1500
19.050000000000136,334,159,16,0.00040290088638195,1499.9,1480,1470,1500
19.100000000000136,335,158,16,0.0004084967320261438,1499.8,1480,1470,1500
19.150000000000137,336,158,16,0.0004084967320261438,1499.8,1480,1470,1500
19.200000000000138,337,158,17,0.0003968253968253968,1499.8,1480,1470,1500
19.25000000000014,338,158,16,0.000397456279809221,1499.8,1480,1470,1500
19.30000000000014,339,159,17,0.0003913894324853229,1499.9,1480,1470,1500
19.35000000000014,340,158,17,0.0003968253968253968,1499.8,1480,1470,1500
19.40000000000014,341,158,17,0.0003968253968253968,1499.8,1480,1470,1500
19.45000000000014,342,158,17,0.0003861003861003861,1499.8,1480,1470,1500
19.500000000000142,343,158,17,0.0003968253968253968,1499.8,1480,1470,1500
19.550000000000143,344,158,17,0.000380517503805175,1499.8,1480,1470,1500
19.600000000000144,345,158,17,0.0003913894324853229,1499.8,1480,1470,1500
19.650000000000144,346,157,17,0.0003968253968253968,1499.7,1480,1470,1500
19.700000000000145,347,157,17,0.0003968253968253968,1499.7,1480,1470,1500
19.750000000000146,348,157,17,0.000380517503805175,1499.7,1480,1470,1500
19.800000000000146,349,157,17,0.0003913894324853229,1499.7,1480,1470,1500
19.850000000000147,350,157,17,0.000380517503805175,1499.7,1480,1470,1500
19.900000000000148,351,157,17,0.000380517503805175,1499.7,1480,1470,1500
19.95000000000015,352,156,17,0.0003912363067292645,1499.6,1480,1470,1500
20.00000000000015,353,156,17,0.00038580246913580245,1499.6,1480,1470,1500
20.05000000000015,354,156,17,0.000380517503805175,1499.6,1480,1470,1500
20.10000000000015,355,155,17,0.0003968253968253968,1499.5,1480,1470,1500
20.15000000000015,356,155,17,0.0003912363067292645,1499.5,1480,1470,1500
20.200000000000152,357,156,17,0.0003913894324853229,1499.6,1480,1470,1500
20.250000000000153,358,154,17,0.00040241448692152917,1499.4,1480,1470,1500
20.300000000000153,359,155,17,0.0003913894324853229,1499.5,1480,1470,1500
20.350000000000154,360,154,17,0.00040241448692152917,1499.4,1480,1470,1500
20.400000000000155,361,154,17,0.000380517503805175,1499.4,1480,1470,1500
20.450000000000156,362,154,18,0.0003652300949598247,1499.4,1480,1470,1500
20.500000000000156,363,154,18,0.0003604902667627974,1499.4,1480,1470,1500
20.550000000000157,364,154,19,0.00035124692658939234,1499.4,1480,1470,1500
20.600000000000158,365,154,19,0.00034246575342465754,1499.4,1480,1470,1500
20.65000000000016,366,154,20,0.0003341129301703976,1499.4,1480,1470,1500
20.70000000000016,367,154,20,0.00033875338753387534,1499.4,1480,1470,1500
20.75000000000016,368,155,20,0.0003341129301703976,1499.5,1480,1470,1500
20.80000000000016,369,156,20,0.00032615786040443573,1499.6,1480,1470,1500
20.85000000000016,370,156,21,0.00031426775612822125,1499.6,1480,1470,1500
20.900000000000162,371,156,22,0.0003003003003003003,1499.6,1480,1470,1500
20.950000000000163,372,156,23,0.0002875215641173088,1499.6,1480,1470,1500
21.000000000000163,373,157,26,0.00028368794326241134,1499.7,1480,1470,1500
21.050000000000164,374,156,28,0.0002875215641173088,1499.6,1480,1470,1500
21.100000000000165,375,156,30,0.0002875215641173088,1499.6,1480,1470,1500
21.150000000000166,376,156,30,0.0002757859900717044,1499.6,1480,1470,1500
21.200000000000166,377,158,29,0.0002898550724637681,1499.8,1480,1470,1500
21.250000000000167,378,158,27,0.0002977963073257892,1499.8,1480,1470,1500
21.300000000000168,379,158,24,0.00034246575342465754,1499.8,1480,1470,1500
21.35000000000017,380,158,20,0.00032615786040443573,1499.8,1480,1470,1500
21.40000000000017,381,158,18,0.00037023324694557573,1499.8,1480,1470,1500
21.45000000000017,382,157,17,0.0003968253968253968,1499.7,1480,1470,1500
21.50000000000017,383,157,16,0.00042087542087542086,1499.7,1480,1470,1500
21.55000000000017,384,157,16,0.00041425020712510354,1499.7,1480,1470,1500
21.600000000000172,385,156,18,0.0003861003861003861,1499.6,1480,1470,1500
21.650000000000173,386,158,19,0.00034246575342465754,1499.8,1480,1470,1500
21.700000000000173,387,157,21,0.0003156565656565657,1499.7,1480,1470,1500
21.750000000000174,388,158,26,0.00031133250311332503,1499.8,1480,1470,1500
21.800000000000175,389,158,29,0.0002914602156805596,1499.8,1480,1470,1500
21.850000000000176,390,158,33,0.0002914602156805596,1499.8,1480,1470,1500
21.900000000000176,391,158,34,0.00028153153153153153,1499.8,1480,1470,1500
21.950000000000177,392,158,37,0.0002795638803466592,1499.8,1480,1470,1500
22.000000000000178,393,158,39,0.0002795638803466592,1499.8,1480,1470,1500
22.05000000000018,394,158,42,0.0002795638803466592,1499.8,1480,1470,1500
22.10000000000018,395,158,44,0.0002795638803466592,1499.8,1480,1470,1500
22.15000000000018,396,159,47,0.0002666666666666667,1499.9,1480,1470,1500
22.20000000000018,397,158,49,0.000273972602739726,1499.8,1480,1470,1500
22.25000000000018,398,157,51,0.0002702702702702703,1499.7,1480,1469.0,1500
22.300000000000182,399,158,52,0.0002666666666666667,1499.8,1480,1468.0,1500
22.350000000000183,400,158,53,0.00026143790849673205,1499.8,1480,1467.0,1500
22.400000000000183,401,158,54,0.00025799793601651185,1499.8,1480,1466.0,1500
22.450000000000184,402,158,54,0.00026143790849673205,1499.8,1480,1466.0,1500
22.500000000000185,403,158,55,0.00026143790849673205,1499.8,1480,1465.0,1500
22.550000000000185,404,158,56,0.00025303643724696357,1499.8,1480,1464.0,1500
22.600000000000186,405,158,58,0.00026143790849673205,1499.8,1480,1462.0,1500
22.650000000000187,406,158,60,0.00025799793601651185,1499.8,1480,1460.0,1500
22.700000000000188,407,158,61,0.0002564102564102564,1499.8,1480,1459.0,1500
22.75000000000019,408,158,63,0.0002564102564102564,1499.8,1480,1457.0,1500
22.80000000000019,409,158,64,0.0002564102564102564,1499.8,1480,1456.0,1500
22.85000000000019,410,158,66,0.00025303643724696357,1499.8,1480,1454.0,1500
22.90000000000019,411,158,68,0.00026143790849673205,1499.8,1480,1452.0,1500
22.95000000000019,412,159,69,0.00024975024975024975,1499.9,1480,1451.0,1500
23.000000000000192,413,158,71,0.00025303643724696357,1499.8,1480,1449.0,1500
23.050000000000193,414,158,73,0.00024826216484607745,1499.8,1480,1447.0,1500
23.100000000000193,415,158,75,0.00024826216484607745,1499.8,1480,1445.0,1500
23.150000000000194,416,158,76,0.0002564102564102564,1499.8,1480,1444.0,1500
23.200000000000195,417,157,79,0.00024826216484607745,1499.7,1480,1441.0,1500
23.250000000000195,418,158,80,0.0002564102564102564,1499.8,1480,1440.0,1500
23.300000000000196,419,157,83,0.00025303643724696357,1499.7,1480,1437.0,1500
23.350000000000197,420,158,85,0.00026143790849673205,1499.8,1480,1435.0,1500
23.400000000000198,421,158,87,0.0002564102564102564,1499.8,1480,1433.0,1500
23.4500000000002,422,157,89,0.00025303643724696357,1499.7,1480,1431.0,1500
23.5000000000002,423,158,92,0.00025303643724696357,1499.8,1480,1428.0,1500
23.5500000000002,424,159,94,0.00024975024975024975,1499.9,1480,1426.0,1500
23.6000000000002,425,158,97,0.00025303643724696357,1499.8,1480,1423.0,1500
23.6500000000002,426,158,99,0.0002564102564102564,1499.8,1480,1421.0,1500
23.700000000000202,427,158,103,0.00024975024975024975,1499.8,1480,1417.0,1500
23.750000000000203,428,158,106,0.00025303643724696357,1499.8,1480,1414.0,1500
23.800000000000203,429,157,110,0.00025303643724696357,1499.7,1480,1410.0,1500
23.850000000000204,430,157,113,0.00025303643724696357,1499.7,1480,1407.0,1500
23.900000000000205,431,157,118,0.0002450379808870375,1499.7,1480,1402.0,1500
23.950000000000205,432,157,121,0.00024975024975024975,1499.7,1480,1399.0,1500
24.000000000000206,433,156,126,0.00025303643724696357,1499.6,1480,1394.0,1500
24.050000000000207,434,156,130,0.00025799793601651185,1499.6,1480,1390.0,1500
24.100000000000207,435,156,134,0.00026143790849673205,1499.6,1480,1386.0,1500
24.150000000000208,436,157,137,0.0002666666666666667,1499.7,1480,1383.0,1500
24.20000000000021,437,156,140,0.0002702702702702703,1499.6,1480,1380.0,1500
24.25000000000021,438,156,144,0.0002757859900717044,1499.6,1480,1376.0,1500
24.30000000000021,439,156,146,0.00028153153153153153,1499.6,1480,1374.0,1500
24.35000000000021,440,156,150,0.0002875215641173088,1499.6,1480,1370.0,1500
24.40000000000021,441,157,152,0.0002955082742316785,1499.7,1480,1370,1500
24.450000000000212,442,156,155,0.0002977963073257892,1499.6,1480,1370,1500
24.500000000000213,443,156,158,0.00031746031746031746,1499.6,1480,1370,1500
24.550000000000214,444,155,161,0.00030864197530864197,1499.5,1480,1370,1500
24.600000000000215,445,156,163,0.00032206119162640903,1499.6,1480,1370,1500
24.650000000000215,446,156,166,0.00031746031746031746,1499.6,1480,1370,1500
24.700000000000216,447,156,167,0.0003246753246753247,1499.6,1480,1370,1500
24.750000000000217,448,156,170,0.0003419972640218878,1499.6,1480,1370,1500
24.800000000000217,449,156,171,0.0003322259136212625,1499.6,1480,1370,1500
24.850000000000218,450,157,164,0.0005330490405117271,1499.7,1480.3304904051172,1370,1500
24.90000000000022,451,157,173,0.0003370407819346141,1499.7,1480,1370,1500
24.95000000000022,452,157,173,0.0003450655624568668,1499.7,1480,1370,1500
25.00000000000022,453,156,180,0.0004743833017077799,1499.6,1480,1370,1500
25.05000000000022,454,157,174,0.0003484320557491289,1499.7,1480,1370,1500
25.10000000000022,455,157,173,0.0003401360544217687,1499.7,1480,1370,1500
25.150000000000222,456,157,173,0.0003401360544217687,1499.7,1480,1370,1500
25.200000000000223,457,157,173,0.0003401360544217687,1499.7,1480,1370,1500
25.250000000000224,458,157,173,0.00035014005602240897,1499.7,1480,1370,1500
25.300000000000225,459,156,178,0.00045955882352941176,1499.6,1480,1370,1500
25.350000000000225,460,157,172,0.0003401360544217687,1499.7,1480,1370,1500
25.400000000000226,461,157,172,0.0003401360544217687,1499.7,1480,1370,1500
25.450000000000227,462,157,172,0.00033534540576794097,1499.7,1480,1370,1500
25.500000000000227,463,157,171,0.0003401360544217687,1499.7,1480,1370,1500
25.550000000000228,464,156,171,0.0003322259136212625,1499.6,1480,1370,1500
25.60000000000023,465,156,170,0.00032299741602067185,1499.6,1480,1370,1500
25.65000000000023,466,157,169,0.00032938076416337287,1499.7,1480,1370,1500
25.70000000000023,467,156,167,0.0003246753246753247,1499.6,1480,1370,1500
25.75000000000023,468,156,165,0.00031133250311332503,1499.6,1480,1370,1500
25.80000000000023,469,156,161,0.0002977963073257892,1499.6,1480,1370,1500
25.850000000000232,470,157,157,0.00029342723004694836,1499.7,1480,1370,1500
25.900000000000233,471,155,150,0.0002875215641173088,1499.5,1480,1370.0,1500
25.950000000000234,472,156,144,0.00027210884353741496,1499.6,1480,1376.0,1500
26.000000000000234,473,155,133,0.0002631578947368421,1499.5,1480,1387.0,1500
26.050000000000235,474,156,125,0.00024975024975024975,1499.6,1480,1395.0,1500
26.100000000000236,475,156,112,0.00024975024975024975,1499.6,1480,1408.0,1500
26.150000000000237,476,156,102,0.00023741690408357076,1499.6,1480,1418.0,1500
26.200000000000237,477,156,91,0.00024189646831156264,1499.6,1480,1429.0,1500
26.250000000000238,478,156,84,0.00024826216484607745,1499.6,1480,1436.0,1500
26.30000000000024,479,157,74,0.00024189646831156264,1499.7,1480,1446.0,1500
26.35000000000024,480,158,69,0.0002388344877000239,1499.8,1480,1451.0,1500
26.40000000000024,481,157,63,0.00024975024975024975,1499.7,1480,1457.0,1500
26.45000000000024,482,157,61,0.0002450379808870375,1499.7,1480,1459.0,1500
26.50000000000024,483,156,58,0.00025303643724696357,1499.6,1480,1462.0,1500
26.550000000000242,484,156,58,0.00025303643724696357,1499.6,1480,1462.0,1500
26.600000000000243,485,157,59,0.00024189646831156264,1499.7,1480,1461.0,1500
26.650000000000244,486,156,60,0.00025303643724696357,1499.6,1480,1460.0,1500
26.700000000000244,487,157,65,0.0002405002405002405,1499.7,1480,1455.0,1500
26.750000000000245,488,155,68,0.00024366471734892786,1499.5,1480,1452.0,1500
26.800000000000246,489,155,72,0.00024366471734892786,1499.5,1480,1448.0,1500
26.850000000000247,490,155,79,0.0002405002405002405,1499.5,1480,1441.0,1500
26.900000000000247,491,154,84,0.00024366471734892786,1499.4,1480,1436.0,1500
26.950000000000248,492,155,91,0.0002405002405002405,1499.5,1480,1429.0,1500
27.00000000000025,493,154,95,0.0002450379808870375,1499.4,1480,1425.0,1500
27.05000000000025,494,154,101,0.00024366471734892786,1499.4,1480,1419.0,1500
27.10000000000025,495,154,105,0.00024826216484607745,1499.4,1480,1415.0,1500
27.15000000000025,496,154,111,0.00025799793601651185,1499.4,1480,1409.0,1500
27.20000000000025,497,154,114,0.0002631578947368421,1499.4,1480,1406.0,1500
27.250000000000252,498,155,123,0.00027210884353741496,1499.5,1480,1397.0,1500
27.300000000000253,499,155,130,0.0002757859900717044,1499.5,1480,1390.0,1500
27.350000000000254,500,156,139,0.0002702702702702703,1499.6,1480,1381.0,1500
27.400000000000254,501,157,145,0.0002666666666666667,1499.7,1480,1375.0,1500
27.450000000000255,502,156,152,0.00028153153153153153,1499.6,1480,1370,1500
27.500000000000256,503,157,157,0.0002914602156805596,1499.7,1480,1370,1500
27.550000000000257,504,156,161,0.00031298904538341156,1499.6,1480,1370,1500
27.600000000000257,505,155,162,0.0003246753246753247,1499.5,1480,1370,1500
27.650000000000258,506,155,165,0.0003322259136212625,1499.5,1480,1370,1500
27.70000000000026,507,155,166,0.0003401360544217687,1499.5,1480,1370,1500
27.75000000000026,508,157,169,0.00032754667540124465,1499.7,1480,1370,1500
27.80000000000026,509,157,162,0.00048567265662943174,1499.7,1480,1370,1500
27.85000000000026,510,157,170,0.00033534540576794097,1499.7,1480,1370,1500
27.90000000000026,511,156,171,0.0003322259136212625,1499.6,1480,1370,1500
27.950000000000262,512,157,171,0.00032754667540124465,1499.7,1480,1370,1500
28.000000000000263,513,156,171,0.0003322259136212625,1499.6,1480,1370,1500
28.050000000000264,514,156,171,0.0003322259136212625,1499.6,1480,1370,1500
28.100000000000264,515,155,171,0.0003322259136212625,1499.5,1480,1370,1500
28.150000000000265,516,156,171,0.0003401360544217687,1499.6,1480,1370,1500
28.200000000000266,517,155,171,0.00033068783068783067,1499.5,1480,1370,1500
28.250000000000266,518,156,171,0.00032754667540124465,1499.6,1480,1370,1500
28.300000000000267,519,156,163,0.0005102040816326531,1499.6,1480.1020408163265,1370,1500
28.350000000000268,520,156,171,0.00032754667540124465,1499.6,1480,1370,1500
28.40000000000027,521,156,170,0.0003450655624568668,1499.6,1480,1370,1500
28.45000000000027,522,157,169,0.0009615384615384616,1499.7,1484.6153846153845,1370,1500
28.50000000000027,523,156,170,0.0003322259136212625,1499.6,1480,1370,1500
28.55000000000027,524,156,170,0.0003322259136212625,1499.6,1480,1370,1500
28.60000000000027,525,156,169,0.0003401360544217687,1499.6,1480,1370,1500
28.650000000000272,526,156,170,0.0003322259136212625,1499.6,1480,1370,1500
28.700000000000273,527,156,169,0.0003401360544217687,1499.6,1480,1370,1500
28.750000000000274,528,156,169,0.00033534540576794097,1499.6,1480,1370,1500
28.800000000000274,529,156,169,0.00033534540576794097,1499.6,1480,1370,1500
28.850000000000275,530,156,169,0.0003401360544217687,1499.6,1480,1370,1500
28.900000000000276,531,155,169,0.00033534540576794097,1499.5,1480,1370,1500
28.950000000000276,532,157,169,0.00032754667540124465,1499.7,1480,1370,1500
29.000000000000277,533,156,169,0.0003322259136212625,1499.6,1480,1370,1500
29.050000000000278,534,155,169,0.00032754667540124465,1499.5,1480,1370,1500
29.10000000000028,535,154,169,0.00032299741602067185,1499.4,1480,1370,1500
29.15000000000028,536,154,169,0.0003322259136212625,1499.4,1480,1370,1500
29.20000000000028,537,155,168,0.00033534540576794097,1499.5,1480,1370,1500
29.25000000000028,538,155,161,0.00048567265662943174,1499.5,1480,1370,1500
29.30000000000028,539,154,167,0.0003201024327784891,1499.4,1480,1370,1500
29.350000000000282,540,154,181,0.0009950248756218905,1499.4,1484.9502487562188,1370,1500
29.400000000000283,541,154,166,0.0003156565656565657,1499.4,1480,1370,1500
29.450000000000284,542,154,165,0.0003201024327784891,1499.4,1480,1370,1500
29.500000000000284,543,155,164,0.00032938076416337287,1499.5,1480,1370,1500
29.550000000000285,544,154,163,0.0003370407819346141,1499.4,1480,1370,1500
29.600000000000286,545,154,161,0.0003201024327784891,1499.4,1480,1370,1500
29.650000000000286,546,153,160,0.00031746031746031746,1499.3,1480,1370,1500
29.700000000000287,547,153,158,0.00031055900621118014,1499.3,1480,1370,1500
29.750000000000288,548,153,157,0.0003083564600678384,1499.3,1480,1370,1500
29.80000000000029,549,153,156,0.00030395136778115504,1499.3,1480,1370,1500
29.85000000000029,550,153,146,0.0004830917874396135,1499.3,1480,1374.0,1500
29.90000000000029,551,155,145,0.0004901960784313725,1499.5,1480,1375.0,1500
29.95000000000029,552,153,153,0.0002955082742316785,1499.3,1480,1370,1500
30.00000000000029,553,154,152,0.0003061849357011635,1499.4,1480,1370,1500
30.050000000000292,554,153,152,0.00030395136778115504,1499.3,1480,1370,1500
30.100000000000293,555,156,151,0.0003061849357011635,1499.6,1480,1370,1500
30.150000000000293,556,154,150,0.00031055900621118014,1499.4,1480,1370.0,1500
30.200000000000294,557,154,150,0.00030395136778115504,1499.4,1480,1370.0,1500
30.250000000000295,558,153,148,0.00031055900621118014,1499.3,1480,1372.0,1500
30.300000000000296,559,153,148,0.0003083564600678384,1499.3,1480,1372.0,1500
30.350000000000296,560,152,146,0.00029761904761904765,1499.2,1480,1374.0,1500
30.400000000000297,561,152,137,0.0004329004329004329,1499.2,1480,1383.0,1500
30.450000000000298,562,151,145,0.00027616680475006904,1499.1,1480,1375.0,1500
30.5000000000003,563,149,144,0.0002670940170940171,1498.9,1480,1376.0,1500
30.5500000000003,564,147,151,0.00034722222222222224,1498.7,1480,1370,1500
30.6000000000003,565,147,144,0.0002457002457002457,1498.7,1480,1376.0,1500
30.6500000000003,566,146,145,0.0002457002457002457,1498.6,1480,1375.0,1500
30.7000000000003,567,147,146,0.00024242424242424242,1498.7,1480,1374.0,1500
30.750000000000302,568,145,153,0.00033068783068783067,1498.5,1480,1370,1500
30.800000000000303,569,145,163,0.0005868544600938967,1498.5,1480.868544600939,1370,1500
30.850000000000303,570,146,148,0.00023496240601503758,1498.6,1480,1372.0,1500
30.900000000000304,571,146,149,0.00023084025854108956,1498.6,1480,1371.0,1500
30.950000000000305,572,151,139,0.00036231884057971015,1499.1,1480,1381.0,1500
31.000000000000306,573,150,146,0.0006203473945409429,1499.0,1481.2034739454093,1374.0,1500
31.050000000000306,574,145,162,0.0005102040816326531,1498.5,1480.1020408163265,1370,1500
31.100000000000307,575,149,147,0.00022686025408348456,1498.9,1480,1373.0,1500
31.150000000000308,576,148,155,0.00031857279388340236,1498.8,1480,1370,1500
31.20000000000031,577,151,147,0.00023191094619666049,1499.1,1480,1373.0,1500
31.25000000000031,578,148,162,0.0005291005291005291,1498.8,1480.2910052910054,1370,1500
31.30000000000031,579,151,147,0.0002370791844476055,1499.1,1480,1373.0,1500
31.35000000000031,580,155,138,0.0003770739064856712,1499.5,1480,1382.0,1500
31.40000000000031,581,156,137,0.00038138825324180017,1499.6,1480,1383.0,1500
31.450000000000312,582,151,152,0.0003295978905735003,1499.1,1480,1370,1500
31.500000000000313,583,151,153,0.0003341129301703976,1499.1,1480,1370,1500
31.550000000000313,584,152,152,0.00031746031746031746,1499.2,1480,1370,1500
31.600000000000314,585,153,145,0.0002361275088547816,1499.3,1480,1375.0,1500
31.650000000000315,586,152,151,0.00031426775612822125,1499.2,1480,1370,1500
31.700000000000315,587,157,134,0.0003716090672612412,1499.7,1480,1386.0,1500
31.750000000000316,588,157,134,0.0003663003663003663,1499.7,1480,1386.0,1500
31.800000000000317,589,154,148,0.0003295978905735003,1499.4,1480,1372.0,1500
31.850000000000318,590,155,140,0.00023496240601503758,1499.5,1480,1380.0,1500
31.90000000000032,591,155,138,0.00024826216484607745,1499.5,1480,1382.0,1500
31.95000000000032,592,154,146,0.00033875338753387534,1499.4,1480,1374.0,1500
32.00000000000032,593,157,144,0.0003418803418803419,1499.7,1480,1376.0,1500
32.05000000000032,594,157,143,0.00032175032175032174,1499.7,1480,1377.0,1500
32.100000000000314,595,162,127,0.0003663003663003663,1500.2,1480,1393.0,1500
32.15000000000031,596,164,125,0.0003663003663003663,1500.4,1480,1395.0,1500
32.20000000000031,597,158,149,0.0005714285714285715,1499.8,1480.7142857142858,1371.0,1500
32.250000000000306,598,164,133,0.000227842333105491,1500.4,1480,1387.0,1500
32.3000000000003,599,164,139,0.00032175032175032174,1500.4,1480,1381.0,1500
32.3500000000003,600,167,138,0.00031133250311332503,1500.7,1480,1382.0,1500
32.4000000000003,601,172,123,0.0004095004095004095,1501.2,1480,1397.0,1500
32.450000000000294,602,175,122,0.0003827018752391887,1501.5,1480,1398.0,1500
32.50000000000029,603,176,122,0.0004158004158004158,1501.6,1480,1398.0,1500
32.55000000000029,604,174,129,0.00026954177897574127,1501.4,1480,1391.0,1500
32.600000000000286,605,175,128,0.0002828054298642534,1501.5,1480,1392.0,1500
32.65000000000028,606,177,127,0.00029850746268656717,1501.7,1480,1393.0,1500
32.70000000000028,607,177,126,0.00030303030303030303,1501.7,1480,1394.0,1500
32.75000000000028,608,178,125,0.0003156565656565657,1501.8,1480,1395.0,1500
32.800000000000274,609,178,125,0.0003324468085106383,1501.8,1480,1395.0,1500
32.85000000000027,610,179,122,0.00033772374197906115,1501.9,1480,1398.0,1500
32.90000000000027,611,179,121,0.00033772374197906115,1501.9,1480,1399.0,1500
32.950000000000266,612,179,120,0.00033967391304347825,1501.9,1480,1400.0,1500
33.00000000000026,613,179,119,0.00033772374197906115,1501.9,1480,1401.0,1500
33.05000000000026,614,181,110,0.0005747126436781609,1502.1,1480.7471264367816,1410.0,1500
33.10000000000026,615,179,117,0.00037257824143070045,1501.9,1480,1403.0,1500
33.150000000000254,616,178,117,0.00037257824143070045,1501.8,1480,1403.0,1500
33.20000000000025,617,177,118,0.0003812428516965307,1501.7,1480,1402.0,1500
33.25000000000025,618,174,118,0.00037257824143070045,1501.4,1480,1402.0,1500
33.300000000000246,619,171,119,0.0003875968992248062,1501.1,1480,1401.0,1500
33.35000000000024,620,168,119,0.0003875968992248062,1500.8,1480,1401.0,1500
33.40000000000024,621,164,119,0.00039032006245121,1500.4,1480,1401.0,1500
33.45000000000024,622,161,119,0.0004035512510088781,1500.1,1480,1401.0,1500
33.500000000000234,623,157,119,0.00039416633819471815,1499.7,1480,1401.0,1500
33.55000000000023,624,153,119,0.0003787878787878788,1499.3,1480,1401.0,1500
33.60000000000023,625,150,120,0.0003852080123266564,1499.0,1480,1400.0,1500
33.650000000000226,626,146,121,0.0003450655624568668,1498.6,1480,1399.0,1500
33.70000000000022,627,144,122,0.00034722222222222224,1498.4,1480,1398.0,1500
33.75000000000022,628,143,122,0.0003450655624568668,1498.3,1480,1398.0,1500
33.80000000000022,629,142,122,0.0003527336860670194,1498.2,1480,1398.0,1500
33.850000000000215,630,142,122,0.00034722222222222224,1498.2,1480,1398.0,1500
33.90000000000021,631,142,121,0.00033967391304347825,1498.2,1480,1399.0,1500
33.95000000000021,632,143,121,0.00033967391304347825,1498.3,1480,1399.0,1500
34.000000000000206,633,144,122,0.00034722222222222224,1498.4,1480,1398.0,1500
34.0500000000002,634,145,122,0.00034722222222222224,1498.5,1480,1398.0,1500
34.1000000000002,635,147,121,0.00034722222222222224,1498.7,1480,1399.0,1500
34.1500000000002,636,149,121,0.0003418803418803419,1498.9,1480,1399.0,1500
34.200000000000195,637,150,121,0.00034722222222222224,1499.0,1480,1399.0,1500
34.25000000000019,638,152,120,0.00033444816053511704,1499.2,1480,1400.0,1500
34.30000000000019,639,154,120,0.00033444816053511704,1499.4,1480,1400.0,1500
34.350000000000186,640,156,119,0.00033444816053511704,1499.6,1480,1401.0,1500
34.40000000000018,641,158,119,0.0003205128205128205,1499.8,1480,1401.0,1500
34.45000000000018,642,159,119,0.0003223726627981947,1499.9,1480,1401.0,1500
34.50000000000018,643,162,119,0.0003273322422258593,1500.2,1480,1401.0,1500
34.550000000000175,644,162,119,0.0003273322422258593,1500.2,1480,1401.0,1500
34.60000000000017,645,164,118,0.00033068783068783067,1500.4,1480,1402.0,1500
34.65000000000017,646,164,118,0.0003273322422258593,1500.4,1480,1402.0,1500
34.700000000000166,647,165,118,0.00033444816053511704,1500.5,1480,1402.0,1500
34.75000000000016,648,165,119,0.0003205128205128205,1500.5,1480,1401.0,1500
34.80000000000016,649,164,120,0.0003156565656565657,1500.4,1480,1400.0,1500
34.85000000000016,650,165,122,0.0003273322422258593,1500.5,1480,1398.0,1500
34.900000000000155,651,165,124,0.0003418803418803419,1500.5,1480,1396.0,1500
34.95000000000015,652,164,126,0.0003551136363636364,1500.4,1480,1394.0,1500
35.00000000000015,653,164,128,0.00034965034965034965,1500.4,1480,1392.0,1500
35.050000000000146,654,164,131,0.0003633720930232558,1500.4,1480,1389.0,1500
35.10000000000014,655,164,132,0.0003720238095238095,1500.4,1480,1388.0,1500
35.15000000000014,656,164,134,0.00038714672861014324,1500.4,1480,1386.0,1500
35.20000000000014,657,163,134,0.0003846153846153846,1500.3,1480,1386.0,1500
35.250000000000135,658,162,135,0.000390625,1500.2,1480,1385.0,1500
35.30000000000013,659,162,135,0.0003846153846153846,1500.2,1480,1385.0,1500
35.35000000000013,660,161,135,0.000390625,1500.1,1480,1385.0,1500
35.40000000000013,661,161,135,0.000390625,1500.1,1480,1385.0,1500
35.450000000000124,662,161,135,0.000375234521575985,1500.1,1480,1385.0,1500
35.50000000000012,663,160,135,0.00038109756097560977,1500.0,1480,1385.0,1500
35.55000000000012,664,160,135,0.00038109756097560977,1500.0,1480,1385.0,1500
35.600000000000115,665,160,135,0.00038109756097560977,1500.0,1480,1385.0,1500
35.65000000000011,666,160,134,0.000390625,1500.0,1480,1386.0,1500
35.70000000000011,667,161,134,0.0003968253968253968,1500.1,1480,1386.0,1500
35.75000000000011,668,161,134,0.000375234521575985,1500.1,1480,1386.0,1500
35.800000000000104,669,161,133,0.0003968253968253968,1500.1,1480,1387.0,1500
35.8500000000001,670,161,131,0.000375234521575985,1500.1,1480,1389.0,1500
35.9000000000001,671,161,127,0.0003779289493575208,1500.1,1480,1393.0,1500
35.950000000000095,672,160,120,0.00035236081747709656,1500.0,1480,1400.0,1500
36.00000000000009,673,159,113,0.0003367003367003367,1499.9,1480,1407.0,1500
36.05000000000009,674,160,103,0.00032938076416337287,1500.0,1480,1417.0,1500
36.10000000000009,675,159,87,0.0003223726627981947,1499.9,1480,1433.0,1500
36.150000000000084,676,159,74,0.00031969309462915604,1499.9,1480,1446.0,1500
36.20000000000008,677,159,56,0.00032938076416337287,1499.9,1480,1464.0,1500
36.25000000000008,678,160,46,0.0003471017007983339,1500.0,1480,1470,1500
36.300000000000075,679,160,31,0.0003846153846153846,1500.0,1480,1470,1500
36.35000000000007,680,161,25,0.0003885003885003885,1500.1,1480,1470,1500
36.40000000000007,681,161,18,0.00041118421052631577,1500.1,1480,1470,1500
36.45000000000007,682,162,17,0.0004464285714285714,1500.2,1480,1470,1500
36.500000000000064,683,162,16,0.00045955882352941176,1500.2,1480,1470,1500
36.55000000000006,684,163,17,0.00045351473922902497,1500.3,1480,1470,1500
36.60000000000006,685,163,18,0.00043591979075850045,1500.3,1480,1470,1500
36.650000000000055,686,164,19,0.000407000407000407,1500.4,1480,1470,1500
36.70000000000005,687,165,19,0.000390625,1500.5,1480,1470,1500
36.75000000000005,688,165,19,0.0003968253968253968,1500.5,1480,1470,1500
36.80000000000005,689,165,20,0.0003846153846153846,1500.5,1480,1470,1500
36.850000000000044,690,165,20,0.0003968253968253968,1500.5,1480,1470,1500
36.90000000000004,691,165,21,0.0003968253968253968,1500.5,1480,1470,1500
36.95000000000004,692,165,22,0.000390625,1500.5,1480,1470,1500
37.000000000000036,693,165,23,0.00038109756097560977,1500.5,1480,1470,1500
37.05000000000003,694,165,24,0.00038714672861014324,1500.5,1480,1470,1500
37.10000000000003,695,165,26,0.00038109756097560977,1500.5,1480,1470,1500
37.15000000000003,696,165,28,0.00038109756097560977,1500.5,1480,1470,1500
37.200000000000024,697,165,32,0.0003633720930232558,1500.5,1480,1470,1500
37.25000000000002,698,165,36,0.00035778175313059033,1500.5,1480,1470,1500
37.30000000000002,699,165,40,0.00034965034965034965,1500.5,1480,1470,1500
37.350000000000016,700,165,48,0.00033444816053511704,1500.5,1480,1470,1500
37.40000000000001,701,166,53,0.00033068783068783067,1500.6,1480,1467.0,1500
37.45000000000001,702,166,63,0.0003606202668589975,1500.6,1480,1457.0,1500
37.50000000000001,703,166,69,0.0003459010722933241,1500.6,1480,1451.0,1500
37.550000000000004,704,165,79,0.0003732736095558044,1500.5,1480,1441.0,1500
37.6,705,167,79,0.0008525149190110827,1500.7,1483.5251491901108,1441.0,1500
37.65,706,175,91,0.007575757575757576,1501.5,1520,1429.0,1500
37.699999999999996,707,168,103,0.0035714285714285713,1500.8,1510.7142857142858,1417.0,1500
37.74999999999999,708,166,112,0.037037037037037035,1500.6,1520,1408.0,1500
37.79999999999999,708,,,,1500.0,1500.0,1420.0,1500
37.84999999999999,708,,,,1500.0,1500.0,1420.0,1500
37.899999999999984,708,,,,1500.0,1500.0,1420.0,1500
37.94999999999998,709,146,115,0.03571428571428571,1498.6,1520,1405.0,1500
37.99999999999998,709,,,,1500.0,1500.0,1420.0,1500
38.049999999999976,710,129,117,0.041666666666666664,1496.9,1520,1403.0,1500
38.09999999999997,710,,,,1500.0,1500.0,1420.0,1500
38.14999999999997,711,110,143,0.05555555555555555,1495.0,1520,1377.0,1500
38.19999999999997,712,111,154,0.020833333333333332,1495.1,1520,1370,1500
38.249999999999964,713,100,168,0.009615384615384616,1494.0,1520,1370,1500
38.29999999999996,714,89,168,0.008928571428571428,1492.9,1520,1370,1500
38.34999999999996,715,84,176,0.01,1492.4,1520,1370,1500
38.399999999999956,715,,,,1500.0,1500.0,1420.0,1500
38.44999999999995,715,,,,1500.0,1500.0,1420.0,1500
38.49999999999995,715,,,,1500.0,1500.0,1420.0,1500
38.54999999999995,715,,,,1500.0,1500.0,1420.0,1500
38.599999999999945,715,,,,1500.0,1500.0,1420.0,1500
38.64999999999994,715,,,,1500.0,1500.0,1420.0,1500
38.69999999999994,715,,,,1500.0,1500.0,1420.0,1500
38.749999999999936,715,,,,1500.0,1500.0,1420.0,1500
38.79999999999993,715,,,,1500.0,1500.0,1420.0,1500
38.84999999999993,715,,,,1500.0,1500.0,1420.0,1500
38.89999999999993,715,,,,1500.0,1500.0,1420.0,1500
38.949999999999925,715,,,,1500.0,1500.0,1420.0,1500
38.99999999999992,715,,,,1500.0,1500.0,1420.0,1500
39.04999999999992,715,,,,1500.0,1500.0,1420.0,1500
39.099999999999916,715,,,,1500.0,1500.0,1420.0,1500
39.14999999999991,715,,,,1500.0,1500.0,1420.0,1500
39.19999999999991,715,,,,1500.0,1500.0,1420.0,1500
39.24999999999991,715,,,,1500.0,1500.0,1420.0,1500
39.299999999999905,715,,,,1500.0,1500.0,1420.0,1500
39.3499999999999,715,,,,1500.0,1500.0,1420.0,1500
39.3999999999999,715,,,,1500.0,1500.0,1420.0,1500
39.449999999999896,715,,,,1500.0,1500.0,1420.0,1500
39.49999999999989,715,,,,1500.0,1500.0,1420.0,1500
39.54999999999989,715,,,,1500.0,1500.0,1420.0,1500
39.59999999999989,715,,,,1500.0,1500.0,1420.0,1500
39.649999999999885,715,,,,1500.0,1500.0,1420.0,1500
39.69999999999988,715,,,,1500.0,1500.0,1420.0,1500
39.74999999999988,715,,,,1500.0,1500.0,1420.0,1500
39.799999999999876,715,,,,1500.0,1500.0,1420.0,1500
39.84999999999987,715,,,,1500.0,1500.0,1420.0,1500
39.89999999999987,715,,,,1500.0,1500.0,1420.0,1500
39.94999999999987,715,,,,1500.0,1500.0,1420.0,1500
39.999999999999865,715,,,,1500.0,1500.0,1420.0,1500
40.04999999999986,715,,,,1500.0,1500.0,1420.0,1500
40.09999999999986,715,,,,1500.0,1500.0,1420.0,1500
40.14999999999986,715,,,,1500.0,1500.0,1420.0,1500
40.199999999999854,715,,,,1500.0,1500.0,1420.0,1500
40.24999999999985,715,,,,1500.0,1500.0,1420.0,1500
40.29999999999985,715,,,,1500.0,1500.0,1420.0,1500
40.349999999999845,715,,,,1500.0,1500.0,1420.0,1500
40.39999999999984,715,,,,1500.0,1500.0,1420.0,1500
