time,frame,x,y,size_inv,roll,pitch,thrust,yaw
0,0,,,,1500.0,1500.0,1420.0,1500
0.05,1,150,181,0,1499.0,1500.5,1370,1500
0.1,2,136,184,0,1497.6,1500.5,1370,1500
0.15000000000000002,2,,,,1500.0,1500.0,1420.0,1500
0.2,2,,,,1500.0,1500.0,1420.0,1500
0.25,2,,,,1500.0,1500.0,1420.0,1500
0.3,2,,,,1500.0,1500.0,1420.0,1500
0.35,2,,,,1500.0,1500.0,1420.0,1500
0.39999999999999997,2,,,,1500.0,1500.0,1420.0,1500
0.44999999999999996,2,,,,1500.0,1500.0,1420.0,1500
0.49999999999999994,2,,,,1500.0,1500.0,1420.0,1500
0.5499999999999999,2,,,,1500.0,1500.0,1420.0,1500
0.6,2,,,,1500.0,1500.0,1420.0,1500
0.65,2,,,,1500.0,1500.0,1420.0,1500
0.7000000000000001,2,,,,1500.0,1500.0,1420.0,1500
0.7500000000000001,2,,,,1500.0,1500.0,1420.0,1500
0.8000000000000002,2,,,,1500.0,1500.0,1420.0,1500
0.8500000000000002,2,,,,1500.0,1500.0,1420.0,1500
0.9000000000000002,2,,,,1500.0,1500.0,1420.0,1500
0.9500000000000003,2,,,,1500.0,1500.0,1420.0,1500
1.0000000000000002,2,,,,1500.0,1500.0,1420.0,1500
1.0500000000000003,2,,,,1500.0,1500.0,1420.0,1500
1.1000000000000003,2,,,,1500.0,1500.0,1420.0,1500
1.1500000000000004,2,,,,1500.0,1500.0,1420.0,1500
1.2000000000000004,2,,,,1500.0,1500.0,1420.0,1500
1.2500000000000004,2,,,,1500.0,1500.0,1420.0,1500
1.3000000000000005,2,,,,1500.0,1500.0,1420.0,1500
1.3500000000000005,2,,,,1500.0,1500.0,1420.0,1500
1.4000000000000006,3,154,174,0,1499.4,1500.5,1370,1500
1.4500000000000006,4,151,163,0,1499.1,1500.5,1370,1500
1.5000000000000007,5,145,145,0,1498.5,1500.5,1375.0,1500
1.5500000000000007,6,146,136,0,1498.6,1500.5,1384.0,1500
1.6000000000000008,7,146,126,0,1498.6,1500.5,1394.0,1500
1.6500000000000008,8,146,122,0,1498.6,1500.5,1398.0,1500
1.7000000000000008,9,146,118,0,1498.6,1500.5,1402.0,1500
1.7500000000000009,10,147,116,0,1498.7,1500.5,1404.0,1500
1.800000000000001,11,148,114,0,1498.8,1500.5,1406.0,1500
1.850000000000001,12,148,114,0,1498.8,1500.5,1406.0,1500
1.900000000000001,13,149,114,0,1498.9,1500.5,1406.0,1500
1.950000000000001,14,151,114,0,1499.1,1500.5,1406.0,1500
2.000000000000001,15,151,114,0,1499.1,1500.5,1406.0,1500
2.0500000000000007,16,152,114,0,1499.2,1500.5,1406.0,1500
2.1000000000000005,17,152,114,0,1499.2,1500.5,1406.0,1500
2.1500000000000004,18,152,114,0,1499.2,1500.5,1406.0,1500
2.2,19,153,115,0,1499.3,1500.5,1405.0,1500
2.25,20,153,116,0,1499.3,1500.5,1404.0,1500
2.3,21,154,116,0,1499.4,1500.5,1404.0,1500
2.3499999999999996,22,155,117,0,1499.5,1500.5,1403.0,1500
2.3999999999999995,23,157,118,0,1499.7,1500.5,1402.0,1500
2.4499999999999993,24,157,118,0,1499.7,1500.5,1402.0,1500
2.499999999999999,25,158,119,0,1499.8,1500.5,1401.0,1500
2.549999999999999,26,158,121,0,1499.8,1500.5,1399.0,1500
2.5999999999999988,27,160,121,0,1500.0,1500.5,1399.0,1500
2.6499999999999986,28,160,122,0,1500.0,1500.5,1398.0,1500
2.6999999999999984,29,160,123,0,1500.0,1500.5,1397.0,1500
2.7499999999999982,30,160,123,0,1500.0,1500.5,1397.0,1500
2.799999999999998,31,161,123,0,1500.1,1500.5,1397.0,1500
2.849999999999998,32,161,123,0,1500.1,1500.5,1397.0,1500
2.8999999999999977,33,161,123,0,1500.1,1500.5,1397.0,1500
2.9499999999999975,34,161,123,0,1500.1,1500.5,1397.0,1500
2.9999999999999973,35,161,122,0,1500.1,1500.5,1398.0,1500
3.049999999999997,36,160,121,0,1500.0,1500.5,1399.0,1500
3.099999999999997,37,161,121,0,1500.1,1500.5,1399.0,1500
3.149999999999997,38,160,120,0,1500.0,1500.5,1400.0,1500
3.1999999999999966,39,159,119,0,1499.9,1500.5,1401.0,1500
3.2499999999999964,40,159,119,0,1499.9,1500.5,1401.0,1500
3.2999999999999963,41,158,118,0,1499.8,1500.5,1402.0,1500
3.349999999999996,42,157,119,0,1499.7,1500.5,1401.0,1500
3.399999999999996,43,157,118,0,1499.7,1500.5,1402.0,1500
3.4499999999999957,44,157,118,0,1499.7,1500.5,1402.0,1500
3.4999999999999956,45,156,118,0,1499.6,1500.5,1402.0,1500
3.5499999999999954,46,156,118,0,1499.6,1500.5,1402.0,1500
3.599999999999995,47,156,117,0,1499.6,1500.5,1403.0,1500
3.649999999999995,48,156,116,0,1499.6,1500.5,1404.0,1500
3.699999999999995,49,156,116,0,1499.6,1500.5,1404.0,1500
3.7499999999999947,50,156,115,0,1499.6,1500.5,1405.0,1500
3.7999999999999945,51,156,115,0,1499.6,1500.5,1405.0,1500
3.8499999999999943,52,156,115,0,1499.6,1500.5,1405.0,1500
3.899999999999994,53,155,115,0,1499.5,1500.5,1405.0,1500
3.949999999999994,54,155,115,0,1499.5,1500.5,1405.0,1500
3.999999999999994,55,154,114,0,1499.4,1500.5,1406.0,1500
4.049999999999994,56,154,114,0,1499.4,1500.5,1406.0,1500
4.099999999999993,57,153,114,0,1499.3,1500.5,1406.0,1500
4.149999999999993,58,153,113,0,1499.3,1500.5,1407.0,1500
4.199999999999993,59,153,113,0,1499.3,1500.5,1407.0,1500
4.249999999999993,60,153,113,0,1499.3,1500.5,1407.0,1500
4.299999999999993,61,153,113,0,1499.3,1500.5,1407.0,1500
4.3499999999999925,62,154,113,0,1499.4,1500.5,1407.0,1500
4.399999999999992,63,154,113,0,1499.4,1500.5,1407.0,1500
4.449999999999992,64,154,113,0,1499.4,1500.5,1407.0,1500
4.499999999999992,65,154,113,0,1499.4,1500.5,1407.0,1500
4.549999999999992,66,154,113,0,1499.4,1500.5,1407.0,1500
4.599999999999992,67,154,113,0,1499.4,1500.5,1407.0,1500
4.6499999999999915,68,154,113,0,1499.4,1500.5,1407.0,1500
4.699999999999991,69,154,113,0,1499.4,1500.5,1407.0,1500
4.749999999999991,70,154,113,0,1499.4,1500.5,1407.0,1500
4.799999999999991,71,154,112,0,1499.4,1500.5,1408.0,1500
4.849999999999991,72,154,112,0,1499.4,1500.5,1408.0,1500
4.899999999999991,73,154,112,0,1499.4,1500.5,1408.0,1500
4.94999999999999,74,155,112,0,1499.5,1500.5,1408.0,1500
4.99999999999999,75,155,112,0,1499.5,1500.5,1408.0,1500
5.04999999999999,76,155,112,0,1499.5,1500.5,1408.0,1500
5.09999999999999,77,153,112,0,1499.3,1500.5,1408.0,1500
5.14999999999999,78,154,112,0,1499.4,1500.5,1408.0,1500
5.1999999999999895,79,153,113,0,1499.3,1500.5,1407.0,1500
5.249999999999989,80,153,113,0,1499.3,1500.5,1407.0,1500
5.299999999999989,81,153,113,0,1499.3,1500.5,1407.0,1500
5.349999999999989,82,154,113,0,1499.4,1500.5,1407.0,1500
5.399999999999989,83,153,113,0,1499.3,1500.5,1407.0,1500
5.449999999999989,84,153,113,0,1499.3,1500.5,1407.0,1500
5.4999999999999885,85,154,113,0,1499.4,1500.5,1407.0,1500
5.549999999999988,86,153,113,0,1499.3,1500.5,1407.0,1500
5.599999999999988,87,154,113,0,1499.4,1500.5,1407.0,1500
5.649999999999988,88,154,113,0,1499.4,1500.5,1407.0,1500
5.699999999999988,89,155,112,0,1499.5,1500.5,1408.0,1500
5.749999999999988,90,155,113,0,1499.5,1500.5,1407.0,1500
5.799999999999987,91,156,113,0,1499.6,1500.5,1407.0,1500
5.849999999999987,92,155,113,0,1499.5,1500.5,1407.0,1500
5.899999999999987,93,156,113,0,1499.6,1500.5,1407.0,1500
5.949999999999987,94,155,112,0,1499.5,1500.5,1408.0,1500
5.999999999999987,95,156,112,0,1499.6,1500.5,1408.0,1500
6.0499999999999865,96,156,112,0,1499.6,1500.5,1408.0,1500
6.099999999999986,97,156,112,0,1499.6,1500.5,1408.0,1500
6.149999999999986,98,155,112,0,1499.5,1500.5,1408.0,1500
6.199999999999986,99,154,112,0,1499.4,1500.5,1408.0,1500
6.249999999999986,100,154,112,0,1499.4,1500.5,1408.0,1500
6.299999999999986,101,154,112,0,1499.4,1500.5,1408.0,1500
6.349999999999985,102,154,112,0,1499.4,1500.5,1408.0,1500
6.399999999999985,103,153,112,0,1499.3,1500.5,1408.0,1500
6.449999999999985,104,153,112,0,1499.3,1500.5,1408.0,1500
6.499999999999985,105,153,112,0,1499.3,1500.5,1408.0,1500
6.549999999999985,106,154,113,0,1499.4,1500.5,1407.0,1500
6.5999999999999845,107,154,112,0,1499.4,1500.5,1408.0,1500
6.649999999999984,108,155,112,0,1499.5,1500.5,1408.0,1500
6.699999999999984,109,155,112,0,1499.5,1500.5,1408.0,1500
6.749999999999984,110,156,112,0,1499.6,1500.5,1408.0,1500
6.799999999999984,111,156,112,0,1499.6,1500.5,1408.0,1500
6.849999999999984,112,157,112,0,1499.7,1500.5,1408.0,1500
6.8999999999999835,113,157,112,0,1499.7,1500.5,1408.0,1500
6.949999999999983,114,157,112,0,1499.7,1500.5,1408.0,1500
6.999999999999983,115,157,112,0,1499.7,1500.5,1408.0,1500
7.049999999999983,116,157,111,0,1499.7,1500.5,1409.0,1500
7.099999999999983,117,157,111,0,1499.7,1500.5,1409.0,1500
7.149999999999983,118,157,111,0,1499.7,1500.5,1409.0,1500
7.199999999999982,119,157,111,0,1499.7,1500.5,1409.0,1500
7.249999999999982,120,157,111,0,1499.7,1500.5,1409.0,1500
7.299999999999982,121,155,111,0,1499.5,1500.5,1409.0,1500
7.349999999999982,122,155,112,0,1499.5,1500.5,1408.0,1500
7.399999999999982,123,155,111,0,1499.5,1500.5,1409.0,1500
7.4499999999999815,124,156,111,0,1499.6,1500.5,1409.0,1500
7.499999999999981,125,156,111,0,1499.6,1500.5,1409.0,1500
7.549999999999981,126,156,111,0,1499.6,1500.5,1409.0,1500
7.599999999999981,127,157,111,0,1499.7,1500.5,1409.0,1500
7.649999999999981,128,157,111,0,1499.7,1500.5,1409.0,1500
7.699999999999981,129,157,111,0,1499.7,1500.5,1409.0,1500
7.7499999999999805,130,158,112,0,1499.8,1500.5,1408.0,1500
7.79999999999998,131,158,112,0,1499.8,1500.5,1408.0,1500
7.84999999999998,132,158,112,0,1499.8,1500.5,1408.0,1500
7.89999999999998,133,158,112,0,1499.8,1500.5,1408.0,1500
7.94999999999998,134,158,112,0,1499.8,1500.5,1408.0,1500
7.99999999999998,135,158,112,0,1499.8,1500.5,1408.0,1500
8.04999999999998,136,158,112,0,1499.8,1500.5,1408.0,1500
8.09999999999998,137,159,112,0,1499.9,1500.5,1408.0,1500
8.14999999999998,138,158,112,0,1499.8,1500.5,1408.0,1500
8.199999999999982,139,157,112,0,1499.7,1500.5,1408.0,1500
8.249999999999982,140,157,112,0,1499.7,1500.5,1408.0,1500
8.299999999999983,141,157,112,0,1499.7,1500.5,1408.0,1500
8.349999999999984,142,158,112,0,1499.8,1500.5,1408.0,1500
8.399999999999984,143,157,112,0,1499.7,1500.5,1408.0,1500
8.449999999999985,144,156,112,0,1499.6,1500.5,1408.0,1500
8.499999999999986,145,156,112,0,1499.6,1500.5,1408.0,1500
8.549999999999986,146,157,112,0,1499.7,1500.5,1408.0,1500
8.599999999999987,147,156,112,0,1499.6,1500.5,1408.0,1500
8.649999999999988,148,156,111,0,1499.6,1500.5,1409.0,1500
8.699999999999989,149,156,112,0,1499.6,1500.5,1408.0,1500
8.74999999999999,150,156,111,0,1499.6,1500.5,1409.0,1500
8.79999999999999,151,156,111,0,1499.6,1500.5,1409.0,1500
8.84999999999999,152,156,111,0,1499.6,1500.5,1409.0,1500
8.899999999999991,153,157,112,0,1499.7,1500.5,1408.0,1500
8.949999999999992,154,157,112,0,1499.7,1500.5,1408.0,1500
8.999999999999993,155,157,112,0,1499.7,1500.5,1408.0,1500
9.049999999999994,156,157,112,0,1499.7,1500.5,1408.0,1500
9.099999999999994,157,158,112,0,1499.8,1500.5,1408.0,1500
9.149999999999995,158,158,112,0,1499.8,1500.5,1408.0,1500
9.199999999999996,159,158,112,0,1499.8,1500.5,1408.0,1500
9.249999999999996,160,158,112,0,1499.8,1500.5,1408.0,1500
9.299999999999997,161,158,112,0,1499.8,1500.5,1408.0,1500
9.349999999999998,162,159,112,0,1499.9,1500.5,1408.0,1500
9.399999999999999,163,158,112,0,1499.8,1500.5,1408.0,1500
9.45,164,159,112,0,1499.9,1500.5,1408.0,1500
9.5,165,158,112,0,1499.8,1500.5,1408.0,1500
9.55,166,159,112,0,1499.9,1500.5,1408.0,1500
9.600000000000001,167,158,112,0,1499.8,1500.5,1408.0,1500
9.650000000000002,168,159,113,0,1499.9,1500.5,1407.0,1500
9.700000000000003,169,158,112,0,1499.8,1500.5,1408.0,1500
9.750000000000004,170,158,112,0,1499.8,1500.5,1408.0,1500
9.800000000000004,171,158,112,0,1499.8,1500.5,1408.0,1500
9.850000000000005,172,159,112,0,1499.9,1500.5,1408.0,1500
9.900000000000006,173,159,112,0,1499.9,1500.5,1408.0,1500
9.950000000000006,174,159,112,0,1499.9,1500.5,1408.0,1500
10.000000000000007,175,159,112,0,1499.9,1500.5,1408.0,1500
10.050000000000008,176,158,113,0,1499.8,1500.5,1407.0,1500
10.100000000000009,177,159,113,0,1499.9,1500.5,1407.0,1500
10.15000000000001,178,159,113,0,1499.9,1500.5,1407.0,1500
10.20000000000001,179,159,113,0,1499.9,1500.5,1407.0,1500
10.25000000000001,180,159,113,0,1499.9,1500.5,1407.0,1500
10.300000000000011,181,159,113,0,1499.9,1500.5,1407.0,1500
10.350000000000012,182,159,116,0,1499.9,1500.5,1404.0,1500
10.400000000000013,183,159,113,0,1499.9,1500.5,1407.0,1500
10.450000000000014,184,159,113,0,1499.9,1500.5,1407.0,1500
10.500000000000014,185,159,113,0,1499.9,1500.5,1407.0,1500
10.550000000000015,186,159,113,0,1499.9,1500.5,1407.0,1500
10.600000000000016,187,159,113,0,1499.9,1500.5,1407.0,1500
10.650000000000016,188,160,113,0,1500.0,1500.5,1407.0,1500
10.700000000000017,189,159,113,0,1499.9,1500.5,1407.0,1500
10.750000000000018,190,159,113,0,1499.9,1500.5,1407.0,1500
10.800000000000018,191,160,113,0,1500.0,1500.5,1407.0,1500
10.85000000000002,192,159,113,0,1499.9,1500.5,1407.0,1500
10.90000000000002,193,160,113,0,1500.0,1500.5,1407.0,1500
10.95000000000002,194,159,113,0,1499.9,1500.5,1407.0,1500
11.000000000000021,195,159,113,0,1499.9,1500.5,1407.0,1500
11.050000000000022,196,160,112,0,1500.0,1500.5,1408.0,1500
11.100000000000023,197,159,112,0,1499.9,1500.5,1408.0,1500
11.150000000000023,198,160,112,0,1500.0,1500.5,1408.0,1500
11.200000000000024,199,160,112,0,1500.0,1500.5,1408.0,1500
11.250000000000025,200,159,112,0,1499.9,1500.5,1408.0,1500
11.300000000000026,201,159,112,0,1499.9,1500.5,1408.0,1500
11.350000000000026,202,159,110,0,1499.9,1500.5,1410.0,1500
11.400000000000027,203,159,112,0,1499.9,1500.5,1408.0,1500
11.450000000000028,204,159,112,0,1499.9,1500.5,1408.0,1500
11.500000000000028,205,159,112,0,1499.9,1500.5,1408.0,1500
11.55000000000003,206,159,111,0,1499.9,1500.5,1409.0,1500
11.60000000000003,207,159,112,0,1499.9,1500.5,1408.0,1500
11.65000000000003,208,159,112,0,1499.9,1500.5,1408.0,1500
11.700000000000031,209,159,111,0,1499.9,1500.5,1409.0,1500
11.750000000000032,210,159,112,0,1499.9,1500.5,1408.0,1500
11.800000000000033,211,159,111,0,1499.9,1500.5,1409.0,1500
11.850000000000033,212,159,111,0,1499.9,1500.5,1409.0,1500
11.900000000000034,213,159,111,0,1499.9,1500.5,1409.0,1500
11.950000000000035,214,159,112,0,1499.9,1500.5,1408.0,1500
12.000000000000036,215,160,111,0,1500.0,1500.5,1409.0,1500
12.050000000000036,216,159,112,0,1499.9,1500.5,1408.0,1500
12.100000000000037,217,159,112,0,1499.9,1500.5,1408.0,1500
12.150000000000038,218,159,112,0,1499.9,1500.5,1408.0,1500
12.200000000000038,219,159,112,0,1499.9,1500.5,1408.0,1500
12.250000000000039,220,159,112,0,1499.9,1500.5,1408.0,1500
12.30000000000004,221,160,113,0,1500.0,1500.5,1407.0,1500
12.35000000000004,222,158,113,0,1499.8,1500.5,1407.0,1500
12.400000000000041,223,159,113,0,1499.9,1500.5,1407.0,1500
12.450000000000042,224,159,113,0,1499.9,1500.5,1407.0,1500
12.500000000000043,225,158,113,0,1499.8,1500.5,1407.0,1500
12.550000000000043,226,158,113,0,1499.8,1500.5,1407.0,1500
12.600000000000044,227,158,113,0,1499.8,1500.5,1407.0,1500
12.650000000000045,228,158,113,0,1499.8,1500.5,1407.0,1500
12.700000000000045,229,158,113,0,1499.8,1500.5,1407.0,1500
12.750000000000046,230,159,113,0,1499.9,1500.5,1407.0,1500
12.800000000000047,231,159,113,0,1499.9,1500.5,1407.0,1500
12.850000000000048,232,159,113,0,1499.9,1500.5,1407.0,1500
12.900000000000048,233,158,113,0,1499.8,1500.5,1407.0,1500
12.950000000000049,234,159,113,0,1499.9,1500.5,1407.0,1500
13.00000000000005,235,158,113,0,1499.8,1500.5,1407.0,1500
13.05000000000005,236,159,113,0,1499.9,1500.5,1407.0,1500
13.100000000000051,237,158,113,0,1499.8,1500.5,1407.0,1500
13.150000000000052,238,158,113,0,1499.8,1500.5,1407.0,1500
13.200000000000053,239,158,113,0,1499.8,1500.5,1407.0,1500
13.250000000000053,240,158,113,0,1499.8,1500.5,1407.0,1500
13.300000000000054,241,158,113,0,1499.8,1500.5,1407.0,1500
13.350000000000055,242,159,113,0,1499.9,1500.5,1407.0,1500
13.400000000000055,243,159,113,0,1499.9,1500.5,1407.0,1500
13.450000000000056,244,159,112,0,1499.9,1500.5,1408.0,1500
13.500000000000057,245,159,112,0,1499.9,1500.5,1408.0,1500
13.550000000000058,246,158,113,0,1499.8,1500.5,1407.0,1500
13.600000000000058,247,158,113,0,1499.8,1500.5,1407.0,1500
13.650000000000059,248,159,112,0,1499.9,1500.5,1408.0,1500
13.70000000000006,249,158,113,0,1499.8,1500.5,1407.0,1500
13.75000000000006,250,158,113,0,1499.8,1500.5,1407.0,1500
13.800000000000061,251,158,113,0,1499.8,1500.5,1407.0,1500
13.850000000000062,252,158,113,0,1499.8,1500.5,1407.0,1500
13.900000000000063,253,159,113,0,1499.9,1500.5,1407.0,1500
13.950000000000063,254,159,114,0,1499.9,1500.5,1406.0,1500
14.000000000000064,255,159,114,0,1499.9,1500.5,1406.0,1500
14.050000000000065,256,159,114,0,1499.9,1500.5,1406.0,1500
14.100000000000065,257,160,114,0,1500.0,1500.5,1406.0,1500
14.150000000000066,258,160,114,0,1500.0,1500.5,1406.0,1500
14.200000000000067,259,160,114,0,1500.0,1500.5,1406.0,1500
14.250000000000068,260,159,113,0,1499.9,1500.5,1407.0,1500
14.300000000000068,261,160,113,0,1500.0,1500.5,1407.0,1500
14.350000000000069,262,159,113,0,1499.9,1500.5,1407.0,1500
14.40000000000007,263,159,113,0,1499.9,1500.5,1407.0,1500
14.45000000000007,264,159,113,0,1499.9,1500.5,1407.0,1500
14.500000000000071,265,159,113,0,1499.9,1500.5,1407.0,1500
14.550000000000072,266,159,113,0,1499.9,1500.5,1407.0,1500
14.600000000000072,267,160,113,0,1500.0,1500.5,1407.0,1500
14.650000000000073,268,159,113,0,1499.9,1500.5,1407.0,1500
14.700000000000074,269,158,113,0,1499.8,1500.5,1407.0,1500
14.750000000000075,270,159,112,0,1499.9,1500.5,1408.0,1500
14.800000000000075,271,160,112,0,1500.0,1500.5,1408.0,1500
14.850000000000076,272,159,112,0,1499.9,1500.5,1408.0,1500
14.900000000000077,273,158,112,0,1499.8,1500.5,1408.0,1500
14.950000000000077,274,159,112,0,1499.9,1500.5,1408.0,1500
15.000000000000078,275,160,112,0,1500.0,1500.5,1408.0,1500
15.050000000000079,276,160,112,0,1500.0,1500.5,1408.0,1500
15.10000000000008,277,160,113,0,1500.0,1500.5,1407.0,1500
15.15000000000008,278,160,113,0,1500.0,1500.5,1407.0,1500
15.200000000000081,279,160,113,0,1500.0,1500.5,1407.0,1500
15.250000000000082,280,161,113,0,1500.1,1500.5,1407.0,1500
15.300000000000082,281,160,113,0,1500.0,1500.5,1407.0,1500
15.350000000000083,282,161,112,0,1500.1,1500.5,1408.0,1500
15.400000000000084,283,160,112,0,1500.0,1500.5,1408.0,1500
15.450000000000085,284,161,112,0,1500.1,1500.5,1408.0,1500
15.500000000000085,285,160,112,0,1500.0,1500.5,1408.0,1500
15.550000000000086,286,160,112,0,1500.0,1500.5,1408.0,1500
15.600000000000087,287,161,112,0,1500.1,1500.5,1408.0,1500
15.650000000000087,288,161,112,0,1500.1,1500.5,1408.0,1500
15.700000000000088,289,161,110,0,1500.1,1500.5,1410.0,1500
15.750000000000089,290,161,112,0,1500.1,1500.5,1408.0,1500
15.80000000000009,291,161,112,0,1500.1,1500.5,1408.0,1500
15.85000000000009,292,161,112,0,1500.1,1500.5,1408.0,1500
15.900000000000091,293,161,112,0,1500.1,1500.5,1408.0,1500
15.950000000000092,294,161,112,0,1500.1,1500.5,1408.0,1500
16.000000000000092,295,161,112,0,1500.1,1500.5,1408.0,1500
16.050000000000093,296,162,112,0,1500.2,1500.5,1408.0,1500
16.100000000000094,297,162,112,0,1500.2,1500.5,1408.0,1500
16.150000000000095,298,161,112,0,1500.1,1500.5,1408.0,1500
16.200000000000095,299,162,112,0,1500.2,1500.5,1408.0,1500
16.250000000000096,300,162,111,0,1500.2,1500.5,1409.0,1500
16.300000000000097,301,162,112,0,1500.2,1500.5,1408.0,1500
16.350000000000097,302,162,112,0,1500.2,1500.5,1408.0,1500
16.400000000000098,303,162,112,0,1500.2,1500.5,1408.0,1500
16.4500000000001,304,162,112,0,1500.2,1500.5,1408.0,1500
16.5000000000001,305,162,112,0,1500.2,1500.5,1408.0,1500
16.5500000000001,306,164,113,0,1500.4,1500.5,1407.0,1500
16.6000000000001,307,163,111,0,1500.3,1500.5,1409.0,1500
16.6500000000001,308,162,112,0,1500.2,1500.5,1408.0,1500
16.700000000000102,309,161,113,0,1500.1,1500.5,1407.0,1500
16.750000000000103,310,162,113,0,1500.2,1500.5,1407.0,1500
16.800000000000104,311,162,113,0,1500.2,1500.5,1407.0,1500
16.850000000000104,312,162,113,0,1500.2,1500.5,1407.0,1500
16.900000000000105,313,162,113,0,1500.2,1500.5,1407.0,1500
16.950000000000106,314,162,113,0,1500.2,1500.5,1407.0,1500
17.000000000000107,315,162,113,0,1500.2,1500.5,1407.0,1500
17.050000000000107,316,163,113,0,1500.3,1500.5,1407.0,1500
17.100000000000108,317,162,112,0,1500.2,1500.5,1408.0,1500
17.15000000000011,318,162,112,0,1500.2,1500.5,1408.0,1500
17.20000000000011,319,163,112,0,1500.3,1500.5,1408.0,1500
17.25000000000011,320,163,112,0,1500.3,1500.5,1408.0,1500
17.30000000000011,321,163,113,0,1500.3,1500.5,1407.0,1500
17.35000000000011,322,163,112,0,1500.3,1500.5,1408.0,1500
17.400000000000112,323,163,112,0,1500.3,1500.5,1408.0,1500
17.450000000000113,324,162,113,0,1500.2,1500.5,1407.0,1500
17.500000000000114,325,164,113,0,1500.4,1500.5,1407.0,1500
17.550000000000114,326,163,113,0,1500.3,1500.5,1407.0,1500
17.600000000000115,327,163,112,0,1500.3,1500.5,1408.0,1500
17.650000000000116,328,163,112,0,1500.3,1500.5,1408.0,1500
17.700000000000117,329,163,112,0,1500.3,1500.5,1408.0,1500
17.750000000000117,330,163,112,0,1500.3,1500.5,1408.0,1500
17.800000000000118,331,163,112,0,1500.3,1500.5,1408.0,1500
17.85000000000012,332,163,112,0,1500.3,1500.5,1408.0,1500
17.90000000000012,333,163,112,0,1500.3,1500.5,1408.0,1500
17.95000000000012,334,163,112,0,1500.3,1500.5,1408.0,1500
18.00000000000012,335,163,112,0,1500.3,1500.5,1408.0,1500
18.05000000000012,336,162,112,0,1500.2,1500.5,1408.0,1500
18.100000000000122,337,162,112,0,1500.2,1500.5,1408.0,1500
18.150000000000123,338,162,112,0,1500.2,1500.5,1408.0,1500
18.200000000000124,339,163,110,0,1500.3,1500.5,1410.0,1500
18.250000000000124,340,163,112,0,1500.3,1500.5,1408.0,1500
18.300000000000125,341,164,112,0,1500.4,1500.5,1408.0,1500
18.350000000000126,342,163,112,0,1500.3,1500.5,1408.0,1500
18.400000000000126,343,164,113,0,1500.4,1500.5,1407.0,1500
18.450000000000127,344,163,113,0,1500.3,1500.5,1407.0,1500
18.500000000000128,345,164,112,0,1500.4,1500.5,1408.0,1500
18.55000000000013,346,164,112,0,1500.4,1500.5,1408.0,1500
18.60000000000013,347,163,112,0,1500.3,1500.5,1408.0,1500
18.65000000000013,348,163,112,0,1500.3,1500.5,1408.0,1500
18.70000000000013,349,163,112,0,1500.3,1500.5,1408.0,1500
18.75000000000013,350,162,111,0,1500.2,1500.5,1409.0,1500
18.800000000000132,351,162,112,0,1500.2,1500.5,1408.0,1500
18.850000000000133,352,162,112,0,1500.2,1500.5,1408.0,1500
18.900000000000134,353,162,112,0,1500.2,1500.5,1408.0,1500
18.950000000000134,354,162,112,0,1500.2,1500.5,1408.0,1500
19.000000000000135,355,162,112,0,1500.2,1500.5,1408.0,1500
19.050000000000136,356,162,112,0,1500.2,1500.5,1408.0,1500
19.100000000000136,357,163,112,0,1500.3,1500.5,1408.0,1500
19.150000000000137,358,163,112,0,1500.3,1500.5,1408.0,1500
19.200000000000138,359,163,112,0,1500.3,1500.5,1408.0,1500
19.25000000000014,360,161,110,0,1500.1,1500.5,1410.0,1500
19.30000000000014,361,162,111,0,1500.2,1500.5,1409.0,1500
19.35000000000014,362,163,111,0,1500.3,1500.5,1409.0,1500
19.40000000000014,363,162,112,0,1500.2,1500.5,1408.0,1500
19.45000000000014,364,163,112,0,1500.3,1500.5,1408.0,1500
19.500000000000142,365,162,110,0,1500.2,1500.5,1410.0,1500
19.550000000000143,366,162,111,0,1500.2,1500.5,1409.0,1500
19.600000000000144,367,162,111,0,1500.2,1500.5,1409.0,1500
19.650000000000144,368,162,111,0,1500.2,1500.5,1409.0,1500
19.700000000000145,369,162,113,0,1500.2,1500.5,1407.0,1500
19.750000000000146,370,162,109,0,1500.2,1500.5,1411.0,1500
19.800000000000146,371,162,111,0,1500.2,1500.5,1409.0,1500
19.850000000000147,372,163,111,0,1500.3,1500.5,1409.0,1500
19.900000000000148,373,162,114,0,1500.2,1500.5,1406.0,1500
19.95000000000015,374,162,111,0,1500.2,1500.5,1409.0,1500
20.00000000000015,375,162,111,0,1500.2,1500.5,1409.0,1500
20.05000000000015,376,163,111,0,1500.3,1500.5,1409.0,1500
20.10000000000015,377,163,111,0,1500.3,1500.5,1409.0,1500
20.15000000000015,378,163,111,0,1500.3,1500.5,1409.0,1500
20.200000000000152,379,163,111,0,1500.3,1500.5,1409.0,1500
20.250000000000153,380,162,113,0,1500.2,1500.5,1407.0,1500
20.300000000000153,381,162,111,0,1500.2,1500.5,1409.0,1500
20.350000000000154,382,163,111,0,1500.3,1500.5,1409.0,1500
20.400000000000155,383,163,111,0,1500.3,1500.5,1409.0,1500
20.450000000000156,384,163,111,0,1500.3,1500.5,1409.0,1500
20.500000000000156,385,163,111,0,1500.3,1500.5,1409.0,1500
20.550000000000157,386,162,111,0,1500.2,1500.5,1409.0,1500
20.600000000000158,387,163,111,0,1500.3,1500.5,1409.0,1500
20.65000000000016,388,161,111,0,1500.1,1500.5,1409.0,1500
20.70000000000016,389,162,111,0,1500.2,1500.5,1409.0,1500
20.75000000000016,390,162,111,0,1500.2,1500.5,1409.0,1500
20.80000000000016,391,163,111,0,1500.3,1500.5,1409.0,1500
20.85000000000016,392,162,111,0,1500.2,1500.5,1409.0,1500
20.900000000000162,393,162,111,0,1500.2,1500.5,1409.0,1500
20.950000000000163,394,163,111,0,1500.3,1500.5,1409.0,1500
21.000000000000163,395,162,111,0,1500.2,1500.5,1409.0,1500
21.050000000000164,396,162,111,0,1500.2,1500.5,1409.0,1500
21.100000000000165,397,162,111,0,1500.2,1500.5,1409.0,1500
21.150000000000166,398,162,111,0,1500.2,1500.5,1409.0,1500
21.200000000000166,399,162,111,0,1500.2,1500.5,1409.0,1500
21.250000000000167,400,163,111,0,1500.3,1500.5,1409.0,1500
21.300000000000168,401,163,111,0,1500.3,1500.5,1409.0,1500
21.35000000000017,402,162,111,0,1500.2,1500.5,1409.0,1500
21.40000000000017,403,163,112,0,1500.3,1500.5,1408.0,1500
21.45000000000017,404,163,111,0,1500.3,1500.5,1409.0,1500
21.50000000000017,405,163,111,0,1500.3,1500.5,1409.0,1500
21.55000000000017,406,162,111,0,1500.2,1500.5,1409.0,1500
21.600000000000172,407,162,111,0,1500.2,1500.5,1409.0,1500
21.650000000000173,408,163,111,0,1500.3,1500.5,1409.0,1500
21.700000000000173,409,162,111,0,1500.2,1500.5,1409.0,1500
21.750000000000174,410,163,111,0,1500.3,1500.5,1409.0,1500
21.800000000000175,411,163,111,0,1500.3,1500.5,1409.0,1500
21.850000000000176,412,163,111,0,1500.3,1500.5,1409.0,1500
21.900000000000176,413,163,111,0,1500.3,1500.5,1409.0,1500
21.950000000000177,414,163,111,0,1500.3,1500.5,1409.0,1500
22.000000000000178,415,162,111,0,1500.2,1500.5,1409.0,1500
22.05000000000018,416,162,111,0,1500.2,1500.5,1409.0,1500
22.10000000000018,417,162,112,0,1500.2,1500.5,1408.0,1500
22.15000000000018,418,162,111,0,1500.2,1500.5,1409.0,1500
22.20000000000018,419,162,111,0,1500.2,1500.5,1409.0,1500
22.25000000000018,420,162,112,0,1500.2,1500.5,1408.0,1500
22.300000000000182,421,162,112,0,1500.2,1500.5,1408.0,1500
22.350000000000183,422,164,111,0,1500.4,1500.5,1409.0,1500
22.400000000000183,423,161,113,0,1500.1,1500.5,1407.0,1500
22.450000000000184,424,162,112,0,1500.2,1500.5,1408.0,1500
22.500000000000185,425,162,111,0,1500.2,1500.5,1409.0,1500
22.550000000000185,426,162,113,0,1500.2,1500.5,1407.0,1500
22.600000000000186,427,162,111,0,1500.2,1500.5,1409.0,1500
22.650000000000187,428,162,111,0,1500.2,1500.5,1409.0,1500
22.700000000000188,429,163,111,0,1500.3,1500.5,1409.0,1500
22.75000000000019,430,162,111,0,1500.2,1500.5,1409.0,1500
22.80000000000019,431,163,112,0,1500.3,1500.5,1408.0,1500
22.85000000000019,432,162,111,0,1500.2,1500.5,1409.0,1500
22.90000000000019,433,163,112,0,1500.3,1500.5,1408.0,1500
22.95000000000019,434,163,112,0,1500.3,1500.5,1408.0,1500
23.000000000000192,435,163,111,0,1500.3,1500.5,1409.0,1500
23.050000000000193,436,163,112,0,1500.3,1500.5,1408.0,1500
23.100000000000193,437,163,112,0,1500.3,1500.5,1408.0,1500
23.150000000000194,438,163,113,0,1500.3,1500.5,1407.0,1500
23.200000000000195,439,163,111,0,1500.3,1500.5,1409.0,1500
23.250000000000195,440,163,111,0,1500.3,1500.5,1409.0,1500
23.300000000000196,441,163,112,0,1500.3,1500.5,1408.0,1500
23.350000000000197,442,163,112,0,1500.3,1500.5,1408.0,1500
23.400000000000198,443,163,111,0,1500.3,1500.5,1409.0,1500
23.4500000000002,444,163,112,0,1500.3,1500.5,1408.0,1500
23.5000000000002,445,163,111,0,1500.3,1500.5,1409.0,1500
23.5500000000002,446,163,112,0,1500.3,1500.5,1408.0,1500
23.6000000000002,447,162,112,0,1500.2,1500.5,1408.0,1500
23.6500000000002,448,163,112,0,1500.3,1500.5,1408.0,1500
23.700000000000202,449,162,112,0,1500.2,1500.5,1408.0,1500
23.750000000000203,450,163,112,0,1500.3,1500.5,1408.0,1500
23.800000000000203,451,163,112,0,1500.3,1500.5,1408.0,1500
23.850000000000204,452,163,113,0,1500.3,1500.5,1407.0,1500
23.900000000000205,453,162,113,0,1500.2,1500.5,1407.0,1500
23.950000000000205,454,163,113,0,1500.3,1500.5,1407.0,1500
24.000000000000206,455,163,112,0,1500.3,1500.5,1408.0,1500
24.050000000000207,456,163,112,0,1500.3,1500.5,1408.0,1500
24.100000000000207,457,164,112,0,1500.4,1500.5,1408.0,1500
24.150000000000208,458,162,112,0,1500.2,1500.5,1408.0,1500
24.20000000000021,459,161,112,0,1500.1,1500.5,1408.0,1500
24.25000000000021,460,162,112,0,1500.2,1500.5,1408.0,1500
24.30000000000021,461,162,112,0,1500.2,1500.5,1408.0,1500
24.35000000000021,462,162,113,0,1500.2,1500.5,1407.0,1500
24.40000000000021,463,163,112,0,1500.3,1500.5,1408.0,1500
24.450000000000212,464,162,113,0,1500.2,1500.5,1407.0,1500
24.500000000000213,465,161,114,0,1500.1,1500.5,1406.0,1500
24.550000000000214,466,161,112,0,1500.1,1500.5,1408.0,1500
24.600000000000215,467,161,113,0,1500.1,1500.5,1407.0,1500
24.650000000000215,468,162,113,0,1500.2,1500.5,1407.0,1500
24.700000000000216,469,161,114,0,1500.1,1500.5,1406.0,1500
24.750000000000217,470,161,114,0,1500.1,1500.5,1406.0,1500
24.800000000000217,471,160,115,0,1500.0,1500.5,1405.0,1500
24.850000000000218,472,162,115,0,1500.2,1500.5,1405.0,1500
24.90000000000022,473,162,114,0,1500.2,1500.5,1406.0,1500
24.95000000000022,474,162,114,0,1500.2,1500.5,1406.0,1500
25.00000000000022,475,161,114,0,1500.1,1500.5,1406.0,1500
25.05000000000022,476,160,113,0,1500.0,1500.5,1407.0,1500
25.10000000000022,477,161,113,0,1500.1,1500.5,1407.0,1500
25.150000000000222,478,160,114,0,1500.0,1500.5,1406.0,1500
25.200000000000223,479,162,115,0,1500.2,1500.5,1405.0,1500
25.250000000000224,480,160,113,0,1500.0,1500.5,1407.0,1500
25.300000000000225,481,160,113,0,1500.0,1500.5,1407.0,1500
25.350000000000225,482,160,111,0,1500.0,1500.5,1409.0,1500
25.400000000000226,483,160,113,0,1500.0,1500.5,1407.0,1500
25.450000000000227,484,161,113,0,1500.1,1500.5,1407.0,1500
25.500000000000227,485,160,113,0,1500.0,1500.5,1407.0,1500
25.550000000000228,486,160,114,0,1500.0,1500.5,1406.0,1500
25.60000000000023,487,161,113,0,1500.1,1500.5,1407.0,1500
25.65000000000023,488,161,116,0,1500.1,1500.5,1404.0,1500
25.70000000000023,489,161,114,0,1500.1,1500.5,1406.0,1500
25.75000000000023,490,161,115,0,1500.1,1500.5,1405.0,1500
25.80000000000023,491,161,114,0,1500.1,1500.5,1406.0,1500
25.850000000000232,492,161,114,0,1500.1,1500.5,1406.0,1500
25.900000000000233,493,160,115,0,1500.0,1500.5,1405.0,1500
25.950000000000234,494,160,114,0,1500.0,1500.5,1406.0,1500
26.000000000000234,495,161,114,0,1500.1,1500.5,1406.0,1500
26.050000000000235,496,161,114,0,1500.1,1500.5,1406.0,1500
26.100000000000236,497,161,114,0,1500.1,1500.5,1406.0,1500
26.150000000000237,498,162,115,0,1500.2,1500.5,1405.0,1500
26.200000000000237,499,161,115,0,1500.1,1500.5,1405.0,1500
26.250000000000238,500,161,114,0,1500.1,1500.5,1406.0,1500
26.30000000000024,501,161,115,0,1500.1,1500.5,1405.0,1500
26.35000000000024,502,162,114,0,1500.2,1500.5,1406.0,1500
26.40000000000024,503,161,116,0,1500.1,1500.5,1404.0,1500
26.45000000000024,504,161,114,0,1500.1,1500.5,1406.0,1500
26.50000000000024,505,161,114,0,1500.1,1500.5,1406.0,1500
26.550000000000242,506,161,114,0,1500.1,1500.5,1406.0,1500
26.600000000000243,507,161,113,0,1500.1,1500.5,1407.0,1500
26.650000000000244,508,161,113,0,1500.1,1500.5,1407.0,1500
26.700000000000244,509,160,113,0,1500.0,1500.5,1407.0,1500
26.750000000000245,510,159,114,0,1499.9,1500.5,1406.0,1500
26.800000000000246,511,160,113,0,1500.0,1500.5,1407.0,1500
26.850000000000247,512,159,113,0,1499.9,1500.5,1407.0,1500
26.900000000000247,513,159,114,0,1499.9,1500.5,1406.0,1500
26.950000000000248,514,159,114,0,1499.9,1500.5,1406.0,1500
27.00000000000025,515,159,114,0,1499.9,1500.5,1406.0,1500
27.05000000000025,516,159,114,0,1499.9,1500.5,1406.0,1500
27.10000000000025,517,158,114,0,1499.8,1500.5,1406.0,1500
27.15000000000025,518,159,114,0,1499.9,1500.5,1406.0,1500
27.20000000000025,519,159,114,0,1499.9,1500.5,1406.0,1500
27.250000000000252,520,160,114,0,1500.0,1500.5,1406.0,1500
27.300000000000253,521,159,114,0,1499.9,1500.5,1406.0,1500
27.350000000000254,522,160,113,0,1500.0,1500.5,1407.0,1500
27.400000000000254,523,159,113,0,1499.9,1500.5,1407.0,1500
27.450000000000255,524,160,113,0,1500.0,1500.5,1407.0,1500
27.500000000000256,525,160,113,0,1500.0,1500.5,1407.0,1500
27.550000000000257,526,161,113,0,1500.1,1500.5,1407.0,1500
27.600000000000257,527,160,113,0,1500.0,1500.5,1407.0,1500
27.650000000000258,528,160,113,0,1500.0,1500.5,1407.0,1500
27.70000000000026,529,160,113,0,1500.0,1500.5,1407.0,1500
27.75000000000026,530,159,114,0,1499.9,1500.5,1406.0,1500
27.80000000000026,531,158,114,0,1499.8,1500.5,1406.0,1500
27.85000000000026,532,158,114,0,1499.8,1500.5,1406.0,1500
27.90000000000026,533,158,114,0,1499.8,1500.5,1406.0,1500
27.950000000000262,534,157,114,0,1499.7,1500.5,1406.0,1500
28.000000000000263,535,157,114,0,1499.7,1500.5,1406.0,1500
28.050000000000264,536,157,114,0,1499.7,1500.5,1406.0,1500
28.100000000000264,537,157,114,0,1499.7,1500.5,1406.0,1500
28.150000000000265,538,157,114,0,1499.7,1500.5,1406.0,1500
28.200000000000266,539,157,114,0,1499.7,1500.5,1406.0,1500
28.250000000000266,540,157,114,0,1499.7,1500.5,1406.0,1500
28.300000000000267,541,158,114,0,1499.8,1500.5,1406.0,1500
28.350000000000268,542,158,114,0,1499.8,1500.5,1406.0,1500
28.40000000000027,543,159,114,0,1499.9,1500.5,1406.0,1500
28.45000000000027,544,158,114,0,1499.8,1500.5,1406.0,1500
28.50000000000027,545,159,113,0,1499.9,1500.5,1407.0,1500
28.55000000000027,546,160,113,0,1500.0,1500.5,1407.0,1500
28.60000000000027,547,160,113,0,1500.0,1500.5,1407.0,1500
28.650000000000272,548,159,113,0,1499.9,1500.5,1407.0,1500
28.700000000000273,549,159,113,0,1499.9,1500.5,1407.0,1500
28.750000000000274,550,159,113,0,1499.9,1500.5,1407.0,1500
28.800000000000274,551,158,113,0,1499.8,1500.5,1407.0,1500
28.850000000000275,552,158,113,0,1499.8,1500.5,1407.0,1500
28.900000000000276,553,158,113,0,1499.8,1500.5,1407.0,1500
28.950000000000276,554,158,113,0,1499.8,1500.5,1407.0,1500
29.000000000000277,555,158,112,0,1499.8,1500.5,1408.0,1500
29.050000000000278,556,158,112,0,1499.8,1500.5,1408.0,1500
29.10000000000028,557,158,113,0,1499.8,1500.5,1407.0,1500
29.15000000000028,558,158,114,0,1499.8,1500.5,1406.0,1500
29.20000000000028,559,158,114,0,1499.8,1500.5,1406.0,1500
29.25000000000028,560,158,115,0,1499.8,1500.5,1405.0,1500
29.30000000000028,561,159,115,0,1499.9,1500.5,1405.0,1500
29.350000000000282,562,160,116,0,1500.0,1500.5,1404.0,1500
29.400000000000283,563,159,116,0,1499.9,1500.5,1404.0,1500
29.450000000000284,564,160,116,0,1500.0,1500.5,1404.0,1500
29.500000000000284,565,161,117,0,1500.1,1500.5,1403.0,1500
29.550000000000285,566,161,117,0,1500.1,1500.5,1403.0,1500
29.600000000000286,567,161,117,0,1500.1,1500.5,1403.0,1500
29.650000000000286,568,161,117,0,1500.1,1500.5,1403.0,1500
29.700000000000287,569,162,117,0,1500.2,1500.5,1403.0,1500
29.750000000000288,570,162,117,0,1500.2,1500.5,1403.0,1500
29.80000000000029,571,162,117,0,1500.2,1500.5,1403.0,1500
29.85000000000029,572,162,116,0,1500.2,1500.5,1404.0,1500
29.90000000000029,573,162,117,0,1500.2,1500.5,1403.0,1500
29.95000000000029,574,161,117,0,1500.1,1500.5,1403.0,1500
30.00000000000029,575,161,118,0,1500.1,1500.5,1402.0,1500
30.050000000000292,576,160,118,0,1500.0,1500.5,1402.0,1500
30.100000000000293,577,160,118,0,1500.0,1500.5,1402.0,1500
30.150000000000293,578,159,118,0,1499.9,1500.5,1402.0,1500
30.200000000000294,579,159,118,0,1499.9,1500.5,1402.0,1500
30.250000000000295,580,159,117,0,1499.9,1500.5,1403.0,1500
30.300000000000296,581,159,117,0,1499.9,1500.5,1403.0,1500
30.350000000000296,582,158,116,0,1499.8,1500.5,1404.0,1500
30.400000000000297,583,158,116,0,1499.8,1500.5,1404.0,1500
30.450000000000298,584,159,116,0,1499.9,1500.5,1404.0,1500
30.5000000000003,585,158,116,0,1499.8,1500.5,1404.0,1500
30.5500000000003,586,158,116,0,1499.8,1500.5,1404.0,1500
30.6000000000003,587,160,115,0,1500.0,1500.5,1405.0,1500
30.6500000000003,588,161,115,0,1500.1,1500.5,1405.0,1500
30.7000000000003,589,161,114,0,1500.1,1500.5,1406.0,1500
30.750000000000302,590,162,114,0,1500.2,1500.5,1406.0,1500
30.800000000000303,591,162,113,0,1500.2,1500.5,1407.0,1500
30.850000000000303,592,162,113,0,1500.2,1500.5,1407.0,1500
30.900000000000304,593,161,112,0,1500.1,1500.5,1408.0,1500
30.950000000000305,594,162,113,0,1500.2,1500.5,1407.0,1500
31.000000000000306,595,161,113,0,1500.1,1500.5,1407.0,1500
31.050000000000306,596,161,113,0,1500.1,1500.5,1407.0,1500
31.100000000000307,597,160,113,0,1500.0,1500.5,1407.0,1500
31.150000000000308,598,160,113,0,1500.0,1500.5,1407.0,1500
31.20000000000031,599,159,112,0,1499.9,1500.5,1408.0,1500
31.25000000000031,600,159,112,0,1499.9,1500.5,1408.0,1500
31.30000000000031,601,159,112,0,1499.9,1500.5,1408.0,1500
31.35000000000031,602,159,112,0,1499.9,1500.5,1408.0,1500
31.40000000000031,603,159,112,0,1499.9,1500.5,1408.0,1500
31.450000000000312,604,159,112,0,1499.9,1500.5,1408.0,1500
31.500000000000313,605,160,112,0,1500.0,1500.5,1408.0,1500
31.550000000000313,606,160,112,0,1500.0,1500.5,1408.0,1500
31.600000000000314,607,161,111,0,1500.1,1500.5,1409.0,1500
31.650000000000315,608,161,111,0,1500.1,1500.5,1409.0,1500
31.700000000000315,609,162,111,0,1500.2,1500.5,1409.0,1500
31.750000000000316,610,161,110,0,1500.1,1500.5,1410.0,1500
31.800000000000317,611,162,110,0,1500.2,1500.5,1410.0,1500
31.850000000000318,612,161,110,0,1500.1,1500.5,1410.0,1500
31.90000000000032,613,161,110,0,1500.1,1500.5,1410.0,1500
31.95000000000032,614,161,110,0,1500.1,1500.5,1410.0,1500
32.00000000000032,615,162,110,0,1500.2,1500.5,1410.0,1500
32.05000000000032,616,160,110,0,1500.0,1500.5,1410.0,1500
32.100000000000314,617,161,110,0,1500.1,1500.5,1410.0,1500
32.15000000000031,618,160,110,0,1500.0,1500.5,1410.0,1500
32.20000000000031,619,160,110,0,1500.0,1500.5,1410.0,1500
32.250000000000306,620,159,109,0,1499.9,1500.5,1411.0,1500
32.3000000000003,621,159,109,0,1499.9,1500.5,1411.0,1500
32.3500000000003,622,158,109,0,1499.8,1500.5,1411.0,1500
32.4000000000003,623,158,108,0,1499.8,1500.5,1412.0,1500
32.450000000000294,624,158,109,0,1499.8,1500.5,1411.0,1500
32.50000000000029,625,158,109,0,1499.8,1500.5,1411.0,1500
32.55000000000029,626,158,109,0,1499.8,1500.5,1411.0,1500
32.600000000000286,627,159,110,0,1499.9,1500.5,1410.0,1500
32.65000000000028,628,160,110,0,1500.0,1500.5,1410.0,1500
32.70000000000028,629,161,110,0,1500.1,1500.5,1410.0,1500
32.75000000000028,630,161,109,0,1500.1,1500.5,1411.0,1500
32.800000000000274,631,163,109,0,1500.3,1500.5,1411.0,1500
32.85000000000027,632,163,109,0,1500.3,1500.5,1411.0,1500
32.90000000000027,633,164,108,0,1500.4,1500.5,1412.0,1500
32.950000000000266,634,164,108,0,1500.4,1500.5,1412.0,1500
33.00000000000026,635,164,109,0,1500.4,1500.5,1411.0,1500
33.05000000000026,636,164,109,0,1500.4,1500.5,1411.0,1500
33.10000000000026,637,164,109,0,1500.4,1500.5,1411.0,1500
33.150000000000254,638,163,109,0,1500.3,1500.5,1411.0,1500
33.20000000000025,639,163,109,0,1500.3,1500.5,1411.0,1500
33.25000000000025,640,163,108,0,1500.3,1500.5,1412.0,1500
33.300000000000246,641,163,108,0,1500.3,1500.5,1412.0,1500
33.35000000000024,642,163,108,0,1500.3,1500.5,1412.0,1500
33.40000000000024,643,163,107,0,1500.3,1500.5,1413.0,1500
33.45000000000024,644,163,107,0,1500.3,1500.5,1413.0,1500
33.500000000000234,645,163,106,0,1500.3,1500.5,1414.0,1500
33.55000000000023,646,163,106,0,1500.3,1500.5,1414.0,1500
33.60000000000023,647,163,106,0,1500.3,1500.5,1414.0,1500
33.650000000000226,648,163,106,0,1500.3,1500.5,1414.0,1500
33.70000000000022,649,163,106,0,1500.3,1500.5,1414.0,1500
33.75000000000022,650,163,107,0,1500.3,1500.5,1413.0,1500
33.80000000000022,651,163,107,0,1500.3,1500.5,1413.0,1500
33.850000000000215,652,163,108,0,1500.3,1500.5,1412.0,1500
33.90000000000021,653,163,108,0,1500.3,1500.5,1412.0,1500
33.95000000000021,654,164,108,0,1500.4,1500.5,1412.0,1500
34.000000000000206,655,164,108,0,1500.4,1500.5,1412.0,1500
34.0500000000002,656,165,108,0,1500.5,1500.5,1412.0,1500
34.1000000000002,657,165,107,0,1500.5,1500.5,1413.0,1500
34.1500000000002,658,166,106,0,1500.6,1500.5,1414.0,1500
34.200000000000195,659,166,106,0,1500.6,1500.5,1414.0,1500
34.25000000000019,660,166,105,0,1500.6,1500.5,1415.0,1500
34.30000000000019,661,165,104,0,1500.5,1500.5,1416.0,1500
34.350000000000186,662,164,104,0,1500.4,1500.5,1416.0,1500
34.40000000000018,663,163,104,0,1500.3,1500.5,1416.0,1500
34.45000000000018,664,162,105,0,1500.2,1500.5,1415.0,1500
34.50000000000018,665,160,106,0,1500.0,1500.5,1414.0,1500
34.550000000000175,666,160,107,0,1500.0,1500.5,1413.0,1500
34.60000000000017,667,160,109,0,1500.0,1500.5,1411.0,1500
34.65000000000017,668,161,110,0,1500.1,1500.5,1410.0,1500
34.700000000000166,669,161,111,0,1500.1,1500.5,1409.0,1500
34.75000000000016,670,161,112,0,1500.1,1500.5,1408.0,1500
34.80000000000016,671,161,112,0,1500.1,1500.5,1408.0,1500
34.85000000000016,672,161,112,0,1500.1,1500.5,1408.0,1500
34.900000000000155,673,162,111,0,1500.2,1500.5,1409.0,1500
34.95000000000015,674,162,111,0,1500.2,1500.5,1409.0,1500
35.00000000000015,675,163,110,0,1500.3,1500.5,1410.0,1500
35.050000000000146,676,163,109,0,1500.3,1500.5,1411.0,1500
35.10000000000014,677,165,108,0,1500.5,1500.5,1412.0,1500
35.15000000000014,678,165,108,0,1500.5,1500.5,1412.0,1500
35.20000000000014,679,167,109,0,1500.7,1500.5,1411.0,1500
35.250000000000135,680,168,109,0,1500.8,1500.5,1411.0,1500
35.30000000000013,681,169,109,0,1500.9,1500.5,1411.0,1500
35.35000000000013,682,169,109,0,1500.9,1500.5,1411.0,1500
35.40000000000013,683,170,109,0,1501.0,1500.5,1411.0,1500
35.450000000000124,684,171,109,0,1501.1,1500.5,1411.0,1500
35.50000000000012,685,171,109,0,1501.1,1500.5,1411.0,1500
35.55000000000012,686,171,110,0,1501.1,1500.5,1410.0,1500
35.600000000000115,687,171,110,0,1501.1,1500.5,1410.0,1500
35.65000000000011,688,171,110,0,1501.1,1500.5,1410.0,1500
35.70000000000011,689,170,111,0,1501.0,1500.5,1409.0,1500
35.75000000000011,690,170,111,0,1501.0,1500.5,1409.0,1500
35.800000000000104,691,169,111,0,1500.9,1500.5,1409.0,1500
35.8500000000001,692,169,111,0,1500.9,1500.5,1409.0,1500
35.9000000000001,693,169,111,0,1500.9,1500.5,1409.0,1500
35.950000000000095,694,169,112,0,1500.9,1500.5,1408.0,1500
36.00000000000009,695,169,112,0,1500.9,1500.5,1408.0,1500
36.05000000000009,696,169,112,0,1500.9,1500.5,1408.0,1500
36.10000000000009,697,169,112,0,1500.9,1500.5,1408.0,1500
36.150000000000084,698,169,113,0,1500.9,1500.5,1407.0,1500
36.20000000000008,699,169,113,0,1500.9,1500.5,1407.0,1500
36.25000000000008,700,169,114,0,1500.9,1500.5,1406.0,1500
36.300000000000075,701,169,114,0,1500.9,1500.5,1406.0,1500
36.35000000000007,702,169,116,0,1500.9,1500.5,1404.0,1500
36.40000000000007,703,169,118,0,1500.9,1500.5,1402.0,1500
36.45000000000007,704,169,118,0,1500.9,1500.5,1402.0,1500
36.500000000000064,705,169,118,0,1500.9,1500.5,1402.0,1500
36.55000000000006,706,169,118,0,1500.9,1500.5,1402.0,1500
36.60000000000006,707,170,117,0,1501.0,1500.5,1403.0,1500
36.650000000000055,708,169,115,0,1500.9,1500.5,1405.0,1500
36.70000000000005,709,170,115,0,1501.0,1500.5,1405.0,1500
36.75000000000005,710,170,114,0,1501.0,1500.5,1406.0,1500
36.80000000000005,711,170,114,0,1501.0,1500.5,1406.0,1500
36.850000000000044,712,170,113,0,1501.0,1500.5,1407.0,1500
36.90000000000004,713,169,113,0,1500.9,1500.5,1407.0,1500
36.95000000000004,714,170,112,0,1501.0,1500.5,1408.0,1500
37.000000000000036,715,169,112,0,1500.9,1500.5,1408.0,1500
37.05000000000003,716,169,112,0,1500.9,1500.5,1408.0,1500
37.10000000000003,717,170,112,0,1501.0,1500.5,1408.0,1500
37.15000000000003,718,169,112,0,1500.9,1500.5,1408.0,1500
37.200000000000024,719,170,113,0,1501.0,1500.5,1407.0,1500
37.25000000000002,720,171,113,0,1501.1,1500.5,1407.0,1500
37.30000000000002,721,170,114,0,1501.0,1500.5,1406.0,1500
37.350000000000016,722,171,115,0,1501.1,1500.5,1405.0,1500
37.40000000000001,723,171,115,0,1501.1,1500.5,1405.0,1500
37.45000000000001,724,171,115,0,1501.1,1500.5,1405.0,1500
37.50000000000001,725,171,115,0,1501.1,1500.5,1405.0,1500
37.550000000000004,726,172,115,0,1501.2,1500.5,1405.0,1500
37.6,727,172,115,0,1501.2,1500.5,1405.0,1500
37.65,728,172,114,0,1501.2,1500.5,1406.0,1500
37.699999999999996,729,172,115,0,1501.2,1500.5,1405.0,1500
37.74999999999999,730,173,115,0,1501.3,1500.5,1405.0,1500
