time,frame,x,y,size_inv,roll,pitch,thrust,yaw
6.890296936035156e-05,1,,,,1500.0,1500.0,1250.0,1500
0.05147099494934082,2,,,,1500.0,1500.0,1250.0,1500
0.10234498977661133,3,,,,1500.0,1500.0,1250.0,1500
0.1531078815460205,4,,,,1500.0,1500.0,1250.0,1500
0.20395183563232422,5,,,,1500.0,1500.0,1250.0,1500
0.2547469139099121,6,,,,1500.0,1500.0,1250.0,1500
0.3055708408355713,7,,,,1500.0,1500.0,1250.0,1500
0.35634493827819824,8,,,,1500.0,1500.0,1250.0,1500
0.4071788787841797,9,,,,1500.0,1500.0,1250.0,1500
0.4579780101776123,10,,,,1500.0,1500.0,1250.0,1500
0.5088198184967041,11,,,,1500.0,1500.0,1250.0,1500
0.5596058368682861,12,,,,1500.0,1500.0,1250.0,1500
0.610400915145874,13,,,,1500.0,1500.0,1250.0,1500
0.6612088680267334,14,,,,1500.0,1500.0,1250.0,1500
0.7120428085327148,15,,,,1500.0,1500.0,1250.0,1500
0.7628369331359863,16,,,,1500.0,1500.0,1250.0,1500
0.8136358261108398,17,,,,1500.0,1500.0,1250.0,1500
0.8644750118255615,18,,,,1500.0,1500.0,1250.0,1500
0.9154407978057861,19,62,48,0.030303030303030304,1490.2,1520,1300,1500
0.9715969562530518,20,90,70,0.0016891891891891893,1493.0,1491.8918918918919,1300,1500
1.0228118896484375,21,99,62,5.797101449275362e-05,1493.9,1480,1300,1500
1.0738348960876465,22,125,73,4.691531785127844e-05,1496.5,1480,1300,1500
1.1248798370361328,23,147,74,4.2210121987252545e-05,1498.7,1480,1300,1500
1.1759798526763916,24,161,81,3.695764653706852e-05,1500.1,1480,1288.0,1500
1.227052927017212,25,177,83,3.460686600221484e-05,1501.7,1480,1284.0,1500
1.2780919075012207,26,183,81,3.5246017200056396e-05,1502.3,1480,1288.0,1500
1.3291490077972412,27,188,81,3.4857780256553265e-05,1502.8,1480,1288.0,1500
1.3802268505096436,28,188,79,3.591954022988506e-05,1502.8,1480,1292.0,1500
1.4313209056854248,29,187,90,3.2309133792123036e-05,1502.7,1480,1270.0,1500
1.4824328422546387,30,185,85,3.502381619501261e-05,1502.5,1480,1280.0,1500
1.5335228443145752,31,174,70,4.959579427664534e-05,1501.4,1480,1300,1500
1.5845668315887451,32,172,84,3.9478878799842084e-05,1501.2,1480,1282.0,1500
1.6356728076934814,33,161,79,5e-05,1500.1,1480,1292.0,1500
1.686729907989502,34,155,78,5.305602716468591e-05,1499.5,1480,1294.0,1500
1.7377829551696777,35,149,77,6.528267397832615e-05,1498.9,1480,1296.0,1500
1.7888429164886475,36,147,74,7.33998825601879e-05,1498.7,1480,1300,1500
1.8398919105529785,37,143,70,8.680555555555556e-05,1498.3,1480,1300,1500
1.890899896621704,38,142,69,9.66183574879227e-05,1498.2,1480,1300,1500
1.9419069290161133,39,142,65,0.00010262725779967159,1498.2,1480,1300,1500
1.9929800033569336,40,141,61,0.0001207437816952427,1498.1,1480,1300,1500
2.043987989425659,41,140,62,0.00014122299110295156,1498.0,1480,1300,1500
2.0949788093566895,42,139,60,0.0001633986928104575,1497.9,1480,1300,1500
2.1459708213806152,43,139,61,0.0001658374792703151,1497.9,1480,1300,1500
2.1970160007476807,44,137,62,0.00019286403085824494,1497.7,1480,1300,1500
2.2479968070983887,45,136,62,0.00020177562550443906,1497.6,1480,1300,1500
2.2990078926086426,46,135,64,0.00021551724137931034,1497.5,1480,1300,1500
2.350039005279541,47,134,65,0.00023741690408357076,1497.4,1480,1300,1500
2.4010519981384277,48,133,68,0.00024826216484607745,1497.3,1480,1300,1500
2.4520928859710693,49,132,69,0.00026343519494204424,1497.2,1480,1300,1500
2.503159999847412,50,132,68,0.0002898550724637681,1497.2,1480,1300,1500
2.554212808609009,51,134,69,0.00027616680475006904,1497.4,1480,1300,1500
2.6052799224853516,52,133,67,0.00030193236714975844,1497.3,1480,1300,1500
2.656315803527832,53,134,65,0.00030921459492888067,1497.4,1480,1300,1500
2.7073287963867188,54,133,66,0.0002957704821058858,1497.3,1480,1300,1500
2.758624792098999,55,132,66,0.00028011204481792715,1497.2,1480,1300,1500
2.8107810020446777,56,131,67,0.00030012004801920766,1497.1,1480,1300,1500
2.862510919570923,57,130,68,0.0002941176470588235,1497.0,1480,1300,1500
2.914428949356079,58,130,71,0.00028169014084507044,1497.0,1480,1300,1500
2.966188907623291,59,130,71,0.00028571428571428574,1497.0,1480,1300,1500
3.01802396774292,60,131,73,0.00026860059092130003,1497.1,1480,1300,1500
3.0702219009399414,61,131,74,0.00025157232704402514,1497.1,1480,1300,1500
3.1221230030059814,62,131,75,0.00022727272727272727,1497.1,1480,1300.0,1500
3.1741669178009033,63,131,76,0.0002077274615704196,1497.1,1480,1298.0,1500
3.226059913635254,64,132,76,0.0001763668430335097,1497.2,1480,1298.0,1500
3.2779958248138428,65,132,76,0.00015318627450980392,1497.2,1480,1298.0,1500
3.329824924468994,66,133,76,0.0001311991603253739,1497.3,1480,1298.0,1500
3.381682872772217,67,134,74,0.00010888501742160279,1497.4,1480,1300,1500
3.433616876602173,68,136,74,9.46969696969697e-05,1497.6,1480,1300,1500
3.485416889190674,69,138,72,8.054123711340206e-05,1497.8,1480,1300,1500
3.5373218059539795,70,139,70,7.371369600471768e-05,1497.9,1480,1300,1500
3.5892558097839355,71,141,71,6.243756243756244e-05,1498.1,1480,1300,1500
3.641117811203003,72,145,76,5.446623093681917e-05,1498.5,1480,1298.0,1500
3.692999839782715,73,148,79,4.837929366231253e-05,1498.8,1480,1292.0,1500
3.744865894317627,74,155,81,4.2603953646898434e-05,1499.5,1480,1288.0,1500
3.7968058586120605,75,162,76,4.136675767353355e-05,1500.2,1480,1298.0,1500
3.8485519886016846,76,166,79,3.788739865120861e-05,1500.6,1480,1292.0,1500
3.900635004043579,77,174,87,3.2100667693888034e-05,1501.4,1480,1276.0,1500
3.95249080657959,78,177,83,3.236769703835572e-05,1501.7,1480,1284.0,1500
4.004378795623779,79,182,83,3.08413520848754e-05,1502.2,1480,1284.0,1500
4.056298017501831,80,183,88,2.8533926839011585e-05,1502.3,1480,1274.0,1500
4.108182907104492,81,184,88,2.7811769941039048e-05,1502.4,1480,1274.0,1500
4.160117864608765,82,182,83,2.9178338001867415e-05,1502.2,1480,1284.0,1500
4.21222186088562,83,180,88,2.7694693696687715e-05,1502.0,1480,1274.0,1500
4.264359951019287,84,177,85,2.895026344739737e-05,1501.7,1480,1280.0,1500
4.316213846206665,85,176,84,2.9438605787629896e-05,1501.6,1480,1282.0,1500
4.368152856826782,86,171,82,3.153977165205324e-05,1501.1,1480,1286.0,1500
4.4200968742370605,87,167,82,3.348401138456387e-05,1500.7,1480,1286.0,1500
4.472095966339111,88,161,80,3.8340618050762975e-05,1500.1,1480,1290.0,1500
4.5240747928619385,89,159,79,4.222972972972973e-05,1499.9,1480,1292.0,1500
4.575960874557495,90,158,77,4.814636494944632e-05,1499.8,1480,1296.0,1500
4.627843856811523,91,156,74,5.3265153936294876e-05,1499.6,1480,1300,1500
4.679642915725708,92,149,70,6.628222973420826e-05,1498.9,1480,1300,1500
4.731499910354614,93,143,70,7.951653944020357e-05,1498.3,1480,1300,1500
4.783621788024902,94,135,68,0.00010598834128245893,1497.5,1480,1300,1500
4.83551287651062,95,131,70,0.00011720581340834506,1497.1,1480,1300,1500
4.887319803237915,96,128,69,0.0001378929950358522,1496.8,1480,1300,1500
4.939038991928101,97,127,69,0.0001575299306868305,1496.7,1480,1300,1500
4.9908668994903564,98,127,68,0.00017889087656529517,1496.7,1480,1300,1500
5.042653799057007,99,128,69,0.000195160031225605,1496.8,1480,1300,1500
5.094368934631348,100,130,67,0.0002403268445085316,1497.0,1480,1300,1500
5.146152973175049,101,131,67,0.00026574541589157585,1497.1,1480,1300,1500
5.198112964630127,102,132,68,0.00028011204481792715,1497.2,1480,1300,1500
5.249856948852539,103,132,68,0.0003076923076923077,1497.2,1480,1300,1500
5.301926851272583,104,132,70,0.00031756113051762465,1497.2,1480,1300,1500
5.3538289070129395,105,132,69,0.0003506311360448808,1497.2,1480,1300,1500
5.405690908432007,106,132,70,0.00039184952978056425,1497.2,1480,1300,1500
5.457525968551636,107,131,72,0.0004035512510088781,1497.1,1480,1300,1500
5.5093019008636475,108,130,70,0.00041050903119868636,1497.0,1480,1300,1500
5.561266899108887,109,129,69,0.0004464285714285714,1496.9,1480,1300,1500
5.613017797470093,110,128,69,0.0004464285714285714,1496.8,1480,1300,1500
5.664755821228027,111,126,68,0.0004873294346978557,1496.6,1480,1300,1500
5.716610908508301,112,125,68,0.0004748338081671415,1496.5,1480,1300,1500
5.76833701133728,113,122,67,0.0005060728744939271,1496.2,1480.0607287449393,1300,1500
5.820360898971558,114,121,67,0.0005159958720330237,1496.1,1480.1599587203302,1300,1500
5.872300863265991,115,119,65,0.0005787037037037037,1495.9,1480.787037037037,1300,1500
5.924561977386475,116,118,67,0.0005446623093681918,1495.8,1480.4466230936819,1300,1500
5.976451873779297,117,118,67,0.0005405405405405405,1495.8,1480.4054054054054,1300,1500
6.0283098220825195,118,117,69,0.0005099439061703213,1495.7,1480.0994390617032,1300,1500
6.080273866653442,119,117,69,0.0005602240896358543,1495.7,1480.6022408963586,1300,1500
6.132203817367554,120,117,69,0.0005494505494505495,1495.7,1480.4945054945056,1300,1500
6.184323787689209,121,117,70,0.0005341880341880342,1495.7,1480.3418803418804,1300,1500
6.236180782318115,122,116,71,0.0005446623093681918,1495.6,1480.4466230936819,1300,1500
6.288255929946899,123,117,72,0.0005390835579514825,1495.7,1480.3908355795147,1300,1500
6.340137958526611,124,117,72,0.0005494505494505495,1495.7,1480.4945054945056,1300,1500
6.392201900482178,125,118,73,0.0005390835579514825,1495.8,1480.3908355795147,1300,1500
6.444177865982056,126,117,73,0.0005549389567147614,1495.7,1480.5493895671475,1300,1500
6.4961748123168945,127,118,72,0.0005714285714285715,1495.8,1480.7142857142858,1300,1500
6.548134803771973,128,118,71,0.0005952380952380953,1495.8,1480.952380952381,1300,1500
6.600229978561401,129,118,72,0.0005830903790087463,1495.8,1480.8309037900874,1300,1500
6.652193784713745,130,117,74,0.0005656108597285068,1495.7,1480.656108597285,1300,1500
6.704243898391724,131,119,74,0.0005390835579514825,1495.9,1480.3908355795147,1300,1500
6.756109952926636,132,118,74,0.0005656108597285068,1495.8,1480.656108597285,1300,1500
6.8081018924713135,133,119,72,0.0005714285714285715,1495.9,1480.7142857142858,1300,1500
6.8599958419799805,134,119,74,0.0005291005291005291,1495.9,1480.2910052910054,1300,1500
6.91192889213562,135,119,75,0.0005390835579514825,1495.9,1480.3908355795147,1300.0,1500
6.964031934738159,136,118,73,0.0005767012687427913,1495.8,1480.767012687428,1300,1500
7.0159687995910645,137,118,75,0.0005390835579514825,1495.8,1480.3908355795147,1300.0,1500
7.067937850952148,138,118,74,0.0005494505494505495,1495.8,1480.4945054945056,1300,1500
7.119907855987549,139,118,73,0.0006002400960384153,1495.8,1481.0024009603842,1300,1500
7.17200779914856,140,119,75,0.0005390835579514825,1495.9,1480.3908355795147,1300.0,1500
7.224075794219971,141,119,74,0.0005494505494505495,1495.9,1480.4945054945056,1300,1500
7.2760069370269775,142,118,75,0.0005390835579514825,1495.8,1480.3908355795147,1300.0,1500
7.328037977218628,143,118,74,0.0005602240896358543,1495.8,1480.6022408963586,1300,1500
7.37997579574585,144,118,75,0.0005602240896358543,1495.8,1480.6022408963586,1300.0,1500
7.432123899459839,145,118,76,0.0005390835579514825,1495.8,1480.3908355795147,1298.0,1500
7.484282970428467,146,118,76,0.0005390835579514825,1495.8,1480.3908355795147,1298.0,1500
7.536340951919556,147,117,71,0.0006684491978609625,1495.7,1481.6844919786097,1300,1500
7.588205814361572,148,117,76,0.0005714285714285715,1495.7,1480.7142857142858,1298.0,1500
7.640247821807861,149,116,76,0.000588235294117647,1495.6,1480.8823529411766,1298.0,1500
7.6922760009765625,150,116,78,0.0006447453255963894,1495.6,1481.4474532559639,1294.0,1500
7.744342803955078,151,116,75,0.0007716049382716049,1495.6,1482.716049382716,1300.0,1500
7.796363830566406,152,114,67,0.001075268817204301,1495.4,1485.752688172043,1300,1500
7.848639011383057,153,115,82,0.001402524544179523,1495.5,1489.0252454417953,1286.0,1500
7.90061092376709,154,117,84,0.0012121212121212121,1495.7,1487.121212121212,1282.0,1500
7.95256781578064,155,115,90,0.0013333333333333333,1495.5,1488.3333333333333,1270.0,1500
8.00459599494934,156,116,73,0.0005787037037037037,1495.6,1480.787037037037,1300,1500
8.05665397644043,157,117,86,0.0012422360248447205,1495.7,1487.4223602484471,1278.0,1500
8.108619928359985,158,115,88,0.0010775862068965517,1495.5,1485.7758620689656,1274.0,1500
8.160615921020508,159,110,83,0.0023923444976076554,1495.0,1498.9234449760766,1284.0,1500
8.212568998336792,160,116,85,0.001176470588235294,1495.6,1486.764705882353,1280.0,1500
8.26470685005188,161,116,77,0.0008403361344537816,1495.6,1483.4033613445379,1296.0,1500
8.3207368850708,162,115,73,0.0008012820512820513,1495.5,1483.0128205128206,1300,1500
8.372748851776123,163,115,84,0.00125,1495.5,1487.5,1282.0,1500
8.424829006195068,164,117,82,0.0015479876160990713,1495.7,1490.4798761609907,1286.0,1500
8.47675895690918,165,116,75,0.000980392156862745,1495.6,1484.8039215686274,1300.0,1500
8.528831005096436,166,116,73,0.0008680555555555555,1495.6,1483.6805555555557,1300,1500
8.580781936645508,167,116,87,0.0009765625,1495.6,1484.765625,1276.0,1500
8.632752895355225,168,115,84,0.002652519893899204,1495.5,1501.525198938992,1282.0,1500
8.684651851654053,169,118,80,0.0006313131313131314,1495.8,1481.3131313131314,1290.0,1500
8.736763000488281,170,118,77,0.000925925925925926,1495.8,1484.2592592592594,1296.0,1500
8.788679838180542,171,118,73,0.0007518796992481203,1495.8,1482.5187969924812,1300,1500
8.840782880783081,172,117,82,0.0007267441860465116,1495.7,1482.2674418604652,1286.0,1500
8.892706871032715,173,119,81,0.0006775067750677507,1495.9,1481.7750677506774,1288.0,1500
8.944763898849487,174,117,74,0.0007739938080495357,1495.7,1482.7399380804954,1300,1500
8.996636867523193,175,119,82,0.0007936507936507937,1495.9,1482.936507936508,1286.0,1500
9.048610925674438,176,118,76,0.000925925925925926,1495.8,1484.2592592592594,1298.0,1500
9.100538969039917,177,118,73,0.0006257822277847309,1495.8,1481.2578222778473,1300,1500
9.152375936508179,178,119,75,0.0006802721088435374,1495.9,1481.8027210884354,1300.0,1500
9.204357862472534,179,119,79,0.0011904761904761906,1495.9,1486.904761904762,1292.0,1500
9.256417989730835,180,119,87,0.00101010101010101,1495.9,1485.1010101010102,1276.0,1500
9.308607816696167,181,119,74,0.00089126559714795,1495.9,1483.9126559714796,1300,1500
9.360472917556763,182,119,77,0.0011312217194570137,1495.9,1486.3122171945702,1296.0,1500
9.412588834762573,183,118,77,0.0010822510822510823,1495.8,1485.8225108225108,1296.0,1500
9.464546918869019,184,117,62,0.0015360983102918587,1495.7,1490.3609831029187,1300,1500
9.516451835632324,185,118,78,0.0007974481658692185,1495.8,1482.9744816586922,1294.0,1500
9.568374872207642,186,117,71,0.0017543859649122807,1495.7,1492.5438596491229,1300,1500
9.62037181854248,187,117,73,0.0009216589861751152,1495.7,1484.2165898617511,1300,1500
9.672303915023804,188,118,84,0.0010893246187363835,1495.8,1485.8932461873637,1282.0,1500
9.724313974380493,189,117,78,0.0012903225806451613,1495.7,1487.9032258064517,1294.0,1500
9.776263952255249,190,117,71,0.0009182736455463728,1495.7,1484.1827364554638,1300,1500
9.828362941741943,191,117,79,0.0007541478129713424,1495.7,1482.5414781297134,1292.0,1500
9.880326986312866,192,117,81,0.0012787723785166241,1495.7,1487.7877237851662,1288.0,1500
9.932345867156982,193,117,82,0.0008658008658008658,1495.7,1483.6580086580086,1286.0,1500
9.984285831451416,194,118,81,0.0006968641114982578,1495.8,1481.9686411149826,1288.0,1500
10.036281824111938,195,118,85,0.0010582010582010583,1495.8,1485.5820105820105,1280.0,1500
10.088225841522217,196,117,76,0.001443001443001443,1495.7,1489.4300144300144,1298.0,1500
10.14025092124939,197,118,79,0.000664451827242525,1495.8,1481.6445182724253,1292.0,1500
10.192261934280396,198,118,76,0.00102880658436214,1495.8,1485.2880658436213,1298.0,1500
10.244282007217407,199,118,79,0.00102880658436214,1495.8,1485.2880658436213,1292.0,1500
10.29626989364624,200,118,80,0.0007722007722007722,1495.8,1482.7220077220077,1290.0,1500
10.34826397895813,201,118,77,0.000925925925925926,1495.8,1484.2592592592594,1296.0,1500
10.400219917297363,202,118,79,0.0007716049382716049,1495.8,1482.716049382716,1292.0,1500
10.452211856842041,203,116,76,0.0005446623093681918,1495.6,1480.4466230936819,1298.0,1500
10.504398822784424,204,116,80,0.0010683760683760685,1495.6,1485.6837606837607,1290.0,1500
10.55640196800232,205,115,78,0.00046598322460391424,1495.5,1480,1294.0,1500
10.608276844024658,206,113,77,0.0004930966469428008,1495.3,1480,1296.0,1500
10.660210847854614,207,109,84,0.0004278990158322636,1494.9,1480,1282.0,1500
10.71219801902771,208,104,83,0.0004329004329004329,1494.4,1480,1284.0,1500
10.764490842819214,209,98,87,0.0003527336860670194,1493.8,1480,1276.0,1500
10.81638479232788,210,93,88,0.00035778175313059033,1493.3,1480,1274.0,1500
10.86828899383545,211,86,90,0.00032938076416337287,1492.6,1480,1270.0,1500
10.920179843902588,212,83,91,0.0003419972640218878,1492.3,1480,1268.0,1500
10.972025871276855,213,79,93,0.00032938076416337287,1491.9,1480,1264.0,1500
11.023969888687134,214,78,93,0.0003370407819346141,1491.8,1480,1264.0,1500
11.075743913650513,215,78,91,0.0003419972640218878,1491.8,1480,1268.0,1500
11.127771854400635,216,80,92,0.0003370407819346141,1492.0,1480,1266.0,1500
11.179643869400024,217,84,91,0.000326797385620915,1492.4,1480,1268.0,1500
11.23162293434143,218,89,91,0.000326797385620915,1492.9,1480,1268.0,1500
11.283582925796509,219,97,91,0.0003316749585406302,1493.7,1480,1268.0,1500
11.335378885269165,220,106,91,0.0003418803418803419,1494.6,1480,1268.0,1500
11.387272834777832,221,112,91,0.0003418803418803419,1495.2,1480,1268.0,1500
11.439087867736816,222,120,90,0.00039984006397441024,1496.0,1480,1270.0,1500
11.490948915481567,223,125,90,0.0004032258064516129,1496.5,1480,1270.0,1500
11.542846918106079,224,133,88,0.0004578754578754579,1497.3,1480,1274.0,1500
11.594659805297852,225,138,90,0.0004662004662004662,1497.8,1480,1270.0,1500
11.646732807159424,226,143,90,0.0005515719801434088,1498.3,1480.515719801434,1270.0,1500
11.698676824569702,227,147,89,0.0005630630630630631,1498.7,1480.6306306306305,1272.0,1500
11.75072979927063,228,151,88,0.0005830903790087463,1499.1,1480.8309037900874,1274.0,1500
11.802666902542114,229,154,88,0.0007722007722007722,1499.4,1482.7220077220077,1274.0,1500
11.854686975479126,230,158,77,0.0012121212121212121,1499.8,1487.121212121212,1296.0,1500
11.906735897064209,231,157,89,0.0005714285714285715,1499.7,1480.7142857142858,1272.0,1500
11.958786010742188,232,155,91,0.0006435006435006435,1499.5,1481.4350064350065,1268.0,1500
12.010700941085815,233,152,93,0.0005446623093681918,1499.2,1480.4466230936819,1264.0,1500
12.062762975692749,234,145,92,0.0006459948320413437,1498.5,1481.4599483204133,1266.0,1500
12.114714860916138,235,141,96,0.0005299417064122947,1498.1,1480.299417064123,1258.0,1500
12.166797876358032,236,134,101,0.0004662004662004662,1497.4,1480,1248.0,1500
12.218645811080933,237,127,102,0.00040096230954290296,1496.7,1480,1246.0,1500
12.270564794540405,238,124,104,0.00036656891495601173,1496.4,1480,1242.0,1500
12.322450876235962,239,120,101,0.00033772374197906115,1496.0,1480,1248.0,1500
12.374267816543579,240,117,96,0.0003527336860670194,1495.7,1480,1258.0,1500
12.426279783248901,241,115,87,0.0004098360655737705,1495.5,1480,1276.0,1500
12.478071928024292,242,116,81,0.0004032258064516129,1495.6,1480,1288.0,1500
12.52998685836792,243,118,72,0.0003933910306845004,1495.8,1480,1300,1500
12.58187198638916,244,120,66,0.00039984006397441024,1496.0,1480,1300,1500
12.633978843688965,245,123,57,0.0003875968992248062,1496.3,1480,1300,1500
12.685902833938599,246,125,54,0.0004079967360261118,1496.5,1480,1300,1500
12.737643003463745,247,125,48,0.00045599635202918376,1496.5,1480,1300,1500
12.789458990097046,248,126,49,0.0005411255411255411,1496.6,1480.4112554112553,1300,1500
12.841328859329224,249,125,48,0.0005672149744753262,1496.5,1480.6721497447534,1300,1500
12.893524885177612,250,124,49,0.0005411255411255411,1496.4,1480.4112554112553,1300,1500
12.945382833480835,251,124,54,0.0005847953216374269,1496.4,1480.8479532163742,1300,1500
12.997298955917358,252,123,57,0.0005291005291005291,1496.3,1480.2910052910054,1300,1500
13.049217939376831,253,121,60,0.00038819875776397513,1496.1,1480,1300,1500
13.100982904434204,254,120,65,0.0003527336860670194,1496.0,1480,1300,1500
13.152832984924316,255,119,74,0.00036913990402362494,1495.9,1480,1300,1500
13.204668998718262,256,118,81,0.00035778175313059033,1495.8,1480,1288.0,1500
13.256547927856445,257,117,90,0.0003720238095238095,1495.7,1480,1270.0,1500
13.308473825454712,258,118,101,0.0003633720930232558,1495.8,1480,1248.0,1500
13.360307931900024,259,119,107,0.00038714672861014324,1495.9,1480,1236.0,1500
13.416463851928711,260,120,116,0.00038714672861014324,1496.0,1480,1218.0,1500
13.46840500831604,261,122,121,0.0003812428516965307,1496.2,1480,1208.0,1500
13.520444869995117,262,123,127,0.00037257824143070045,1496.3,1480,1200,1500
13.572212934494019,263,124,130,0.00036429872495446266,1496.4,1480,1200,1500
13.62412691116333,264,125,131,0.0003968253968253968,1496.5,1480,1200,1500
13.676010847091675,265,125,133,0.0003968253968253968,1496.5,1480,1200,1500
13.727823972702026,266,124,136,0.00036231884057971015,1496.4,1480,1200,1500
13.779637813568115,267,123,133,0.00040257648953301127,1496.3,1480,1200,1500
13.831465005874634,268,123,133,0.00036683785766691124,1496.3,1480,1200,1500
13.88341999053955,269,122,132,0.00034153005464480874,1496.2,1480,1200,1500
13.935234785079956,270,122,129,0.0003360215053763441,1496.2,1480,1200,1500
13.986966848373413,271,122,124,0.0003139717425431711,1496.2,1480,1202.0,1500
14.038910865783691,272,122,117,0.00034153005464480874,1496.2,1480,1216.0,1500
14.090792894363403,273,121,111,0.0003205128205128205,1496.1,1480,1228.0,1500
14.142683982849121,274,121,106,0.00030637254901960784,1496.1,1480,1238.0,1500
14.19457483291626,275,121,99,0.00031289111389236547,1496.1,1480,1252.0,1500
14.246412992477417,276,121,94,0.00031289111389236547,1496.1,1480,1262.0,1500
14.29835295677185,277,121,88,0.00031289111389236547,1496.1,1480,1274.0,1500
14.35014796257019,278,121,85,0.00031289111389236547,1496.1,1480,1280.0,1500
14.401920795440674,279,121,83,0.0003083564600678384,1496.1,1480,1284.0,1500
14.453927993774414,280,121,82,0.00031289111389236547,1496.1,1480,1286.0,1500
14.505724906921387,281,120,83,0.0003083564600678384,1496.0,1480,1284.0,1500
14.557612895965576,282,120,84,0.0003083564600678384,1496.0,1480,1282.0,1500
14.609432935714722,283,119,85,0.0003083564600678384,1495.9,1480,1280.0,1500
14.661370992660522,284,119,86,0.0003244646333549643,1495.9,1480,1278.0,1500
14.7135329246521,285,120,86,0.00031289111389236547,1496.0,1480,1278.0,1500
14.765375852584839,286,121,87,0.0003083564600678384,1496.1,1480,1276.0,1500
14.817330837249756,287,121,86,0.00031969309462915604,1496.1,1480,1278.0,1500
14.869150876998901,288,122,87,0.00031289111389236547,1496.2,1480,1276.0,1500
14.921297788619995,289,123,87,0.00031289111389236547,1496.3,1480,1276.0,1500
14.973122835159302,290,122,87,0.00031969309462915604,1496.2,1480,1276.0,1500
15.025067806243896,291,121,88,0.000326797385620915,1496.1,1480,1274.0,1500
15.07693600654602,292,120,89,0.0003367003367003367,1496.0,1480,1272.0,1500
15.128771781921387,293,119,90,0.0003316749585406302,1495.9,1480,1270.0,1500
15.180718898773193,294,119,91,0.0003316749585406302,1495.9,1480,1268.0,1500
15.232554912567139,295,119,91,0.0003244646333549643,1495.9,1480,1268.0,1500
15.284413814544678,296,119,91,0.0003316749585406302,1495.9,1480,1268.0,1500
15.336366891860962,297,119,91,0.00033444816053511704,1495.9,1480,1268.0,1500
15.388185977935791,298,119,91,0.0003418803418803419,1495.9,1480,1268.0,1500
15.44008183479309,299,119,90,0.0003367003367003367,1495.9,1480,1270.0,1500
15.49190878868103,300,118,90,0.0003443526170798898,1495.8,1480,1270.0,1500
15.54390287399292,301,119,91,0.0003316749585406302,1495.9,1480,1268.0,1500
15.595724821090698,302,118,90,0.00032938076416337287,1495.8,1480,1270.0,1500
15.647650003433228,303,117,90,0.0003443526170798898,1495.7,1480,1270.0,1500
15.699580907821655,304,117,90,0.00032938076416337287,1495.7,1480,1270.0,1500
15.751390933990479,305,117,91,0.00032938076416337287,1495.7,1480,1268.0,1500
15.803486824035645,306,117,91,0.00032938076416337287,1495.7,1480,1268.0,1500
15.855448961257935,307,116,91,0.00032938076416337287,1495.6,1480,1268.0,1500
15.90756893157959,308,116,91,0.0003367003367003367,1495.6,1480,1268.0,1500
15.959370851516724,309,116,91,0.0003367003367003367,1495.6,1480,1268.0,1500
16.01130485534668,310,116,91,0.0003367003367003367,1495.6,1480,1268.0,1500
16.063159942626953,311,116,91,0.0003367003367003367,1495.6,1480,1268.0,1500
16.115059852600098,312,116,92,0.0003367003367003367,1495.6,1480,1266.0,1500
16.167433977127075,313,116,92,0.0003367003367003367,1495.6,1480,1266.0,1500
16.21941590309143,314,116,93,0.00034965034965034965,1495.6,1480,1264.0,1500
16.271426916122437,315,117,92,0.00034722222222222224,1495.7,1480,1266.0,1500
16.323617935180664,316,117,93,0.00034965034965034965,1495.7,1480,1264.0,1500
16.375422954559326,317,117,92,0.00036656891495601173,1495.7,1480,1266.0,1500
16.427470922470093,318,118,92,0.00034722222222222224,1495.8,1480,1266.0,1500
16.47933793067932,319,117,93,0.0003633720930232558,1495.7,1480,1264.0,1500
16.531296014785767,320,117,93,0.0003551136363636364,1495.7,1480,1264.0,1500
16.583498001098633,321,116,93,0.0003551136363636364,1495.6,1480,1264.0,1500
16.635501861572266,322,116,93,0.00034965034965034965,1495.6,1480,1264.0,1500
16.687373876571655,323,116,93,0.0003418803418803419,1495.6,1480,1264.0,1500
16.73929190635681,324,115,92,0.0003551136363636364,1495.5,1480,1266.0,1500
16.791411876678467,325,116,92,0.00034722222222222224,1495.6,1480,1266.0,1500
16.843519926071167,326,115,92,0.0003551136363636364,1495.5,1480,1266.0,1500
16.895375967025757,327,115,92,0.0003551136363636364,1495.5,1480,1266.0,1500
16.9472439289093,328,115,92,0.0003551136363636364,1495.5,1480,1266.0,1500
16.9991397857666,329,115,93,0.0003551136363636364,1495.5,1480,1264.0,1500
17.050989866256714,330,115,93,0.00036075036075036075,1495.5,1480,1264.0,1500
17.102935791015625,331,115,93,0.00036075036075036075,1495.5,1480,1264.0,1500
17.15479278564453,332,115,92,0.0003551136363636364,1495.5,1480,1266.0,1500
17.206763982772827,333,115,92,0.0003551136363636364,1495.5,1480,1266.0,1500
17.258606910705566,334,115,93,0.0003551136363636364,1495.5,1480,1264.0,1500
17.310417890548706,335,115,93,0.0003551136363636364,1495.5,1480,1264.0,1500
17.36231780052185,336,115,94,0.00034965034965034965,1495.5,1480,1262.0,1500
17.41417694091797,337,115,94,0.00034965034965034965,1495.5,1480,1262.0,1500
17.466039896011353,338,115,93,0.0003551136363636364,1495.5,1480,1264.0,1500
17.517985820770264,339,115,93,0.0003551136363636364,1495.5,1480,1264.0,1500
17.569793939590454,340,115,93,0.0003551136363636364,1495.5,1480,1264.0,1500
17.621866941452026,341,115,93,0.0003551136363636364,1495.5,1480,1264.0,1500
17.673832893371582,342,115,94,0.00036075036075036075,1495.5,1480,1262.0,1500
17.725783824920654,343,116,94,0.00034722222222222224,1495.6,1480,1262.0,1500
17.777602910995483,344,115,94,0.0003551136363636364,1495.5,1480,1262.0,1500
17.82965588569641,345,115,98,0.00040584415584415587,1495.5,1480,1254.0,1500
17.881547927856445,346,128,118,0.0034602076124567475,1496.8,1509.6020761245675,1214.0,1500
17.93367290496826,347,131,122,0.009615384615384616,1497.1,1520,1206.0,1500
17.98550581932068,348,131,124,0.02,1497.1,1520,1202.0,1500
18.037420988082886,349,131,123,0.016666666666666666,1497.1,1520,1204.0,1500
18.08932590484619,350,131,123,0.015151515151515152,1497.1,1520,1204.0,1500
18.14116597175598,351,131,123,0.015151515151515152,1497.1,1520,1204.0,1500
18.193042993545532,352,131,124,0.01818181818181818,1497.1,1520,1202.0,1500
18.244834899902344,353,,,,1500.0,1500.0,1250.0,1500
18.2965350151062,354,132,124,0.022727272727272728,1497.2,1520,1202.0,1500
18.348241806030273,355,,,,1500.0,1500.0,1250.0,1500
18.399959802627563,356,129,125,0.047619047619047616,1496.9,1520,1200.0,1500
18.451819896697998,357,,,,1500.0,1500.0,1250.0,1500
18.503493785858154,358,,,,1500.0,1500.0,1250.0,1500
18.555001974105835,359,,,,1500.0,1500.0,1250.0,1500
18.606480836868286,360,,,,1500.0,1500.0,1250.0,1500
18.65808892250061,361,,,,1500.0,1500.0,1250.0,1500
18.70949101448059,362,,,,1500.0,1500.0,1250.0,1500
18.76093292236328,363,,,,1500.0,1500.0,1250.0,1500
18.812352895736694,364,,,,1500.0,1500.0,1250.0,1500
18.86402678489685,365,,,,1500.0,1500.0,1250.0,1500
18.91574001312256,366,129,122,0.025,1496.9,1520,1206.0,1500
18.967508792877197,367,,,,1500.0,1500.0,1250.0,1500
19.01929783821106,368,129,122,0.03333333333333333,1496.9,1520,1206.0,1500
19.070981979370117,369,,,,1500.0,1500.0,1250.0,1500
19.122951984405518,370,,,,1500.0,1500.0,1250.0,1500
19.174401998519897,371,,,,1500.0,1500.0,1250.0,1500
19.225993871688843,372,130,120,0.05555555555555555,1497.0,1520,1210.0,1500
19.27763795852661,373,,,,1500.0,1500.0,1250.0,1500
19.329126834869385,374,,,,1500.0,1500.0,1250.0,1500
19.380546808242798,375,,,,1500.0,1500.0,1250.0,1500
19.432045936584473,376,,,,1500.0,1500.0,1250.0,1500
19.483627796173096,377,,,,1500.0,1500.0,1250.0,1500
19.535149812698364,378,,,,1500.0,1500.0,1250.0,1500
19.586633920669556,379,,,,1500.0,1500.0,1250.0,1500
19.638320922851562,380,131,107,0.008547008547008548,1497.1,1520,1236.0,1500
19.69016695022583,381,115,79,0.00030012004801920766,1495.5,1480,1292.0,1500
19.742323875427246,382,116,79,0.0002598752598752599,1495.6,1480,1292.0,1500
19.79414391517639,383,117,79,0.0002564102564102564,1495.7,1480,1292.0,1500
19.846006870269775,384,120,79,0.00023441162681669012,1496.0,1480,1292.0,1500
19.897886991500854,385,122,80,0.0002204585537918871,1496.2,1480,1290.0,1500
19.94982886314392,386,126,79,0.0002139495079161318,1496.6,1480,1292.0,1500
20.00177788734436,387,127,79,0.00020525451559934318,1496.7,1480,1292.0,1500
20.053963899612427,388,129,79,0.00019940179461615153,1496.9,1480,1292.0,1500
20.105840921401978,389,129,78,0.0001937984496124031,1496.9,1480,1294.0,1500
20.15767478942871,390,130,78,0.000196078431372549,1497.0,1480,1294.0,1500
20.209579944610596,391,131,78,0.00019708316909735908,1497.1,1480,1294.0,1500
20.261436939239502,392,132,78,0.00019286403085824494,1497.2,1480,1294.0,1500
20.313426971435547,393,133,78,0.00019286403085824494,1497.3,1480,1294.0,1500
20.365322828292847,394,133,78,0.0001853911753800519,1497.3,1480,1294.0,1500
20.417244911193848,395,134,77,0.0001884303749764462,1497.4,1480,1296.0,1500
20.469153881072998,396,134,77,0.0001853911753800519,1497.4,1480,1296.0,1500
20.520975828170776,397,134,77,0.00018037518037518038,1497.4,1480,1296.0,1500
20.57285499572754,398,134,77,0.00018037518037518038,1497.4,1480,1296.0,1500
20.624703884124756,399,134,77,0.00018037518037518038,1497.4,1480,1296.0,1500
20.676656007766724,400,134,78,0.000169061707523246,1497.4,1480,1294.0,1500
20.72853994369507,401,133,78,0.00016291951775822744,1497.3,1480,1294.0,1500
20.780327796936035,402,134,77,0.00015318627450980392,1497.4,1480,1296.0,1500
20.832286834716797,403,134,78,0.0001457725947521866,1497.4,1480,1294.0,1500
20.8841769695282,404,134,78,0.00013616557734204794,1497.4,1480,1294.0,1500
20.936028003692627,405,134,79,0.0001287001287001287,1497.4,1480,1292.0,1500
20.987924814224243,406,134,78,0.00011655011655011655,1497.4,1480,1294.0,1500
21.039798974990845,407,134,77,0.00010513036164844407,1497.4,1480,1296.0,1500
21.091710805892944,408,135,78,9.886307464162135e-05,1497.5,1480,1294.0,1500
21.14381194114685,409,136,78,8.585164835164836e-05,1497.6,1480,1294.0,1500
21.195807933807373,410,135,77,7.659313725490196e-05,1497.5,1480,1296.0,1500
21.247972011566162,411,133,76,6.808278867102397e-05,1497.3,1480,1298.0,1500
21.30009889602661,412,132,75,6.189267809618123e-05,1497.2,1480,1300.0,1500
21.351934909820557,413,130,76,5.696058327637275e-05,1497.0,1480,1298.0,1500
21.404083013534546,414,129,77,5.3867700926524454e-05,1496.9,1480,1296.0,1500
21.455917835235596,415,128,79,4.807692307692308e-05,1496.8,1480,1292.0,1500
21.507905960083008,416,129,82,4.4238000442380005e-05,1496.9,1480,1286.0,1500
21.559770822525024,417,130,84,4.0567951318458416e-05,1497.0,1480,1282.0,1500
21.611702919006348,418,131,86,3.781004234724743e-05,1497.1,1480,1278.0,1500
21.663750886917114,419,134,86,3.5696437495537944e-05,1497.4,1480,1278.0,1500
21.71561598777771,420,137,89,3.2679738562091506e-05,1497.7,1480,1272.0,1500
21.767524003982544,421,141,92,3.037482534475427e-05,1498.1,1480,1266.0,1500
21.819394826889038,422,147,87,3.0547409579667644e-05,1498.7,1480,1276.0,1500
21.871352910995483,423,150,94,2.699055330634278e-05,1499.0,1480,1262.0,1500
21.923818826675415,424,153,94,2.5425883549453343e-05,1499.3,1480,1262.0,1500
21.97591781616211,425,156,95,2.4580291522257453e-05,1499.6,1480,1260.0,1500
22.028170824050903,426,158,93,2.3557680981884145e-05,1499.8,1480,1264.0,1500
22.08001685142517,427,161,96,2.2122914915269237e-05,1500.1,1480,1258.0,1500
22.132048845291138,428,166,94,2.2045855379188714e-05,1500.6,1480,1262.0,1500
22.183997869491577,429,169,93,2.1738185296291465e-05,1500.9,1480,1264.0,1500
22.235996961593628,430,173,95,2.050524934383202e-05,1501.3,1480,1260.0,1500
22.28786301612854,431,175,95,2.0424836601307188e-05,1501.5,1480,1260.0,1500
22.3399658203125,432,177,91,2.0903010033444815e-05,1501.7,1480,1268.0,1500
22.39184880256653,433,177,93,2.0410662530105728e-05,1501.7,1480,1264.0,1500
22.443992853164673,434,179,99,1.9011406844106464e-05,1501.9,1480,1252.0,1500
22.495906829833984,435,180,97,1.932591218305504e-05,1502.0,1480,1256.0,1500
22.547887802124023,436,181,95,1.990723229749368e-05,1502.1,1480,1260.0,1500
22.59979796409607,437,184,96,1.970093973482535e-05,1502.4,1480,1258.0,1500
22.65182900428772,438,187,99,1.8867924528301888e-05,1502.7,1480,1252.0,1500
22.70390486717224,439,189,96,1.9825535289452816e-05,1502.9,1480,1258.0,1500
22.75582480430603,440,191,90,2.1379398811305425e-05,1503.1,1480,1270.0,1500
22.807792901992798,441,192,93,2.0941531244764618e-05,1503.2,1480,1264.0,1500
22.859635829925537,442,193,85,2.320616355704075e-05,1503.3,1480,1280.0,1500
22.911539793014526,443,195,85,2.3349210796675074e-05,1503.5,1480,1280.0,1500
22.963446855545044,444,196,96,2.0868984515213488e-05,1503.6,1480,1258.0,1500
23.015376806259155,445,197,96,2.121250689406474e-05,1503.7,1480,1258.0,1500
23.067171812057495,446,197,98,2.1062830423152263e-05,1503.7,1480,1254.0,1500
23.119038820266724,447,198,90,2.3281802942819892e-05,1503.8,1480,1270.0,1500
23.17094087600708,448,196,92,2.34000234000234e-05,1503.6,1480,1266.0,1500
23.2228000164032,449,188,95,2.378234398782344e-05,1502.8,1480,1260.0,1500
23.274693965911865,450,181,87,2.7316433566433566e-05,1502.1,1480,1276.0,1500
23.32658886909485,451,172,83,3.086610284585468e-05,1501.2,1480,1284.0,1500
23.37842583656311,452,168,77,3.465003465003465e-05,1500.8,1480,1296.0,1500
23.430362939834595,453,159,81,3.695491500369549e-05,1499.9,1480,1288.0,1500
23.482266902923584,454,155,84,3.795066413662239e-05,1499.5,1480,1282.0,1500
23.534464836120605,455,149,90,4.003523100328289e-05,1498.9,1480,1270.0,1500
23.586448907852173,456,147,86,4.597701149425287e-05,1498.7,1480,1278.0,1500
23.63841199874878,457,145,84,5.0276520864756156e-05,1498.5,1480,1282.0,1500
23.69027280807495,458,142,86,6.051803437424352e-05,1498.2,1480,1278.0,1500
23.742355823516846,459,141,84,6.429627724554748e-05,1498.1,1480,1282.0,1500
23.79447078704834,460,137,86,7.572889057175312e-05,1497.7,1480,1278.0,1500
23.846508979797363,461,134,87,8.417508417508418e-05,1497.4,1480,1276.0,1500
23.89828085899353,462,129,85,9.996001599360256e-05,1496.9,1480,1280.0,1500
23.950187921524048,463,127,83,0.00010869565217391305,1496.7,1480,1284.0,1500
24.002067804336548,464,124,80,0.0001286008230452675,1496.4,1480,1290.0,1500
24.054009914398193,465,123,77,0.00013869625520110957,1496.3,1480,1296.0,1500
24.105992794036865,466,121,74,0.00016025641025641026,1496.1,1480,1300,1500
24.15769386291504,467,119,72,0.00016983695652173913,1495.9,1480,1300,1500
24.209378957748413,468,118,70,0.00017834849295523454,1495.8,1480,1300,1500
24.26112985610962,469,116,69,0.0001853911753800519,1495.6,1480,1300,1500
24.312952995300293,470,114,69,0.00020525451559934318,1495.4,1480,1300,1500
24.364657878875732,471,113,69,0.0002139495079161318,1495.3,1480,1300,1500
24.416433811187744,472,111,70,0.00021777003484320557,1495.1,1480,1300,1500
24.46814489364624,473,109,70,0.00022583559168925022,1494.9,1480,1300,1500
24.519943952560425,474,107,71,0.0002204585537918871,1494.7,1480,1300,1500
24.57172989845276,475,106,71,0.0002314814814814815,1494.6,1480,1300,1500
24.623570919036865,476,106,72,0.00024189646831156264,1494.6,1480,1300,1500
24.675262928009033,477,106,73,0.0002631578947368421,1494.6,1480,1300,1500
24.7270770072937,478,107,73,0.0002685284640171858,1494.7,1480,1300,1500
24.778844833374023,479,107,73,0.0002631578947368421,1494.7,1480,1300,1500
24.831122875213623,480,108,74,0.0002702702702702703,1494.8,1480,1300,1500
24.882892847061157,481,110,75,0.00026143790849673205,1495.0,1480,1300.0,1500
24.934794902801514,482,111,75,0.00025799793601651185,1495.1,1480,1300.0,1500
24.986696004867554,483,113,76,0.0002450379808870375,1495.3,1480,1298.0,1500
25.03850483894348,484,114,75,0.00023741690408357076,1495.4,1480,1300.0,1500
25.090540885925293,485,116,72,0.0002204585537918871,1495.6,1480,1300,1500
25.14245080947876,486,119,72,0.00021454623471358077,1495.9,1480,1300,1500
25.19423484802246,487,122,69,0.0001984126984126984,1496.2,1480,1300,1500
25.246091842651367,488,125,65,0.00016960651289009497,1496.5,1480,1300,1500
25.297892808914185,489,129,61,0.0001417233560090703,1496.9,1480,1300,1500
25.349610805511475,490,133,61,0.00012137395314965408,1497.3,1480,1300,1500
25.40142297744751,491,139,63,0.00010175010175010175,1497.9,1480,1300,1500
25.453399896621704,492,145,64,8.862105636299185e-05,1498.5,1480,1300,1500
25.50523591041565,493,151,66,7.538067239559776e-05,1499.1,1480,1300,1500
25.5570387840271,494,155,71,6.535520554212144e-05,1499.5,1480,1300,1500
25.608789920806885,495,157,73,5.8754406580493536e-05,1499.7,1480,1300,1500
25.660624980926514,496,156,74,5.7260650480989464e-05,1499.6,1480,1300,1500
25.712498903274536,497,151,74,6.06134076857801e-05,1499.1,1480,1300,1500
25.764400959014893,498,147,74,6.55307994757536e-05,1498.7,1480,1300,1500
25.816288948059082,499,144,74,7.138777841233581e-05,1498.4,1480,1300,1500
25.86807680130005,500,140,76,8.074935400516796e-05,1498.0,1480,1298.0,1500
25.919861793518066,501,137,77,9.081827263645445e-05,1497.7,1480,1296.0,1500
25.971781015396118,502,131,80,0.0001069747539580659,1497.1,1480,1290.0,1500
26.02368998527527,503,129,82,0.00012025012025012025,1496.9,1480,1286.0,1500
26.07553482055664,504,121,87,0.00014560279557367502,1496.1,1480,1276.0,1500
26.12741184234619,505,118,89,0.00015620118712902218,1495.8,1480,1272.0,1500
26.179314851760864,506,114,92,0.00016801075268817206,1495.4,1480,1266.0,1500
26.231247901916504,507,112,92,0.00017921146953405018,1495.2,1480,1266.0,1500
26.283034801483154,508,110,93,0.0001841959845275373,1495.0,1480,1264.0,1500
26.334905862808228,509,109,91,0.00018628912071535022,1494.9,1480,1268.0,1500
26.386969804763794,510,107,89,0.00019157088122605365,1494.7,1480,1272.0,1500
26.43885087966919,511,106,86,0.00019708316909735908,1494.6,1480,1278.0,1500
26.490755796432495,512,104,82,0.0001893939393939394,1494.4,1480,1286.0,1500
26.54256296157837,513,103,79,0.00019708316909735908,1494.3,1480,1292.0,1500
26.59453582763672,514,102,76,0.00019940179461615153,1494.2,1480,1298.0,1500
26.646416902542114,515,101,75,0.0002063983488132095,1494.1,1480,1300.0,1500
26.69830298423767,516,101,78,0.0002403268445085316,1494.1,1480,1294.0,1500
26.75027894973755,517,100,75,0.00023084025854108956,1494.0,1480,1300.0,1500
26.80217981338501,518,100,76,0.0002370791844476055,1494.0,1480,1298.0,1500
26.85409188270569,519,98,76,0.00024906600249066,1493.8,1480,1298.0,1500
26.905844926834106,520,97,77,0.0002361275088547816,1493.7,1480,1296.0,1500
26.9576518535614,521,96,77,0.00023441162681669012,1493.6,1480,1296.0,1500
27.00948691368103,522,95,80,0.000257201646090535,1493.5,1480,1290.0,1500
27.061255931854248,523,94,77,0.0002388344877000239,1493.4,1480,1296.0,1500
27.11326289176941,524,93,80,0.0002620545073375262,1493.3,1480,1290.0,1500
27.165063858032227,525,92,79,0.00025157232704402514,1493.2,1480,1292.0,1500
27.217007875442505,526,91,76,0.00022461814914645105,1493.1,1480,1298.0,1500
27.26893186569214,527,92,78,0.00022197558268590456,1493.2,1480,1294.0,1500
27.320891857147217,528,93,80,0.0002300966405890474,1493.3,1480,1290.0,1500
27.37297487258911,529,94,79,0.0002204585537918871,1493.4,1480,1292.0,1500
27.42492985725403,530,95,80,0.0002153316106804479,1493.5,1480,1290.0,1500
27.477008819580078,531,96,81,0.00021786492374727668,1493.6,1480,1288.0,1500
27.528878927230835,532,97,81,0.000213903743315508,1493.7,1480,1288.0,1500
27.58081293106079,533,98,80,0.00021645021645021645,1493.8,1480,1290.0,1500
27.633047819137573,534,97,80,0.00021786492374727668,1493.7,1480,1290.0,1500
27.685003995895386,535,96,79,0.00022461814914645105,1493.6,1480,1292.0,1500
27.73698592185974,536,96,79,0.0002089864158829676,1493.6,1480,1292.0,1500
27.788920879364014,537,94,80,0.00021786492374727668,1493.4,1480,1290.0,1500
27.84078288078308,538,93,80,0.00022197558268590456,1493.3,1480,1290.0,1500
27.89275097846985,539,93,80,0.00022197558268590456,1493.3,1480,1290.0,1500
27.944734811782837,540,92,80,0.00021786492374727668,1493.2,1480,1290.0,1500
27.99669098854065,541,92,79,0.00022197558268590456,1493.2,1480,1292.0,1500
28.048556804656982,542,91,80,0.00023452157598499062,1493.1,1480,1290.0,1500
28.100400924682617,543,91,80,0.00023623907394283014,1493.1,1480,1290.0,1500
28.152333974838257,544,91,81,0.00025303643724696357,1493.1,1480,1288.0,1500
28.20424199104309,545,91,79,0.00023342670401493932,1493.1,1480,1292.0,1500
28.25612187385559,546,91,82,0.0002450379808870375,1493.1,1480,1286.0,1500
28.30795192718506,547,91,87,0.0002828054298642534,1493.1,1480,1276.0,1500
28.359919786453247,548,91,81,0.00023169601482854495,1493.1,1480,1288.0,1500
28.41193389892578,549,91,87,0.0002747252747252747,1493.1,1480,1276.0,1500
28.463887929916382,550,91,86,0.00027085590465872155,1493.1,1480,1278.0,1500
28.5157949924469,551,91,83,0.00024826216484607745,1493.1,1480,1284.0,1500
28.56761884689331,552,90,81,0.0002450379808870375,1493.0,1480,1288.0,1500
28.619669914245605,553,88,84,0.00026343519494204424,1492.8,1480,1282.0,1500
28.671783924102783,554,88,87,0.0002913752913752914,1492.8,1480,1276.0,1500
28.723840951919556,555,87,87,0.00030165912518853697,1492.7,1480,1276.0,1500
28.77586078643799,556,86,85,0.0003636363636363636,1492.6,1480,1280.0,1500
28.827850818634033,557,86,88,0.0003214400514304082,1492.6,1480,1274.0,1500
28.879897832870483,558,85,80,0.00046904315196998124,1492.5,1480,1290.0,1500
28.931824922561646,559,86,87,0.00029481132075471697,1492.6,1480,1276.0,1500
28.984303951263428,560,87,80,0.0002388344877000239,1492.7,1480,1290.0,1500
29.036359786987305,561,89,75,0.00020525451559934318,1492.9,1480,1300.0,1500
29.08855891227722,562,91,73,0.00020165355918531962,1493.1,1480,1300,1500
29.140313863754272,563,94,68,0.00018315018315018315,1493.4,1480,1300,1500
29.19231390953064,564,97,64,0.00016622340425531914,1493.7,1480,1300,1500
29.244085788726807,565,100,62,0.00015318627450980392,1494.0,1480,1300,1500
29.29595398902893,566,101,60,0.00013513513513513514,1494.1,1480,1300,1500
29.347792863845825,567,105,60,0.00010442773600668337,1494.5,1480,1300,1500
29.39959478378296,568,110,60,9.190331770976932e-05,1495.0,1480,1300,1500
29.451420783996582,569,117,65,7.953551260637875e-05,1495.7,1480,1300,1500
29.503516912460327,570,125,68,7.20876585928489e-05,1496.5,1480,1300,1500
29.555569887161255,571,136,66,7.074136955291455e-05,1497.6,1480,1300,1500
29.607441902160645,572,138,63,6.888001102080176e-05,1497.8,1480,1300,1500
29.65926480293274,573,133,72,6.704210244033253e-05,1497.3,1480,1300,1500
29.711147785186768,574,127,70,7.499062617172853e-05,1496.7,1480,1300,1500
29.763051986694336,575,122,75,7.77000777000777e-05,1496.2,1480,1300.0,1500
29.815146923065186,576,116,80,9.363295880149813e-05,1495.6,1480,1290.0,1500
29.866997003555298,577,110,82,0.00010964912280701755,1495.0,1480,1286.0,1500
29.919010877609253,578,105,85,0.00013736263736263736,1494.5,1480,1280.0,1500
29.970889806747437,579,104,86,0.00015698587127158556,1494.4,1480,1278.0,1500
30.022750854492188,580,102,87,0.00018315018315018315,1494.2,1480,1276.0,1500
30.07468581199646,581,101,87,0.00020525451559934318,1494.1,1480,1276.0,1500
30.126560926437378,582,101,87,0.0002314814814814815,1494.1,1480,1276.0,1500
30.178422927856445,583,101,91,0.000257201646090535,1494.1,1480,1268.0,1500
30.230373859405518,584,101,102,0.00036310820624546115,1494.1,1480,1246.0,1500
30.282230854034424,585,101,103,0.00034965034965034965,1494.1,1480,1244.0,1500
30.334189891815186,586,100,103,0.0002876042565429968,1494.0,1480,1244.0,1500
30.385936975479126,587,98,89,0.00019043991620643687,1493.8,1480,1272.0,1500
30.441890954971313,588,95,83,0.00015229972586049346,1493.5,1480,1284.0,1500
30.49402093887329,589,92,77,0.00012802458071949814,1493.2,1480,1296.0,1500
30.545897006988525,590,91,73,0.00011799410029498526,1493.1,1480,1300,1500
30.597739934921265,591,88,68,0.00011809163911195088,1492.8,1480,1300,1500
30.64962100982666,592,87,66,0.00011750881316098707,1492.7,1480,1300,1500
30.701493978500366,593,84,66,0.00011870845204178538,1492.4,1480,1300,1500
30.753419876098633,594,83,68,0.0001271294177472667,1492.3,1480,1300,1500
30.80538296699524,595,82,72,0.00013986013986013986,1492.2,1480,1300,1500
30.857568979263306,596,81,76,0.00014934289127837514,1492.1,1480,1298.0,1500
30.90953779220581,597,82,83,0.00016903313049357674,1492.2,1480,1284.0,1500
30.96149492263794,598,84,88,0.0001827485380116959,1492.4,1480,1274.0,1500
31.01361393928528,599,88,92,0.00018796992481203009,1492.8,1480,1266.0,1500
31.06545901298523,600,91,96,0.000192789666473877,1493.1,1480,1258.0,1500
31.11738085746765,601,96,99,0.0001949317738791423,1493.6,1480,1252.0,1500
31.169188976287842,602,99,101,0.00018946570670708602,1493.9,1480,1248.0,1500
31.221174955368042,603,105,101,0.0001670843776106934,1494.5,1480,1248.0,1500
31.27312994003296,604,109,98,0.00014705882352941175,1494.9,1480,1254.0,1500
31.325187921524048,605,110,95,0.00013542795232936077,1495.0,1480,1260.0,1500
31.377182006835938,606,109,91,0.00011507479861910241,1494.9,1480,1268.0,1500
31.429144859313965,607,104,89,0.00010642826734780758,1494.4,1480,1272.0,1500
31.48101782798767,608,87,76,0.0001281722635221738,1492.7,1480,1298.0,1500
31.532888889312744,609,94,50,0.0011655011655011655,1493.4,1486.6550116550115,1300,1500
31.58495783805847,610,34,85,0.01020408163265306,1487.4,1520,1280.0,1500
31.63692283630371,611,27,82,0.041666666666666664,1486.7,1520,1286.0,1500
31.688740015029907,612,,,,1500.0,1500.0,1250.0,1500
31.74011778831482,613,,,,1500.0,1500.0,1250.0,1500
31.791539907455444,614,,,,1500.0,1500.0,1250.0,1500
31.843044996261597,615,,,,1500.0,1500.0,1250.0,1500
31.89449381828308,616,,,,1500.0,1500.0,1250.0,1500
31.945835828781128,617,,,,1500.0,1500.0,1250.0,1500
31.997305870056152,618,,,,1500.0,1500.0,1250.0,1500
32.04888391494751,619,,,,1500.0,1500.0,1250.0,1500
32.10037899017334,620,,,,1500.0,1500.0,1250.0,1500
32.15183687210083,621,,,,1500.0,1500.0,1250.0,1500
32.203531980514526,622,,,,1500.0,1500.0,1250.0,1500
32.254944801330566,623,,,,1500.0,1500.0,1250.0,1500
32.306418895721436,624,,,,1500.0,1500.0,1250.0,1500
32.357800006866455,625,,,,1500.0,1500.0,1250.0,1500
32.40918684005737,626,,,,1500.0,1500.0,1250.0,1500
32.460651874542236,627,,,,1500.0,1500.0,1250.0,1500
32.51211190223694,628,,,,1500.0,1500.0,1250.0,1500
32.56349587440491,629,,,,1500.0,1500.0,1250.0,1500
32.61490297317505,630,,,,1500.0,1500.0,1250.0,1500
32.66642880439758,631,,,,1500.0,1500.0,1250.0,1500
32.71785593032837,632,,,,1500.0,1500.0,1250.0,1500
32.76961398124695,633,,,,1500.0,1500.0,1250.0,1500
32.8211088180542,634,,,,1500.0,1500.0,1250.0,1500
32.87279987335205,635,,,,1500.0,1500.0,1250.0,1500
32.92437386512756,636,,,,1500.0,1500.0,1250.0,1500
32.97579479217529,637,,,,1500.0,1500.0,1250.0,1500
33.02715992927551,638,,,,1500.0,1500.0,1250.0,1500
33.07858991622925,639,,,,1500.0,1500.0,1250.0,1500
33.13010382652283,640,,,,1500.0,1500.0,1250.0,1500
33.181628942489624,641,,,,1500.0,1500.0,1250.0,1500
33.23336386680603,642,,,,1500.0,1500.0,1250.0,1500
33.28486680984497,643,,,,1500.0,1500.0,1250.0,1500
33.33635592460632,644,,,,1500.0,1500.0,1250.0,1500
33.38790798187256,645,,,,1500.0,1500.0,1250.0,1500
33.43932795524597,646,,,,1500.0,1500.0,1250.0,1500
33.490800857543945,647,,,,1500.0,1500.0,1250.0,1500
33.54217481613159,648,,,,1500.0,1500.0,1250.0,1500
33.59352087974548,649,,,,1500.0,1500.0,1250.0,1500
33.64497685432434,650,,,,1500.0,1500.0,1250.0,1500
33.69634985923767,651,,,,1500.0,1500.0,1250.0,1500
33.74789786338806,652,39,54,0.015384615384615385,1487.9,1520,1300,1500
33.79974889755249,653,63,96,0.0012195121951219512,1490.3,1487.1951219512196,1258.0,1500
33.8522469997406,654,75,69,6.211180124223603e-05,1491.5,1480,1300,1500
33.90425491333008,655,99,71,5.18000518000518e-05,1493.9,1480,1300,1500
33.95601487159729,656,111,72,4.537205081669691e-05,1495.1,1480,1300,1500
34.00780487060547,657,129,72,3.986446083316723e-05,1496.9,1480,1300,1500
34.05985498428345,658,135,76,3.552145495879511e-05,1497.5,1480,1298.0,1500
34.11169791221619,659,144,74,3.355704697986577e-05,1498.4,1480,1300,1500
34.16370391845703,660,145,74,3.316749585406302e-05,1498.5,1480,1300,1500
34.21562480926514,661,143,74,3.367003367003367e-05,1498.3,1480,1300,1500
34.26746487617493,662,139,70,3.7064492216456636e-05,1497.9,1480,1300,1500
34.31943678855896,663,139,71,3.739575932089301e-05,1497.9,1480,1300,1500
34.37136483192444,664,140,68,3.8340618050762975e-05,1498.0,1480,1300,1500
34.4235098361969,665,142,74,3.4594893793676056e-05,1498.2,1480,1300,1500
34.47530698776245,666,145,72,3.424657534246575e-05,1498.5,1480,1300,1500
34.52733087539673,667,145,72,3.3973161202649904e-05,1498.5,1480,1300,1500
34.57918691635132,668,144,81,3.0371135273036507e-05,1498.4,1480,1288.0,1500
34.631168842315674,669,146,75,3.240860772621208e-05,1498.6,1480,1300.0,1500
34.68303084373474,670,147,76,3.2517152798100995e-05,1498.7,1480,1298.0,1500
34.734888792037964,671,145,79,3.0383131285510285e-05,1498.5,1480,1292.0,1500
34.786770820617676,672,144,78,3.0622243998040176e-05,1498.4,1480,1294.0,1500
34.83863091468811,673,142,76,3.172790151659369e-05,1498.2,1480,1298.0,1500
34.89055800437927,674,142,70,3.4936938825420114e-05,1498.2,1480,1300,1500
34.94243884086609,675,145,76,3.2146071750032145e-05,1498.5,1480,1298.0,1500
34.99426293373108,676,145,73,3.279979008134348e-05,1498.5,1480,1300,1500
35.046074867248535,677,147,75,3.3112582781456954e-05,1498.7,1480,1300.0,1500
35.0979208946228,678,146,76,3.263068589701755e-05,1498.6,1480,1298.0,1500
35.14994287490845,679,146,75,3.322700691121744e-05,1498.6,1480,1300.0,1500
35.20189595222473,680,147,74,3.406806799986373e-05,1498.7,1480,1300,1500
35.25400686264038,681,146,73,3.4885749171463454e-05,1498.6,1480,1300,1500
35.30576491355896,682,145,75,3.413668327985253e-05,1498.5,1480,1300.0,1500
35.357704877853394,683,145,73,3.50655726208009e-05,1498.5,1480,1300,1500
35.40964698791504,684,145,69,3.689356207341819e-05,1498.5,1480,1300,1500
35.461418867111206,685,146,75,3.378834977699689e-05,1498.6,1480,1300.0,1500
35.513473987579346,686,147,73,3.4531579129113573e-05,1498.7,1480,1300,1500
35.565428018569946,687,146,74,3.436426116838488e-05,1498.6,1480,1300,1500
35.61732292175293,688,147,74,3.477414194804743e-05,1498.7,1480,1300,1500
35.66915488243103,689,148,69,3.663003663003663e-05,1498.8,1480,1300,1500
35.72104501724243,690,146,75,3.356605800214823e-05,1498.6,1480,1300.0,1500
35.77300000190735,691,145,75,3.361683531112381e-05,1498.5,1480,1300.0,1500
35.82499384880066,692,145,75,3.356605800214823e-05,1498.5,1480,1300.0,1500
35.876932859420776,693,144,73,3.50655726208009e-05,1498.4,1480,1300,1500
35.928831815719604,694,144,73,3.470776065528252e-05,1498.4,1480,1300,1500
35.98066282272339,695,145,76,3.3517680576504107e-05,1498.5,1480,1298.0,1500
36.03257083892822,696,145,70,3.581918475535497e-05,1498.5,1480,1300,1500
36.08432698249817,697,147,76,3.3517680576504107e-05,1498.7,1480,1298.0,1500
36.13626790046692,698,146,73,3.4531579129113573e-05,1498.6,1480,1300,1500
36.18805480003357,699,146,74,3.424188467333242e-05,1498.6,1480,1300,1500
36.239805936813354,700,146,75,3.339567192091905e-05,1498.6,1480,1300.0,1500
36.291725873947144,701,145,77,3.270538984824699e-05,1498.5,1480,1296.0,1500
36.34386086463928,702,144,74,3.441748408191361e-05,1498.4,1480,1300,1500
36.395715951919556,703,147,72,3.5124692658939236e-05,1498.7,1480,1300,1500
36.44765281677246,704,143,72,3.573342862247633e-05,1498.3,1480,1300,1500
36.49957799911499,705,143,74,3.418803418803419e-05,1498.3,1480,1300,1500
36.55140495300293,706,144,73,3.4885749171463454e-05,1498.4,1480,1300,1500
36.603585958480835,707,143,77,3.270538984824699e-05,1498.3,1480,1296.0,1500
36.65582585334778,708,144,75,3.3961623365596876e-05,1498.4,1480,1300.0,1500
36.70779299736023,709,144,74,3.477414194804743e-05,1498.4,1480,1300,1500
36.75959587097168,710,143,77,3.287310979618672e-05,1498.3,1480,1296.0,1500
36.81155180931091,711,142,76,3.3997416196369076e-05,1498.2,1480,1298.0,1500
36.863584995269775,712,143,74,3.495525727069351e-05,1498.3,1480,1300,1500
36.915416955947876,713,143,71,3.623319685495851e-05,1498.3,1480,1300,1500
36.96734690666199,714,143,77,3.304255881575469e-05,1498.3,1480,1296.0,1500
37.019115924835205,715,143,69,3.689356207341819e-05,1498.3,1480,1300,1500
37.07094478607178,716,142,73,3.519144144144144e-05,1498.2,1480,1300,1500
37.12285089492798,717,144,73,3.465003465003465e-05,1498.4,1480,1300,1500
37.17467379570007,718,143,74,3.436426116838488e-05,1498.3,1480,1300,1500
37.22664785385132,719,144,75,3.413668327985253e-05,1498.4,1480,1300.0,1500
37.27842879295349,720,144,71,3.5497497426431435e-05,1498.4,1480,1300,1500
37.3303120136261,721,143,75,3.413668327985253e-05,1498.3,1480,1300.0,1500
37.38231086730957,722,144,75,3.356605800214823e-05,1498.4,1480,1300.0,1500
37.43436789512634,723,144,73,3.4885749171463454e-05,1498.4,1480,1300,1500
37.48623180389404,724,143,73,3.524725952557189e-05,1498.3,1480,1300,1500
37.53814387321472,725,144,72,3.518648838845883e-05,1498.4,1480,1300,1500
37.590019941329956,726,145,71,3.5430839002267575e-05,1498.5,1480,1300,1500
37.641822814941406,727,146,72,3.530574777573789e-05,1498.6,1480,1300,1500
37.693949937820435,728,148,71,3.623319685495851e-05,1498.8,1480,1300,1500
37.74574279785156,729,147,70,3.792619562331703e-05,1498.7,1480,1300,1500
37.79770088195801,730,147,67,4.11522633744856e-05,1498.7,1480,1300,1500
37.849589824676514,731,151,65,4.312761461163583e-05,1499.1,1480,1300,1500
37.90159201622009,732,154,69,4.0816326530612245e-05,1499.4,1480,1300,1500
37.95357298851013,733,157,71,4.065701740120345e-05,1499.7,1480,1300,1500
38.00547194480896,734,159,66,4.240162822252374e-05,1499.9,1480,1300,1500
38.05735182762146,735,159,67,4.435573297848747e-05,1499.9,1480,1300,1500
38.10914492607117,736,157,64,4.748338081671415e-05,1499.7,1480,1300,1500
38.160929918289185,737,154,62,5.0632911392405066e-05,1499.4,1480,1300,1500
38.2128119468689,738,150,59,5.456728145803776e-05,1499.0,1480,1300,1500
38.26461982727051,739,140,55,6.377551020408164e-05,1498.0,1480,1300,1500
38.31642699241638,740,135,54,6.696578048617156e-05,1497.5,1480,1300,1500
38.36837196350098,741,130,52,7.370283018867924e-05,1497.0,1480,1300,1500
38.420257806777954,742,131,51,7.881462799495586e-05,1497.1,1480,1300,1500
38.47227096557617,743,130,49,8.064516129032258e-05,1497.0,1480,1300,1500
38.52414679527283,744,128,55,9.015506671474937e-05,1496.8,1480,1300,1500
38.57601499557495,745,133,50,8.102414519526819e-05,1497.3,1480,1300,1500
38.62785482406616,746,133,50,8.320159747067144e-05,1497.3,1480,1300,1500
38.6798038482666,747,134,49,8.620689655172413e-05,1497.4,1480,1300,1500
38.731703996658325,748,135,50,8.451656524678837e-05,1497.5,1480,1300,1500
38.78358483314514,749,135,51,8.434547908232118e-05,1497.5,1480,1300,1500
38.835407972335815,750,135,53,8.419634587858886e-05,1497.5,1480,1300,1500
38.887327909469604,751,136,51,8.746610688358261e-05,1497.6,1480,1300,1500
38.93905282020569,752,136,53,8.423180592991914e-05,1497.6,1480,1300,1500
38.990943908691406,753,137,52,8.348639171814995e-05,1497.7,1480,1300,1500
39.04283094406128,754,136,52,8.348639171814995e-05,1497.6,1480,1300,1500
39.094610929489136,755,135,53,8.496176720475786e-05,1497.5,1480,1300,1500
39.1465699672699,756,134,53,8.344459279038718e-05,1497.4,1480,1300,1500
39.1985399723053,757,134,53,8.267195767195767e-05,1497.4,1480,1300,1500
39.250550985336304,758,134,54,8.1913499344692e-05,1497.4,1480,1300,1500
39.30234098434448,759,133,55,8.585164835164836e-05,1497.3,1480,1300,1500
39.35423493385315,760,134,53,8.423180592991914e-05,1497.4,1480,1300,1500
39.406049966812134,761,133,52,8.348639171814995e-05,1497.3,1480,1300,1500
39.45781588554382,762,132,51,8.442380751371887e-05,1497.2,1480,1300,1500
39.510008811950684,763,130,51,8.369601606963509e-05,1497.0,1480,1300,1500
39.561792850494385,764,127,55,8.043758043758043e-05,1496.7,1480,1300,1500
39.61390781402588,765,126,55,7.90263948158685e-05,1496.6,1480,1300,1500
39.665700912475586,766,125,55,7.90263948158685e-05,1496.5,1480,1300,1500
39.71746778488159,767,125,55,7.97257434425576e-05,1496.5,1480,1300,1500
39.76933193206787,768,123,55,7.971938775510203e-05,1496.3,1480,1300,1500
39.82111692428589,769,122,53,8.585164835164836e-05,1496.2,1480,1300,1500
39.87316298484802,770,120,53,8.496176720475786e-05,1496.0,1480,1300,1500
39.925108909606934,771,122,52,8.499065102838688e-05,1496.2,1480,1300,1500
39.97720694541931,772,120,53,8.267195767195767e-05,1496.0,1480,1300,1500
40.02924585342407,773,119,55,8.658008658008658e-05,1495.9,1480,1300,1500
40.08121395111084,774,122,53,8.267195767195767e-05,1496.2,1480,1300,1500
40.133013010025024,775,123,53,7.913896802785692e-05,1496.3,1480,1300,1500
40.18479895591736,776,122,51,8.369601606963509e-05,1496.2,1480,1300,1500
40.23675799369812,777,120,58,8.741258741258741e-05,1496.0,1480,1300,1500
40.28865385055542,778,123,54,7.908889591901297e-05,1496.3,1480,1300,1500
40.34048295021057,779,123,53,8.051529790660226e-05,1496.3,1480,1300,1500
40.39229893684387,780,124,50,8.379420144126027e-05,1496.4,1480,1300,1500
40.44408988952637,781,125,57,7.496251874062968e-05,1496.5,1480,1300,1500
40.49605393409729,782,125,55,8.043758043758043e-05,1496.5,1480,1300,1500
40.547873973846436,783,125,55,7.766387076731904e-05,1496.5,1480,1300,1500
40.59952783584595,784,126,54,8.045052292839903e-05,1496.6,1480,1300,1500
40.6514048576355,785,125,54,7.974481658692185e-05,1496.5,1480,1300,1500
40.70341992378235,786,127,55,7.634753397465261e-05,1496.7,1480,1300,1500
40.755308866500854,787,126,58,8.132726089785297e-05,1496.6,1480,1300,1500
40.80710196495056,788,127,56,7.982120051085569e-05,1496.7,1480,1300,1500
40.858805894851685,789,127,57,7.913896802785692e-05,1496.7,1480,1300,1500
40.91068696975708,790,128,55,7.763975155279503e-05,1496.8,1480,1300,1500
40.96251201629639,791,126,50,8.308408109006314e-05,1496.6,1480,1300,1500
41.01422882080078,792,125,55,7.832080200501253e-05,1496.5,1480,1300,1500
41.06602191925049,793,125,59,9.009009009009009e-05,1496.5,1480,1300,1500
41.117830991744995,794,127,58,8.574123295892996e-05,1496.7,1480,1300,1500
41.16971397399902,795,123,61,8.746610688358261e-05,1496.3,1480,1300,1500
41.2216157913208,796,126,55,7.901390644753477e-05,1496.6,1480,1300,1500
41.2734899520874,797,125,61,0.00010001000100010001,1496.5,1480,1300,1500
