time,frame,x,y,size_inv,roll,pitch,thrust,yaw
0.00025391578674316406,1,,,,1500.0,1490.0,1400.0,1500
0.021829843521118164,2,,,,1500.0,1490.0,1400.0,1500
0.043080806732177734,3,,,,1500.0,1490.0,1400.0,1500
0.06424784660339355,4,,,,1500.0,1490.0,1400.0,1500
0.0853888988494873,5,,,,1500.0,1490.0,1400.0,1500
0.1064448356628418,6,,,,1500.0,1490.0,1400.0,1500
0.1275789737701416,7,,,,1500.0,1490.0,1400.0,1500
0.14862895011901855,8,,,,1500.0,1490.0,1400.0,1500
0.16976284980773926,9,,,,1500.0,1490.0,1400.0,1500
0.19082283973693848,10,,,,1500.0,1490.0,1400.0,1500
0.21205592155456543,11,,,,1500.0,1490.0,1400.0,1500
0.23335599899291992,12,,,,1500.0,1490.0,1400.0,1500
0.2546989917755127,13,,,,1500.0,1490.0,1400.0,1500
0.27603697776794434,14,,,,1500.0,1490.0,1400.0,1500
0.2973787784576416,15,,,,1500.0,1490.0,1400.0,1500
0.31869077682495117,16,,,,1500.0,1490.0,1400.0,1500
0.34007692337036133,17,,,,1500.0,1490.0,1400.0,1500
0.36141395568847656,18,,,,1500.0,1490.0,1400.0,1500
0.38278889656066895,19,,,,1500.0,1490.0,1400.0,1500
0.4041709899902344,20,,,,1500.0,1490.0,1400.0,1500
0.4255049228668213,21,,,,1500.0,1490.0,1400.0,1500
0.4468197822570801,22,,,,1500.0,1490.0,1400.0,1500
0.46817779541015625,23,,,,1500.0,1490.0,1400.0,1500
0.48950791358947754,24,,,,1500.0,1490.0,1400.0,1500
0.5108737945556641,25,,,,1500.0,1490.0,1400.0,1500
0.5322167873382568,26,,,,1500.0,1490.0,1400.0,1500
0.5535838603973389,27,,,,1500.0,1490.0,1400.0,1500
0.5750188827514648,28,,,,1500.0,1490.0,1400.0,1500
0.5964028835296631,29,,,,1500.0,1490.0,1400.0,1500
0.6177489757537842,30,,,,1500.0,1490.0,1400.0,1500
0.6390957832336426,31,,,,1500.0,1490.0,1400.0,1500
0.660402774810791,32,,,,1500.0,1490.0,1400.0,1500
0.6818439960479736,33,,,,1500.0,1490.0,1400.0,1500
0.703204870223999,34,,,,1500.0,1490.0,1400.0,1500
0.7245039939880371,35,,,,1500.0,1490.0,1400.0,1500
0.7459588050842285,36,,,,1500.0,1490.0,1400.0,1500
0.7672557830810547,37,,,,1500.0,1490.0,1400.0,1500
0.7885868549346924,38,,,,1500.0,1490.0,1400.0,1500
0.8099429607391357,39,,,,1500.0,1490.0,1400.0,1500
0.8312947750091553,40,,,,1500.0,1490.0,1400.0,1500
0.8525919914245605,41,,,,1500.0,1490.0,1400.0,1500
0.8741087913513184,42,,,,1500.0,1490.0,1400.0,1500
0.8954079151153564,43,,,,1500.0,1490.0,1400.0,1500
0.9167518615722656,44,,,,1500.0,1490.0,1400.0,1500
0.9380908012390137,45,,,,1500.0,1490.0,1400.0,1500
0.9594237804412842,46,,,,1500.0,1490.0,1400.0,1500
0.9807369709014893,47,,,,1500.0,1490.0,1400.0,1500
1.0021247863769531,48,,,,1500.0,1490.0,1400.0,1500
1.0234169960021973,49,,,,1500.0,1490.0,1400.0,1500
1.0447628498077393,50,,,,1500.0,1490.0,1400.0,1500
1.066100835800171,51,,,,1500.0,1490.0,1400.0,1500
1.0874319076538086,52,,,,1500.0,1490.0,1400.0,1500
1.1087548732757568,53,,,,1500.0,1490.0,1400.0,1500
1.130248785018921,54,61,1,0.037037037037037035,1490.0999999999999,1530,1415,1500
1.1517210006713867,55,61,3,0.01020408163265306,1490.0999999999999,1530,1415,1500
1.1732378005981445,56,62,4,0.005263157894736842,1490.2,1494.2631578947369,1415,1500
1.1947658061981201,57,62,6,0.003401360544217687,1490.2,1457.0272108843537,1415,1500
1.2163569927215576,58,63,9,0.0016666666666666668,1490.3,1450,1415,1500
1.237813949584961,59,66,11,0.0013175230566534915,1490.5999999999999,1450,1415,1500
1.259293794631958,60,67,13,0.001001001001001001,1490.7,1450,1415,1500
1.2807369232177734,61,68,14,0.0007936507936507937,1490.8,1450,1415,1500
1.3022778034210205,62,70,16,0.0006447453255963894,1491.0,1450,1415,1500
1.324082851409912,63,71,17,0.0005714285714285715,1491.0999999999999,1450,1415,1500
1.346923828125,64,73,18,0.0004784688995215311,1491.3,1450,1415,1500
1.3696198463439941,65,74,19,0.0004166666666666667,1491.4000000000001,1450,1415,1500
1.3922908306121826,66,76,20,0.0003779289493575208,1491.5999999999999,1450,1415,1500
1.4152088165283203,67,79,22,0.00035778175313059033,1491.9000000000001,1450,1415,1500
1.4379239082336426,68,80,23,0.00032938076416337287,1492.0,1450,1415,1500
1.4605557918548584,69,82,24,0.0003201024327784891,1492.2,1450,1415,1500
1.4835808277130127,70,83,27,0.0002962962962962963,1492.3,1450,1415,1500
1.5068368911743164,71,85,30,0.0002799552071668533,1492.5,1450,1415,1500
1.5296058654785156,72,88,32,0.0002583311805734952,1492.8,1450,1415,1500
1.5522818565368652,73,89,34,0.00024509803921568627,1492.9000000000001,1450,1415,1500
1.5752840042114258,74,90,34,0.00026041666666666666,1493.0,1450,1415,1500
1.5979578495025635,75,92,45,0.00039556962025316455,1493.2,1450,1415,1500
1.620600938796997,76,96,34,0.00030864197530864197,1493.5999999999999,1450,1415,1500
1.6434588432312012,77,99,40,0.00027277686852154935,1493.9000000000001,1450,1415,1500
1.66628098487854,78,100,44,0.00023623907394283014,1494.0,1450,1415,1500
1.688957929611206,79,100,45,0.00025031289111389235,1494.0,1450,1415,1500
1.711681842803955,80,104,50,0.00023408239700374532,1494.4000000000001,1450,1415,1500
1.7343189716339111,81,117,37,0.0009191176470588235,1495.7,1450,1415,1500
1.757086992263794,82,112,44,0.000388651379712398,1495.2,1450,1415,1500
1.7797467708587646,83,125,47,0.0008064516129032258,1496.5,1450,1415,1500
1.8023769855499268,84,118,47,0.0003484320557491289,1495.8,1450,1415,1500
1.8252480030059814,85,142,47,0.0013157894736842105,1498.2,1450,1415,1500
1.8479609489440918,86,123,44,0.0006993006993006993,1496.3,1450,1415,1500
1.870588779449463,87,149,52,0.002232142857142857,1498.9000000000001,1450,1415,1500
1.8934638500213623,88,136,47,0.0007680491551459293,1497.5999999999999,1450,1415,1500
1.9163057804107666,89,127,49,0.0006038647342995169,1496.7,1450,1415,1500
1.9389917850494385,90,148,66,0.0013550135501355014,1498.8,1450,1415,1500
1.961756944656372,91,128,50,0.0003681885125184094,1496.8,1450,1415,1500
1.9846549034118652,92,113,54,0.0006747638326585695,1495.3,1450,1415,1500
2.0074329376220703,93,140,51,0.00040064102564102563,1498.0,1450,1415,1500
2.030141830444336,94,90,57,0.002380952380952381,1493.0,1450,1415,1500
2.0527868270874023,95,146,57,0.00037037037037037035,1498.5999999999999,1450,1415,1500
2.075730800628662,96,149,53,0.00038095238095238096,1498.9000000000001,1450,1415,1500
2.0983757972717285,97,133,55,0.0010319917440660474,1497.3,1450,1415,1500
2.1211678981781006,98,158,51,0.0005707762557077625,1499.8,1450,1415,1500
2.1438369750976562,99,130,47,0.0016666666666666668,1497.0,1450,1415,1500
2.1665167808532715,100,152,46,0.0014005602240896359,1499.2,1450,1415,1500
2.1892969608306885,101,123,88,0.0018214936247723133,1496.3,1450,1415,1500
2.2121059894561768,102,184,45,0.002232142857142857,1502.4000000000001,1450,1415,1500
2.2347919940948486,103,135,38,0.005952380952380952,1497.5,1508.047619047619,1415,1500
2.2576777935028076,104,140,86,0.0018796992481203006,1498.0,1450,1415,1500
2.280296802520752,105,148,39,0.004081632653061225,1498.8,1470.6326530612246,1415,1500
2.3032009601593018,106,195,48,0.0044444444444444444,1503.5,1477.8888888888889,1415,1500
2.3261327743530273,107,141,39,0.0033333333333333335,1498.0999999999999,1455.6666666666667,1415,1500
2.3490798473358154,108,152,90,0.004329004329004329,1499.2,1475.5800865800866,1415,1500
2.371882915496826,109,169,45,0.002178649237472767,1500.9000000000001,1450,1415,1500
2.394545793533325,110,203,38,0.002857142857142857,1504.3,1450,1415,1500
2.417250871658325,111,200,28,0.003703703703703704,1504.0,1463.0740740740741,1415,1500
2.4399828910827637,112,173,34,0.00043572984749455336,1501.3,1450,1415,1500
2.4626758098602295,113,159,35,0.0015625,1499.9000000000001,1450,1415,1500
2.485630989074707,114,204,38,0.002178649237472767,1504.4000000000001,1450,1415,1500
2.508298873901367,115,148,42,0.0025252525252525255,1498.8,1450,1415,1500
2.5308988094329834,116,157,45,0.001851851851851852,1499.7,1450,1415,1500
2.55373477935791,117,157,46,0.0014814814814814814,1499.7,1450,1415,1500
2.576352834701538,118,164,49,0.0009337068160597573,1500.4000000000001,1450,1415,1500
2.5988547801971436,119,157,57,0.0010964912280701754,1499.7,1450,1415,1500
2.6213788986206055,120,198,48,0.002976190476190476,1503.8,1450,1415,1500
2.6439318656921387,121,175,53,0.004830917874396135,1501.5,1485.6183574879226,1415,1500
2.6665279865264893,122,192,55,0.003289473684210526,1503.2,1454.7894736842106,1415,1500
2.689767837524414,123,158,63,0.0009578544061302681,1499.8,1450,1415,1500
2.7125368118286133,124,163,69,0.004166666666666667,1500.3,1472.3333333333333,1415,1500
2.735548973083496,125,197,57,0.004830917874396135,1503.7,1485.6183574879226,1415,1500
2.7583529949188232,126,147,72,0.0016233766233766235,1498.7,1450,1415,1500
2.7810299396514893,127,150,67,0.000847457627118644,1499.0,1450,1415,1500
2.8038718700408936,128,158,83,0.00021258503401360543,1499.8,1450,1415,1500
2.826530933380127,129,160,77,0.0002906131938390003,1500.0,1450,1415,1500
2.849231004714966,130,158,76,0.0002454590083456063,1499.8,1450,1415,1500
2.8719189167022705,131,160,76,0.00025006251562890725,1500.0,1450,1415,1500
2.89453387260437,132,161,75,0.00026752273943285177,1500.0999999999999,1450,1415,1500
2.917285919189453,133,156,82,0.00018552875695732838,1499.5999999999999,1450,1415,1500
2.9399619102478027,134,164,76,0.0002771618625277162,1500.4000000000001,1450,1415,1500
2.9626119136810303,135,164,69,0.0004065040650406504,1500.4000000000001,1450,1415,1500
2.9856228828430176,136,152,76,0.0005202913631633715,1499.2,1450,1415,1500
3.00832200050354,137,166,66,0.0006027727546714888,1500.5999999999999,1450,1415,1500
3.03092885017395,138,160,80,0.00022644927536231884,1500.0,1450,1415,1500
3.0537309646606445,139,162,69,0.00042265426880811494,1500.2,1450,1415,1500
3.0763847827911377,140,165,71,0.0003831417624521073,1500.5,1450,1415,1500
3.0990519523620605,141,161,78,0.0005175983436853002,1500.0999999999999,1450,1415,1500
3.1217589378356934,142,153,73,0.000663129973474801,1499.3,1450,1415,1500
3.144465923309326,143,166,80,0.0005952380952380953,1500.5999999999999,1450,1415,1500
3.1671159267425537,144,149,68,0.0009191176470588235,1498.9000000000001,1450,1415,1500
3.189842939376831,145,149,67,0.0010416666666666667,1498.9000000000001,1450,1415,1500
3.2124898433685303,146,178,63,0.0014245014245014246,1501.8,1450,1415,1500
3.235513925552368,147,185,63,0.001937984496124031,1502.5,1450,1415,1500
3.2581799030303955,148,133,69,0.0016806722689075631,1497.3,1450,1415,1500
3.2808408737182617,149,169,64,0.0020833333333333333,1500.9000000000001,1450,1415,1500
3.3036580085754395,150,163,67,0.0007662835249042146,1500.3,1450,1415,1500
3.326442003250122,151,140,67,0.0015082956259426848,1498.0,1450,1415,1500
3.3491058349609375,152,104,119,0.002178649237472767,1494.4000000000001,1450,1385,1500
3.3718619346618652,153,170,79,0.002688172043010753,1501.0,1450,1415,1500
3.394469976425171,154,167,69,0.0007087172218284905,1500.7,1450,1415,1500
3.4172449111938477,155,182,68,0.0013333333333333333,1502.2,1450,1415,1500
3.439908981323242,156,195,66,0.004347826086956522,1503.5,1475.9565217391305,1415,1500
3.462669849395752,157,164,77,0.0015151515151515152,1500.4000000000001,1450,1415,1500
3.485682964324951,158,148,86,0.0010080645161290322,1498.8,1450,1415,1500
3.5083818435668945,159,155,118,0.001736111111111111,1499.5,1450,1385,1500
3.530974864959717,160,155,72,0.0020833333333333333,1499.5,1450,1415,1500
3.5538418292999268,161,188,65,0.002564102564102564,1502.8,1450,1415,1500
3.576704978942871,162,192,69,0.003787878787878788,1503.2,1464.7575757575758,1415,1500
3.599648952484131,163,184,68,0.0015151515151515152,1502.4000000000001,1450,1415,1500
3.622541904449463,164,142,66,0.0016666666666666668,1498.2,1450,1415,1500
3.6456527709960938,165,147,84,0.003968253968253968,1498.7,1468.3650793650793,1415,1500
3.6684467792510986,166,177,65,0.0013227513227513227,1501.7,1450,1415,1500
3.691107988357544,167,144,70,0.0009718172983479105,1498.4000000000001,1450,1415,1500
3.7138619422912598,168,165,68,0.0012755102040816326,1500.5,1450,1415,1500
3.736738920211792,169,167,70,0.0005367686527106817,1500.7,1450,1415,1500
3.759650945663452,170,145,120,0.0004761904761904762,1498.5,1450,1385,1500
3.7825539112091064,171,108,119,0.001644736842105263,1494.8,1450,1385,1500
3.805410861968994,172,112,119,0.001349527665317139,1495.2,1450,1385,1500
3.828216791152954,173,183,66,0.0013605442176870747,1502.3,1450,1415,1500
3.850864887237549,174,189,65,0.002136752136752137,1502.9000000000001,1450,1415,1500
3.873915910720825,175,108,119,0.001736111111111111,1494.8,1450,1385,1500
3.8965508937835693,176,115,109,0.0014347202295552368,1495.5,1450,1385,1500
3.919203996658325,177,179,70,0.0011160714285714285,1501.9000000000001,1450,1415,1500
3.9419097900390625,178,178,68,0.0014124293785310734,1501.8,1450,1415,1500
3.964679002761841,179,187,74,0.0011086474501108647,1502.7,1450,1415,1500
3.9876790046691895,180,186,73,0.0013679890560875513,1502.5999999999999,1450,1415,1500
4.010423898696899,181,117,121,0.0012004801920768306,1495.7,1450,1385,1500
4.033168792724609,182,174,73,0.0007107320540156361,1501.4000000000001,1450,1415,1500
4.05601692199707,183,131,119,0.0006493506493506494,1497.0999999999999,1450,1385,1500
4.078625917434692,184,112,123,0.0022727272727272726,1495.2,1450,1385,1500
4.1013758182525635,185,172,76,0.0004789272030651341,1501.2,1450,1415,1500
4.12404990196228,186,114,120,0.0014534883720930232,1495.4000000000001,1450,1385,1500
4.146708965301514,187,190,70,0.0025252525252525255,1503.0,1450,1415,1500
4.16938591003418,188,159,74,0.0011961722488038277,1499.9000000000001,1450,1415,1500
4.192150831222534,189,185,70,0.0012345679012345679,1502.5,1450,1415,1500
4.214761972427368,190,107,120,0.002380952380952381,1494.7,1450,1385,1500
4.237573862075806,191,178,71,0.0008771929824561404,1501.8,1450,1415,1500
4.260297775268555,192,180,70,0.0013333333333333333,1502.0,1450,1415,1500
4.2830328941345215,193,135,71,0.0011074197120708748,1497.5,1450,1415,1500
4.305863857269287,194,105,117,0.003367003367003367,1494.5,1456.3400673400674,1385,1500
4.328658819198608,195,103,121,0.0033444816053511705,1494.3,1455.8896321070233,1385,1500
4.351488828659058,196,160,65,0.002777777777777778,1500.0,1450,1415,1500
4.374172925949097,197,108,121,0.0021008403361344537,1494.8,1450,1385,1500
4.3967719078063965,198,102,118,0.003663003663003663,1494.2,1462.2600732600733,1385,1500
4.419689893722534,199,142,62,0.003105590062111801,1498.2,1451.111801242236,1415,1500
4.442426919937134,200,104,122,0.003205128205128205,1494.4000000000001,1453.1025641025642,1385,1500
4.465503931045532,201,113,126,0.0058823529411764705,1495.3,1506.6470588235295,1385,1500
4.488435983657837,202,119,120,0.003246753246753247,1495.9000000000001,1453.9350649350649,1385,1500
4.511204957962036,203,110,110,0.002777777777777778,1495.0,1450,1385,1500
4.5339179039001465,204,165,66,0.0006385696040868455,1500.5,1450,1415,1500
4.556613922119141,205,151,65,0.0021645021645021645,1499.0999999999999,1450,1415,1500
4.579267978668213,206,180,63,0.002932551319648094,1502.0,1450,1415,1500
4.602001905441284,207,118,125,0.005208333333333333,1495.8,1493.1666666666667,1385,1500
4.624812841415405,208,104,123,0.004807692307692308,1494.4000000000001,1485.1538461538462,1385,1500
4.647729873657227,209,127,126,0.006172839506172839,1496.7,1512.4567901234568,1385,1500
4.670463800430298,210,117,125,0.00510204081632653,1495.7,1491.0408163265306,1385,1500
4.693352937698364,211,119,126,0.0033222591362126247,1495.9000000000001,1455.4451827242524,1385,1500
4.7162158489227295,212,187,130,0.006578947368421052,1502.7,1520.578947368421,1385,1500
4.73895788192749,213,155,64,0.002857142857142857,1499.5,1450,1415,1500
4.761680841445923,214,106,124,0.003703703703703704,1494.5999999999999,1463.0740740740741,1385,1500
4.784479856491089,215,115,125,0.0035714285714285713,1495.5,1460.4285714285713,1385,1500
4.807175874710083,216,150,72,0.0016233766233766235,1499.0,1450,1415,1500
4.82996678352356,217,145,66,0.0010582010582010583,1498.5,1450,1415,1500
4.852633953094482,218,156,64,0.0017152658662092624,1499.5999999999999,1450,1415,1500
4.875625848770142,219,139,77,0.0025252525252525255,1497.9000000000001,1450,1415,1500
4.898285865783691,220,139,74,0.0017543859649122807,1497.9000000000001,1450,1415,1500
4.920951843261719,221,123,70,0.005952380952380952,1496.3,1508.047619047619,1415,1500
4.9437549114227295,222,191,127,0.0030303030303030303,1503.0999999999999,1450,1385,1500
4.966432809829712,223,151,83,0.002652519893899204,1499.0999999999999,1450,1415,1500
4.99748682975769,224,163,63,0.008333333333333333,1500.3,1530,1415,1500
5.0204010009765625,225,109,114,0.0019047619047619048,1494.9000000000001,1450,1385,1500
5.043150901794434,226,107,123,0.003472222222222222,1494.7,1458.4444444444443,1385,1500
5.066109895706177,227,140,68,0.002840909090909091,1498.0,1450,1415,1500
5.0887367725372314,228,102,66,0.00510204081632653,1494.2,1491.0408163265306,1415,1500
5.111593008041382,229,118,68,0.0019342359767891683,1495.8,1450,1415,1500
5.1342339515686035,230,99,122,0.008333333333333333,1493.9000000000001,1530,1385,1500
5.1568849086761475,231,139,62,0.004629629629629629,1497.9000000000001,1481.5925925925926,1415,1500
5.179775953292847,232,131,71,0.0018315018315018315,1497.0999999999999,1450,1415,1500
5.202486991882324,233,130,63,0.003703703703703704,1497.0,1463.0740740740741,1415,1500
5.225449800491333,234,107,124,0.00390625,1494.7,1467.125,1385,1500
5.2482500076293945,235,148,65,0.001098901098901099,1498.8,1450,1415,1500
5.270854949951172,236,147,68,0.0016260162601626016,1498.7,1450,1415,1500
5.293635845184326,237,125,124,0.0014925373134328358,1496.5,1450,1385,1500
5.316276788711548,238,138,65,0.002857142857142857,1497.8,1450,1415,1500
5.338924884796143,239,133,63,0.002857142857142857,1497.3,1450,1415,1500
5.361698865890503,240,107,121,0.004464285714285714,1494.7,1478.2857142857142,1385,1500
5.384479999542236,241,113,123,0.002325581395348837,1495.3,1450,1385,1500
5.4070727825164795,242,170,77,0.0019305019305019305,1501.0,1450,1415,1500
5.4298789501190186,243,133,67,0.00196078431372549,1497.3,1450,1415,1500
5.452575922012329,244,141,63,0.002976190476190476,1498.0999999999999,1450,1415,1500
5.4755189418792725,245,182,61,0.00303951367781155,1502.2,1450,1415,1500
5.498219966888428,246,108,81,0.003367003367003367,1494.8,1456.3400673400674,1415,1500
5.520963907241821,247,150,71,0.0027100271002710027,1499.0,1450,1415,1500
5.543715953826904,248,136,65,0.001851851851851852,1497.5999999999999,1450,1415,1500
5.5664379596710205,249,133,72,0.003676470588235294,1497.3,1462.5294117647059,1415,1500
5.589180946350098,250,113,119,0.002849002849002849,1495.3,1450,1385,1500
5.611993789672852,251,164,128,0.0019305019305019305,1500.4000000000001,1450,1385,1500
5.634642839431763,252,113,121,0.0016611295681063123,1495.3,1450,1385,1500
5.657411813735962,253,105,117,0.002232142857142857,1494.5,1450,1385,1500
5.680094003677368,254,136,68,0.0023923444976076554,1497.5999999999999,1450,1415,1500
5.702771902084351,255,159,62,0.0014705882352941176,1499.9000000000001,1450,1415,1500
5.72567892074585,256,140,65,0.0015432098765432098,1498.0,1450,1415,1500
5.748353004455566,257,98,122,0.007142857142857143,1493.8,1530,1385,1500
5.770950794219971,258,142,67,0.001451378809869376,1498.2,1450,1415,1500
5.793757915496826,259,133,65,0.0020325203252032522,1497.3,1450,1415,1500
5.816457986831665,260,141,65,0.0016835016835016834,1498.0999999999999,1450,1415,1500
5.839141845703125,261,153,61,0.005952380952380952,1499.3,1508.047619047619,1415,1500
5.862030982971191,262,133,68,0.003205128205128205,1497.3,1453.1025641025642,1415,1500
5.8848488330841064,263,160,68,0.0019342359767891683,1500.0,1450,1415,1500
5.907519817352295,264,168,63,0.003703703703703704,1500.8,1463.0740740740741,1415,1500
5.930323839187622,265,199,77,0.0035714285714285713,1503.9000000000001,1460.4285714285713,1415,1500
5.953169822692871,266,98,119,0.004201680672268907,1493.8,1473.0336134453783,1385,1500
5.976263999938965,267,106,110,0.0038314176245210726,1494.5999999999999,1465.6283524904215,1385,1500
5.999246835708618,268,154,65,0.0009191176470588235,1499.4000000000001,1450,1415,1500
6.022085905075073,269,181,71,0.0014245014245014246,1502.0999999999999,1450,1415,1500
6.044790983200073,270,109,121,0.001984126984126984,1494.9000000000001,1450,1385,1500
6.067466974258423,271,123,125,0.001984126984126984,1496.3,1450,1385,1500
6.090165853500366,272,150,67,0.000946969696969697,1499.0,1450,1415,1500
6.112937927246094,273,142,72,0.0034482758620689655,1498.2,1457.9655172413793,1415,1500
6.136175870895386,274,142,67,0.0012254901960784314,1498.2,1450,1415,1500
6.158912897109985,275,164,89,0.001893939393939394,1500.4000000000001,1450,1415,1500
6.181619882583618,276,140,72,0.000992063492063492,1498.0,1450,1415,1500
6.204309940338135,277,116,75,0.0021645021645021645,1495.5999999999999,1450,1415,1500
6.226933002471924,278,108,120,0.0025252525252525255,1494.8,1450,1385,1500
6.249693870544434,279,131,70,0.0014285714285714286,1497.0999999999999,1450,1415,1500
6.272401809692383,280,173,62,0.003105590062111801,1501.3,1451.111801242236,1415,1500
6.295349836349487,281,174,63,0.0031746031746031746,1501.4000000000001,1452.4920634920636,1415,1500
6.3181798458099365,282,115,118,0.0017730496453900709,1495.5,1450,1385,1500
6.3408708572387695,283,154,65,0.0015151515151515152,1499.4000000000001,1450,1415,1500
6.3636908531188965,284,180,66,0.0010504201680672268,1502.0,1450,1415,1500
6.386476993560791,285,153,69,0.0008223684210526315,1499.3,1450,1415,1500
6.409096002578735,286,148,68,0.0012345679012345679,1498.8,1450,1415,1500
6.4318859577178955,287,143,66,0.0016339869281045752,1498.3,1450,1415,1500
6.454594850540161,288,178,70,0.0015151515151515152,1501.8,1450,1415,1500
6.477377891540527,289,184,67,0.0017094017094017094,1502.4000000000001,1450,1415,1500
6.500328779220581,290,127,124,0.005050505050505051,1496.7,1490.0101010101009,1385,1500
6.523342847824097,291,132,71,0.0033783783783783786,1497.2,1456.5675675675675,1415,1500
6.546389818191528,292,115,122,0.003787878787878788,1495.5,1464.7575757575758,1385,1500
6.56914496421814,293,129,60,0.009523809523809525,1496.9000000000001,1530,1415,1500
6.59188985824585,294,151,122,0.0038314176245210726,1499.0999999999999,1465.6283524904215,1385,1500
6.614686965942383,295,102,120,0.0125,1494.2,1530,1385,1500
6.637243986129761,296,111,121,0.01282051282051282,1495.0999999999999,1530,1385,1500
6.660076856613159,297,128,57,0.0125,1496.8,1530,1415,1500
6.682701826095581,298,114,79,0.003676470588235294,1495.4000000000001,1462.5294117647059,1415,1500
6.705981969833374,299,115,117,0.004901960784313725,1495.5,1487.0392156862745,1385,1500
6.7287437915802,300,114,115,0.0025,1495.4000000000001,1450,1385,1500
6.751477003097534,301,138,117,0.004329004329004329,1497.8,1475.5800865800866,1385,1500
6.774298906326294,302,157,80,0.003968253968253968,1499.7,1468.3650793650793,1415,1500
6.797062873840332,303,123,117,0.0026455026455026454,1496.3,1450,1385,1500
6.819774866104126,304,148,70,0.005,1498.8,1489.0,1415,1500
6.842534780502319,305,152,117,0.0028735632183908046,1499.2,1450,1385,1500
6.865539789199829,306,113,107,0.003472222222222222,1495.3,1458.4444444444443,1386.0,1500
6.888439893722534,307,144,116,0.00234192037470726,1498.4000000000001,1450,1385,1500
6.9111409187316895,308,111,109,0.0027548209366391185,1495.0999999999999,1450,1385,1500
6.933963775634766,309,129,68,0.002403846153846154,1496.9000000000001,1450,1415,1500
6.95663595199585,310,190,77,0.0025252525252525255,1503.0,1450,1415,1500
6.9792749881744385,311,193,55,0.00390625,1503.3,1467.125,1415,1500
7.002114772796631,312,113,56,0.004830917874396135,1495.3,1485.6183574879226,1415,1500
7.0249388217926025,313,153,112,0.0035714285714285713,1499.3,1460.4285714285713,1385,1500
7.047729969024658,314,113,105,0.0034482758620689655,1495.3,1457.9655172413793,1390.0,1500
7.070621967315674,315,159,113,0.002976190476190476,1499.9000000000001,1450,1385,1500
7.09342098236084,316,123,60,0.005714285714285714,1496.3,1503.2857142857142,1415,1500
7.116518974304199,317,127,67,0.0019047619047619048,1496.7,1450,1415,1500
7.139182806015015,318,150,55,0.0025,1499.0,1450,1415,1500
7.161969900131226,319,142,102,0.003787878787878788,1498.2,1464.7575757575758,1396.0,1500
7.184870958328247,320,124,81,0.004166666666666667,1496.4000000000001,1472.3333333333333,1415,1500
7.2077038288116455,321,179,53,0.002777777777777778,1501.9000000000001,1450,1415,1500
7.230372905731201,322,108,110,0.006666666666666667,1494.8,1522.3333333333333,1385,1500
7.2533159255981445,323,114,111,0.0043859649122807015,1495.4000000000001,1476.719298245614,1385,1500
7.276651859283447,324,153,85,0.003676470588235294,1499.3,1462.5294117647059,1415,1500
7.29943585395813,325,106,110,0.006944444444444444,1494.5999999999999,1527.8888888888889,1385,1500
7.322340965270996,326,153,114,0.005555555555555556,1499.3,1500.1111111111111,1385,1500
7.345404863357544,327,109,111,0.004608294930875576,1494.9000000000001,1481.1658986175116,1385,1500
7.368265867233276,328,149,71,0.0025974025974025974,1498.9000000000001,1450,1415,1500
7.39096999168396,329,104,67,0.00625,1494.4000000000001,1514.0,1415,1500
7.413745880126953,330,101,109,0.008333333333333333,1494.0999999999999,1530,1385,1500
7.436447858810425,331,128,57,0.0034965034965034965,1496.8,1458.93006993007,1415,1500
7.459200859069824,332,131,64,0.005291005291005291,1497.0999999999999,1494.8201058201057,1415,1500
7.482139825820923,333,180,54,0.002840909090909091,1502.0,1450,1415,1500
7.504820823669434,334,147,62,0.0007974481658692185,1498.7,1450,1415,1500
7.527474880218506,335,118,112,0.002,1495.8,1450,1385,1500
7.55023980140686,336,153,56,0.003205128205128205,1499.3,1453.1025641025642,1415,1500
7.573248863220215,337,134,60,0.00196078431372549,1497.4000000000001,1450,1415,1500
7.596243858337402,338,148,81,0.004201680672268907,1498.8,1473.0336134453783,1415,1500
7.619056940078735,339,109,70,0.0021008403361344537,1494.9000000000001,1450,1415,1500
7.641763925552368,340,190,118,0.004347826086956522,1503.0,1475.9565217391305,1385,1500
7.664608955383301,341,148,67,0.0029069767441860465,1498.8,1450,1415,1500
7.687231779098511,342,186,60,0.006172839506172839,1502.5999999999999,1512.4567901234568,1415,1500
7.710153818130493,343,117,119,0.0032679738562091504,1495.7,1454.3594771241831,1385,1500
7.733047962188721,344,107,119,0.003676470588235294,1494.7,1462.5294117647059,1385,1500
7.756152868270874,345,120,85,0.004273504273504274,1496.0,1474.4700854700855,1415,1500
7.778911828994751,346,126,71,0.0032258064516129032,1496.5999999999999,1453.516129032258,1415,1500
7.801512956619263,347,163,68,0.0019723865877712033,1500.3,1450,1415,1500
7.824091911315918,348,122,67,0.0030303030303030303,1496.2,1450,1415,1500
7.846912860870361,349,122,67,0.004347826086956522,1496.2,1475.9565217391305,1415,1500
7.8696608543396,350,143,84,0.003125,1498.3,1451.5,1415,1500
7.892416000366211,351,114,109,0.0020242914979757085,1495.4000000000001,1450,1385,1500
7.915294885635376,352,112,123,0.0029069767441860465,1495.2,1450,1385,1500
7.9379589557647705,353,125,67,0.0032679738562091504,1496.5,1454.3594771241831,1415,1500
7.960954904556274,354,107,119,0.0021008403361344537,1494.7,1450,1385,1500
7.98387885093689,355,103,113,0.0034965034965034965,1494.3,1458.93006993007,1385,1500
8.006724834442139,356,113,122,0.001976284584980237,1495.3,1450,1385,1500
8.02934193611145,357,106,118,0.0020833333333333333,1494.5999999999999,1450,1385,1500
8.05214786529541,358,129,65,0.0040650406504065045,1496.9000000000001,1470.30081300813,1415,1500
8.07491683959961,359,102,114,0.003105590062111801,1494.2,1451.111801242236,1385,1500
8.097677946090698,360,129,67,0.0022172949002217295,1496.9000000000001,1450,1415,1500
8.120404958724976,361,125,67,0.003246753246753247,1496.5,1453.9350649350649,1415,1500
8.143397808074951,362,111,121,0.0024390243902439024,1495.0999999999999,1450,1385,1500
8.166390895843506,363,104,119,0.002849002849002849,1494.4000000000001,1450,1385,1500
8.189077854156494,364,105,123,0.005747126436781609,1494.5,1503.9425287356321,1385,1500
8.21181583404541,365,130,67,0.002840909090909091,1497.0,1450,1415,1500
8.234537839889526,366,123,67,0.003367003367003367,1496.3,1456.3400673400674,1415,1500
8.257299900054932,367,179,68,0.0023923444976076554,1501.9000000000001,1450,1415,1500
8.280122995376587,368,128,66,0.003703703703703704,1496.8,1463.0740740740741,1415,1500
8.303102970123291,369,132,69,0.001519756838905775,1497.2,1450,1415,1500
8.326026916503906,370,114,122,0.002127659574468085,1495.4000000000001,1450,1385,1500
8.34885287284851,371,101,123,0.006493506493506494,1494.0999999999999,1518.8701298701299,1385,1500
8.371716976165771,372,108,121,0.002857142857142857,1494.8,1450,1385,1500
8.39493179321289,373,102,122,0.005208333333333333,1494.2,1493.1666666666667,1385,1500
8.417724847793579,374,101,120,0.004545454545454545,1494.0999999999999,1479.909090909091,1385,1500
8.44057297706604,375,122,67,0.0034965034965034965,1496.2,1458.93006993007,1415,1500
8.46355390548706,376,108,122,0.0025252525252525255,1494.8,1450,1385,1500
8.486453771591187,377,116,124,0.0032679738562091504,1495.5999999999999,1454.3594771241831,1385,1500
8.509259939193726,378,107,123,0.0032679738562091504,1494.7,1454.3594771241831,1385,1500
8.532171964645386,379,104,118,0.0021008403361344537,1494.4000000000001,1450,1385,1500
8.55486798286438,380,132,66,0.005434782608695652,1497.2,1497.695652173913,1415,1500
8.57764983177185,381,125,66,0.0032258064516129032,1496.5,1453.516129032258,1415,1500
8.600509881973267,382,102,120,0.0036231884057971015,1494.2,1461.463768115942,1385,1500
8.623426914215088,383,110,85,0.0024509803921568627,1495.0,1450,1415,1500
8.646300792694092,384,134,67,0.0030864197530864196,1497.4000000000001,1450.7283950617284,1415,1500
8.66909384727478,385,172,68,0.002136752136752137,1501.2,1450,1415,1500
8.691690921783447,386,142,68,0.0013477088948787063,1498.2,1450,1415,1500
8.714533805847168,387,136,64,0.004347826086956522,1497.5999999999999,1475.9565217391305,1415,1500
8.737526893615723,388,130,63,0.004273504273504274,1497.0,1474.4700854700855,1415,1500
8.760471820831299,389,104,116,0.004629629629629629,1494.4000000000001,1481.5925925925926,1385,1500
8.78343677520752,390,138,84,0.003703703703703704,1497.8,1463.0740740740741,1415,1500
8.806513786315918,391,123,115,0.005681818181818182,1496.3,1502.6363636363637,1385,1500
8.829266786575317,392,143,75,0.005263157894736842,1498.3,1494.2631578947369,1415,1500
8.852187871932983,393,158,56,0.003125,1499.8,1451.5,1415,1500
8.874950885772705,394,114,75,0.004608294930875576,1495.4000000000001,1481.1658986175116,1415,1500
8.897787809371948,395,120,109,0.004807692307692308,1496.0,1485.1538461538462,1385,1500
8.920784950256348,396,166,106,0.002551020408163265,1500.5999999999999,1450,1388.0,1500
8.943701982498169,397,112,51,0.002232142857142857,1495.2,1450,1415,1500
8.966718912124634,398,127,46,0.003968253968253968,1496.7,1468.3650793650793,1415,1500
8.989579916000366,399,149,42,0.001594896331738437,1498.9000000000001,1450,1415,1500
9.012378931045532,400,142,43,0.0012254901960784314,1498.2,1450,1415,1500
9.035284996032715,401,158,39,0.0020242914979757085,1499.8,1450,1415,1500
9.058000802993774,402,147,41,0.0004578754578754579,1498.7,1450,1415,1500
9.08068299293518,403,137,37,0.000588235294117647,1497.7,1450,1415,1500
9.10339879989624,404,143,46,0.00022461814914645105,1498.3,1450,1415,1500
9.126346826553345,405,145,37,0.0003681885125184094,1498.5,1450,1415,1500
9.149009943008423,406,140,36,0.0003094059405940594,1498.0,1450,1415,1500
9.171640872955322,407,131,40,0.00021164021164021165,1497.0999999999999,1450,1415,1500
9.194386005401611,408,128,40,0.00018674136321195143,1496.8,1450,1415,1500
9.217081785202026,409,121,44,0.00015179113539769278,1496.0999999999999,1450,1415,1500
9.239702939987183,410,117,40,0.00016113438607798906,1495.7,1450,1415,1500
9.262489795684814,411,112,38,0.00015964240102171138,1495.2,1450,1415,1500
9.285291910171509,412,109,41,0.00013819789939192924,1494.9000000000001,1450,1415,1500
9.308074951171875,413,104,36,0.00015432098765432098,1494.4000000000001,1450,1415,1500
9.330755949020386,414,100,34,0.00015320974413972729,1494.0,1450,1415,1500
9.35353398323059,415,96,34,0.00015762925598991173,1493.5999999999999,1450,1415,1500
9.376382827758789,416,92,33,0.0001591596371160274,1493.2,1450,1415,1500
9.399107933044434,417,84,29,0.0001678133915086424,1492.4000000000001,1450,1415,1500
9.42171597480774,418,82,28,0.0001707067258449983,1492.2,1450,1415,1500
9.444517850875854,419,78,27,0.00017857142857142857,1491.8,1450,1415,1500
9.467187881469727,420,75,25,0.00019623233908948196,1491.5,1450,1415,1500
9.489877939224243,421,72,25,0.0002063983488132095,1491.2,1450,1415,1500
9.512574911117554,422,70,24,0.00021482277121374866,1491.0,1450,1415,1500
9.535732984542847,423,69,22,0.00023391812865497077,1490.9000000000001,1450,1415,1500
9.558550834655762,424,67,20,0.00025329280648429586,1490.7,1450,1415,1500
9.581265926361084,425,67,19,0.00027570995312930797,1490.7,1450,1415,1500
9.604091882705688,426,64,17,0.00030193236714975844,1490.4000000000001,1450,1415,1500
9.626827955245972,427,64,17,0.00031746031746031746,1490.4000000000001,1450,1415,1500
9.649449825286865,428,64,16,0.0003232062055591467,1490.4000000000001,1450,1415,1500
9.672207832336426,429,65,15,0.00035842293906810036,1490.5,1450,1415,1500
9.694856882095337,430,66,14,0.0003663003663003663,1490.5999999999999,1450,1415,1500
9.717503786087036,431,65,13,0.0003968253968253968,1490.5,1450,1415,1500
9.740250825881958,432,65,13,0.00041050903119868636,1490.5,1450,1415,1500
9.763048887252808,433,66,12,0.000432152117545376,1490.5999999999999,1450,1415,1500
9.785753965377808,434,65,12,0.00043706293706293706,1490.5,1450,1415,1500
9.808530807495117,435,62,11,0.0005081300813008131,1490.2,1450,1415,1500
9.83119797706604,436,61,12,0.0005,1490.0999999999999,1450,1415,1500
9.8539137840271,437,61,12,0.0004878048780487805,1490.0999999999999,1450,1415,1500
9.876625776290894,438,61,12,0.0004878048780487805,1490.0999999999999,1450,1415,1500
9.899311780929565,439,59,12,0.0005,1489.9000000000001,1450,1415,1500
9.921924829483032,440,58,12,0.0005194805194805195,1489.8,1450,1415,1500
9.944690942764282,441,55,12,0.0005405405405405405,1489.5,1450,1415,1500
9.967415809631348,442,55,12,0.0005268703898840885,1489.5,1450,1415,1500
9.990450859069824,443,52,12,0.0005494505494505495,1489.2,1450,1415,1500
10.013295888900757,444,50,13,0.0005367686527106817,1489.0,1450,1415,1500
10.036160945892334,445,46,14,0.0005473453749315818,1488.5999999999999,1450,1415,1500
10.058841943740845,446,43,14,0.0005555555555555556,1488.3,1450,1415,1500
10.081499814987183,447,41,14,0.0005747126436781609,1488.0999999999999,1450,1415,1500
10.104244947433472,448,40,15,0.0005681818181818182,1488.0,1450,1415,1500
10.126930952072144,449,37,16,0.0005827505827505828,1487.7,1450,1415,1500
10.149542808532715,450,34,16,0.0006060606060606061,1487.4000000000001,1450,1415,1500
10.172342777252197,451,31,17,0.0005787037037037037,1487.0999999999999,1450,1415,1500
10.19514799118042,452,29,18,0.0005750431282346176,1486.9000000000001,1450,1415,1500
10.217817783355713,453,27,18,0.0005720823798627002,1486.7,1450,1415,1500
10.240543842315674,454,23,20,0.0005291005291005291,1486.3,1450,1415,1500
10.263345956802368,455,22,23,0.00047281323877068556,1486.2,1450,1415,1500
10.286109924316406,456,22,25,0.00043572984749455336,1486.2,1450,1415,1500
10.308838844299316,457,22,26,0.00041152263374485596,1486.2,1450,1415,1500
10.331488847732544,458,21,28,0.00039872408293460925,1486.0999999999999,1450,1415,1500
10.354379892349243,459,22,29,0.0003766478342749529,1486.2,1450,1415,1500
10.377221822738647,460,21,31,0.00036075036075036075,1486.0999999999999,1450,1415,1500
10.399931907653809,461,22,31,0.00033967391304347825,1486.2,1450,1415,1500
10.422693967819214,462,22,33,0.0003316749585406302,1486.2,1450,1415,1500
10.4457848072052,463,22,35,0.00032206119162640903,1486.2,1450,1415,1500
10.468625783920288,464,22,36,0.0003316749585406302,1486.2,1450,1415,1500
10.491315841674805,465,22,36,0.0003316749585406302,1486.2,1450,1415,1500
10.514018774032593,466,22,36,0.000326797385620915,1486.2,1450,1415,1500
10.536731958389282,467,21,37,0.00032938076416337287,1486.0999999999999,1450,1415,1500
10.559646844863892,468,21,38,0.0003471017007983339,1486.0999999999999,1450,1415,1500
10.582452774047852,469,21,39,0.00033422459893048126,1486.0999999999999,1450,1415,1500
10.605286836624146,470,21,39,0.00033921302578018993,1486.0999999999999,1450,1415,1500
10.627933979034424,471,22,39,0.000326797385620915,1486.2,1450,1415,1500
10.650736808776855,472,23,41,0.0003223726627981947,1486.3,1450,1415,1500
10.673534870147705,473,24,41,0.0003139717425431711,1486.4000000000001,1450,1415,1500
10.696375846862793,474,23,40,0.00030637254901960784,1486.3,1450,1415,1500
10.719385862350464,475,24,42,0.0002915451895043732,1486.4000000000001,1450,1415,1500
10.742122888565063,476,24,43,0.0002874389192296637,1486.4000000000001,1450,1415,1500
10.764835834503174,477,24,43,0.00028571428571428574,1486.4000000000001,1450,1415,1500
10.787511825561523,478,26,43,0.0002774694783573807,1486.5999999999999,1450,1415,1500
10.81022596359253,479,26,45,0.0002536783358701167,1486.5999999999999,1450,1415,1500
10.833043813705444,480,27,44,0.00025150905432595576,1486.7,1450,1415,1500
10.855819940567017,481,29,46,0.00023540489642184556,1486.9000000000001,1450,1415,1500
10.878660917282104,482,30,45,0.00021795989537925023,1487.0,1450,1415,1500
10.901319980621338,483,32,46,0.0002134016218523261,1487.2,1450,1415,1500
10.924000978469849,484,33,47,0.00020445716622367614,1487.3,1450,1415,1500
10.946708917617798,485,34,47,0.00020128824476650564,1487.4000000000001,1450,1415,1500
10.96941089630127,486,35,46,0.00020120724346076458,1487.5,1450,1415,1500
10.992024898529053,487,36,46,0.00018765246762994934,1487.5999999999999,1450,1415,1500
11.014782905578613,488,36,47,0.00019569471624266145,1487.5999999999999,1450,1415,1500
11.03743290901184,489,37,46,0.0001932367149758454,1487.7,1450,1415,1500
11.060096979141235,490,37,42,0.00021570319240724764,1487.7,1450,1415,1500
11.082798957824707,491,38,46,0.00018291567587342235,1487.8,1450,1415,1500
11.105711936950684,492,38,39,0.00022893772893772894,1487.8,1450,1415,1500
11.1284658908844,493,39,45,0.00017123287671232877,1487.9000000000001,1450,1415,1500
11.151166915893555,494,39,44,0.00018083182640144665,1487.9000000000001,1450,1415,1500
11.173855781555176,495,40,42,0.00018705574261129816,1488.0,1450,1415,1500
11.196849822998047,496,41,41,0.0001725327812284334,1488.0999999999999,1450,1415,1500
11.21961498260498,497,42,42,0.0001680672268907563,1488.2,1450,1415,1500
11.242365837097168,498,42,41,0.00016852039096730705,1488.2,1450,1415,1500
11.265217781066895,499,45,39,0.00016523463317911433,1488.5,1450,1415,1500
11.28789496421814,500,46,40,0.00016005121638924455,1488.5999999999999,1450,1415,1500
11.310711860656738,501,51,38,0.0001665001665001665,1489.0999999999999,1450,1415,1500
11.333476781845093,502,54,36,0.000169061707523246,1489.4000000000001,1450,1415,1500
11.35630488395691,503,57,32,0.0001665001665001665,1489.7,1450,1415,1500
11.378987789154053,504,59,32,0.00016469038208168644,1489.9000000000001,1450,1415,1500
11.401639938354492,505,63,32,0.00016886187098953058,1490.3,1450,1415,1500
11.424361944198608,506,66,29,0.00018115942028985507,1490.5999999999999,1450,1415,1500
11.447065830230713,507,70,27,0.00019201228878648233,1491.0,1450,1415,1500
11.46969199180603,508,73,25,0.00021312872975277067,1491.3,1450,1415,1500
11.492543935775757,509,77,24,0.00022182786157941438,1491.7,1450,1415,1500
11.515504837036133,510,82,20,0.0002771618625277162,1492.2,1450,1415,1500
11.538242816925049,511,86,17,0.00032299741602067185,1492.5999999999999,1450,1415,1500
11.560956954956055,512,90,15,0.00038402457757296467,1493.0,1450,1415,1500
11.583670854568481,513,93,13,0.0004572473708276177,1493.3,1450,1415,1500
11.606451988220215,514,95,11,0.0005367686527106817,1493.5,1450,1415,1500
11.629246950149536,515,98,9,0.0006578947368421052,1493.8,1450,1415,1500
11.652000904083252,516,102,7,0.0008438818565400844,1494.2,1450,1415,1500
11.674814939498901,517,103,5,0.0011961722488038277,1494.3,1450,1415,1500
11.697480916976929,518,106,3,0.0017123287671232876,1494.5999999999999,1450,1415,1500
11.72015380859375,519,83,1,0.016666666666666666,1492.3,1530,1415,1500
11.742745876312256,520,,,,1500.0,1490.0,1400.0,1500
11.765461921691895,521,,,,1500.0,1490.0,1400.0,1500
11.787871837615967,522,,,,1500.0,1490.0,1400.0,1500
11.810447931289673,523,,,,1500.0,1490.0,1400.0,1500
11.8329918384552,524,,,,1500.0,1490.0,1400.0,1500
11.855549812316895,525,,,,1500.0,1490.0,1400.0,1500
11.878034830093384,526,,,,1500.0,1490.0,1400.0,1500
11.90065598487854,527,,,,1500.0,1490.0,1400.0,1500
11.923305988311768,528,,,,1500.0,1490.0,1400.0,1500
11.945909976959229,529,,,,1500.0,1490.0,1400.0,1500
11.968791007995605,530,,,,1500.0,1490.0,1400.0,1500
11.991458892822266,531,,,,1500.0,1490.0,1400.0,1500
12.013973951339722,532,,,,1500.0,1490.0,1400.0,1500
12.036580801010132,533,,,,1500.0,1490.0,1400.0,1500
12.05902099609375,534,,,,1500.0,1490.0,1400.0,1500
12.081488847732544,535,,,,1500.0,1490.0,1400.0,1500
12.103871822357178,536,,,,1500.0,1490.0,1400.0,1500
12.126453876495361,537,,,,1500.0,1490.0,1400.0,1500
12.148931980133057,538,,,,1500.0,1490.0,1400.0,1500
12.171397924423218,539,,,,1500.0,1490.0,1400.0,1500
12.193830966949463,540,,,,1500.0,1490.0,1400.0,1500
12.216376781463623,541,,,,1500.0,1490.0,1400.0,1500
12.238844871520996,542,,,,1500.0,1490.0,1400.0,1500
12.261294841766357,543,,,,1500.0,1490.0,1400.0,1500
12.283679962158203,544,,,,1500.0,1490.0,1400.0,1500
12.306181907653809,545,,,,1500.0,1490.0,1400.0,1500
12.32866382598877,546,,,,1500.0,1490.0,1400.0,1500
12.35116696357727,547,,,,1500.0,1490.0,1400.0,1500
12.373609781265259,548,,,,1500.0,1490.0,1400.0,1500
12.396231889724731,549,,,,1500.0,1490.0,1400.0,1500
12.41877794265747,550,,,,1500.0,1490.0,1400.0,1500
12.441234827041626,551,,,,1500.0,1490.0,1400.0,1500
12.463726997375488,552,,,,1500.0,1490.0,1400.0,1500
12.486226797103882,553,,,,1500.0,1490.0,1400.0,1500
12.508986949920654,554,117,1,0.017543859649122806,1495.7,1530,1415,1500
12.53163480758667,555,122,2,0.0029850746268656717,1496.2,1450,1415,1500
12.554365873336792,556,131,3,0.0016611295681063123,1497.0999999999999,1450,1415,1500
12.577043771743774,557,129,4,0.0012919896640826874,1496.9000000000001,1450,1415,1500
12.59975290298462,558,131,5,0.0010214504596527069,1497.0999999999999,1450,1415,1500
12.622489929199219,559,130,6,0.0007936507936507937,1497.0,1450,1415,1500
12.645557880401611,560,131,9,0.000578368999421631,1497.0999999999999,1450,1415,1500
12.6681969165802,561,130,10,0.0004940711462450593,1497.0,1450,1415,1500
12.69092583656311,562,130,12,0.00043010752688172043,1497.0,1450,1415,1500
12.713642835617065,563,129,14,0.00036683785766691124,1496.9000000000001,1450,1415,1500
12.736422777175903,564,130,16,0.0003189792663476874,1497.0,1450,1415,1500
12.759082794189453,565,130,18,0.0002844950213371266,1497.0,1450,1415,1500
12.781744003295898,566,130,19,0.0002643404705260375,1497.0,1450,1415,1500
12.804450988769531,567,129,20,0.000248015873015873,1496.9000000000001,1450,1415,1500
12.827171802520752,568,130,22,0.00022675736961451248,1497.0,1450,1415,1500
12.849851846694946,569,130,24,0.00020614306328592042,1497.0,1450,1415,1500
12.872671842575073,570,131,30,0.00016728002676480428,1497.0999999999999,1450,1415,1500
12.895574808120728,571,131,28,0.0001707067258449983,1497.0999999999999,1450,1415,1500
12.9182608127594,572,131,31,0.00016181229773462783,1497.0999999999999,1450,1415,1500
12.940973997116089,573,131,34,0.00016129032258064516,1497.0999999999999,1450,1415,1500
12.963726997375488,574,133,32,0.0001904036557501904,1497.3,1450,1415,1500
12.986364841461182,575,136,29,0.00024224806201550387,1497.5999999999999,1450,1415,1500
13.009099960327148,576,135,27,0.0003360215053763441,1497.5,1450,1415,1500
13.031717777252197,577,134,36,0.00023025558369790466,1497.4000000000001,1450,1415,1500
13.05449891090393,578,132,40,0.0001849796522382538,1497.2,1450,1415,1500
13.07716679573059,579,133,44,0.00018155410312273057,1497.3,1450,1415,1500
13.099840879440308,580,135,42,0.0002349072116513977,1497.5,1450,1415,1500
13.12251591682434,581,133,53,0.00015812776723592663,1497.3,1450,1415,1500
13.145530939102173,582,134,47,0.00020627062706270627,1497.4000000000001,1450,1415,1500
13.168282985687256,583,135,50,0.00019801980198019803,1497.5,1450,1415,1500
13.191023826599121,584,134,52,0.000196078431372549,1497.4000000000001,1450,1415,1500
13.213693857192993,585,134,52,0.00019801980198019803,1497.4000000000001,1450,1415,1500
13.236386775970459,586,134,58,0.00015715857300015716,1497.4000000000001,1450,1415,1500
13.259100914001465,587,134,49,0.00021043771043771043,1497.4000000000001,1450,1415,1500
13.281799793243408,588,120,46,0.00040241448692152917,1496.0,1450,1415,1500
13.30485486984253,589,144,42,0.0004578754578754579,1498.4000000000001,1450,1415,1500
13.327565908432007,590,129,41,0.0008203445447087777,1496.9000000000001,1450,1415,1500
13.350228786468506,591,146,56,0.00030441400304414006,1498.5999999999999,1450,1415,1500
13.373103857040405,592,135,41,0.0006901311249137336,1497.5,1450,1415,1500
13.395834922790527,593,135,39,0.0004306632213608958,1497.5,1450,1415,1500
13.418564796447754,594,116,41,0.0006747638326585695,1495.5999999999999,1450,1415,1500
13.441234827041626,595,133,41,0.00032938076416337287,1497.3,1450,1415,1500
13.463957786560059,596,130,50,0.00019425019425019425,1497.0,1450,1415,1500
13.486735820770264,597,114,39,0.0005288207297726071,1495.4000000000001,1450,1415,1500
13.50954294204712,598,129,36,0.00043649061545176777,1496.9000000000001,1450,1415,1500
13.53219199180603,599,133,41,0.00027277686852154935,1497.3,1450,1415,1500
13.555016994476318,600,129,48,0.00024295432458697764,1496.9000000000001,1450,1415,1500
13.577672004699707,601,118,41,0.0003465003465003465,1495.8,1450,1415,1500
13.600363969802856,602,130,35,0.00032583903551645487,1497.0,1450,1415,1500
13.623223781585693,603,128,39,0.0003232062055591467,1496.8,1450,1415,1500
13.646106004714966,604,104,46,0.0003197953309881676,1494.4000000000001,1450,1415,1500
13.668890953063965,605,127,38,0.0002525252525252525,1496.7,1450,1415,1500
13.691561937332153,606,126,46,0.00016108247422680412,1496.5999999999999,1450,1415,1500
13.714175939559937,607,125,37,0.00022727272727272727,1496.5,1450,1415,1500
13.736937999725342,608,124,43,0.00017361111111111112,1496.4000000000001,1450,1415,1500
13.759582996368408,609,128,34,0.00023391812865497077,1496.8,1450,1415,1500
13.782213926315308,610,129,34,0.00022878059940517045,1496.9000000000001,1450,1415,1500
13.804987907409668,611,128,27,0.00026226068712300026,1496.8,1450,1415,1500
13.82766580581665,612,127,35,0.00018552875695732838,1496.7,1450,1415,1500
13.850296974182129,613,127,34,0.00017295053614666206,1496.7,1450,1415,1500
13.873208999633789,614,129,31,0.00017361111111111112,1496.9000000000001,1450,1415,1500
13.896225929260254,615,129,28,0.00018221574344023323,1496.9000000000001,1450,1415,1500
13.919055938720703,616,131,26,0.00019451468585878233,1497.0999999999999,1450,1415,1500
13.941768884658813,617,133,25,0.0002042483660130719,1497.3,1450,1415,1500
13.964576959609985,618,134,23,0.00022163120567375886,1497.4000000000001,1450,1415,1500
13.98742389678955,619,134,21,0.00024740227610094015,1497.4000000000001,1450,1415,1500
14.010093927383423,620,136,18,0.000297000297000297,1497.5999999999999,1450,1415,1500
14.032935857772827,621,136,16,0.000326797385620915,1497.5999999999999,1450,1415,1500
14.055745840072632,622,136,14,0.00039184952978056425,1497.5999999999999,1450,1415,1500
14.078494787216187,623,137,11,0.0005115089514066496,1497.7,1450,1415,1500
14.101370811462402,624,138,8,0.0007087172218284905,1497.8,1450,1415,1500
14.124231815338135,625,138,4,0.0014064697609001407,1497.8,1450,1415,1500
14.14703893661499,626,,,,1500.0,1490.0,1400.0,1500
14.169723987579346,627,,,,1500.0,1490.0,1400.0,1500
14.192214965820312,628,,,,1500.0,1490.0,1400.0,1500
14.214768886566162,629,,,,1500.0,1490.0,1400.0,1500
14.237262964248657,630,,,,1500.0,1490.0,1400.0,1500
14.259657859802246,631,,,,1500.0,1490.0,1400.0,1500
14.28209900856018,632,,,,1500.0,1490.0,1400.0,1500
14.304628849029541,633,,,,1500.0,1490.0,1400.0,1500
14.327187776565552,634,,,,1500.0,1490.0,1400.0,1500
14.349806785583496,635,,,,1500.0,1490.0,1400.0,1500
14.372351884841919,636,,,,1500.0,1490.0,1400.0,1500
14.394997835159302,637,,,,1500.0,1490.0,1400.0,1500
14.417471885681152,638,,,,1500.0,1490.0,1400.0,1500
14.439865827560425,639,,,,1500.0,1490.0,1400.0,1500
14.462313890457153,640,,,,1500.0,1490.0,1400.0,1500
14.484991788864136,641,,,,1500.0,1490.0,1400.0,1500
14.507489919662476,642,,,,1500.0,1490.0,1400.0,1500
14.529890775680542,643,,,,1500.0,1490.0,1400.0,1500
14.55237078666687,644,,,,1500.0,1490.0,1400.0,1500
14.57503890991211,645,,,,1500.0,1490.0,1400.0,1500
14.597835779190063,646,,,,1500.0,1490.0,1400.0,1500
14.62028193473816,647,,,,1500.0,1490.0,1400.0,1500
14.642940998077393,648,,,,1500.0,1490.0,1400.0,1500
14.665498971939087,649,,,,1500.0,1490.0,1400.0,1500
14.687940835952759,650,,,,1500.0,1490.0,1400.0,1500
14.71035885810852,651,,,,1500.0,1490.0,1400.0,1500
14.73301386833191,652,,,,1500.0,1490.0,1400.0,1500
14.755546808242798,653,,,,1500.0,1490.0,1400.0,1500
14.778002977371216,654,,,,1500.0,1490.0,1400.0,1500
14.800450801849365,655,,,,1500.0,1490.0,1400.0,1500
14.823186874389648,656,,,,1500.0,1490.0,1400.0,1500
14.845852851867676,657,,,,1500.0,1490.0,1400.0,1500
14.868307828903198,658,,,,1500.0,1490.0,1400.0,1500
14.890833854675293,659,,,,1500.0,1490.0,1400.0,1500
14.913390874862671,660,,,,1500.0,1490.0,1400.0,1500
14.935844898223877,661,,,,1500.0,1490.0,1400.0,1500
14.958300828933716,662,,,,1500.0,1490.0,1400.0,1500
14.980851888656616,663,,,,1500.0,1490.0,1400.0,1500
15.003398895263672,664,,,,1500.0,1490.0,1400.0,1500
15.0258629322052,665,,,,1500.0,1490.0,1400.0,1500
15.048318862915039,666,,,,1500.0,1490.0,1400.0,1500
15.070856809616089,667,,,,1500.0,1490.0,1400.0,1500
15.093427896499634,668,,,,1500.0,1490.0,1400.0,1500
15.115894794464111,669,,,,1500.0,1490.0,1400.0,1500
15.138328790664673,670,,,,1500.0,1490.0,1400.0,1500
15.160873889923096,671,,,,1500.0,1490.0,1400.0,1500
15.183470964431763,672,,,,1500.0,1490.0,1400.0,1500
15.205952882766724,673,,,,1500.0,1490.0,1400.0,1500
15.228407859802246,674,,,,1500.0,1490.0,1400.0,1500
15.250948905944824,675,,,,1500.0,1490.0,1400.0,1500
15.273486852645874,676,,,,1500.0,1490.0,1400.0,1500
15.29592490196228,677,,,,1500.0,1490.0,1400.0,1500
15.318406820297241,678,,,,1500.0,1490.0,1400.0,1500
15.340954780578613,679,,,,1500.0,1490.0,1400.0,1500
15.363513946533203,680,,,,1500.0,1490.0,1400.0,1500
15.385921001434326,681,,,,1500.0,1490.0,1400.0,1500
15.408354997634888,682,,,,1500.0,1490.0,1400.0,1500
15.43090295791626,683,,,,1500.0,1490.0,1400.0,1500
15.453460931777954,684,,,,1500.0,1490.0,1400.0,1500
15.475911855697632,685,,,,1500.0,1490.0,1400.0,1500
15.498394966125488,686,,,,1500.0,1490.0,1400.0,1500
15.520953893661499,687,,,,1500.0,1490.0,1400.0,1500
15.543483972549438,688,,,,1500.0,1490.0,1400.0,1500
15.565928936004639,689,,,,1500.0,1490.0,1400.0,1500
15.588393926620483,690,,,,1500.0,1490.0,1400.0,1500
15.610924005508423,691,,,,1500.0,1490.0,1400.0,1500
15.633489847183228,692,,,,1500.0,1490.0,1400.0,1500
15.656056880950928,693,,,,1500.0,1490.0,1400.0,1500
15.678546905517578,694,,,,1500.0,1490.0,1400.0,1500
15.701074838638306,695,,,,1500.0,1490.0,1400.0,1500
15.723602771759033,696,,,,1500.0,1490.0,1400.0,1500
15.746031999588013,697,,,,1500.0,1490.0,1400.0,1500
15.768523931503296,698,,,,1500.0,1490.0,1400.0,1500
15.791090965270996,699,,,,1500.0,1490.0,1400.0,1500
15.813601970672607,700,,,,1500.0,1490.0,1400.0,1500
15.836009979248047,701,,,,1500.0,1490.0,1400.0,1500
15.858474969863892,702,,,,1500.0,1490.0,1400.0,1500
15.880984783172607,703,,,,1500.0,1490.0,1400.0,1500
15.903485774993896,704,,,,1500.0,1490.0,1400.0,1500
15.925848960876465,705,,,,1500.0,1490.0,1400.0,1500
15.948341846466064,706,,,,1500.0,1490.0,1400.0,1500
15.970966815948486,707,,,,1500.0,1490.0,1400.0,1500
15.99371886253357,708,,,,1500.0,1490.0,1400.0,1500
16.01615595817566,709,,,,1500.0,1490.0,1400.0,1500
16.03873085975647,710,,,,1500.0,1490.0,1400.0,1500
16.061299800872803,711,,,,1500.0,1490.0,1400.0,1500
16.08377981185913,712,,,,1500.0,1490.0,1400.0,1500
16.106180906295776,713,,,,1500.0,1490.0,1400.0,1500
16.12870192527771,714,,,,1500.0,1490.0,1400.0,1500
16.15125799179077,715,,,,1500.0,1490.0,1400.0,1500
16.17381978034973,716,,,,1500.0,1490.0,1400.0,1500
16.196253776550293,717,,,,1500.0,1490.0,1400.0,1500
16.218814849853516,718,,,,1500.0,1490.0,1400.0,1500
16.241333961486816,719,,,,1500.0,1490.0,1400.0,1500
16.263917922973633,720,,,,1500.0,1490.0,1400.0,1500
16.286453008651733,721,,,,1500.0,1490.0,1400.0,1500
16.30906081199646,722,,,,1500.0,1490.0,1400.0,1500
16.33150887489319,723,,,,1500.0,1490.0,1400.0,1500
16.35783886909485,724,,,,1500.0,1490.0,1400.0,1500
16.380391836166382,725,,,,1500.0,1490.0,1400.0,1500
16.403101921081543,726,,,,1500.0,1490.0,1400.0,1500
16.42565393447876,727,,,,1500.0,1490.0,1400.0,1500
16.448198795318604,728,,,,1500.0,1490.0,1400.0,1500
16.47066879272461,729,,,,1500.0,1490.0,1400.0,1500
16.493326902389526,730,,,,1500.0,1490.0,1400.0,1500
16.51583480834961,731,,,,1500.0,1490.0,1400.0,1500
16.538277864456177,732,,,,1500.0,1490.0,1400.0,1500
16.560930967330933,733,99,1,0.015625,1493.9000000000001,1530,1415,1500
16.583664894104004,734,102,3,0.005,1494.2,1489.0,1415,1500
16.60637378692627,735,108,5,0.002331002331002331,1494.8,1450,1415,1500
16.629233837127686,736,107,7,0.001524390243902439,1494.7,1450,1415,1500
16.651923894882202,737,107,9,0.0011363636363636363,1494.7,1450,1415,1500
16.674742937088013,738,108,14,0.0006506180871828237,1494.8,1450,1415,1500
16.69747281074524,739,107,16,0.0005549389567147614,1494.7,1450,1415,1500
16.720152854919434,740,107,19,0.0004578754578754579,1494.7,1450,1415,1500
16.74278497695923,741,108,21,0.0003852080123266564,1494.8,1450,1415,1500
16.765695810317993,742,107,23,0.0003360215053763441,1494.7,1450,1415,1500
16.788306951522827,743,108,25,0.00029708853238265005,1494.8,1450,1415,1500
16.81103491783142,744,109,27,0.00026350461133069827,1494.9000000000001,1450,1415,1500
16.833722829818726,745,112,28,0.0002542588354945334,1495.2,1450,1415,1500
16.85639786720276,746,111,29,0.00022011886418666079,1495.0999999999999,1450,1415,1500
16.87918782234192,747,112,31,0.0002260397830018083,1495.2,1450,1415,1500
16.90190577507019,748,115,32,0.00021824530772588389,1495.5,1450,1415,1500
16.92452096939087,749,115,33,0.00020885547201336674,1495.5,1450,1415,1500
16.9473078250885,750,116,34,0.0002100840336134454,1495.5999999999999,1450,1415,1500
16.969950914382935,751,117,34,0.0002151462994836489,1495.7,1450,1415,1500
16.992594957351685,752,117,35,0.0002063983488132095,1495.7,1450,1415,1500
17.015541791915894,753,117,34,0.00021141649048625792,1495.7,1450,1415,1500
17.038243770599365,754,118,34,0.00021687269572760788,1495.8,1450,1415,1500
17.06096577644348,755,118,37,0.0002089864158829676,1495.8,1450,1415,1500
17.083707809448242,756,118,35,0.00021043771043771043,1495.8,1450,1415,1500
17.106421947479248,757,118,36,0.00019936204146730463,1495.8,1450,1415,1500
17.129225969314575,758,119,37,0.00019936204146730463,1495.9000000000001,1450,1415,1500
17.15190577507019,759,119,37,0.0001984126984126984,1495.9000000000001,1450,1415,1500
17.174583911895752,760,120,37,0.00020064205457463884,1496.0,1450,1415,1500
17.19733500480652,761,121,35,0.00021367521367521368,1496.0999999999999,1450,1415,1500
17.220030784606934,762,121,37,0.00019712201852946975,1496.0999999999999,1450,1415,1500
17.242653846740723,763,120,35,0.00021853146853146853,1496.0,1450,1415,1500
17.265626907348633,764,121,37,0.00020064205457463884,1496.0999999999999,1450,1415,1500
17.288288831710815,765,121,38,0.00020064205457463884,1496.0999999999999,1450,1415,1500
17.311051845550537,766,122,39,0.00020165355918531962,1496.2,1450,1415,1500
17.33375597000122,767,121,39,0.00020807324178110696,1496.0999999999999,1450,1415,1500
17.356457948684692,768,123,39,0.0002100840336134454,1496.3,1450,1415,1500
17.379209995269775,769,121,37,0.00021853146853146853,1496.0999999999999,1450,1415,1500
17.401907920837402,770,122,41,0.00020764119601328904,1496.2,1450,1415,1500
17.424567937850952,771,122,40,0.00022104332449160034,1496.2,1450,1415,1500
17.447382926940918,772,123,42,0.00020885547201336674,1496.3,1450,1415,1500
17.470061779022217,773,121,44,0.00020661157024793388,1496.0999999999999,1450,1415,1500
17.492761850357056,774,121,43,0.0002144082332761578,1496.0999999999999,1450,1415,1500
17.515706777572632,775,121,44,0.0002228163992869875,1496.0999999999999,1450,1415,1500
17.53845191001892,776,124,45,0.00023529411764705883,1496.4000000000001,1450,1415,1500
17.561219930648804,777,122,43,0.0002642706131078224,1496.2,1450,1415,1500
17.583948850631714,778,124,39,0.0003322259136212625,1496.4000000000001,1450,1415,1500
17.606903791427612,779,132,43,0.00041407867494824016,1497.2,1450,1415,1500
17.6296648979187,780,131,42,0.00040290088638195,1497.0999999999999,1450,1415,1500
17.652299880981445,781,124,41,0.00041050903119868636,1496.4000000000001,1450,1415,1500
17.6751868724823,782,122,46,0.0003246753246753247,1496.2,1450,1415,1500
17.697837829589844,783,123,45,0.0003156565656565657,1496.3,1450,1415,1500
17.720492839813232,784,123,42,0.0004201680672268908,1496.3,1450,1415,1500
17.743340969085693,785,127,50,0.00034211426616489907,1496.7,1450,1415,1500
17.766159772872925,786,130,64,0.00042087542087542086,1497.0,1450,1415,1500
17.788765907287598,787,131,56,0.0003716090672612412,1497.0999999999999,1450,1415,1500
17.811546802520752,788,131,49,0.0005868544600938967,1497.0999999999999,1450,1415,1500
17.83421492576599,789,126,55,0.00033068783068783067,1496.5999999999999,1450,1415,1500
17.856910943984985,790,127,63,0.00030873726458783575,1496.7,1450,1415,1500
17.879617929458618,791,136,54,0.0008503401360544217,1497.5999999999999,1450,1415,1500
17.902304887771606,792,124,56,0.0003419972640218878,1496.4000000000001,1450,1415,1500
17.925174951553345,793,136,57,0.0007763975155279503,1497.5999999999999,1450,1415,1500
17.947954893112183,794,138,56,0.0009090909090909091,1497.8,1450,1415,1500
17.9707088470459,795,141,59,0.0010964912280701754,1498.0999999999999,1450,1415,1500
17.993733882904053,796,136,58,0.0011299435028248588,1497.5999999999999,1450,1415,1500
18.016409873962402,797,131,59,0.0008291873963515755,1497.0999999999999,1450,1415,1500
18.039177894592285,798,99,57,0.0011363636363636363,1493.9000000000001,1450,1415,1500
18.061879873275757,799,144,62,0.001488095238095238,1498.4000000000001,1450,1415,1500
18.08456587791443,800,142,80,0.0010162601626016261,1498.2,1450,1415,1500
18.107306003570557,801,133,75,0.00117096018735363,1497.3,1450,1415,1500
18.13000988960266,802,121,62,0.0004997501249375312,1496.0999999999999,1450,1415,1500
18.15264081954956,803,130,60,0.0008525149190110827,1497.0,1450,1415,1500
18.175750970840454,804,98,58,0.0016260162601626016,1493.8,1450,1415,1500
18.198404788970947,805,129,78,0.0007215007215007215,1496.9000000000001,1450,1415,1500
18.221205949783325,806,91,98,0.0026455026455026454,1493.0999999999999,1450,1404.0,1500
18.24412488937378,807,140,95,0.0020325203252032522,1498.0,1450,1410.0,1500
18.266873836517334,808,130,63,0.0020408163265306124,1497.0,1450,1415,1500
18.289588928222656,809,107,61,0.0010893246187363835,1494.7,1450,1415,1500
18.312270879745483,810,145,76,0.001736111111111111,1498.5,1450,1415,1500
