time,frame,x,y,size_inv,roll,pitch,thrust,yaw
0.00018596649169921875,1,187,85,0.005263157894736842,1502.7,1520,1280.0,1500
0.02145695686340332,2,187,85,0.005263157894736842,1502.7,1520,1280.0,1500
0.04238605499267578,3,187,85,0.005263157894736842,1502.7,1520,1280.0,1500
0.0632321834564209,4,187,85,0.004784688995215311,1502.7,1520,1280.0,1500
0.08403205871582031,5,187,85,0.004784688995215311,1502.7,1520,1280.0,1500
0.10480999946594238,6,187,85,0.004784688995215311,1502.7,1520,1280.0,1500
0.12579703330993652,7,187,85,0.004784688995215311,1502.7,1520,1280.0,1500
0.14667296409606934,8,187,85,0.004784688995215311,1502.7,1520,1280.0,1500
0.16753101348876953,9,187,85,0.005847953216374269,1502.7,1520,1280.0,1500
0.18841099739074707,10,187,85,0.004784688995215311,1502.7,1520,1280.0,1500
0.20926117897033691,11,187,85,0.004784688995215311,1502.7,1520,1280.0,1500
0.23010802268981934,12,187,84,0.005050505050505051,1502.7,1520,1282.0,1500
0.25095105171203613,13,187,85,0.004784688995215311,1502.7,1520,1280.0,1500
0.2717931270599365,14,187,85,0.004784688995215311,1502.7,1520,1280.0,1500
0.29264116287231445,15,187,85,0.005263157894736842,1502.7,1520,1280.0,1500
0.31349802017211914,16,187,85,0.005263157894736842,1502.7,1520,1280.0,1500
0.33434605598449707,17,187,85,0.004784688995215311,1502.7,1520,1280.0,1500
0.3551971912384033,18,187,85,0.004784688995215311,1502.7,1520,1280.0,1500
0.3760499954223633,19,187,85,0.004784688995215311,1502.7,1520,1280.0,1500
0.396895170211792,20,187,85,0.004784688995215311,1502.7,1520,1280.0,1500
0.4177379608154297,21,187,85,0.004784688995215311,1502.7,1520,1280.0,1500
0.43857598304748535,22,187,85,0.004784688995215311,1502.7,1520,1280.0,1500
0.459414005279541,23,187,85,0.0043859649122807015,1502.7,1518.859649122807,1280.0,1500
0.48030710220336914,24,187,85,0.005263157894736842,1502.7,1520,1280.0,1500
0.5011591911315918,25,187,85,0.005263157894736842,1502.7,1520,1280.0,1500
0.5219950675964355,26,187,85,0.004784688995215311,1502.7,1520,1280.0,1500
0.5428409576416016,27,187,85,0.005263157894736842,1502.7,1520,1280.0,1500
0.5636780261993408,28,187,85,0.005263157894736842,1502.7,1520,1280.0,1500
0.5845131874084473,29,187,85,0.004784688995215311,1502.7,1520,1280.0,1500
0.6053571701049805,30,187,85,0.004784688995215311,1502.7,1520,1280.0,1500
0.6262249946594238,31,187,85,0.004784688995215311,1502.7,1520,1280.0,1500
0.6470739841461182,32,187,85,0.004784688995215311,1502.7,1520,1280.0,1500
0.6679179668426514,33,187,85,0.004784688995215311,1502.7,1520,1280.0,1500
0.6887550354003906,34,187,85,0.004784688995215311,1502.7,1520,1280.0,1500
0.7095940113067627,35,187,85,0.004784688995215311,1502.7,1520,1280.0,1500
0.7304320335388184,36,187,85,0.004784688995215311,1502.7,1520,1280.0,1500
0.7512791156768799,37,187,85,0.004784688995215311,1502.7,1520,1280.0,1500
0.7721190452575684,38,187,85,0.004784688995215311,1502.7,1520,1280.0,1500
0.7929670810699463,39,187,85,0.004784688995215311,1502.7,1520,1280.0,1500
0.8138101100921631,40,187,85,0.005263157894736842,1502.7,1520,1280.0,1500
0.8346610069274902,41,187,85,0.004784688995215311,1502.7,1520,1280.0,1500
0.8555111885070801,42,187,85,0.004784688995215311,1502.7,1520,1280.0,1500
0.87636399269104,43,187,85,0.005263157894736842,1502.7,1520,1280.0,1500
0.897219181060791,44,187,85,0.004784688995215311,1502.7,1520,1280.0,1500
0.9180560111999512,45,187,85,0.004784688995215311,1502.7,1520,1280.0,1500
0.9388940334320068,46,187,85,0.004784688995215311,1502.7,1520,1280.0,1500
0.9597361087799072,47,187,85,0.005263157894736842,1502.7,1520,1280.0,1500
0.9805850982666016,48,187,85,0.004784688995215311,1502.7,1520,1280.0,1500
1.0014359951019287,49,187,85,0.004784688995215311,1502.7,1520,1280.0,1500
1.0222761631011963,50,187,85,0.004784688995215311,1502.7,1520,1280.0,1500
1.0431289672851562,51,187,85,0.005263157894736842,1502.7,1520,1280.0,1500
1.0639801025390625,52,187,85,0.004784688995215311,1502.7,1520,1280.0,1500
1.0848181247711182,53,187,85,0.005263157894736842,1502.7,1520,1280.0,1500
1.1057450771331787,54,188,85,0.0043859649122807015,1502.8,1518.859649122807,1280.0,1500
1.1268730163574219,55,187,85,0.004784688995215311,1502.7,1520,1280.0,1500
1.1477479934692383,56,187,85,0.004784688995215311,1502.7,1520,1280.0,1500
1.1686081886291504,57,187,85,0.004784688995215311,1502.7,1520,1280.0,1500
1.1894841194152832,58,187,85,0.004784688995215311,1502.7,1520,1280.0,1500
1.210325002670288,59,187,85,0.004784688995215311,1502.7,1520,1280.0,1500
1.231166124343872,60,187,85,0.004784688995215311,1502.7,1520,1280.0,1500
1.2520220279693604,61,187,85,0.004784688995215311,1502.7,1520,1280.0,1500
1.2728791236877441,62,187,85,0.004784688995215311,1502.7,1520,1280.0,1500
1.2937519550323486,63,187,85,0.004784688995215311,1502.7,1520,1280.0,1500
1.314620018005371,64,187,85,0.004784688995215311,1502.7,1520,1280.0,1500
1.3354761600494385,65,187,85,0.004784688995215311,1502.7,1520,1280.0,1500
1.3563191890716553,66,187,85,0.005263157894736842,1502.7,1520,1280.0,1500
1.3771851062774658,67,187,85,0.004784688995215311,1502.7,1520,1280.0,1500
1.3980600833892822,68,187,85,0.005263157894736842,1502.7,1520,1280.0,1500
1.418910026550293,69,187,85,0.005263157894736842,1502.7,1520,1280.0,1500
1.439749002456665,70,187,85,0.004784688995215311,1502.7,1520,1280.0,1500
1.4605891704559326,71,187,85,0.004784688995215311,1502.7,1520,1280.0,1500
1.481429100036621,72,187,85,0.004784688995215311,1502.7,1520,1280.0,1500
1.5022711753845215,73,187,85,0.005263157894736842,1502.7,1520,1280.0,1500
1.5231120586395264,74,187,85,0.004784688995215311,1502.7,1520,1280.0,1500
1.543956995010376,75,187,85,0.004784688995215311,1502.7,1520,1280.0,1500
1.5648009777069092,76,187,85,0.004784688995215311,1502.7,1520,1280.0,1500
1.585724115371704,77,187,85,0.005263157894736842,1502.7,1520,1280.0,1500
1.6065709590911865,78,187,85,0.005263157894736842,1502.7,1520,1280.0,1500
1.6274311542510986,79,187,85,0.005263157894736842,1502.7,1520,1280.0,1500
1.6482751369476318,80,187,85,0.005263157894736842,1502.7,1520,1280.0,1500
1.6691110134124756,81,188,85,0.004784688995215311,1502.8,1520,1280.0,1500
1.6899640560150146,82,187,85,0.005263157894736842,1502.7,1520,1280.0,1500
1.7108051776885986,83,187,85,0.004784688995215311,1502.7,1520,1280.0,1500
1.731652021408081,84,187,85,0.004784688995215311,1502.7,1520,1280.0,1500
1.752514123916626,85,188,85,0.007518796992481203,1502.8,1520,1280.0,1500
1.7733831405639648,86,187,85,0.005263157894736842,1502.7,1520,1280.0,1500
1.7942531108856201,87,188,85,0.004784688995215311,1502.8,1520,1280.0,1500
1.8151421546936035,88,187,85,0.004784688995215311,1502.7,1520,1280.0,1500
1.8360240459442139,89,187,85,0.004784688995215311,1502.7,1520,1280.0,1500
1.8568639755249023,90,187,85,0.004784688995215311,1502.7,1520,1280.0,1500
1.877716064453125,91,187,85,0.005263157894736842,1502.7,1520,1280.0,1500
1.8985600471496582,92,187,85,0.004784688995215311,1502.7,1520,1280.0,1500
1.9194021224975586,93,187,85,0.005263157894736842,1502.7,1520,1280.0,1500
1.9402451515197754,94,187,85,0.004784688995215311,1502.7,1520,1280.0,1500
1.9610800743103027,95,187,85,0.005263157894736842,1502.7,1520,1280.0,1500
1.9819121360778809,96,186,85,0.005263157894736842,1502.6,1520,1280.0,1500
2.0027530193328857,97,187,85,0.004784688995215311,1502.7,1520,1280.0,1500
2.0235860347747803,98,187,85,0.004784688995215311,1502.7,1520,1280.0,1500
2.044434070587158,99,187,85,0.004784688995215311,1502.7,1520,1280.0,1500
2.065279006958008,100,187,85,0.005263157894736842,1502.7,1520,1280.0,1500
2.086138963699341,101,187,85,0.004784688995215311,1502.7,1520,1280.0,1500
2.106999158859253,102,187,85,0.004784688995215311,1502.7,1520,1280.0,1500
2.1278719902038574,103,187,85,0.004784688995215311,1502.7,1520,1280.0,1500
2.1487209796905518,104,187,85,0.005263157894736842,1502.7,1520,1280.0,1500
2.169577121734619,105,187,85,0.005263157894736842,1502.7,1520,1280.0,1500
2.1904489994049072,106,187,85,0.004784688995215311,1502.7,1520,1280.0,1500
2.21130108833313,107,187,85,0.005263157894736842,1502.7,1520,1280.0,1500
2.2321419715881348,108,187,85,0.004784688995215311,1502.7,1520,1280.0,1500
2.252984046936035,109,187,85,0.004784688995215311,1502.7,1520,1280.0,1500
2.2740190029144287,110,187,85,0.005263157894736842,1502.7,1520,1280.0,1500
2.2949020862579346,111,187,85,0.004784688995215311,1502.7,1520,1280.0,1500
2.3158700466156006,112,187,85,0.004784688995215311,1502.7,1520,1280.0,1500
2.3367350101470947,113,187,85,0.004784688995215311,1502.7,1520,1280.0,1500
2.3575870990753174,114,187,85,0.004784688995215311,1502.7,1520,1280.0,1500
2.3784329891204834,115,187,85,0.004784688995215311,1502.7,1520,1280.0,1500
2.3992760181427,116,187,85,0.005263157894736842,1502.7,1520,1280.0,1500
2.420133113861084,117,187,85,0.004784688995215311,1502.7,1520,1280.0,1500
2.441020965576172,118,187,85,0.004784688995215311,1502.7,1520,1280.0,1500
2.4620230197906494,119,187,85,0.005263157894736842,1502.7,1520,1280.0,1500
2.482913017272949,120,187,85,0.004784688995215311,1502.7,1520,1280.0,1500
2.503793954849243,121,187,85,0.004784688995215311,1502.7,1520,1280.0,1500
2.524657964706421,122,187,85,0.005263157894736842,1502.7,1520,1280.0,1500
2.5455119609832764,123,186,85,0.005263157894736842,1502.6,1520,1280.0,1500
2.566357135772705,124,187,85,0.005263157894736842,1502.7,1520,1280.0,1500
2.587200164794922,125,187,85,0.004784688995215311,1502.7,1520,1280.0,1500
2.6080360412597656,126,188,85,0.004784688995215311,1502.8,1520,1280.0,1500
2.628890037536621,127,187,85,0.004784688995215311,1502.7,1520,1280.0,1500
2.649744987487793,128,187,85,0.004784688995215311,1502.7,1520,1280.0,1500
2.670586109161377,129,188,85,0.004784688995215311,1502.8,1520,1280.0,1500
2.6914281845092773,130,187,85,0.004784688995215311,1502.7,1520,1280.0,1500
2.7122609615325928,131,187,85,0.005263157894736842,1502.7,1520,1280.0,1500
2.7331039905548096,132,187,85,0.004784688995215311,1502.7,1520,1280.0,1500
2.753941059112549,133,187,85,0.004784688995215311,1502.7,1520,1280.0,1500
2.774778127670288,134,187,85,0.005263157894736842,1502.7,1520,1280.0,1500
2.7956900596618652,135,187,85,0.005263157894736842,1502.7,1520,1280.0,1500
2.816533088684082,136,187,85,0.004784688995215311,1502.7,1520,1280.0,1500
2.8373730182647705,137,187,85,0.004784688995215311,1502.7,1520,1280.0,1500
2.8582229614257812,138,187,85,0.004784688995215311,1502.7,1520,1280.0,1500
2.879075050354004,139,187,85,0.004784688995215311,1502.7,1520,1280.0,1500
2.8999180793762207,140,187,85,0.004784688995215311,1502.7,1520,1280.0,1500
2.920758008956909,141,187,85,0.004784688995215311,1502.7,1520,1280.0,1500
2.9416050910949707,142,187,85,0.004784688995215311,1502.7,1520,1280.0,1500
2.962463140487671,143,187,85,0.005263157894736842,1502.7,1520,1280.0,1500
2.9833080768585205,144,187,85,0.005263157894736842,1502.7,1520,1280.0,1500
3.004157066345215,145,187,85,0.004784688995215311,1502.7,1520,1280.0,1500
3.025010108947754,146,187,85,0.004784688995215311,1502.7,1520,1280.0,1500
3.0459251403808594,147,187,85,0.004784688995215311,1502.7,1520,1280.0,1500
3.06677508354187,148,187,85,0.005263157894736842,1502.7,1520,1280.0,1500
3.087614059448242,149,187,85,0.005263157894736842,1502.7,1520,1280.0,1500
3.1084611415863037,150,187,85,0.004784688995215311,1502.7,1520,1280.0,1500
3.1293270587921143,151,187,85,0.005263157894736842,1502.7,1520,1280.0,1500
3.150179147720337,152,187,85,0.004784688995215311,1502.7,1520,1280.0,1500
3.171044111251831,153,187,85,0.004784688995215311,1502.7,1520,1280.0,1500
3.1919431686401367,154,187,85,0.005263157894736842,1502.7,1520,1280.0,1500
3.212820053100586,155,187,85,0.004784688995215311,1502.7,1520,1280.0,1500
3.233659029006958,156,187,85,0.004784688995215311,1502.7,1520,1280.0,1500
3.2545080184936523,157,187,85,0.004784688995215311,1502.7,1520,1280.0,1500
3.275355100631714,158,187,85,0.004784688995215311,1502.7,1520,1280.0,1500
3.2962191104888916,159,187,85,0.005263157894736842,1502.7,1520,1280.0,1500
3.317068099975586,160,187,85,0.004784688995215311,1502.7,1520,1280.0,1500
3.337908983230591,161,187,85,0.004784688995215311,1502.7,1520,1280.0,1500
3.3587441444396973,162,187,85,0.004784688995215311,1502.7,1520,1280.0,1500
3.3795931339263916,163,187,85,0.004784688995215311,1502.7,1520,1280.0,1500
3.400629997253418,164,187,85,0.005263157894736842,1502.7,1520,1280.0,1500
3.4215011596679688,165,187,85,0.005263157894736842,1502.7,1520,1280.0,1500
3.4423441886901855,166,187,85,0.004784688995215311,1502.7,1520,1280.0,1500
3.4631760120391846,167,187,83,0.00625,1502.7,1520,1284.0,1500
3.4840149879455566,168,187,85,0.005263157894736842,1502.7,1520,1280.0,1500
3.504855155944824,169,187,85,0.004784688995215311,1502.7,1520,1280.0,1500
3.5257680416107178,170,187,85,0.004784688995215311,1502.7,1520,1280.0,1500
3.546621084213257,171,187,85,0.004784688995215311,1502.7,1520,1280.0,1500
3.5674691200256348,172,187,85,0.004784688995215311,1502.7,1520,1280.0,1500
3.5883071422576904,173,187,85,0.004784688995215311,1502.7,1520,1280.0,1500
3.6091530323028564,174,187,85,0.004784688995215311,1502.7,1520,1280.0,1500
3.630007028579712,175,187,85,0.004784688995215311,1502.7,1520,1280.0,1500
3.650851011276245,176,187,85,0.005263157894736842,1502.7,1520,1280.0,1500
3.671689033508301,177,187,85,0.004784688995215311,1502.7,1520,1280.0,1500
3.692547082901001,178,187,85,0.004784688995215311,1502.7,1520,1280.0,1500
3.71340012550354,179,188,85,0.006578947368421052,1502.8,1520,1280.0,1500
3.734241008758545,180,187,85,0.004784688995215311,1502.7,1520,1280.0,1500
3.7551331520080566,181,187,85,0.004784688995215311,1502.7,1520,1280.0,1500
3.776071071624756,182,187,85,0.0043859649122807015,1502.7,1518.859649122807,1280.0,1500
3.7969911098480225,183,187,85,0.004784688995215311,1502.7,1520,1280.0,1500
3.817862033843994,184,187,85,0.005263157894736842,1502.7,1520,1280.0,1500
3.838714122772217,185,187,85,0.005263157894736842,1502.7,1520,1280.0,1500
3.8595659732818604,186,187,85,0.004784688995215311,1502.7,1520,1280.0,1500
3.8804261684417725,187,187,85,0.005263157894736842,1502.7,1520,1280.0,1500
3.9012701511383057,188,187,85,0.004784688995215311,1502.7,1520,1280.0,1500
3.9221150875091553,189,187,85,0.004784688995215311,1502.7,1520,1280.0,1500
3.942958116531372,190,187,85,0.005263157894736842,1502.7,1520,1280.0,1500
3.9638001918792725,191,187,85,0.004784688995215311,1502.7,1520,1280.0,1500
3.9846391677856445,192,187,85,0.004784688995215311,1502.7,1520,1280.0,1500
4.005490064620972,193,187,85,0.005263157894736842,1502.7,1520,1280.0,1500
4.026348114013672,194,187,85,0.004784688995215311,1502.7,1520,1280.0,1500
4.047192096710205,195,187,85,0.005263157894736842,1502.7,1520,1280.0,1500
4.068048000335693,196,187,85,0.005263157894736842,1502.7,1520,1280.0,1500
4.088898181915283,197,187,85,0.005263157894736842,1502.7,1520,1280.0,1500
4.109879016876221,198,187,85,0.005263157894736842,1502.7,1520,1280.0,1500
4.131417989730835,199,187,85,0.004784688995215311,1502.7,1520,1280.0,1500
4.152889966964722,200,187,85,0.005263157894736842,1502.7,1520,1280.0,1500
4.174365997314453,201,187,85,0.0043859649122807015,1502.7,1518.859649122807,1280.0,1500
4.1959381103515625,202,187,85,0.005263157894736842,1502.7,1520,1280.0,1500
4.217427968978882,203,187,85,0.005263157894736842,1502.7,1520,1280.0,1500
4.238903999328613,204,187,85,0.004784688995215311,1502.7,1520,1280.0,1500
4.260373115539551,205,187,85,0.004784688995215311,1502.7,1520,1280.0,1500
4.2818381786346436,206,187,85,0.004784688995215311,1502.7,1520,1280.0,1500
4.303333044052124,207,187,85,0.004784688995215311,1502.7,1520,1280.0,1500
4.3248131275177,208,187,85,0.004784688995215311,1502.7,1520,1280.0,1500
4.346405982971191,209,187,85,0.004784688995215311,1502.7,1520,1280.0,1500
4.367894172668457,210,187,85,0.005263157894736842,1502.7,1520,1280.0,1500
4.389360189437866,211,187,85,0.005263157894736842,1502.7,1520,1280.0,1500
4.410820960998535,212,187,85,0.004784688995215311,1502.7,1520,1280.0,1500
4.432293176651001,213,187,85,0.005263157894736842,1502.7,1520,1280.0,1500
4.453778982162476,214,187,85,0.004784688995215311,1502.7,1520,1280.0,1500
4.4752891063690186,215,186,85,0.005263157894736842,1502.6,1520,1280.0,1500
4.496819972991943,216,187,85,0.004784688995215311,1502.7,1520,1280.0,1500
4.518301010131836,217,187,85,0.004784688995215311,1502.7,1520,1280.0,1500
4.5400390625,218,187,85,0.005263157894736842,1502.7,1520,1280.0,1500
4.561485052108765,219,187,85,0.004784688995215311,1502.7,1520,1280.0,1500
4.5829761028289795,220,187,85,0.004784688995215311,1502.7,1520,1280.0,1500
4.604475975036621,221,187,85,0.005263157894736842,1502.7,1520,1280.0,1500
4.626042127609253,222,187,85,0.005263157894736842,1502.7,1520,1280.0,1500
4.647528171539307,223,187,85,0.004784688995215311,1502.7,1520,1280.0,1500
4.668987989425659,224,187,85,0.004784688995215311,1502.7,1520,1280.0,1500
4.690448999404907,225,187,85,0.004784688995215311,1502.7,1520,1280.0,1500
4.711928129196167,226,187,85,0.004784688995215311,1502.7,1520,1280.0,1500
4.733419179916382,227,187,85,0.004784688995215311,1502.7,1520,1280.0,1500
4.754883050918579,228,187,85,0.004784688995215311,1502.7,1520,1280.0,1500
4.776478052139282,229,187,85,0.005263157894736842,1502.7,1520,1280.0,1500
4.79795503616333,230,188,85,0.004784688995215311,1502.8,1520,1280.0,1500
4.819441080093384,231,187,85,0.004784688995215311,1502.7,1520,1280.0,1500
4.8409130573272705,232,187,85,0.005263157894736842,1502.7,1520,1280.0,1500
4.862389087677002,233,187,85,0.004784688995215311,1502.7,1520,1280.0,1500
4.88386607170105,234,187,85,0.004784688995215311,1502.7,1520,1280.0,1500
4.905346155166626,235,187,85,0.005263157894736842,1502.7,1520,1280.0,1500
4.926835060119629,236,187,85,0.005263157894736842,1502.7,1520,1280.0,1500
4.948305130004883,237,187,85,0.004784688995215311,1502.7,1520,1280.0,1500
4.969776153564453,238,187,85,0.004784688995215311,1502.7,1520,1280.0,1500
4.991244077682495,239,187,85,0.0043859649122807015,1502.7,1518.859649122807,1280.0,1500
5.012784004211426,240,187,85,0.004784688995215311,1502.7,1520,1280.0,1500
5.034337997436523,241,187,85,0.005263157894736842,1502.7,1520,1280.0,1500
5.056028127670288,242,187,85,0.004784688995215311,1502.7,1520,1280.0,1500
5.077538967132568,243,187,85,0.004784688995215311,1502.7,1520,1280.0,1500
5.0990190505981445,244,187,85,0.005263157894736842,1502.7,1520,1280.0,1500
5.120545148849487,245,187,85,0.004784688995215311,1502.7,1520,1280.0,1500
5.142016172409058,246,187,85,0.004784688995215311,1502.7,1520,1280.0,1500
5.163489103317261,247,187,85,0.004784688995215311,1502.7,1520,1280.0,1500
5.184988021850586,248,187,85,0.004784688995215311,1502.7,1520,1280.0,1500
5.2065980434417725,249,187,85,0.004784688995215311,1502.7,1520,1280.0,1500
5.228089094161987,250,187,85,0.004784688995215311,1502.7,1520,1280.0,1500
5.249561071395874,251,187,85,0.005263157894736842,1502.7,1520,1280.0,1500
5.271026134490967,252,187,85,0.004784688995215311,1502.7,1520,1280.0,1500
5.292509078979492,253,187,85,0.004784688995215311,1502.7,1520,1280.0,1500
5.314012050628662,254,187,85,0.004784688995215311,1502.7,1520,1280.0,1500
5.335494041442871,255,187,85,0.005263157894736842,1502.7,1520,1280.0,1500
5.356966972351074,256,187,85,0.005263157894736842,1502.7,1520,1280.0,1500
5.3784589767456055,257,187,85,0.0043859649122807015,1502.7,1518.859649122807,1280.0,1500
5.400017976760864,258,187,85,0.004784688995215311,1502.7,1520,1280.0,1500
5.421497106552124,259,187,85,0.005263157894736842,1502.7,1520,1280.0,1500
5.442965030670166,260,187,85,0.004784688995215311,1502.7,1520,1280.0,1500
5.464436054229736,261,187,85,0.004784688995215311,1502.7,1520,1280.0,1500
5.485907077789307,262,187,85,0.005263157894736842,1502.7,1520,1280.0,1500
5.50739598274231,263,187,85,0.004784688995215311,1502.7,1520,1280.0,1500
5.52889609336853,264,187,85,0.004784688995215311,1502.7,1520,1280.0,1500
5.550366163253784,265,187,85,0.004784688995215311,1502.7,1520,1280.0,1500
5.571827173233032,266,187,85,0.005263157894736842,1502.7,1520,1280.0,1500
5.593300104141235,267,187,85,0.004784688995215311,1502.7,1520,1280.0,1500
5.6147661209106445,268,186,85,0.005263157894736842,1502.6,1520,1280.0,1500
5.636479139328003,269,187,85,0.004784688995215311,1502.7,1520,1280.0,1500
5.658001184463501,270,187,85,0.004784688995215311,1502.7,1520,1280.0,1500
5.679511070251465,271,187,85,0.004784688995215311,1502.7,1520,1280.0,1500
5.700996160507202,272,187,85,0.004784688995215311,1502.7,1520,1280.0,1500
5.722819089889526,273,187,85,0.004784688995215311,1502.7,1520,1280.0,1500
5.744300127029419,274,187,85,0.004784688995215311,1502.7,1520,1280.0,1500
5.7657670974731445,275,187,85,0.004784688995215311,1502.7,1520,1280.0,1500
5.787209987640381,276,187,85,0.005263157894736842,1502.7,1520,1280.0,1500
5.808604001998901,277,187,85,0.004784688995215311,1502.7,1520,1280.0,1500
5.829904079437256,278,187,85,0.005263157894736842,1502.7,1520,1280.0,1500
5.851232051849365,279,187,85,0.004784688995215311,1502.7,1520,1280.0,1500
5.872779130935669,280,187,85,0.005263157894736842,1502.7,1520,1280.0,1500
5.894270181655884,281,187,85,0.005263157894736842,1502.7,1520,1280.0,1500
5.915701150894165,282,187,85,0.004784688995215311,1502.7,1520,1280.0,1500
5.937162160873413,283,187,85,0.005263157894736842,1502.7,1520,1280.0,1500
5.958600997924805,284,187,85,0.005263157894736842,1502.7,1520,1280.0,1500
5.980043172836304,285,187,85,0.004784688995215311,1502.7,1520,1280.0,1500
6.001553058624268,286,187,85,0.004784688995215311,1502.7,1520,1280.0,1500
6.0230090618133545,287,187,85,0.004784688995215311,1502.7,1520,1280.0,1500
6.0444910526275635,288,188,85,0.008771929824561403,1502.8,1520,1280.0,1500
6.0659050941467285,289,187,85,0.004784688995215311,1502.7,1520,1280.0,1500
6.087330102920532,290,187,85,0.004784688995215311,1502.7,1520,1280.0,1500
6.108819961547852,291,187,85,0.005263157894736842,1502.7,1520,1280.0,1500
6.130293130874634,292,187,85,0.004784688995215311,1502.7,1520,1280.0,1500
6.151735067367554,293,187,85,0.004784688995215311,1502.7,1520,1280.0,1500
6.173117160797119,294,187,85,0.004784688995215311,1502.7,1520,1280.0,1500
6.194491147994995,295,187,85,0.0043859649122807015,1502.7,1518.859649122807,1280.0,1500
6.216094017028809,296,187,85,0.004784688995215311,1502.7,1520,1280.0,1500
6.237532138824463,297,187,85,0.004784688995215311,1502.7,1520,1280.0,1500
6.258838176727295,298,187,85,0.004784688995215311,1502.7,1520,1280.0,1500
6.280124187469482,299,187,85,0.004784688995215311,1502.7,1520,1280.0,1500
6.301468133926392,300,187,85,0.005263157894736842,1502.7,1520,1280.0,1500
6.3229711055755615,301,187,85,0.004784688995215311,1502.7,1520,1280.0,1500
6.3443989753723145,302,187,85,0.005263157894736842,1502.7,1520,1280.0,1500
6.3658130168914795,303,187,85,0.005263157894736842,1502.7,1520,1280.0,1500
6.387272119522095,304,187,85,0.004784688995215311,1502.7,1520,1280.0,1500
6.408735990524292,305,187,85,0.004784688995215311,1502.7,1520,1280.0,1500
6.430227041244507,306,187,85,0.005263157894736842,1502.7,1520,1280.0,1500
6.451534032821655,307,187,85,0.005263157894736842,1502.7,1520,1280.0,1500
6.472854137420654,308,187,85,0.005263157894736842,1502.7,1520,1280.0,1500
6.49437403678894,309,187,85,0.004784688995215311,1502.7,1520,1280.0,1500
6.515850067138672,310,187,85,0.004784688995215311,1502.7,1520,1280.0,1500
6.537330150604248,311,187,85,0.005263157894736842,1502.7,1520,1280.0,1500
6.558743000030518,312,187,85,0.004784688995215311,1502.7,1520,1280.0,1500
6.580154180526733,313,187,85,0.004784688995215311,1502.7,1520,1280.0,1500
6.601564168930054,314,187,85,0.004784688995215311,1502.7,1520,1280.0,1500
6.623016119003296,315,187,85,0.0043859649122807015,1502.7,1518.859649122807,1280.0,1500
6.644510984420776,316,187,85,0.004784688995215311,1502.7,1520,1280.0,1500
6.666002988815308,317,187,85,0.005263157894736842,1502.7,1520,1280.0,1500
6.687374114990234,318,187,85,0.005263157894736842,1502.7,1520,1280.0,1500
6.708676099777222,319,187,85,0.005263157894736842,1502.7,1520,1280.0,1500
6.729948043823242,320,187,85,0.004784688995215311,1502.7,1520,1280.0,1500
6.751214981079102,321,187,85,0.005263157894736842,1502.7,1520,1280.0,1500
6.772479057312012,322,187,85,0.005263157894736842,1502.7,1520,1280.0,1500
6.793823957443237,323,187,85,0.004784688995215311,1502.7,1520,1280.0,1500
6.815361022949219,324,187,85,0.005263157894736842,1502.7,1520,1280.0,1500
6.83684515953064,325,187,85,0.004784688995215311,1502.7,1520,1280.0,1500
6.8582539558410645,326,187,85,0.005263157894736842,1502.7,1520,1280.0,1500
6.879971981048584,327,187,85,0.004784688995215311,1502.7,1520,1280.0,1500
6.9014060497283936,328,187,85,0.004784688995215311,1502.7,1520,1280.0,1500
6.922943115234375,329,187,85,0.004784688995215311,1502.7,1520,1280.0,1500
6.9446821212768555,330,187,85,0.004784688995215311,1502.7,1520,1280.0,1500
6.96635103225708,331,187,85,0.004784688995215311,1502.7,1520,1280.0,1500
6.987795114517212,332,187,85,0.004784688995215311,1502.7,1520,1280.0,1500
7.009225130081177,333,187,85,0.004784688995215311,1502.7,1520,1280.0,1500
7.030739068984985,334,187,85,0.004784688995215311,1502.7,1520,1280.0,1500
7.052148103713989,335,187,85,0.0043859649122807015,1502.7,1518.859649122807,1280.0,1500
7.073621988296509,336,187,85,0.004784688995215311,1502.7,1520,1280.0,1500
7.095131158828735,337,187,85,0.004784688995215311,1502.7,1520,1280.0,1500
7.11661696434021,338,187,85,0.004784688995215311,1502.7,1520,1280.0,1500
7.138013124465942,339,187,85,0.004784688995215311,1502.7,1520,1280.0,1500
7.159546136856079,340,187,85,0.005263157894736842,1502.7,1520,1280.0,1500
7.181023120880127,341,187,85,0.005263157894736842,1502.7,1520,1280.0,1500
7.202476978302002,342,187,85,0.004784688995215311,1502.7,1520,1280.0,1500
7.223890066146851,343,186,85,0.005263157894736842,1502.6,1520,1280.0,1500
7.245300054550171,344,187,85,0.005263157894736842,1502.7,1520,1280.0,1500
7.266718149185181,345,187,85,0.004784688995215311,1502.7,1520,1280.0,1500
7.288100957870483,346,187,85,0.004784688995215311,1502.7,1520,1280.0,1500
7.309512138366699,347,186,85,0.005263157894736842,1502.6,1520,1280.0,1500
7.331037998199463,348,187,85,0.004784688995215311,1502.7,1520,1280.0,1500
7.3525230884552,349,187,85,0.004784688995215311,1502.7,1520,1280.0,1500
7.373960971832275,350,187,85,0.004784688995215311,1502.7,1520,1280.0,1500
7.395364999771118,351,187,85,0.004784688995215311,1502.7,1520,1280.0,1500
7.4167890548706055,352,187,85,0.004784688995215311,1502.7,1520,1280.0,1500
7.4382851123809814,353,188,85,0.006578947368421052,1502.8,1520,1280.0,1500
7.459707021713257,354,187,85,0.005263157894736842,1502.7,1520,1280.0,1500
7.4811320304870605,355,187,85,0.004784688995215311,1502.7,1520,1280.0,1500
7.502678155899048,356,187,85,0.004784688995215311,1502.7,1520,1280.0,1500
7.5241639614105225,357,187,85,0.004784688995215311,1502.7,1520,1280.0,1500
7.545572996139526,358,187,85,0.004784688995215311,1502.7,1520,1280.0,1500
7.566962957382202,359,187,85,0.005263157894736842,1502.7,1520,1280.0,1500
7.588360071182251,360,187,85,0.004784688995215311,1502.7,1520,1280.0,1500
7.609804153442383,361,187,85,0.004784688995215311,1502.7,1520,1280.0,1500
7.631335020065308,362,187,85,0.005263157894736842,1502.7,1520,1280.0,1500
7.652801990509033,363,188,85,0.007518796992481203,1502.8,1520,1280.0,1500
7.674210071563721,364,187,85,0.005263157894736842,1502.7,1520,1280.0,1500
7.695602178573608,365,187,85,0.004784688995215311,1502.7,1520,1280.0,1500
7.717015981674194,366,187,85,0.004784688995215311,1502.7,1520,1280.0,1500
7.7384490966796875,367,187,85,0.005263157894736842,1502.7,1520,1280.0,1500
7.7598371505737305,368,187,85,0.004784688995215311,1502.7,1520,1280.0,1500
7.781179189682007,369,187,85,0.004784688995215311,1502.7,1520,1280.0,1500
7.802656173706055,370,187,85,0.004784688995215311,1502.7,1520,1280.0,1500
7.824068069458008,371,187,85,0.004784688995215311,1502.7,1520,1280.0,1500
7.8454790115356445,372,187,85,0.004784688995215311,1502.7,1520,1280.0,1500
7.866940021514893,373,187,85,0.004784688995215311,1502.7,1520,1280.0,1500
7.888427019119263,374,187,85,0.004784688995215311,1502.7,1520,1280.0,1500
7.909891128540039,375,187,85,0.004784688995215311,1502.7,1520,1280.0,1500
7.931311130523682,376,187,85,0.005263157894736842,1502.7,1520,1280.0,1500
7.9527130126953125,377,187,85,0.004784688995215311,1502.7,1520,1280.0,1500
7.9741151332855225,378,187,85,0.004784688995215311,1502.7,1520,1280.0,1500
7.995534181594849,379,187,85,0.005263157894736842,1502.7,1520,1280.0,1500
8.016913175582886,380,187,85,0.004784688995215311,1502.7,1520,1280.0,1500
8.03855013847351,381,187,85,0.005263157894736842,1502.7,1520,1280.0,1500
8.060067176818848,382,187,85,0.005263157894736842,1502.7,1520,1280.0,1500
8.081532955169678,383,187,85,0.005263157894736842,1502.7,1520,1280.0,1500
8.10295295715332,384,187,85,0.004784688995215311,1502.7,1520,1280.0,1500
8.124421119689941,385,187,85,0.005263157894736842,1502.7,1520,1280.0,1500
8.145825147628784,386,187,85,0.004784688995215311,1502.7,1520,1280.0,1500
8.167258024215698,387,187,85,0.004784688995215311,1502.7,1520,1280.0,1500
8.188676118850708,388,187,85,0.004784688995215311,1502.7,1520,1280.0,1500
8.210034132003784,389,187,85,0.005263157894736842,1502.7,1520,1280.0,1500
8.23158597946167,390,187,85,0.005263157894736842,1502.7,1520,1280.0,1500
8.252983093261719,391,187,85,0.004784688995215311,1502.7,1520,1280.0,1500
8.2742919921875,392,187,85,0.004784688995215311,1502.7,1520,1280.0,1500
8.295577049255371,393,187,85,0.004784688995215311,1502.7,1520,1280.0,1500
8.316888093948364,394,187,85,0.004784688995215311,1502.7,1520,1280.0,1500
8.338212966918945,395,187,85,0.005263157894736842,1502.7,1520,1280.0,1500
8.359739065170288,396,187,85,0.005263157894736842,1502.7,1520,1280.0,1500
8.381210088729858,397,187,85,0.004784688995215311,1502.7,1520,1280.0,1500
8.402630090713501,398,187,85,0.005263157894736842,1502.7,1520,1280.0,1500
8.424034118652344,399,187,85,0.004784688995215311,1502.7,1520,1280.0,1500
8.44544005393982,400,187,85,0.004784688995215311,1502.7,1520,1280.0,1500
8.466864109039307,401,187,85,0.004784688995215311,1502.7,1520,1280.0,1500
8.488290071487427,402,187,85,0.004784688995215311,1502.7,1520,1280.0,1500
8.509813070297241,403,187,85,0.004784688995215311,1502.7,1520,1280.0,1500
8.531296968460083,404,187,85,0.005263157894736842,1502.7,1520,1280.0,1500
8.55276608467102,405,187,85,0.005263157894736842,1502.7,1520,1280.0,1500
8.574202060699463,406,187,85,0.004784688995215311,1502.7,1520,1280.0,1500
8.595607042312622,407,187,85,0.005263157894736842,1502.7,1520,1280.0,1500
8.617035150527954,408,187,85,0.004784688995215311,1502.7,1520,1280.0,1500
8.638455152511597,409,187,85,0.004784688995215311,1502.7,1520,1280.0,1500
8.659934043884277,410,187,85,0.004784688995215311,1502.7,1520,1280.0,1500
8.681343078613281,411,187,85,0.004784688995215311,1502.7,1520,1280.0,1500
8.70275616645813,412,187,85,0.004784688995215311,1502.7,1520,1280.0,1500
8.72420597076416,413,187,85,0.004784688995215311,1502.7,1520,1280.0,1500
8.745649099349976,414,187,85,0.004784688995215311,1502.7,1520,1280.0,1500
8.767161130905151,415,187,85,0.004784688995215311,1502.7,1520,1280.0,1500
8.7886221408844,416,187,85,0.005263157894736842,1502.7,1520,1280.0,1500
8.810034990310669,417,187,85,0.004784688995215311,1502.7,1520,1280.0,1500
8.831448078155518,418,187,85,0.004784688995215311,1502.7,1520,1280.0,1500
8.852869987487793,419,187,85,0.004784688995215311,1502.7,1520,1280.0,1500
8.874322175979614,420,187,85,0.005263157894736842,1502.7,1520,1280.0,1500
8.895718097686768,421,187,85,0.004784688995215311,1502.7,1520,1280.0,1500
8.917119979858398,422,187,85,0.005263157894736842,1502.7,1520,1280.0,1500
8.938697099685669,423,187,85,0.005263157894736842,1502.7,1520,1280.0,1500
8.960182189941406,424,187,85,0.004784688995215311,1502.7,1520,1280.0,1500
8.981677055358887,425,187,85,0.004784688995215311,1502.7,1520,1280.0,1500
9.003165006637573,426,187,85,0.004784688995215311,1502.7,1520,1280.0,1500
9.024640083312988,427,187,85,0.005263157894736842,1502.7,1520,1280.0,1500
9.046203136444092,428,187,85,0.004784688995215311,1502.7,1520,1280.0,1500
9.067686080932617,429,187,85,0.004784688995215311,1502.7,1520,1280.0,1500
9.089164972305298,430,187,85,0.004784688995215311,1502.7,1520,1280.0,1500
9.110637187957764,431,187,85,0.0043859649122807015,1502.7,1518.859649122807,1280.0,1500
9.132220983505249,432,187,85,0.005263157894736842,1502.7,1520,1280.0,1500
9.153696060180664,433,187,85,0.004784688995215311,1502.7,1520,1280.0,1500
9.175220966339111,434,187,85,0.004784688995215311,1502.7,1520,1280.0,1500
9.196796178817749,435,187,85,0.005263157894736842,1502.7,1520,1280.0,1500
9.218547105789185,436,187,85,0.004784688995215311,1502.7,1520,1280.0,1500
9.240048170089722,437,187,85,0.004784688995215311,1502.7,1520,1280.0,1500
9.261538982391357,438,187,85,0.004784688995215311,1502.7,1520,1280.0,1500
9.283035039901733,439,187,85,0.004784688995215311,1502.7,1520,1280.0,1500
9.304558992385864,440,187,85,0.004784688995215311,1502.7,1520,1280.0,1500
9.32617712020874,441,187,85,0.004784688995215311,1502.7,1520,1280.0,1500
9.347678184509277,442,187,85,0.004784688995215311,1502.7,1520,1280.0,1500
9.369194030761719,443,187,85,0.005263157894736842,1502.7,1520,1280.0,1500
9.39067006111145,444,187,85,0.004784688995215311,1502.7,1520,1280.0,1500
9.412147045135498,445,187,85,0.005263157894736842,1502.7,1520,1280.0,1500
9.433649063110352,446,187,85,0.005263157894736842,1502.7,1520,1280.0,1500
9.455168962478638,447,188,85,0.007518796992481203,1502.8,1520,1280.0,1500
9.476700067520142,448,187,85,0.004784688995215311,1502.7,1520,1280.0,1500
9.498167037963867,449,187,85,0.005263157894736842,1502.7,1520,1280.0,1500
9.519641160964966,450,187,85,0.004784688995215311,1502.7,1520,1280.0,1500
9.54110312461853,451,187,85,0.004784688995215311,1502.7,1520,1280.0,1500
9.56256914138794,452,187,85,0.004784688995215311,1502.7,1520,1280.0,1500
9.584028959274292,453,187,85,0.004784688995215311,1502.7,1520,1280.0,1500
9.605502128601074,454,187,85,0.005263157894736842,1502.7,1520,1280.0,1500
9.627011060714722,455,187,85,0.005263157894736842,1502.7,1520,1280.0,1500
9.648483037948608,456,187,85,0.004784688995215311,1502.7,1520,1280.0,1500
9.669952154159546,457,187,85,0.005263157894736842,1502.7,1520,1280.0,1500
9.691436052322388,458,187,85,0.005263157894736842,1502.7,1520,1280.0,1500
9.712910175323486,459,187,85,0.004784688995215311,1502.7,1520,1280.0,1500
9.73439908027649,460,187,85,0.004784688995215311,1502.7,1520,1280.0,1500
9.755872964859009,461,187,85,0.005263157894736842,1502.7,1520,1280.0,1500
9.777359962463379,462,187,85,0.004784688995215311,1502.7,1520,1280.0,1500
9.798850059509277,463,187,85,0.004784688995215311,1502.7,1520,1280.0,1500
9.82033896446228,464,187,85,0.005263157894736842,1502.7,1520,1280.0,1500
9.841813087463379,465,187,85,0.005263157894736842,1502.7,1520,1280.0,1500
9.86329197883606,466,187,85,0.004784688995215311,1502.7,1520,1280.0,1500
9.884766101837158,467,187,85,0.004784688995215311,1502.7,1520,1280.0,1500
9.906362056732178,468,187,85,0.004784688995215311,1502.7,1520,1280.0,1500
9.927873134613037,469,187,85,0.005263157894736842,1502.7,1520,1280.0,1500
9.949351072311401,470,187,85,0.004784688995215311,1502.7,1520,1280.0,1500
9.970829963684082,471,187,85,0.005263157894736842,1502.7,1520,1280.0,1500
9.992305040359497,472,187,85,0.004784688995215311,1502.7,1520,1280.0,1500
10.013780117034912,473,187,87,0.006493506493506494,1502.7,1520,1276.0,1500
10.035310983657837,474,187,85,0.005263157894736842,1502.7,1520,1280.0,1500
10.056807041168213,475,187,85,0.004784688995215311,1502.7,1520,1280.0,1500
10.078269958496094,476,187,85,0.004784688995215311,1502.7,1520,1280.0,1500
10.099756956100464,477,187,85,0.005263157894736842,1502.7,1520,1280.0,1500
10.121294021606445,478,187,85,0.004784688995215311,1502.7,1520,1280.0,1500
10.142773151397705,479,187,85,0.005263157894736842,1502.7,1520,1280.0,1500
10.16425895690918,480,187,85,0.005263157894736842,1502.7,1520,1280.0,1500
10.185765027999878,481,187,85,0.004784688995215311,1502.7,1520,1280.0,1500
10.207266092300415,482,187,85,0.004784688995215311,1502.7,1520,1280.0,1500
10.228749990463257,483,187,85,0.0043859649122807015,1502.7,1518.859649122807,1280.0,1500
10.250315189361572,484,187,85,0.004784688995215311,1502.7,1520,1280.0,1500
10.271797180175781,485,187,85,0.005263157894736842,1502.7,1520,1280.0,1500
10.293281078338623,486,187,85,0.004784688995215311,1502.7,1520,1280.0,1500
10.314785957336426,487,187,85,0.004784688995215311,1502.7,1520,1280.0,1500
10.336408138275146,488,187,85,0.004784688995215311,1502.7,1520,1280.0,1500
10.35789704322815,489,187,85,0.004784688995215311,1502.7,1520,1280.0,1500
10.37967300415039,490,187,85,0.004784688995215311,1502.7,1520,1280.0,1500
10.401190996170044,491,187,85,0.004784688995215311,1502.7,1520,1280.0,1500
10.42267107963562,492,187,85,0.005263157894736842,1502.7,1520,1280.0,1500
10.444143056869507,493,187,85,0.004784688995215311,1502.7,1520,1280.0,1500
10.465619087219238,494,187,85,0.005263157894736842,1502.7,1520,1280.0,1500
10.48710012435913,495,187,85,0.004784688995215311,1502.7,1520,1280.0,1500
10.50856900215149,496,186,85,0.005263157894736842,1502.6,1520,1280.0,1500
10.530043125152588,497,187,85,0.005263157894736842,1502.7,1520,1280.0,1500
10.551515102386475,498,187,85,0.004784688995215311,1502.7,1520,1280.0,1500
10.572993993759155,499,187,85,0.004784688995215311,1502.7,1520,1280.0,1500
10.594465970993042,500,187,85,0.004784688995215311,1502.7,1520,1280.0,1500
10.61594295501709,501,187,85,0.005263157894736842,1502.7,1520,1280.0,1500
10.637454986572266,502,187,85,0.005263157894736842,1502.7,1520,1280.0,1500
10.658948183059692,503,187,85,0.005263157894736842,1502.7,1520,1280.0,1500
10.680430173873901,504,187,85,0.004784688995215311,1502.7,1520,1280.0,1500
10.701909065246582,505,187,85,0.004784688995215311,1502.7,1520,1280.0,1500
10.723404169082642,506,187,85,0.004784688995215311,1502.7,1520,1280.0,1500
10.744871139526367,507,187,85,0.004784688995215311,1502.7,1520,1280.0,1500
10.76645803451538,508,187,85,0.004784688995215311,1502.7,1520,1280.0,1500
10.787939071655273,509,187,85,0.004784688995215311,1502.7,1520,1280.0,1500
10.809416055679321,510,187,85,0.004784688995215311,1502.7,1520,1280.0,1500
10.830901145935059,511,187,85,0.005263157894736842,1502.7,1520,1280.0,1500
10.85239315032959,512,187,85,0.005263157894736842,1502.7,1520,1280.0,1500
10.873888969421387,513,187,85,0.005263157894736842,1502.7,1520,1280.0,1500
10.89536714553833,514,188,85,0.004784688995215311,1502.8,1520,1280.0,1500
10.916875123977661,515,187,85,0.004784688995215311,1502.7,1520,1280.0,1500
10.938379049301147,516,187,85,0.004784688995215311,1502.7,1520,1280.0,1500
10.959856033325195,517,187,85,0.005263157894736842,1502.7,1520,1280.0,1500
10.981325149536133,518,187,85,0.005263157894736842,1502.7,1520,1280.0,1500
11.002784967422485,519,187,85,0.005263157894736842,1502.7,1520,1280.0,1500
11.024298191070557,520,187,85,0.004784688995215311,1502.7,1520,1280.0,1500
11.04596209526062,521,187,85,0.005263157894736842,1502.7,1520,1280.0,1500
11.067483186721802,522,187,85,0.004784688995215311,1502.7,1520,1280.0,1500
11.08896803855896,523,187,85,0.004784688995215311,1502.7,1520,1280.0,1500
11.110460042953491,524,187,85,0.005263157894736842,1502.7,1520,1280.0,1500
11.13198709487915,525,187,85,0.004784688995215311,1502.7,1520,1280.0,1500
11.15346908569336,526,187,85,0.004784688995215311,1502.7,1520,1280.0,1500
11.174952030181885,527,187,85,0.004784688995215311,1502.7,1520,1280.0,1500
11.196591138839722,528,187,85,0.005263157894736842,1502.7,1520,1280.0,1500
11.21809697151184,529,187,85,0.005263157894736842,1502.7,1520,1280.0,1500
11.23957896232605,530,187,85,0.004784688995215311,1502.7,1520,1280.0,1500
11.261047124862671,531,187,85,0.005263157894736842,1502.7,1520,1280.0,1500
11.282519102096558,532,187,85,0.004784688995215311,1502.7,1520,1280.0,1500
11.304013013839722,533,187,85,0.004784688995215311,1502.7,1520,1280.0,1500
11.325491189956665,534,187,84,0.0053475935828877,1502.7,1520,1282.0,1500
11.346955060958862,535,187,85,0.004784688995215311,1502.7,1520,1280.0,1500
11.368438959121704,536,187,85,0.004784688995215311,1502.7,1520,1280.0,1500
11.389908075332642,537,187,85,0.004784688995215311,1502.7,1520,1280.0,1500
11.411386013031006,538,187,85,0.005263157894736842,1502.7,1520,1280.0,1500
11.432857036590576,539,187,85,0.005263157894736842,1502.7,1520,1280.0,1500
11.45431900024414,540,187,85,0.004784688995215311,1502.7,1520,1280.0,1500
11.47577714920044,541,187,85,0.005847953216374269,1502.7,1520,1280.0,1500
11.497244119644165,542,188,85,0.006578947368421052,1502.8,1520,1280.0,1500
11.518710136413574,543,187,85,0.004784688995215311,1502.7,1520,1280.0,1500
11.540441989898682,544,187,85,0.004784688995215311,1502.7,1520,1280.0,1500
11.561939001083374,545,187,85,0.004784688995215311,1502.7,1520,1280.0,1500
11.583433151245117,546,187,85,0.005263157894736842,1502.7,1520,1280.0,1500
11.604957103729248,547,187,85,0.004784688995215311,1502.7,1520,1280.0,1500
11.626566171646118,548,187,85,0.004784688995215311,1502.7,1520,1280.0,1500
11.648070096969604,549,187,85,0.004784688995215311,1502.7,1520,1280.0,1500
11.669562101364136,550,187,85,0.004784688995215311,1502.7,1520,1280.0,1500
11.691030979156494,551,187,85,0.004784688995215311,1502.7,1520,1280.0,1500
11.71250605583191,552,187,85,0.004784688995215311,1502.7,1520,1280.0,1500
11.733976125717163,553,187,85,0.004784688995215311,1502.7,1520,1280.0,1500
11.755457162857056,554,187,85,0.004784688995215311,1502.7,1520,1280.0,1500
11.776939153671265,555,187,85,0.005263157894736842,1502.7,1520,1280.0,1500
11.798412084579468,556,187,85,0.005263157894736842,1502.7,1520,1280.0,1500
11.819894075393677,557,187,85,0.004784688995215311,1502.7,1520,1280.0,1500
11.841367959976196,558,187,85,0.005263157894736842,1502.7,1520,1280.0,1500
11.862843990325928,559,187,85,0.005263157894736842,1502.7,1520,1280.0,1500
11.884325981140137,560,187,85,0.0043859649122807015,1502.7,1518.859649122807,1280.0,1500
11.905864000320435,561,188,85,0.004784688995215311,1502.8,1520,1280.0,1500
11.92735505104065,562,187,85,0.0043859649122807015,1502.7,1518.859649122807,1280.0,1500
11.948898077011108,563,187,85,0.005263157894736842,1502.7,1520,1280.0,1500
11.970365047454834,564,187,85,0.004784688995215311,1502.7,1520,1280.0,1500
11.991827964782715,565,187,85,0.004784688995215311,1502.7,1520,1280.0,1500
12.01330304145813,566,187,85,0.005263157894736842,1502.7,1520,1280.0,1500
12.034809112548828,567,187,85,0.004784688995215311,1502.7,1520,1280.0,1500
12.056392192840576,568,187,85,0.004784688995215311,1502.7,1520,1280.0,1500
12.077876091003418,569,187,85,0.004784688995215311,1502.7,1520,1280.0,1500
12.099358081817627,570,187,85,0.005263157894736842,1502.7,1520,1280.0,1500
12.120896100997925,571,187,85,0.004784688995215311,1502.7,1520,1280.0,1500
12.14237904548645,572,187,85,0.004784688995215311,1502.7,1520,1280.0,1500
12.163870096206665,573,187,85,0.005263157894736842,1502.7,1520,1280.0,1500
12.18536901473999,574,187,85,0.004784688995215311,1502.7,1520,1280.0,1500
12.2068510055542,575,187,85,0.004784688995215311,1502.7,1520,1280.0,1500
12.228334188461304,576,187,85,0.0043859649122807015,1502.7,1518.859649122807,1280.0,1500
12.24989914894104,577,187,85,0.005263157894736842,1502.7,1520,1280.0,1500
12.27137804031372,578,187,85,0.005263157894736842,1502.7,1520,1280.0,1500
12.292850971221924,579,187,85,0.004784688995215311,1502.7,1520,1280.0,1500
12.31434416770935,580,187,85,0.004784688995215311,1502.7,1520,1280.0,1500
12.335817098617554,581,187,85,0.005263157894736842,1502.7,1520,1280.0,1500
12.357285022735596,582,187,85,0.004784688995215311,1502.7,1520,1280.0,1500
12.378767013549805,583,187,85,0.005263157894736842,1502.7,1520,1280.0,1500
12.400254011154175,584,187,85,0.005263157894736842,1502.7,1520,1280.0,1500
12.421768188476562,585,188,85,0.006578947368421052,1502.8,1520,1280.0,1500
12.443298101425171,586,187,85,0.004784688995215311,1502.7,1520,1280.0,1500
12.465389013290405,587,187,85,0.004784688995215311,1502.7,1520,1280.0,1500
12.487010955810547,588,187,85,0.004784688995215311,1502.7,1520,1280.0,1500
12.5085129737854,589,187,85,0.0043859649122807015,1502.7,1518.859649122807,1280.0,1500
12.530078172683716,590,187,85,0.004784688995215311,1502.7,1520,1280.0,1500
12.551553964614868,591,188,85,0.004048582995951417,1502.8,1515.4858299595141,1280.0,1500
12.573135137557983,592,187,85,0.004784688995215311,1502.7,1520,1280.0,1500
12.59460711479187,593,187,85,0.005263157894736842,1502.7,1520,1280.0,1500
12.616250991821289,594,187,85,0.004784688995215311,1502.7,1520,1280.0,1500
12.637755155563354,595,187,85,0.004784688995215311,1502.7,1520,1280.0,1500
12.659239053726196,596,187,85,0.005263157894736842,1502.7,1520,1280.0,1500
12.681023120880127,597,187,85,0.004784688995215311,1502.7,1520,1280.0,1500
12.702531099319458,598,187,85,0.005263157894736842,1502.7,1520,1280.0,1500
12.724020004272461,599,187,85,0.005263157894736842,1502.7,1520,1280.0,1500
12.745493173599243,600,187,85,0.004784688995215311,1502.7,1520,1280.0,1500
12.766968011856079,601,187,85,0.005263157894736842,1502.7,1520,1280.0,1500
12.788438081741333,602,187,85,0.004784688995215311,1502.7,1520,1280.0,1500
12.809909105300903,603,187,85,0.004784688995215311,1502.7,1520,1280.0,1500
12.831393003463745,604,187,85,0.004784688995215311,1502.7,1520,1280.0,1500
12.852862119674683,605,187,85,0.004784688995215311,1502.7,1520,1280.0,1500
12.874344110488892,606,187,85,0.004784688995215311,1502.7,1520,1280.0,1500
12.895811080932617,607,187,85,0.004784688995215311,1502.7,1520,1280.0,1500
12.917294025421143,608,187,85,0.005263157894736842,1502.7,1520,1280.0,1500
12.938764095306396,609,187,85,0.004784688995215311,1502.7,1520,1280.0,1500
12.960227966308594,610,187,85,0.005263157894736842,1502.7,1520,1280.0,1500
12.98170018196106,611,187,85,0.004784688995215311,1502.7,1520,1280.0,1500
13.003178119659424,612,187,85,0.005263157894736842,1502.7,1520,1280.0,1500
13.024660110473633,613,187,85,0.004784688995215311,1502.7,1520,1280.0,1500
13.046272039413452,614,187,85,0.004784688995215311,1502.7,1520,1280.0,1500
13.067770004272461,615,187,85,0.004784688995215311,1502.7,1520,1280.0,1500
13.089241981506348,616,187,85,0.0043859649122807015,1502.7,1518.859649122807,1280.0,1500
13.110789060592651,617,187,85,0.004784688995215311,1502.7,1520,1280.0,1500
13.132323026657104,618,187,85,0.004784688995215311,1502.7,1520,1280.0,1500
13.153815984725952,619,186,85,0.005263157894736842,1502.6,1520,1280.0,1500
13.175305128097534,620,187,85,0.004784688995215311,1502.7,1520,1280.0,1500
13.196808099746704,621,187,84,0.005050505050505051,1502.7,1520,1282.0,1500
13.218295097351074,622,187,85,0.004784688995215311,1502.7,1520,1280.0,1500
13.23977518081665,623,187,85,0.004784688995215311,1502.7,1520,1280.0,1500
13.261244058609009,624,187,85,0.005263157894736842,1502.7,1520,1280.0,1500
13.282718181610107,625,187,85,0.004784688995215311,1502.7,1520,1280.0,1500
13.3042151927948,626,187,85,0.005263157894736842,1502.7,1520,1280.0,1500
13.325687170028687,627,187,85,0.004784688995215311,1502.7,1520,1280.0,1500
13.347162961959839,628,187,85,0.005263157894736842,1502.7,1520,1280.0,1500
13.368648052215576,629,187,85,0.004784688995215311,1502.7,1520,1280.0,1500
13.390117168426514,630,187,85,0.005263157894736842,1502.7,1520,1280.0,1500
13.411612033843994,631,187,85,0.004784688995215311,1502.7,1520,1280.0,1500
13.43308401107788,632,186,85,0.005263157894736842,1502.6,1520,1280.0,1500
13.454540014266968,633,187,85,0.004784688995215311,1502.7,1520,1280.0,1500
13.475996971130371,634,187,85,0.004784688995215311,1502.7,1520,1280.0,1500
13.497459173202515,635,187,85,0.004784688995215311,1502.7,1520,1280.0,1500
13.518941164016724,636,187,85,0.004784688995215311,1502.7,1520,1280.0,1500
13.540405035018921,637,187,85,0.004784688995215311,1502.7,1520,1280.0,1500
13.56188702583313,638,187,85,0.005263157894736842,1502.7,1520,1280.0,1500
13.583379030227661,639,187,85,0.005263157894736842,1502.7,1520,1280.0,1500
13.604855060577393,640,187,85,0.004784688995215311,1502.7,1520,1280.0,1500
13.626473188400269,641,187,85,0.005263157894736842,1502.7,1520,1280.0,1500
13.647960186004639,642,187,85,0.0043859649122807015,1502.7,1518.859649122807,1280.0,1500
13.669507026672363,643,187,85,0.004784688995215311,1502.7,1520,1280.0,1500
13.690968036651611,644,187,85,0.004784688995215311,1502.7,1520,1280.0,1500
13.712432146072388,645,187,85,0.004784688995215311,1502.7,1520,1280.0,1500
13.733930110931396,646,187,85,0.004784688995215311,1502.7,1520,1280.0,1500
13.755405187606812,647,186,85,0.005263157894736842,1502.6,1520,1280.0,1500
13.77688717842102,648,187,85,0.004784688995215311,1502.7,1520,1280.0,1500
13.798359155654907,649,188,85,0.007518796992481203,1502.8,1520,1280.0,1500
13.819831132888794,650,187,85,0.005263157894736842,1502.7,1520,1280.0,1500
13.84158706665039,651,187,85,0.004784688995215311,1502.7,1520,1280.0,1500
13.863080024719238,652,187,85,0.005263157894736842,1502.7,1520,1280.0,1500
13.884557962417603,653,187,85,0.004784688995215311,1502.7,1520,1280.0,1500
13.906093120574951,654,187,85,0.005263157894736842,1502.7,1520,1280.0,1500
13.927603960037231,655,187,85,0.004784688995215311,1502.7,1520,1280.0,1500
13.949081182479858,656,187,85,0.004784688995215311,1502.7,1520,1280.0,1500
13.970580101013184,657,186,85,0.005263157894736842,1502.6,1520,1280.0,1500
13.992079973220825,658,187,85,0.004784688995215311,1502.7,1520,1280.0,1500
14.013585090637207,659,187,85,0.005263157894736842,1502.7,1520,1280.0,1500
14.035133123397827,660,187,85,0.005263157894736842,1502.7,1520,1280.0,1500
14.056671142578125,661,187,85,0.005263157894736842,1502.7,1520,1280.0,1500
14.078152179718018,662,187,85,0.005263157894736842,1502.7,1520,1280.0,1500
14.099655151367188,663,186,85,0.005263157894736842,1502.6,1520,1280.0,1500
14.121178150177002,664,187,85,0.005263157894736842,1502.7,1520,1280.0,1500
14.142659187316895,665,187,85,0.005263157894736842,1502.7,1520,1280.0,1500
14.164141178131104,666,187,85,0.004784688995215311,1502.7,1520,1280.0,1500
14.1856529712677,667,188,85,0.004048582995951417,1502.8,1515.4858299595141,1280.0,1500
14.207231044769287,668,187,85,0.005263157894736842,1502.7,1520,1280.0,1500
14.228718996047974,669,187,85,0.005263157894736842,1502.7,1520,1280.0,1500
14.25019907951355,670,188,85,0.008771929824561403,1502.8,1520,1280.0,1500
14.271667003631592,671,187,85,0.004784688995215311,1502.7,1520,1280.0,1500
14.293138980865479,672,187,85,0.004784688995215311,1502.7,1520,1280.0,1500
14.314655065536499,673,187,85,0.005263157894736842,1502.7,1520,1280.0,1500
14.336275100708008,674,188,85,0.004784688995215311,1502.8,1520,1280.0,1500
14.357779026031494,675,187,85,0.004784688995215311,1502.7,1520,1280.0,1500
14.379316091537476,676,187,85,0.004784688995215311,1502.7,1520,1280.0,1500
14.4008150100708,677,187,85,0.005263157894736842,1502.7,1520,1280.0,1500
14.422291994094849,678,187,85,0.005263157894736842,1502.7,1520,1280.0,1500
14.443773984909058,679,187,85,0.004784688995215311,1502.7,1520,1280.0,1500
14.465296030044556,680,187,85,0.004784688995215311,1502.7,1520,1280.0,1500
14.48682713508606,681,186,85,0.005263157894736842,1502.6,1520,1280.0,1500
14.508293151855469,682,187,85,0.005263157894736842,1502.7,1520,1280.0,1500
14.529771089553833,683,187,85,0.004784688995215311,1502.7,1520,1280.0,1500
14.551239013671875,684,187,85,0.005263157894736842,1502.7,1520,1280.0,1500
14.572718143463135,685,187,85,0.004784688995215311,1502.7,1520,1280.0,1500
14.594190120697021,686,187,85,0.004784688995215311,1502.7,1520,1280.0,1500
14.615661144256592,687,187,85,0.004784688995215311,1502.7,1520,1280.0,1500
14.637156963348389,688,187,85,0.005263157894736842,1502.7,1520,1280.0,1500
14.658626079559326,689,187,85,0.004784688995215311,1502.7,1520,1280.0,1500
14.680091142654419,690,187,85,0.004784688995215311,1502.7,1520,1280.0,1500
14.701555967330933,691,187,85,0.004784688995215311,1502.7,1520,1280.0,1500
14.72303318977356,692,187,85,0.005263157894736842,1502.7,1520,1280.0,1500
14.74449110031128,693,187,85,0.005263157894736842,1502.7,1520,1280.0,1500
14.76595401763916,694,187,85,0.004784688995215311,1502.7,1520,1280.0,1500
14.787430047988892,695,188,85,0.007518796992481203,1502.8,1520,1280.0,1500
14.808897972106934,696,187,85,0.004784688995215311,1502.7,1520,1280.0,1500
14.830379009246826,697,187,85,0.004784688995215311,1502.7,1520,1280.0,1500
14.851855039596558,698,187,85,0.005263157894736842,1502.7,1520,1280.0,1500
14.873341083526611,699,187,85,0.004784688995215311,1502.7,1520,1280.0,1500
14.894801139831543,700,187,85,0.004784688995215311,1502.7,1520,1280.0,1500
14.916654109954834,701,187,88,0.006993006993006993,1502.7,1520,1274.0,1500
14.93818211555481,702,186,85,0.005263157894736842,1502.6,1520,1280.0,1500
14.959704160690308,703,187,85,0.004784688995215311,1502.7,1520,1280.0,1500
14.981214046478271,704,187,85,0.005263157894736842,1502.7,1520,1280.0,1500
15.003223180770874,705,187,85,0.004784688995215311,1502.7,1520,1280.0,1500
15.025134086608887,706,187,85,0.004784688995215311,1502.7,1520,1280.0,1500
15.04692816734314,707,187,85,0.004784688995215311,1502.7,1520,1280.0,1500
15.068648099899292,708,187,85,0.004784688995215311,1502.7,1520,1280.0,1500
15.090366125106812,709,187,85,0.004784688995215311,1502.7,1520,1280.0,1500
15.112099170684814,710,187,85,0.004784688995215311,1502.7,1520,1280.0,1500
15.133860111236572,711,187,85,0.004784688995215311,1502.7,1520,1280.0,1500
15.155660152435303,712,187,85,0.004784688995215311,1502.7,1520,1280.0,1500
15.177390098571777,713,187,85,0.004784688995215311,1502.7,1520,1280.0,1500
15.199156999588013,714,187,85,0.004784688995215311,1502.7,1520,1280.0,1500
15.220895051956177,715,187,85,0.004784688995215311,1502.7,1520,1280.0,1500
15.242621183395386,716,187,85,0.005263157894736842,1502.7,1520,1280.0,1500
15.264409065246582,717,187,85,0.004784688995215311,1502.7,1520,1280.0,1500
15.286341190338135,718,187,85,0.004784688995215311,1502.7,1520,1280.0,1500
15.308107137680054,719,187,85,0.004784688995215311,1502.7,1520,1280.0,1500
15.32986307144165,720,187,85,0.004784688995215311,1502.7,1520,1280.0,1500
15.351591110229492,721,187,85,0.005263157894736842,1502.7,1520,1280.0,1500
15.373322010040283,722,187,85,0.005263157894736842,1502.7,1520,1280.0,1500
15.395212173461914,723,187,85,0.004784688995215311,1502.7,1520,1280.0,1500
15.417042016983032,724,187,85,0.004784688995215311,1502.7,1520,1280.0,1500
15.438769102096558,725,187,85,0.004784688995215311,1502.7,1520,1280.0,1500
15.460505962371826,726,187,85,0.004784688995215311,1502.7,1520,1280.0,1500
15.482234001159668,727,187,85,0.004784688995215311,1502.7,1520,1280.0,1500
15.504034042358398,728,187,85,0.004784688995215311,1502.7,1520,1280.0,1500
15.525776147842407,729,187,85,0.004784688995215311,1502.7,1520,1280.0,1500
15.54751205444336,730,187,85,0.005263157894736842,1502.7,1520,1280.0,1500
15.569240093231201,731,187,85,0.004784688995215311,1502.7,1520,1280.0,1500
15.590963125228882,732,187,85,0.0043859649122807015,1502.7,1518.859649122807,1280.0,1500
15.612751960754395,733,187,85,0.004784688995215311,1502.7,1520,1280.0,1500
15.634557008743286,734,187,85,0.004784688995215311,1502.7,1520,1280.0,1500
15.6564040184021,735,187,85,0.004784688995215311,1502.7,1520,1280.0,1500
15.678138017654419,736,187,85,0.004784688995215311,1502.7,1520,1280.0,1500
15.6998770236969,737,187,85,0.004784688995215311,1502.7,1520,1280.0,1500
15.721621990203857,738,187,85,0.005263157894736842,1502.7,1520,1280.0,1500
15.7433500289917,739,187,85,0.005263157894736842,1502.7,1520,1280.0,1500
15.765177965164185,740,187,85,0.004784688995215311,1502.7,1520,1280.0,1500
15.786956071853638,741,187,85,0.004784688995215311,1502.7,1520,1280.0,1500
15.808694124221802,742,187,85,0.004784688995215311,1502.7,1520,1280.0,1500
15.830442190170288,743,187,85,0.005263157894736842,1502.7,1520,1280.0,1500
15.852167129516602,744,187,85,0.004784688995215311,1502.7,1520,1280.0,1500
15.873913049697876,745,187,85,0.005263157894736842,1502.7,1520,1280.0,1500
15.895698070526123,746,187,85,0.004784688995215311,1502.7,1520,1280.0,1500
15.917445182800293,747,187,85,0.004784688995215311,1502.7,1520,1280.0,1500
15.9391770362854,748,187,85,0.004784688995215311,1502.7,1520,1280.0,1500
15.960898160934448,749,187,85,0.004784688995215311,1502.7,1520,1280.0,1500
15.982619047164917,750,187,85,0.004784688995215311,1502.7,1520,1280.0,1500
16.00440502166748,751,187,85,0.005263157894736842,1502.7,1520,1280.0,1500
16.026302099227905,752,187,85,0.004784688995215311,1502.7,1520,1280.0,1500
16.04806900024414,753,188,85,0.004784688995215311,1502.8,1520,1280.0,1500
16.069812059402466,754,187,85,0.004784688995215311,1502.7,1520,1280.0,1500
16.091541051864624,755,187,85,0.004784688995215311,1502.7,1520,1280.0,1500
16.113269090652466,756,187,85,0.004784688995215311,1502.7,1520,1280.0,1500
16.135157108306885,757,187,85,0.004784688995215311,1502.7,1520,1280.0,1500
16.156936168670654,758,187,85,0.0043859649122807015,1502.7,1518.859649122807,1280.0,1500
16.17900800704956,759,187,85,0.005263157894736842,1502.7,1520,1280.0,1500
16.200814962387085,760,187,85,0.004784688995215311,1502.7,1520,1280.0,1500
16.222548007965088,761,188,85,0.006578947368421052,1502.8,1520,1280.0,1500
16.244356155395508,762,187,85,0.005263157894736842,1502.7,1520,1280.0,1500
16.26608109474182,763,187,85,0.005263157894736842,1502.7,1520,1280.0,1500
16.287594079971313,764,187,85,0.004784688995215311,1502.7,1520,1280.0,1500
16.30911612510681,765,187,85,0.004784688995215311,1502.7,1520,1280.0,1500
16.33060598373413,766,187,85,0.005263157894736842,1502.7,1520,1280.0,1500
16.352087020874023,767,187,85,0.004784688995215311,1502.7,1520,1280.0,1500
16.37357807159424,768,187,85,0.004784688995215311,1502.7,1520,1280.0,1500
16.395135164260864,769,187,85,0.004784688995215311,1502.7,1520,1280.0,1500
16.416743993759155,770,187,85,0.004784688995215311,1502.7,1520,1280.0,1500
16.438239097595215,771,187,85,0.004784688995215311,1502.7,1520,1280.0,1500
16.459712982177734,772,187,85,0.005263157894736842,1502.7,1520,1280.0,1500
16.481175184249878,773,187,85,0.004784688995215311,1502.7,1520,1280.0,1500
16.502642154693604,774,187,85,0.005263157894736842,1502.7,1520,1280.0,1500
16.524126052856445,775,187,85,0.005263157894736842,1502.7,1520,1280.0,1500
16.545607089996338,776,187,85,0.004784688995215311,1502.7,1520,1280.0,1500
16.56707501411438,777,187,85,0.004784688995215311,1502.7,1520,1280.0,1500
16.588543176651,778,187,85,0.004784688995215311,1502.7,1520,1280.0,1500
16.61000418663025,779,187,85,0.004784688995215311,1502.7,1520,1280.0,1500
16.631493091583252,780,187,85,0.004784688995215311,1502.7,1520,1280.0,1500
16.652956008911133,781,187,85,0.004784688995215311,1502.7,1520,1280.0,1500
16.67442297935486,782,187,85,0.004784688995215311,1502.7,1520,1280.0,1500
16.695894956588745,783,187,85,0.005263157894736842,1502.7,1520,1280.0,1500
16.717380046844482,784,187,85,0.004784688995215311,1502.7,1520,1280.0,1500
16.738856077194214,785,187,85,0.004784688995215311,1502.7,1520,1280.0,1500
16.760324001312256,786,187,85,0.005263157894736842,1502.7,1520,1280.0,1500
16.781800031661987,787,187,85,0.005263157894736842,1502.7,1520,1280.0,1500
16.803266048431396,788,187,85,0.005263157894736842,1502.7,1520,1280.0,1500
16.824737071990967,789,187,85,0.004784688995215311,1502.7,1520,1280.0,1500
16.846312999725342,790,187,85,0.005263157894736842,1502.7,1520,1280.0,1500
16.867805004119873,791,187,85,0.005263157894736842,1502.7,1520,1280.0,1500
