time,frame,x,y,size_inv,roll,pitch,thrust,yaw
0.00035309791564941406,1,213,29,0.00019219680953296174,1505.3,1480,1300,1500
0.022449016571044922,2,171,24,0.0006666666666666666,1501.1,1481.6666666666667,1300,1500
0.04420304298400879,3,199,27,0.0001443001443001443,1503.9,1480,1300,1500
0.06584405899047852,4,187,24,0.00014925373134328358,1502.7,1480,1300,1500
0.08770298957824707,5,181,22,0.00016223231667748214,1502.1,1480,1300,1500
0.10934615135192871,6,174,23,0.00015530361857431278,1501.4,1480,1300,1500
0.1309499740600586,7,166,24,0.00014473874656245476,1500.6,1480,1300,1500
0.15255117416381836,8,159,24,0.00014705882352941175,1499.9,1480,1300,1500
0.17417216300964355,9,152,27,0.00012939958592132506,1499.2,1480,1300,1500
0.19578814506530762,10,143,29,0.00013241525423728814,1498.3,1480,1300,1500
0.21757006645202637,11,146,30,0.00011793843613633684,1498.6,1480,1300,1500
0.23942804336547852,12,131,34,0.0001238696890870804,1497.1,1480,1300,1500
0.2610759735107422,13,138,34,0.0001124859392575928,1497.8,1480,1300,1500
0.28269100189208984,14,121,44,0.00021958717610891525,1496.1,1480,1300,1500
0.3043391704559326,15,123,49,0.000196078431372549,1496.3,1480,1300,1500
0.3259460926055908,16,136,35,0.00012575452716297788,1497.6,1480,1300,1500
0.3476409912109375,17,140,34,0.0001221001221001221,1498.0,1480,1300,1500
0.3692331314086914,18,141,34,0.00012531328320802005,1498.1,1480,1300,1500
0.39086008071899414,19,148,36,0.00012422360248447205,1498.8,1480,1300,1500
0.41250014305114746,20,148,34,0.0001414027149321267,1498.8,1480,1300,1500
0.434128999710083,21,152,42,0.00015812776723592663,1499.2,1480,1300,1500
0.45572495460510254,22,157,43,0.00015001500150015003,1499.7,1480,1300,1500
0.4774620532989502,23,164,45,0.00015812776723592663,1500.4,1480,1300,1500
0.49908900260925293,24,174,48,0.00032562683165092806,1501.4,1480,1300,1500
0.5207080841064453,25,172,51,0.0005446623093681918,1501.2,1480.4466230936819,1300,1500
0.5424129962921143,26,181,49,0.005376344086021506,1502.1,1520,1300,1500
0.5640041828155518,27,199,69,0.00625,1503.9,1520,1300,1500
0.585576057434082,28,201,68,0.009259259259259259,1504.1,1520,1300,1500
0.6073169708251953,29,243,82,0.0125,1508.3,1520,1286.0,1500
0.6289629936218262,30,294,75,0.011363636363636364,1513.4,1520,1300.0,1500
0.6506321430206299,31,224,82,0.011111111111111112,1506.4,1520,1286.0,1500
0.6723191738128662,32,256,91,0.011363636363636364,1509.6,1520,1268.0,1500
0.6939971446990967,33,259,96,0.047619047619047616,1509.9,1520,1258.0,1500
0.7156341075897217,34,263,100,0.0078125,1510.3,1520,1250.0,1500
0.7374091148376465,35,265,103,0.006944444444444444,1510.5,1520,1244.0,1500
0.7590889930725098,36,308,96,0.0032679738562091504,1514.8,1507.6797385620914,1258.0,1500
0.7808690071105957,37,266,107,0.0028735632183908046,1510.6,1503.7356321839081,1236.0,1500
0.8026731014251709,38,302,92,0.000693000693000693,1514.2,1481.930006930007,1266.0,1500
0.8244409561157227,39,304,94,0.0008960573476702509,1514.4,1483.9605734767024,1262.0,1500
0.8462731838226318,40,275,84,0.00015605493133583021,1511.5,1480,1282.0,1500
0.8679521083831787,41,272,86,0.00014184397163120567,1511.2,1480,1278.0,1500
0.889625072479248,42,267,78,0.00010240655401945725,1510.7,1480,1294.0,1500
0.911283016204834,43,265,77,0.00010308215647871353,1510.5,1480,1296.0,1500
0.9329590797424316,44,262,64,8.620689655172413e-05,1510.2,1480,1300,1500
0.9546420574188232,45,258,63,7.324397568300007e-05,1509.8,1480,1300,1500
0.9762780666351318,46,255,59,6.510416666666667e-05,1509.5,1480,1300,1500
0.9979369640350342,47,252,56,6.60414740457007e-05,1509.2,1480,1300,1500
1.0195791721343994,48,247,59,6.002400960384154e-05,1508.7,1480,1300,1500
1.0412161350250244,49,238,56,5.847953216374269e-05,1507.8,1480,1300,1500
1.0628480911254883,50,232,54,5.918910920390648e-05,1507.2,1480,1300,1500
1.0845091342926025,51,225,54,5.8275058275058275e-05,1506.5,1480,1300,1500
1.1062240600585938,52,216,54,5.509641873278237e-05,1505.6,1480,1300,1500
1.1279430389404297,53,198,59,4.801920768307323e-05,1503.8,1480,1300,1500
1.149554967880249,54,192,64,4.777146132900205e-05,1503.2,1480,1300,1500
1.1714980602264404,55,185,72,4.645760743321719e-05,1502.5,1480,1300,1500
1.193160057067871,56,178,78,4.8449612403100775e-05,1501.8,1480,1294.0,1500
1.21486496925354,57,170,80,5.8011370228564796e-05,1501.0,1480,1290.0,1500
1.2365200519561768,58,165,93,6.526563111865292e-05,1500.5,1480,1264.0,1500
1.2582111358642578,59,155,86,9.213193292795283e-05,1499.5,1480,1278.0,1500
1.279891014099121,60,142,93,0.0001044932079414838,1498.2,1480,1264.0,1500
1.3015480041503906,61,108,84,0.0010416666666666667,1494.8,1485.4166666666667,1282.0,1500
1.3233001232147217,62,143,107,0.0005952380952380953,1498.3,1480.952380952381,1236.0,1500
1.3450510501861572,63,103,88,0.0008818342151675485,1494.3,1483.8183421516756,1274.0,1500
1.3668131828308105,64,150,104,0.00117096018735363,1499.0,1486.7096018735363,1242.0,1500
1.388580083847046,65,173,104,0.0013986013986013986,1501.3,1488.986013986014,1242.0,1500
1.4103450775146484,66,134,97,0.0006097560975609756,1497.4,1481.0975609756097,1256.0,1500
1.4321191310882568,67,148,117,9.018759018759019e-05,1498.8,1480,1216.0,1500
1.453827142715454,68,154,108,7.483349547257353e-05,1499.4,1480,1234.0,1500
1.4755170345306396,69,158,99,7.483349547257353e-05,1499.8,1480,1252.0,1500
1.4973161220550537,70,168,88,6.037189084762135e-05,1500.8,1480,1274.0,1500
1.5190200805664062,71,174,84,5.402193290475933e-05,1501.4,1480,1282.0,1500
1.540693998336792,72,180,77,5.497526113249038e-05,1502.0,1480,1296.0,1500
1.562364101409912,73,187,71,4.940467368213033e-05,1502.7,1480,1300,1500
1.5839619636535645,74,192,64,5.0704796673765336e-05,1503.2,1480,1300,1500
1.6056430339813232,75,198,59,4.8449612403100775e-05,1503.8,1480,1300,1500
1.6273860931396484,76,206,56,5.2056220718375845e-05,1504.6,1480,1300,1500
1.6489880084991455,77,212,52,5.7372346528973036e-05,1505.2,1480,1300,1500
1.6706149578094482,78,220,47,6.390593047034765e-05,1506.0,1480,1300,1500
1.6922330856323242,79,228,54,7.463800567248842e-05,1506.8,1480,1300,1500
1.7138550281524658,80,236,55,8.503401360544217e-05,1507.6,1480,1300,1500
1.7354621887207031,81,300,78,0.0014992503748125937,1514.0,1489.992503748126,1294.0,1500
1.7573320865631104,82,303,85,0.004784688995215311,1514.3,1520,1280.0,1500
1.7789971828460693,83,259,83,0.007936507936507936,1509.9,1520,1284.0,1500
1.8006811141967773,84,262,82,0.004629629629629629,1510.2,1520,1286.0,1500
1.8223450183868408,85,266,86,0.015625,1510.6,1520,1278.0,1500
1.8439850807189941,86,269,83,0.009259259259259259,1510.9,1520,1284.0,1500
1.8656110763549805,87,272,85,0.014285714285714285,1511.2,1520,1280.0,1500
1.8875491619110107,88,312,93,0.008333333333333333,1515.2,1520,1264.0,1500
1.9094560146331787,89,277,94,0.00625,1511.7,1520,1262.0,1500
1.9311351776123047,90,279,93,0.003952569169960474,1511.9,1514.5256916996047,1264.0,1500
1.9529311656951904,91,280,96,0.008547008547008548,1512.0,1520,1258.0,1500
1.9745700359344482,92,280,97,0.004329004329004329,1512.0,1518.2900432900433,1256.0,1500
1.9963090419769287,93,280,100,0.005263157894736842,1512.0,1520,1250.0,1500
2.0179641246795654,94,280,103,0.004132231404958678,1512.0,1516.3223140495868,1244.0,1500
2.0397610664367676,95,279,108,0.004166666666666667,1511.9,1516.6666666666667,1234.0,1500
2.061659097671509,96,277,109,0.004545454545454545,1511.7,1520,1232.0,1500
2.0833280086517334,97,276,118,0.002688172043010753,1511.6,1501.8817204301076,1214.0,1500
2.1051900386810303,98,312,116,0.0017825311942959,1515.2,1492.825311942959,1218.0,1500
2.126965045928955,99,304,115,0.0008960573476702509,1514.4,1483.9605734767024,1220.0,1500
2.1487619876861572,100,277,119,0.0002063983488132095,1511.7,1480,1212.0,1500
2.170474052429199,101,273,117,0.00014729709824716454,1511.3,1480,1216.0,1500
2.1921651363372803,102,269,119,0.00010761945759793371,1510.9,1480,1212.0,1500
2.2138590812683105,103,264,119,8.576329331046312e-05,1510.4,1480,1212.0,1500
2.23553204536438,104,262,115,6.587615283267457e-05,1510.2,1480,1220.0,1500
2.2573859691619873,105,260,121,6.378364587319811e-05,1510.0,1480,1208.0,1500
2.279078960418701,106,252,121,7.124536905101169e-05,1509.2,1480,1208.0,1500
2.30110502243042,107,247,122,6.616819956328988e-05,1508.7,1480,1206.0,1500
2.3228249549865723,108,246,129,6.200396825396825e-05,1508.6,1480,1200,1500
2.344478130340576,109,238,128,6.892748828232699e-05,1507.8,1480,1200,1500
2.3662521839141846,110,235,129,6.507451031430989e-05,1507.5,1480,1200,1500
2.388087034225464,111,228,129,7.127583749109053e-05,1506.8,1480,1200,1500
2.409759998321533,112,229,132,5.9780009564801534e-05,1506.9,1480,1200,1500
2.431421995162964,113,223,129,6.755387421468622e-05,1506.3,1480,1200,1500
2.4530580043792725,114,220,119,7.002801120448179e-05,1506.0,1480,1212.0,1500
2.4747731685638428,115,216,116,6.936736958934517e-05,1505.6,1480,1218.0,1500
2.496483087539673,116,217,118,5.5172413793103446e-05,1505.7,1480,1214.0,1500
2.518153190612793,117,214,112,5.904581955597544e-05,1505.4,1480,1226.0,1500
2.5398521423339844,118,210,105,5.698005698005698e-05,1505.0,1480,1240.0,1500
2.5615341663360596,119,207,99,5.824790307548928e-05,1504.7,1480,1252.0,1500
2.5832061767578125,120,206,93,6.006006006006006e-05,1504.6,1480,1264.0,1500
2.6049351692199707,121,208,87,6.551362683438155e-05,1504.8,1480,1276.0,1500
2.6266629695892334,122,200,81,6.265664160401002e-05,1504.0,1480,1288.0,1500
2.648346185684204,123,198,68,6.764069264069264e-05,1503.8,1480,1300,1500
2.669980049133301,124,195,55,7.045230379033395e-05,1503.5,1480,1300,1500
2.691601037979126,125,194,54,7.151029748283753e-05,1503.4,1480,1300,1500
2.7132351398468018,126,195,51,7.895775759968417e-05,1503.5,1480,1300,1500
2.734858989715576,127,193,40,8.18464560484531e-05,1503.3,1480,1300,1500
2.7564849853515625,128,192,37,8.830022075055188e-05,1503.2,1480,1300,1500
2.7781190872192383,129,191,33,0.0001008471157724889,1503.1,1480,1300,1500
2.799760103225708,130,192,29,0.0001168907071887785,1503.2,1480,1300,1500
2.821382999420166,131,194,28,0.00012442453651860148,1503.4,1480,1300,1500
2.8430230617523193,132,193,26,0.0001310272536687631,1503.3,1480,1300,1500
2.8646481037139893,133,194,26,0.00014271442842871414,1503.4,1480,1300,1500
2.886368989944458,134,195,26,0.0001286008230452675,1503.5,1480,1300,1500
2.908032178878784,135,184,28,0.0002042483660130719,1502.4,1480,1300,1500
2.9296340942382812,136,170,27,0.0002723311546840959,1501.0,1480,1300,1500
2.9512100219726562,137,187,25,0.0001904036557501904,1502.7,1480,1300,1500
2.9728269577026367,138,175,20,0.00039032006245121,1501.5,1480,1300,1500
2.9944541454315186,139,214,29,0.00012371644191513053,1505.4,1480,1300,1500
3.016226053237915,140,221,30,0.00011966016513102789,1506.1,1480,1300,1500
3.0380160808563232,141,227,29,0.0001243781094527363,1506.7,1480,1300,1500
3.059650182723999,142,241,35,0.00010766580534022394,1508.1,1480,1300,1500
3.08127498626709,143,249,36,0.00010958904109589041,1508.9,1480,1300,1500
3.1029109954833984,144,254,38,0.00010473397570171764,1509.4,1480,1300,1500
3.124567985534668,145,258,38,0.00010773540185304891,1509.8,1480,1300,1500
3.1463141441345215,146,263,40,0.00010986596352450011,1510.3,1480,1300,1500
3.1680781841278076,147,267,42,0.00011074197120708749,1510.7,1480,1300,1500
3.1897029876708984,148,272,46,0.0001240079365079365,1511.2,1480,1300,1500
3.2113540172576904,149,274,47,0.00014064697609001407,1511.4,1480,1300,1500
3.232978105545044,150,277,45,0.00018975332068311195,1511.7,1480,1300,1500
3.2545790672302246,151,277,50,0.00018037518037518038,1511.7,1480,1300,1500
3.2763171195983887,152,280,56,0.00019135093761959434,1512.0,1480,1300,1500
3.298103094100952,153,282,62,0.00025303643724696357,1512.2,1480,1300,1500
3.319705009460449,154,281,60,0.00019069412662090009,1512.1,1480,1300,1500
3.341318130493164,155,305,68,0.0008718395815170009,1514.5,1483.71839581517,1300,1500
3.363025188446045,156,280,52,0.00026595744680851064,1512.0,1480,1300,1500
3.384641170501709,157,302,58,0.0008169934640522876,1514.2,1483.1699346405228,1300,1500
3.406416177749634,158,303,64,0.0007173601147776184,1514.3,1482.1736011477763,1300,1500
3.4281911849975586,159,302,64,0.0007326007326007326,1514.2,1482.3260073260074,1300,1500
3.44990611076355,160,277,50,0.00021939447125932427,1511.7,1480,1300,1500
3.4718611240386963,161,273,51,0.00019201228878648233,1511.3,1480,1300,1500
3.493525981903076,162,270,47,0.00017295053614666206,1511.0,1480,1300,1500
3.5151209831237793,163,266,47,0.0001591596371160274,1510.6,1480,1300,1500
3.536720037460327,164,264,46,0.0001591596371160274,1510.4,1480,1300,1500
3.558305025100708,165,257,43,0.0001344628210299852,1509.7,1480,1300,1500
3.579916000366211,166,251,42,0.00011594202898550724,1509.1,1480,1300,1500
3.601541042327881,167,242,37,0.00010611205432937182,1508.2,1480,1300,1500
3.6231400966644287,168,236,38,9.861932938856015e-05,1507.6,1480,1300,1500
3.6447410583496094,169,229,37,9.746588693957115e-05,1506.9,1480,1300,1500
3.666391134262085,170,221,38,9.223390518354546e-05,1506.1,1480,1300,1500
3.6880271434783936,171,214,39,9.041591320072333e-05,1505.4,1480,1300,1500
3.709656000137329,172,208,38,8.903133903133904e-05,1504.8,1480,1300,1500
3.7312581539154053,173,199,39,8.389261744966443e-05,1503.9,1480,1300,1500
3.7528719902038574,174,188,39,8.438818565400843e-05,1502.8,1480,1300,1500
3.77449107170105,175,179,39,8.223684210526316e-05,1501.9,1480,1300,1500
3.7962851524353027,176,169,40,8.122157244964262e-05,1500.9,1480,1300,1500
3.81807804107666,177,156,42,8.113590263691683e-05,1499.6,1480,1300,1500
3.8397040367126465,178,148,39,9.057971014492754e-05,1498.8,1480,1300,1500
3.8613359928131104,179,127,40,9.238728750923873e-05,1496.7,1480,1300,1500
3.8829879760742188,180,119,47,0.0001004419445560466,1495.9,1480,1300,1500
3.9046311378479004,181,113,49,0.00010360547036883547,1495.3,1480,1300,1500
3.9263529777526855,182,108,49,0.00010957703265395574,1494.8,1480,1300,1500
3.9480180740356445,183,105,48,0.00012232415902140674,1494.5,1480,1300,1500
3.9696481227874756,184,111,53,0.00024703557312252963,1495.1,1480,1300,1500
3.9912850856781006,185,109,47,0.0001926040061633282,1494.9,1480,1300,1500
4.0129289627075195,186,114,63,0.0002380952380952381,1495.4,1480,1300,1500
4.034512042999268,187,101,39,0.0004166666666666667,1494.1,1480,1300,1500
4.0562520027160645,188,135,61,0.0010162601626016261,1497.5,1485.1626016260163,1300,1500
4.078152179718018,189,129,59,0.0007012622720897616,1496.9,1482.0126227208975,1300,1500
4.099908113479614,190,109,51,0.00017018379850238256,1494.9,1480,1300,1500
4.121545076370239,191,119,54,0.00016846361185983828,1495.9,1480,1300,1500
4.143174171447754,192,115,44,0.0001008471157724889,1495.5,1480,1300,1500
4.164819002151489,193,126,35,0.0001240079365079365,1496.6,1480,1300,1500
4.186416149139404,194,129,39,8.790436005625879e-05,1496.9,1480,1300,1500
4.208070993423462,195,136,37,9.137426900584795e-05,1497.6,1480,1300,1500
4.229694128036499,196,142,38,8.775008775008775e-05,1498.2,1480,1300,1500
4.251329183578491,197,152,37,8.771929824561403e-05,1499.2,1480,1300,1500
4.272998094558716,198,174,36,8.670019074041963e-05,1501.4,1480,1300,1500
4.294656038284302,199,182,36,8.404067568703252e-05,1502.2,1480,1300,1500
4.316365957260132,200,193,37,8.281573498964803e-05,1503.3,1480,1300,1500
4.338034152984619,201,201,37,8.380824673147838e-05,1504.1,1480,1300,1500
4.359665155410767,202,209,38,8.48824378236143e-05,1504.9,1480,1300,1500
4.3812830448150635,203,219,39,8.561643835616438e-05,1505.9,1480,1300,1500
4.402943134307861,204,227,39,8.802816901408451e-05,1506.7,1480,1300,1500
4.424604177474976,205,235,41,8.564576909900651e-05,1507.5,1480,1300,1500
4.446338176727295,206,242,42,8.587376556462001e-05,1508.2,1480,1300,1500
4.4679930210113525,207,251,42,9.263547938860583e-05,1509.1,1480,1300,1500
4.489641189575195,208,254,45,8.51861316977596e-05,1509.4,1480,1300,1500
4.511280059814453,209,259,44,9.363295880149813e-05,1509.9,1480,1300,1500
4.532909154891968,210,262,46,9.269558769002595e-05,1510.2,1480,1300,1500
4.5545220375061035,211,267,47,9.735202492211838e-05,1510.7,1480,1300,1500
4.5762951374053955,212,269,46,0.00010646225912913872,1510.9,1480,1300,1500
4.598093032836914,213,273,44,0.00011827321111768185,1511.3,1480,1300,1500
4.619718074798584,214,273,43,0.00011961722488038278,1511.3,1480,1300,1500
4.641635179519653,215,276,50,0.00011015642211940956,1511.6,1480,1300,1500
4.66328501701355,216,276,50,0.00011015642211940956,1511.6,1480,1300,1500
4.684906959533691,217,276,41,0.00013528138528138528,1511.6,1480,1300,1500
4.706534147262573,218,276,51,0.00011159468809284678,1511.6,1480,1300,1500
4.728142023086548,219,275,41,0.00013691128148959474,1511.5,1480,1300,1500
4.749752044677734,220,276,44,0.00012626262626262626,1511.6,1480,1300,1500
4.771332025527954,221,274,43,0.00012487512487512488,1511.4,1480,1300,1500
4.7929651737213135,222,274,48,0.00010972130787798991,1511.4,1480,1300,1500
4.814603090286255,223,271,41,0.00012420817289777666,1511.1,1480,1300,1500
4.83633017539978,224,268,42,0.00011534025374855825,1510.8,1480,1300,1500
4.8580710887908936,225,268,43,0.00011032656663724625,1510.8,1480,1300,1500
4.879688024520874,226,264,52,8.348639171814995e-05,1510.4,1480,1300,1500
4.901342153549194,227,260,50,8.39066957543212e-05,1510.0,1480,1300,1500
4.922945976257324,228,257,51,7.705347511172754e-05,1509.7,1480,1300,1500
4.944569110870361,229,254,50,7.599939200486396e-05,1509.4,1480,1300,1500
4.966331958770752,230,247,49,7.575757575757576e-05,1508.7,1480,1300,1500
4.988144159317017,231,241,51,6.967670011148272e-05,1508.1,1480,1300,1500
5.009799003601074,232,235,50,7.002801120448179e-05,1507.5,1480,1300,1500
5.031416177749634,233,228,50,6.855889208830385e-05,1506.8,1480,1300,1500
5.0530290603637695,234,220,49,6.84931506849315e-05,1506.0,1480,1300,1500
5.074700117111206,235,201,50,6.513809275664408e-05,1504.1,1480,1300,1500
5.0963850021362305,236,193,51,6.345580303318739e-05,1503.3,1480,1300,1500
5.11803412437439,237,183,50,6.346788525006347e-05,1502.3,1480,1300,1500
5.139642953872681,238,176,50,6.244536030972898e-05,1501.6,1480,1300,1500
5.161245107650757,239,167,49,6.352836541515787e-05,1500.7,1480,1300,1500
5.1828930377960205,240,157,50,6.266449429753102e-05,1499.7,1480,1300,1500
5.204539060592651,241,152,50,6.346788525006347e-05,1499.2,1480,1300,1500
5.226310968399048,242,145,51,6.387327542156362e-05,1498.5,1480,1300,1500
5.24810004234314,243,141,50,6.579813133307015e-05,1498.1,1480,1300,1500
5.2697060108184814,244,136,52,7.112375533428166e-05,1497.6,1480,1300,1500
5.291355133056641,245,134,50,6.828269033799931e-05,1497.4,1480,1300,1500
5.312992095947266,246,133,50,6.808278867102397e-05,1497.3,1480,1300,1500
5.3346171379089355,247,135,49,6.896551724137931e-05,1497.5,1480,1300,1500
5.356332063674927,248,135,47,7.209805335255949e-05,1497.5,1480,1300,1500
5.3780481815338135,249,137,49,6.825006825006825e-05,1497.7,1480,1300,1500
5.399708032608032,250,143,50,6.73536741429245e-05,1498.3,1480,1300,1500
5.421337127685547,251,147,44,7.343761474627305e-05,1498.7,1480,1300,1500
5.4429850578308105,252,153,48,6.524859715516116e-05,1499.3,1480,1300,1500
5.464639186859131,253,168,46,6.648936170212766e-05,1500.8,1480,1300,1500
5.486354112625122,254,175,47,6.418485237483954e-05,1501.5,1480,1300,1500
5.50800895690918,255,183,45,6.709608158883521e-05,1502.3,1480,1300,1500
5.529621124267578,256,190,45,6.825472663981981e-05,1503.0,1480,1300,1500
5.551241159439087,257,199,44,6.988120195667365e-05,1503.9,1480,1300,1500
5.572901964187622,258,205,45,7.044237813468582e-05,1504.5,1480,1300,1500
5.594563007354736,259,212,43,7.284382284382284e-05,1505.2,1480,1300,1500
5.6163389682769775,260,219,45,7.198387561186294e-05,1505.9,1480,1300,1500
5.638091087341309,261,226,43,7.872775940796725e-05,1506.6,1480,1300,1500
5.659711122512817,262,231,42,8.074935400516796e-05,1507.1,1480,1300,1500
5.681311130523682,263,237,47,7.68344218209758e-05,1507.7,1480,1300,1500
5.702922105789185,264,239,42,8.365400702693659e-05,1507.9,1480,1300,1500
5.724529027938843,265,245,44,8.748906386701662e-05,1508.5,1480,1300,1500
5.746303081512451,266,248,43,8.674531575294934e-05,1508.8,1480,1300,1500
5.768093109130859,267,251,42,9.411764705882353e-05,1509.1,1480,1300,1500
5.789720058441162,268,251,47,8.202099737532808e-05,1509.1,1480,1300,1500
5.811359167098999,269,251,46,8.443093549476529e-05,1509.1,1480,1300,1500
5.833302021026611,270,251,43,8.979885057471264e-05,1509.1,1480,1300,1500
5.854962110519409,271,252,50,7.4839095943721e-05,1509.2,1480,1300,1500
5.876577138900757,272,249,52,6.836204539239814e-05,1508.9,1480,1300,1500
5.898218154907227,273,249,50,7.002801120448179e-05,1508.9,1480,1300,1500
5.919830083847046,274,251,55,6.423432682425488e-05,1509.1,1480,1300,1500
5.941456079483032,275,251,53,6.723593088146305e-05,1509.1,1480,1300,1500
5.963077068328857,276,249,56,6.265664160401002e-05,1508.9,1480,1300,1500
5.984716176986694,277,249,56,6.310740880979428e-05,1508.9,1480,1300,1500
6.006376028060913,278,249,60,5.813277525869085e-05,1508.9,1480,1300,1500
6.027991056442261,279,248,59,5.8275058275058275e-05,1508.8,1480,1300,1500
6.049616098403931,280,245,66,5.042355788624445e-05,1508.5,1480,1300,1500
6.071235179901123,281,245,69,4.828352083433924e-05,1508.5,1480,1300,1500
6.0929131507873535,282,244,72,4.567252797442338e-05,1508.4,1480,1300,1500
6.1146039962768555,283,244,74,4.415011037527594e-05,1508.4,1480,1300,1500
6.136358022689819,284,242,79,4.244482173174873e-05,1508.2,1480,1292.0,1500
6.158190011978149,285,239,85,4.057124310288867e-05,1507.9,1480,1280.0,1500
6.179898977279663,286,237,90,4.0312827541723776e-05,1507.7,1480,1270.0,1500
6.201642036437988,287,236,99,3.930817610062893e-05,1507.6,1480,1252.0,1500
6.22332501411438,288,235,101,3.930817610062893e-05,1507.5,1480,1248.0,1500
6.2450110912323,289,234,109,4.113364320677882e-05,1507.4,1480,1232.0,1500
6.266698122024536,290,232,111,4.30551967622492e-05,1507.2,1480,1228.0,1500
6.288383960723877,291,228,110,4.8021513638109875e-05,1506.8,1480,1230.0,1500
6.310070991516113,292,231,117,4.4365572315882877e-05,1507.1,1480,1216.0,1500
6.331748962402344,293,230,115,4.3554006968641115e-05,1507.0,1480,1220.0,1500
6.3534159660339355,294,230,112,4.76462740613684e-05,1507.0,1480,1226.0,1500
6.375125169754028,295,227,115,4.2603953646898434e-05,1506.7,1480,1220.0,1500
6.396815061569214,296,228,110,4.435573297848747e-05,1506.8,1480,1230.0,1500
6.418519973754883,297,228,112,4.2215467747382644e-05,1506.8,1480,1226.0,1500
6.4401960372924805,298,224,104,4.3572984749455335e-05,1506.4,1480,1242.0,1500
6.4618980884552,299,225,100,4.194982800570518e-05,1506.5,1480,1250.0,1500
6.483570098876953,300,226,98,4.207160587319618e-05,1506.6,1480,1254.0,1500
6.505252122879028,301,223,89,4.194982800570518e-05,1506.3,1480,1272.0,1500
6.5269341468811035,302,224,89,3.8571318367661804e-05,1506.4,1480,1272.0,1500
6.548652172088623,303,223,84,4.118276912939626e-05,1506.3,1480,1282.0,1500
6.570322036743164,304,221,77,4.047272138578598e-05,1506.1,1480,1296.0,1500
6.592036962509155,305,221,68,4.237647258242224e-05,1506.1,1480,1300,1500
6.613698959350586,306,219,68,4.262574595055413e-05,1505.9,1480,1300,1500
6.635343074798584,307,217,65,4.430267588162325e-05,1505.7,1480,1300,1500
6.6570069789886475,308,212,66,4.422821760283061e-05,1505.2,1480,1300,1500
6.6786510944366455,309,210,56,5.299136240792751e-05,1505.0,1480,1300,1500
6.700273036956787,310,209,53,5.611672278338945e-05,1504.9,1480,1300,1500
6.721903085708618,311,205,52,5.772005772005772e-05,1504.5,1480,1300,1500
6.743541955947876,312,202,51,5.9562808982071595e-05,1504.2,1480,1300,1500
6.765197992324829,313,198,50,6.149683291310498e-05,1503.8,1480,1300,1500
6.786844968795776,314,195,49,6.211180124223603e-05,1503.5,1480,1300,1500
6.808509111404419,315,190,49,6.313131313131313e-05,1503.0,1480,1300,1500
6.830132007598877,316,188,50,6.149683291310498e-05,1502.8,1480,1300,1500
6.851763010025024,317,185,52,6.066120715802245e-05,1502.5,1480,1300,1500
6.873365163803101,318,179,54,5.717552887364208e-05,1501.9,1480,1300,1500
6.895008087158203,319,176,57,5.3879310344827585e-05,1501.6,1480,1300,1500
6.9166131019592285,320,174,58,5.2312199204854574e-05,1501.4,1480,1300,1500
6.938246965408325,321,171,62,4.968944099378882e-05,1501.1,1480,1300,1500
6.959870100021362,322,168,65,4.6477040342071015e-05,1500.8,1480,1300,1500
6.98150110244751,323,163,73,5.187260089220873e-05,1500.3,1480,1300,1500
7.003159046173096,324,160,66,5.275931201857128e-05,1500.0,1480,1300,1500
7.025083065032959,325,159,96,5.7372346528973036e-05,1499.9,1480,1258.0,1500
7.046805143356323,326,153,75,5.448403617740002e-05,1499.3,1480,1300.0,1500
7.068528175354004,327,145,81,7.791803023219573e-05,1498.5,1480,1288.0,1500
7.090254068374634,328,124,55,0.00021367521367521368,1496.4,1480,1300,1500
7.111929178237915,329,146,81,0.0001668335001668335,1498.6,1480,1288.0,1500
7.133610963821411,330,139,84,0.00011502185415228893,1497.9,1480,1282.0,1500
7.1552581787109375,331,161,78,5.22466039707419e-05,1500.1,1480,1294.0,1500
7.176937103271484,332,177,85,3.7136066547831256e-05,1501.7,1480,1280.0,1500
7.198698043823242,333,183,78,3.480561066443911e-05,1502.3,1480,1294.0,1500
7.220376968383789,334,189,78,3.652300949598247e-05,1502.9,1480,1294.0,1500
7.242051124572754,335,196,74,3.8314176245210727e-05,1503.6,1480,1300,1500
7.263688087463379,336,204,71,4.042200573992481e-05,1504.4,1480,1300,1500
7.2853310108184814,337,211,68,4.262574595055413e-05,1505.1,1480,1300,1500
7.3069679737091064,338,217,67,4.3572984749455335e-05,1505.7,1480,1300,1500
7.328598976135254,339,225,66,4.6127588910927627e-05,1506.5,1480,1300,1500
7.350239038467407,340,230,63,4.792944785276074e-05,1507.0,1480,1300,1500
7.371840000152588,341,238,64,5.0666261336575975e-05,1507.8,1480,1300,1500
7.393503189086914,342,244,62,5.4421768707482996e-05,1508.4,1480,1300,1500
7.415186166763306,343,248,62,5.6338028169014086e-05,1508.8,1480,1300,1500
7.436822175979614,344,253,60,6.16294835449279e-05,1509.3,1480,1300,1500
7.458463191986084,345,261,71,8.210180623973728e-05,1510.1,1480,1300,1500
7.4801130294799805,346,264,80,9.372071227741331e-05,1510.4,1480,1290.0,1500
7.501827001571655,347,272,82,0.0001288659793814433,1511.2,1480,1286.0,1500
7.523499011993408,348,275,86,0.00015566625155666251,1511.5,1480,1278.0,1500
7.545179128646851,349,275,75,0.00035612535612535614,1511.5,1480,1300.0,1500
7.566841125488281,350,280,91,0.00028129395218002813,1512.0,1480,1268.0,1500
7.5885419845581055,351,281,95,0.00019936204146730463,1512.1,1480,1260.0,1500
7.610237121582031,352,283,95,0.00021164021164021165,1512.3,1480,1260.0,1500
7.631916046142578,353,282,95,0.00020833333333333335,1512.2,1480,1260.0,1500
7.653588056564331,354,283,97,0.00020128824476650564,1512.3,1480,1256.0,1500
7.675289154052734,355,283,96,0.0001779042874933286,1512.3,1480,1258.0,1500
7.696964979171753,356,284,99,0.00018552875695732838,1512.4,1480,1252.0,1500
7.718651056289673,357,284,97,0.000143184421534937,1512.4,1480,1256.0,1500
7.740303993225098,358,285,98,0.00017857142857142857,1512.5,1480,1254.0,1500
7.762008190155029,359,284,95,0.00017828489926903192,1512.4,1480,1260.0,1500
7.783689975738525,360,286,101,0.00020202020202020202,1512.6,1480,1248.0,1500
7.805377960205078,361,285,98,0.00017605633802816902,1512.5,1480,1254.0,1500
7.827059030532837,362,284,100,0.00020408163265306123,1512.4,1480,1250.0,1500
7.848741054534912,363,282,102,0.00018018018018018018,1512.2,1480,1246.0,1500
7.870427131652832,364,280,99,0.00017105713308244953,1512.0,1480,1252.0,1500
7.89207911491394,365,278,99,0.00017674089784376105,1511.8,1480,1252.0,1500
7.913750171661377,366,264,98,0.0002535496957403651,1510.4,1480,1254.0,1500
7.935441017150879,367,272,90,0.00013020833333333333,1511.2,1480,1270.0,1500
7.957233190536499,368,270,92,0.00013605442176870748,1511.0,1480,1266.0,1500
7.97891902923584,369,266,89,0.00012251899044351874,1510.6,1480,1272.0,1500
8.000627994537354,370,260,82,9.521995810321844e-05,1510.0,1480,1286.0,1500
8.02230715751648,371,256,78,8.837044892188053e-05,1509.6,1480,1294.0,1500
8.043972969055176,372,250,72,7.526153383005946e-05,1509.0,1480,1300,1500
8.065629959106445,373,244,69,7.4839095943721e-05,1508.4,1480,1300,1500
8.087711095809937,374,239,65,7.003291547027102e-05,1507.9,1480,1300,1500
8.10939908027649,375,235,64,6.950236308034473e-05,1507.5,1480,1300,1500
8.131021976470947,376,231,59,6.704210244033253e-05,1507.1,1480,1300,1500
8.152636051177979,377,222,64,6.836204539239814e-05,1506.2,1480,1300,1500
8.174230098724365,378,217,62,6.60022440762986e-05,1505.7,1480,1300,1500
8.196242094039917,379,210,62,6.412722842118764e-05,1505.0,1480,1300,1500
8.217949151992798,380,202,60,6.188501763723002e-05,1504.2,1480,1300,1500
8.239580154418945,381,192,63,7.06364342727979e-05,1503.2,1480,1300,1500
8.261214017868042,382,186,65,6.875687568756875e-05,1502.6,1480,1300,1500
8.282824039459229,383,179,61,6.435006435006435e-05,1501.9,1480,1300,1500
8.304440021514893,384,186,61,8.443093549476529e-05,1502.6,1480,1300,1500
8.32607913017273,385,174,68,7.591861524445795e-05,1501.4,1480,1300,1500
8.347769975662231,386,177,57,7.266913741733885e-05,1501.7,1480,1300,1500
8.369388103485107,387,177,60,7.653451706719731e-05,1501.7,1480,1300,1500
8.391009092330933,388,178,59,7.946598855689765e-05,1501.8,1480,1300,1500
8.412628173828125,389,180,56,7.598784194528876e-05,1502.0,1480,1300,1500
8.43425703048706,390,187,56,8.294625082946251e-05,1502.7,1480,1300,1500
8.455847978591919,391,194,58,9.33968431867003e-05,1503.4,1480,1300,1500
8.477591037750244,392,192,56,8.914244963451596e-05,1503.2,1480,1300,1500
8.499240159988403,393,199,56,0.00011757789535567314,1503.9,1480,1300,1500
8.520828008651733,394,204,54,8.77963125548727e-05,1504.4,1480,1300,1500
8.542425155639648,395,212,54,9.018759018759019e-05,1505.2,1480,1300,1500
8.564064025878906,396,218,56,9.169264624977077e-05,1505.8,1480,1300,1500
8.585710048675537,397,221,64,0.00011138338159946537,1506.1,1480,1300,1500
8.607464075088501,398,231,66,0.00012800819252432156,1507.1,1480,1300,1500
8.629083156585693,399,233,66,0.00011834319526627219,1507.3,1480,1300,1500
8.650698184967041,400,241,68,9.380863039399625e-05,1508.1,1480,1300,1500
8.67231297492981,401,248,72,0.00010840108401084011,1508.8,1480,1300,1500
8.693921089172363,402,249,72,7.951653944020357e-05,1508.9,1480,1300,1500
8.71555209159851,403,252,74,8.510638297872341e-05,1509.2,1480,1300,1500
8.737272024154663,404,253,69,7.313149041977475e-05,1509.3,1480,1300,1500
8.758891105651855,405,255,68,7.8125e-05,1509.5,1480,1300,1500
8.780487060546875,406,258,66,7.589556769884639e-05,1509.8,1480,1300,1500
8.80213212966919,407,258,69,7.124536905101169e-05,1509.8,1480,1300,1500
8.823727130889893,408,260,65,6.722689075630252e-05,1510.0,1480,1300,1500
8.845353126525879,409,260,65,6.944926731022988e-05,1510.0,1480,1300,1500
8.866942167282104,410,262,64,7.368110816386678e-05,1510.2,1480,1300,1500
8.888612985610962,411,262,64,7.307270734380708e-05,1510.2,1480,1300,1500
8.910258054733276,412,263,60,8.267195767195767e-05,1510.3,1480,1300,1500
8.931883096694946,413,263,63,8.428150021070375e-05,1510.3,1480,1300,1500
8.953477144241333,414,263,60,9.584052137243626e-05,1510.3,1480,1300,1500
8.97511911392212,415,262,66,0.00010101010101010101,1510.2,1480,1300,1500
8.996760129928589,416,261,63,0.00011155734047300312,1510.1,1480,1300,1500
9.01836609840393,417,262,61,0.00012629451881788332,1510.2,1480,1300,1500
9.039952039718628,418,260,59,0.00012629451881788332,1510.0,1480,1300,1500
9.061537027359009,419,254,48,0.00013368983957219252,1509.4,1480,1300,1500
9.08313512802124,420,252,51,0.00013368983957219252,1509.2,1480,1300,1500
9.104827165603638,421,248,45,0.00013061650992685477,1508.8,1480,1300,1500
9.126459121704102,422,246,49,0.00011695906432748539,1508.6,1480,1300,1500
9.148059129714966,423,241,41,0.00011977482333213559,1508.1,1480,1300,1500
9.169674158096313,424,239,43,0.00011574074074074075,1507.9,1480,1300,1500
9.191290140151978,425,236,46,0.00011544677903486493,1507.6,1480,1300,1500
9.212918043136597,426,228,39,0.00011003521126760564,1506.8,1480,1300,1500
9.234546184539795,427,227,45,0.00010416666666666667,1506.7,1480,1300,1500
9.256190061569214,428,221,38,9.62000962000962e-05,1506.1,1480,1300,1500
9.277882099151611,429,218,40,8.710801393728223e-05,1505.8,1480,1300,1500
9.299525022506714,430,214,41,8.210180623973728e-05,1505.4,1480,1300,1500
9.321155071258545,431,209,43,7.62660158633313e-05,1504.9,1480,1300,1500
9.34276795387268,432,206,47,6.971070059254095e-05,1504.6,1480,1300,1500
9.364370107650757,433,199,49,6.17283950617284e-05,1503.9,1480,1300,1500
9.386291980743408,434,198,52,5.787706910522051e-05,1503.8,1480,1300,1500
9.407960176467896,435,194,53,5.577867023650156e-05,1503.4,1480,1300,1500
9.429624080657959,436,191,59,4.9142464003145115e-05,1503.1,1480,1300,1500
9.451241970062256,437,187,62,4.545454545454545e-05,1502.7,1480,1300,1500
9.47285509109497,438,183,63,4.292582417582418e-05,1502.3,1480,1300,1500
9.494487047195435,439,179,72,4.0105879521937915e-05,1501.9,1480,1300,1500
9.516175031661987,440,180,71,4.154031487558676e-05,1502.0,1480,1300,1500
9.537830114364624,441,177,75,3.87551835057939e-05,1501.7,1480,1300.0,1500
9.559493064880371,442,172,83,4.46927374301676e-05,1501.2,1480,1284.0,1500
9.581166982650757,443,165,82,5.462689828471539e-05,1500.5,1480,1286.0,1500
9.602890968322754,444,169,91,4.46927374301676e-05,1500.9,1480,1268.0,1500
9.624552011489868,445,162,100,6.363752068219422e-05,1500.2,1480,1250.0,1500
9.6462721824646,446,160,97,6.265664160401002e-05,1500.0,1480,1256.0,1500
9.667962074279785,447,134,87,0.00012698412698412698,1497.4,1480,1276.0,1500
9.68967604637146,448,145,103,0.00018224895206852561,1498.5,1480,1244.0,1500
9.711361169815063,449,132,100,0.00047058823529411766,1497.2,1480,1250.0,1500
9.733021020889282,450,141,102,0.0014204545454545455,1498.1,1489.2045454545455,1246.0,1500
9.754754066467285,451,128,111,0.00130718954248366,1496.8,1488.0718954248366,1228.0,1500
9.776512145996094,452,134,115,0.004081632653061225,1497.4,1515.8163265306123,1220.0,1500
9.79828405380249,453,110,109,0.004166666666666667,1495.0,1516.6666666666667,1232.0,1500
9.820006132125854,454,140,118,0.0021141649048625794,1498.0,1496.1416490486258,1214.0,1500
9.84174919128418,455,129,125,0.0029411764705882353,1496.9,1504.4117647058824,1200.0,1500
9.863502979278564,456,161,146,0.005494505494505495,1500.1,1520,1200,1500
9.885109186172485,457,104,137,0.010416666666666666,1494.4,1520,1200,1500
9.906694173812866,458,235,165,0.016666666666666666,1507.5,1520,1200,1500
9.92830514907837,459,120,124,0.008333333333333333,1496.0,1520,1202.0,1500
9.949956178665161,460,165,133,0.004347826086956522,1500.5,1518.4782608695652,1200,1500
9.971695184707642,461,127,104,0.0018796992481203006,1496.7,1493.796992481203,1242.0,1500
9.993466138839722,462,148,122,0.0012077294685990338,1498.8,1487.0772946859904,1206.0,1500
10.015274047851562,463,152,98,0.0007974481658692185,1499.2,1482.9744816586922,1254.0,1500
10.037024021148682,464,161,112,0.0001008471157724889,1500.1,1480,1226.0,1500
10.058685064315796,465,182,110,6.357279084551812e-05,1502.2,1480,1230.0,1500
10.080361127853394,466,196,109,5.2543085329970576e-05,1503.6,1480,1232.0,1500
10.102110147476196,467,205,98,3.9872408293460924e-05,1504.5,1480,1254.0,1500
10.123815059661865,468,210,98,3.90335298021e-05,1505.0,1480,1254.0,1500
10.145478010177612,469,212,95,4.188657116528441e-05,1505.2,1480,1260.0,1500
10.167294025421143,470,214,91,4.1230312525768946e-05,1505.4,1480,1268.0,1500
10.189007043838501,471,216,94,3.810249571346923e-05,1505.6,1480,1262.0,1500
10.210752964019775,472,214,91,4.0849673202614376e-05,1505.4,1480,1268.0,1500
10.23261308670044,473,216,89,3.6832412523020256e-05,1505.6,1480,1272.0,1500
10.254364967346191,474,214,81,3.923414940364093e-05,1505.4,1480,1288.0,1500
10.276188135147095,475,211,86,3.852822192255827e-05,1505.1,1480,1278.0,1500
10.298010110855103,476,208,81,3.9013732833957553e-05,1504.8,1480,1288.0,1500
10.319720029830933,477,205,83,3.749390724007349e-05,1504.5,1480,1284.0,1500
10.341449975967407,478,201,87,3.85445575084798e-05,1504.1,1480,1276.0,1500
10.363301992416382,479,197,84,3.632664922987504e-05,1503.7,1480,1282.0,1500
10.38506817817688,480,191,84,3.544842254519674e-05,1503.1,1480,1282.0,1500
10.406800985336304,481,184,85,3.692216806970905e-05,1502.4,1480,1280.0,1500
10.428510189056396,482,179,84,3.885003885003885e-05,1501.9,1480,1282.0,1500
10.450193166732788,483,174,77,4.040077569489334e-05,1501.4,1480,1296.0,1500
10.471883058547974,484,163,83,5.148800329523221e-05,1500.3,1480,1284.0,1500
10.493551969528198,485,154,88,9.549274255156608e-05,1499.4,1480,1274.0,1500
10.515555143356323,486,153,96,0.00016835016835016836,1499.3,1480,1258.0,1500
10.53741717338562,487,105,69,0.0003026634382566586,1494.5,1480,1300,1500
10.559000968933105,488,127,77,0.0006203473945409429,1496.7,1481.2034739454093,1296.0,1500
10.580738067626953,489,124,84,0.0005714285714285715,1496.4,1480.7142857142858,1282.0,1500
10.6025390625,490,101,64,0.0007692307692307692,1494.1,1482.6923076923076,1300,1500
10.62423300743103,491,159,110,0.0016233766233766235,1499.9,1491.2337662337663,1230.0,1500
10.646052122116089,492,130,95,0.002331002331002331,1497.0,1498.3100233100233,1260.0,1500
10.667874097824097,493,117,77,0.002932551319648094,1495.7,1504.3255131964809,1296.0,1500
10.689630031585693,494,105,75,0.0007680491551459293,1494.5,1482.6804915514592,1300.0,1500
10.71138310432434,495,156,93,0.001519756838905775,1499.6,1490.1975683890578,1264.0,1500
10.733136177062988,496,123,72,0.0005555555555555556,1496.3,1480.5555555555557,1300,1500
10.754827976226807,497,118,71,0.0006793478260869565,1495.8,1481.7934782608695,1300,1500
10.776512145996094,498,120,89,0.00021105951878429716,1496.0,1480,1272.0,1500
10.798194169998169,499,137,85,0.00014208581983518045,1497.7,1480,1280.0,1500
10.819883108139038,500,136,79,6.953135864274787e-05,1497.6,1480,1292.0,1500
10.841590166091919,501,143,70,6.499415052645263e-05,1498.3,1480,1300,1500
10.863211154937744,502,153,68,5.129783523135324e-05,1499.3,1480,1300,1500
10.884828090667725,503,163,71,5.329922183136126e-05,1500.3,1480,1300,1500
10.906445980072021,504,170,71,5.371723248818221e-05,1501.0,1480,1300,1500
10.92807412147522,505,177,62,4.46927374301676e-05,1501.7,1480,1300,1500
10.949694156646729,506,186,62,4.3848110146452686e-05,1502.6,1480,1300,1500
10.971315145492554,507,194,64,4.2735042735042735e-05,1503.4,1480,1300,1500
10.99293303489685,508,201,66,4.200445247196203e-05,1504.1,1480,1300,1500
11.014592170715332,509,218,64,4.420866489832007e-05,1505.8,1480,1300,1500
11.036319017410278,510,224,68,4.2437616703445933e-05,1506.4,1480,1300,1500
11.057960033416748,511,232,69,4.3079309007883516e-05,1507.2,1480,1300,1500
11.079610109329224,512,237,68,4.473072105922347e-05,1507.7,1480,1300,1500
11.101287126541138,513,242,68,4.736193994506015e-05,1508.2,1480,1300,1500
11.12296199798584,514,246,68,4.929508035098097e-05,1508.6,1480,1300,1500
11.144577026367188,515,249,68,5.175983436853002e-05,1508.9,1480,1300,1500
11.166299104690552,516,253,68,5.367686527106817e-05,1509.3,1480,1300,1500
11.188064098358154,517,254,65,5.8271662490530857e-05,1509.4,1480,1300,1500
11.209707021713257,518,257,68,5.797101449275362e-05,1509.7,1480,1300,1500
11.231336116790771,519,259,66,6.206168931918326e-05,1509.9,1480,1300,1500
11.252947092056274,520,259,66,6.556517178075007e-05,1509.9,1480,1300,1500
11.274569034576416,521,259,67,6.610259122157589e-05,1509.9,1480,1300,1500
11.296245098114014,522,259,71,6.218905472636816e-05,1509.9,1480,1300,1500
11.317941188812256,523,260,71,6.613756613756614e-05,1510.0,1480,1300,1500
11.33957815170288,524,261,70,6.620762711864407e-05,1510.1,1480,1300,1500
11.361173152923584,525,260,69,6.611570247933885e-05,1510.0,1480,1300,1500
11.382784128189087,526,258,80,5.6458897922312554e-05,1509.8,1480,1290.0,1500
11.404513120651245,527,258,71,6.201550387596899e-05,1509.8,1480,1300,1500
11.426203966140747,528,253,79,5.489679402722881e-05,1509.3,1480,1292.0,1500
11.447959184646606,529,252,83,5.1062091503267975e-05,1509.2,1480,1284.0,1500
11.469654083251953,530,248,82,4.961548002976929e-05,1508.8,1480,1286.0,1500
11.491368055343628,531,246,85,4.759864819839116e-05,1508.6,1480,1280.0,1500
11.513049125671387,532,243,88,4.387504387504387e-05,1508.3,1480,1274.0,1500
11.534710168838501,533,240,91,4.553319369820599e-05,1508.0,1480,1268.0,1500
11.556370973587036,534,238,97,4.3779003589878295e-05,1507.8,1480,1256.0,1500
11.578045129776001,535,233,102,4.5955882352941176e-05,1507.3,1480,1246.0,1500
11.599812030792236,536,233,103,4.435573297848747e-05,1507.3,1480,1244.0,1500
11.621486186981201,537,231,105,4.662004662004662e-05,1507.1,1480,1240.0,1500
11.643431186676025,538,227,107,5.31632110579479e-05,1506.7,1480,1236.0,1500
11.665143013000488,539,226,113,5.2887666596149776e-05,1506.6,1480,1224.0,1500
11.68681001663208,540,228,116,5.55000555000555e-05,1506.8,1480,1218.0,1500
11.708482027053833,541,219,119,5.6465273856578205e-05,1505.9,1480,1212.0,1500
11.730185985565186,542,203,99,0.00012542330364981815,1504.3,1480,1252.0,1500
11.751881122589111,543,215,124,5.699629524080935e-05,1505.5,1480,1202.0,1500
11.773571968078613,544,208,124,6.974473427256242e-05,1504.8,1480,1202.0,1500
11.795245170593262,545,222,122,5.6869881710646044e-05,1506.2,1480,1206.0,1500
11.81696105003357,546,225,120,5.448403617740002e-05,1506.5,1480,1210.0,1500
11.838659048080444,547,218,111,5.4347826086956524e-05,1505.8,1480,1228.0,1500
11.860311031341553,548,224,110,5.148800329523221e-05,1506.4,1480,1230.0,1500
11.881977081298828,549,227,103,4.8216007714561236e-05,1506.7,1480,1244.0,1500
11.903671026229858,550,226,101,4.3790506218251886e-05,1506.6,1480,1248.0,1500
11.92534613609314,551,226,95,4.7810288774144196e-05,1506.6,1480,1260.0,1500
11.947013139724731,552,227,90,4.659180915994968e-05,1506.7,1480,1270.0,1500
11.968680143356323,553,225,80,4.659180915994968e-05,1506.5,1480,1290.0,1500
11.99037218093872,554,227,76,4.614248800295312e-05,1506.7,1480,1298.0,1500
12.012089967727661,555,225,71,5.062265870203503e-05,1506.5,1480,1300,1500
12.033728122711182,556,227,64,4.9785920541670816e-05,1506.7,1480,1300,1500
12.055356979370117,557,227,58,5.2312199204854574e-05,1506.7,1480,1300,1500
12.076977014541626,558,228,59,5.241090146750524e-05,1506.8,1480,1300,1500
12.09864616394043,559,227,56,5.4147714966428416e-05,1506.7,1480,1300,1500
12.120321035385132,560,227,53,5.8234334963894714e-05,1506.7,1480,1300,1500
12.141956090927124,561,228,54,5.770007501009751e-05,1506.8,1480,1300,1500
12.163570165634155,562,227,52,6.047411707789066e-05,1506.7,1480,1300,1500
12.18519401550293,563,227,52,5.933309600094933e-05,1506.7,1480,1300,1500
12.206845045089722,564,226,51,6.085686465433301e-05,1506.6,1480,1300,1500
12.228456974029541,565,227,53,5.8976173625855154e-05,1506.7,1480,1300,1500
12.25006103515625,566,227,55,5.701904436081651e-05,1506.7,1480,1300,1500
12.271660089492798,567,228,54,5.717552887364208e-05,1506.8,1480,1300,1500
12.293267965316772,568,228,58,5.3754770735902814e-05,1506.8,1480,1300,1500
12.31489109992981,569,230,58,5.308700960874874e-05,1507.0,1480,1300,1500
12.33649206161499,570,231,60,5.0911312493636085e-05,1507.1,1480,1300,1500
12.358121156692505,571,232,61,5.104124132298898e-05,1507.2,1480,1300,1500
12.379753112792969,572,233,64,4.978096375945838e-05,1507.3,1480,1300,1500
12.401425123214722,573,235,68,4.533708119871243e-05,1507.5,1480,1300,1500
12.423110008239746,574,236,71,4.6008741660915574e-05,1507.6,1480,1300,1500
12.444730043411255,575,236,78,4.4014084507042256e-05,1507.6,1480,1294.0,1500
12.466406106948853,576,237,78,4.5246821410795895e-05,1507.7,1480,1294.0,1500
12.48809003829956,577,241,86,4.64921660700172e-05,1508.1,1480,1278.0,1500
12.509752988815308,578,240,89,4.645113340765515e-05,1508.0,1480,1272.0,1500
12.531430959701538,579,239,92,4.58631443771785e-05,1507.9,1480,1266.0,1500
12.553094148635864,580,239,96,4.5207956600361664e-05,1507.9,1480,1258.0,1500
12.574788093566895,581,239,100,4.789042670370193e-05,1507.9,1480,1250.0,1500
12.596489191055298,582,237,100,4.87757291971515e-05,1507.7,1480,1250.0,1500
12.618221998214722,583,237,107,4.8995590396864285e-05,1507.7,1480,1236.0,1500
12.639918088912964,584,238,110,5.307855626326964e-05,1507.8,1480,1230.0,1500
12.661579132080078,585,236,112,5.555555555555556e-05,1507.6,1480,1226.0,1500
12.683247089385986,586,229,116,5.959830740806961e-05,1506.9,1480,1218.0,1500
12.704950094223022,587,236,113,5.230672664504655e-05,1507.6,1480,1224.0,1500
12.726596117019653,588,232,111,5.384159801862919e-05,1507.2,1480,1228.0,1500
12.748269081115723,589,237,106,5.308700960874874e-05,1507.7,1480,1238.0,1500
12.769952058792114,590,239,104,4.7557901745375e-05,1507.9,1480,1242.0,1500
12.791644096374512,591,238,99,5.352459455119628e-05,1507.8,1480,1252.0,1500
12.813623189926147,592,238,96,4.7413588734531315e-05,1507.8,1480,1258.0,1500
12.835312128067017,593,238,95,4.7413588734531315e-05,1507.8,1480,1260.0,1500
12.857002973556519,594,238,92,4.533708119871243e-05,1507.8,1480,1266.0,1500
12.878663063049316,595,238,87,4.505722267279445e-05,1507.8,1480,1276.0,1500
12.900331974029541,596,235,79,4.5955882352941176e-05,1507.5,1480,1292.0,1500
12.922022104263306,597,236,80,4.450774434751647e-05,1507.6,1480,1290.0,1500
12.943703174591064,598,236,69,4.468474909513383e-05,1507.6,1480,1300,1500
12.965317010879517,599,232,71,4.489337822671156e-05,1507.2,1480,1300,1500
12.986922979354858,600,229,67,5.112474437627812e-05,1506.9,1480,1300,1500
13.008555173873901,601,219,60,4.9377839225755484e-05,1505.9,1480,1300,1500
13.030189037322998,602,214,60,4.9677098857426726e-05,1505.4,1480,1300,1500
13.05182409286499,603,206,54,5.4608999563128004e-05,1504.6,1480,1300,1500
13.073460102081299,604,199,54,5.4608999563128004e-05,1503.9,1480,1300,1500
13.09510612487793,605,192,49,6.17283950617284e-05,1503.2,1480,1300,1500
13.116733074188232,606,185,50,6.0742270546073014e-05,1502.5,1480,1300,1500
13.138360977172852,607,176,47,6.70465973851827e-05,1501.6,1480,1300,1500
13.16002106666565,608,166,44,7.407407407407407e-05,1500.6,1480,1300,1500
13.181631088256836,609,157,45,7.375175160410059e-05,1499.7,1480,1300,1500
13.203253030776978,610,143,42,8.650519031141868e-05,1498.3,1480,1300,1500
13.224860191345215,611,137,43,0.00010537407797681771,1497.7,1480,1300,1500
13.246433019638062,612,128,43,0.00012233912405187178,1496.8,1480,1300,1500
13.26803708076477,613,117,53,0.00022522522522522523,1495.7,1480,1300,1500
13.289651155471802,614,117,38,0.0004830917874396135,1495.7,1480,1300,1500
13.311235189437866,615,79,48,0.0017094017094017094,1491.9,1492.094017094017,1300,1500
13.332926988601685,616,103,48,0.0016233766233766235,1494.3,1491.2337662337663,1300,1500
13.354635953903198,617,69,46,0.010869565217391304,1490.9,1520,1300,1500
13.376273155212402,618,84,40,0.006944444444444444,1492.4,1520,1300,1500
13.397911071777344,619,56,40,0.05555555555555555,1489.6,1520,1300,1500
13.419522047042847,620,89,54,0.013888888888888888,1492.9,1520,1300,1500
13.441107034683228,621,86,52,0.016666666666666666,1492.6,1520,1300,1500
13.462659120559692,622,68,46,0.00641025641025641,1490.8,1520,1300,1500
13.484253168106079,623,82,59,0.004629629629629629,1492.2,1520,1300,1500
13.505866050720215,624,88,46,0.013333333333333334,1492.8,1520,1300,1500
13.527544975280762,625,75,57,0.003968253968253968,1491.5,1514.6825396825398,1300,1500
13.549228191375732,626,84,46,0.006493506493506494,1492.4,1520,1300,1500
13.570800065994263,627,82,49,0.0035714285714285713,1492.2,1510.7142857142858,1300,1500
13.592522144317627,628,91,47,0.0027472527472527475,1493.1,1502.4725274725274,1300,1500
13.614217042922974,629,99,37,0.0008051529790660225,1493.9,1483.0515297906602,1300,1500
13.63593602180481,630,94,36,0.0002454590083456063,1493.4,1480,1300,1500
13.657624006271362,631,77,43,0.0004389815627743635,1491.7,1480,1300,1500
13.679213047027588,632,105,31,0.0001358695652173913,1494.5,1480,1300,1500
13.70083212852478,633,114,34,0.00011428571428571428,1495.4,1480,1300,1500
13.722445964813232,634,122,31,0.0001201923076923077,1496.2,1480,1300,1500
13.744045972824097,635,131,32,0.0001148105625717566,1497.1,1480,1300,1500
13.765648126602173,636,141,30,0.0001168770453482936,1498.1,1480,1300,1500
13.787569999694824,637,153,30,0.00010752688172043011,1499.3,1480,1300,1500
13.809211015701294,638,164,33,9.629272989889263e-05,1500.4,1480,1300,1500
13.830903053283691,639,184,32,9.352787130564908e-05,1502.4,1480,1300,1500
13.852575063705444,640,193,38,9.861932938856015e-05,1503.3,1480,1300,1500
13.874207019805908,641,202,38,8.607333448097779e-05,1504.2,1480,1300,1500
13.8958261013031,642,211,41,8.544087491455913e-05,1505.1,1480,1300,1500
13.917574167251587,643,218,39,8.169934640522875e-05,1505.8,1480,1300,1500
13.939229965209961,644,224,39,9.452689290103034e-05,1506.4,1480,1300,1500
13.96443510055542,645,229,39,8.445945945945946e-05,1506.9,1480,1300,1500
13.986250162124634,646,236,43,8.956560680698612e-05,1507.6,1480,1300,1500
14.007986068725586,647,242,40,8.64902266043937e-05,1508.2,1480,1300,1500
14.029590129852295,648,247,43,9.191176470588235e-05,1508.7,1480,1300,1500
14.051222085952759,649,252,50,8.271298593879239e-05,1509.2,1480,1300,1500
14.072878122329712,650,255,46,8.652764558276369e-05,1509.5,1480,1300,1500
14.09454607963562,651,257,45,8.62663906142167e-05,1509.7,1480,1300,1500
14.116260051727295,652,260,45,9.081827263645445e-05,1510.0,1480,1300,1500
14.137904167175293,653,260,45,9.473285335354301e-05,1510.0,1480,1300,1500
14.15952205657959,654,264,48,9.204712812960235e-05,1510.4,1480,1300,1500
14.181145191192627,655,261,46,9.092562284051645e-05,1510.1,1480,1300,1500
14.202800035476685,656,260,48,8.736676568233443e-05,1510.0,1480,1300,1500
14.224390983581543,657,258,47,8.557980316645271e-05,1509.8,1480,1300,1500
14.24605107307434,658,257,49,8.130081300813008e-05,1509.7,1480,1300,1500
14.2677321434021,659,251,43,8.979885057471264e-05,1509.1,1480,1300,1500
14.289368152618408,660,247,44,8.577064928381508e-05,1508.7,1480,1300,1500
14.310992956161499,661,240,44,8.169934640522875e-05,1508.0,1480,1300,1500
14.33258318901062,662,233,44,7.912644405760406e-05,1507.3,1480,1300,1500
14.354207992553711,663,225,44,7.802746566791511e-05,1506.5,1480,1300,1500
14.37584114074707,664,219,45,7.496251874062968e-05,1505.9,1480,1300,1500
14.39758014678955,665,213,44,7.643506840938622e-05,1505.3,1480,1300,1500
14.419228076934814,666,204,44,7.343761474627305e-05,1504.4,1480,1300,1500
14.440850019454956,667,198,40,7.867820613690008e-05,1503.8,1480,1300,1500
14.462466955184937,668,189,39,7.961783439490445e-05,1502.9,1480,1300,1500
14.48415207862854,669,183,46,6.937218175511619e-05,1502.3,1480,1300,1500
14.505787134170532,670,175,43,7.22908985758693e-05,1501.5,1480,1300,1500
14.527541160583496,671,170,41,7.723200494284832e-05,1501.0,1480,1300,1500
14.549156188964844,672,164,42,7.501875468867217e-05,1500.4,1480,1300,1500
14.570813179016113,673,153,40,7.918910357934748e-05,1499.3,1480,1300,1500
14.592473030090332,674,149,41,7.883948281299275e-05,1498.9,1480,1300,1500
14.614078044891357,675,147,42,7.791195948578106e-05,1498.7,1480,1300,1500
14.635699987411499,676,145,42,7.843137254901961e-05,1498.5,1480,1300,1500
14.657423973083496,677,146,45,7.229612492770387e-05,1498.6,1480,1300,1500
14.679031133651733,678,146,41,8.098477486232588e-05,1498.6,1480,1300,1500
14.700648069381714,679,150,40,8.023106546854942e-05,1499.0,1480,1300,1500
14.722259044647217,680,153,41,7.883948281299275e-05,1499.3,1480,1300,1500
14.74386215209961,681,157,40,7.964954201513341e-05,1499.7,1480,1300,1500
14.765475988388062,682,160,38,8.21827744904668e-05,1500.0,1480,1300,1500
14.78733205795288,683,166,41,7.577479730241721e-05,1500.6,1480,1300,1500
14.808986186981201,684,170,44,6.978854072161351e-05,1501.0,1480,1300,1500
14.830568075180054,685,176,44,6.775067750677507e-05,1501.6,1480,1300,1500
14.852200984954834,686,182,45,6.587615283267457e-05,1502.2,1480,1300,1500
14.873839139938354,687,186,48,6.028817748839453e-05,1502.6,1480,1300,1500
14.895445108413696,688,192,51,5.689576695493855e-05,1503.2,1480,1300,1500
14.917060136795044,689,196,52,5.615453728661276e-05,1503.6,1480,1300,1500
14.93868112564087,690,201,53,5.465376837732962e-05,1504.1,1480,1300,1500
14.960286140441895,691,207,58,4.940467368213033e-05,1504.7,1480,1300,1500
14.98193097114563,692,216,61,4.645760743321719e-05,1505.6,1480,1300,1500
15.003566026687622,693,219,66,4.3641441913240814e-05,1505.9,1480,1300,1500
15.025180101394653,694,222,71,4.037467700258398e-05,1506.2,1480,1300,1500
15.04677414894104,695,225,74,4.2169182761238085e-05,1506.5,1480,1300,1500
15.06841516494751,696,228,79,4.264028654272557e-05,1506.8,1480,1292.0,1500
15.090149164199829,697,231,83,4.10913872452334e-05,1507.1,1480,1284.0,1500
15.11185908317566,698,231,93,4.1228612657184085e-05,1507.1,1480,1264.0,1500
15.133536100387573,699,232,102,4.6700602437771445e-05,1507.2,1480,1246.0,1500
15.155524015426636,700,233,104,4.578335317278638e-05,1507.3,1480,1242.0,1500
15.177361011505127,701,236,114,5.0080128205128203e-05,1507.6,1480,1222.0,1500
15.199079036712646,702,233,117,5.5617352614015575e-05,1507.3,1480,1216.0,1500
15.220765113830566,703,226,117,7.763975155279503e-05,1506.6,1480,1216.0,1500
15.242439985275269,704,234,107,0.0001640150893882237,1507.4,1480,1236.0,1500
15.26409912109375,705,226,121,0.0002206531332744925,1506.6,1480,1208.0,1500
15.285750150680542,706,228,120,0.00015873015873015873,1506.8,1480,1210.0,1500
15.307554960250854,707,249,138,0.003289473684210526,1508.9,1507.8947368421052,1200,1500
15.329240083694458,708,238,116,0.001984126984126984,1507.8,1494.8412698412699,1218.0,1500
15.350988149642944,709,231,117,0.0024630541871921183,1507.1,1499.6305418719212,1216.0,1500
15.37273907661438,710,215,148,0.0018181818181818182,1505.5,1493.1818181818182,1200,1500
15.394464015960693,711,241,112,0.0005063291139240507,1508.1,1480.0632911392404,1226.0,1500
15.416267156600952,712,251,112,0.00046948356807511736,1509.1,1480,1226.0,1500
15.43794298171997,713,225,104,7.599939200486396e-05,1506.5,1480,1242.0,1500
15.45962119102478,714,232,100,5.8275058275058275e-05,1507.2,1480,1250.0,1500
15.481279134750366,715,232,93,6.628222973420826e-05,1507.2,1480,1264.0,1500
15.502971172332764,716,237,81,5.787037037037037e-05,1507.7,1480,1288.0,1500
15.524684190750122,717,243,79,4.951475539710834e-05,1508.3,1480,1292.0,1500
15.546363115310669,718,241,72,5.0080128205128203e-05,1508.1,1480,1300,1500
15.568015098571777,719,241,60,5.411255411255411e-05,1508.1,1480,1300,1500
15.58965516090393,720,242,61,5.178395733001916e-05,1508.2,1480,1300,1500
15.611284971237183,721,240,59,5.411255411255411e-05,1508.0,1480,1300,1500
15.632889032363892,722,238,53,6.068697657482704e-05,1507.8,1480,1300,1500
15.6545090675354,723,240,49,6.689410662920597e-05,1508.0,1480,1300,1500
15.676196098327637,724,239,53,6.214267959234402e-05,1507.9,1480,1300,1500
15.697865009307861,725,236,47,7.038288288288288e-05,1507.6,1480,1300,1500
15.719463109970093,726,235,45,7.344300822561692e-05,1507.5,1480,1300,1500
15.741077184677124,727,237,47,7.465472191116088e-05,1507.7,1480,1300,1500
15.762678146362305,728,234,39,8.914244963451596e-05,1507.4,1480,1300,1500
15.784307956695557,729,237,39,9.376465072667604e-05,1507.7,1480,1300,1500
15.805943965911865,730,238,36,0.00010456969570218551,1507.8,1480,1300,1500
15.827639102935791,731,234,42,8.587376556462001e-05,1507.4,1480,1300,1500
15.849229097366333,732,239,36,0.00010702054794520547,1507.9,1480,1300,1500
15.870840072631836,733,238,41,9.72100709633518e-05,1507.8,1480,1300,1500
15.892465114593506,734,238,37,0.0001175226231049477,1507.8,1480,1300,1500
15.914056062698364,735,237,35,0.00012113870381586917,1507.7,1480,1300,1500
15.935655117034912,736,234,42,0.00010498687664041995,1507.4,1480,1300,1500
15.957367181777954,737,232,42,9.63948332369385e-05,1507.2,1480,1300,1500
15.978995084762573,738,228,42,8.650519031141868e-05,1506.8,1480,1300,1500
16.000643014907837,739,224,41,8.503401360544217e-05,1506.4,1480,1300,1500
16.02227210998535,740,219,37,9.074410163339382e-05,1505.9,1480,1300,1500
16.04386615753174,741,216,37,9.070294784580499e-05,1505.6,1480,1300,1500
16.06544303894043,742,208,38,8.325008325008325e-05,1504.8,1480,1300,1500
16.087146997451782,743,204,41,7.723200494284832e-05,1504.4,1480,1300,1500
16.10885715484619,744,197,42,7.44601638123604e-05,1503.7,1480,1300,1500
16.130457162857056,745,191,43,7.183908045977011e-05,1503.1,1480,1300,1500
16.15208911895752,746,186,38,8.116883116883117e-05,1502.6,1480,1300,1500
16.17370295524597,747,175,40,7.620789513793629e-05,1501.5,1480,1300,1500
16.195343017578125,748,169,39,7.911392405063291e-05,1500.9,1480,1300,1500
16.216973066329956,749,165,37,8.492569002123143e-05,1500.5,1480,1300,1500
16.23858904838562,750,160,36,8.781173164734808e-05,1500.0,1480,1300,1500
16.260184049606323,751,156,38,8.271298593879239e-05,1499.6,1480,1300,1500
16.28178310394287,752,150,34,9.410878976096367e-05,1499.0,1480,1300,1500
16.303691148757935,753,147,36,8.95335303071e-05,1498.7,1480,1300,1500
16.325335025787354,754,145,34,9.337068160597572e-05,1498.5,1480,1300,1500
16.34694004058838,755,146,36,9.071940488070398e-05,1498.6,1480,1300,1500
16.36854100227356,756,145,36,9.009009009009009e-05,1498.5,1480,1300,1500
16.39016819000244,757,148,35,9.259259259259259e-05,1498.8,1480,1300,1500
16.411792039871216,758,151,35,9.018759018759019e-05,1499.1,1480,1300,1500
16.43341898918152,759,155,40,8.01667468334135e-05,1499.5,1480,1300,1500
16.455032110214233,760,160,36,8.725242125468982e-05,1500.0,1480,1300,1500
16.476638078689575,761,165,35,8.802816901408451e-05,1500.5,1480,1300,1500
16.498305082321167,762,170,35,8.735150244584206e-05,1501.0,1480,1300,1500
16.519925117492676,763,177,35,8.62663906142167e-05,1501.7,1480,1300,1500
16.541527032852173,764,184,36,8.341675008341675e-05,1502.4,1480,1300,1500
16.563117027282715,765,191,38,8.012820512820513e-05,1503.1,1480,1300,1500
16.58474111557007,766,200,39,7.911392405063291e-05,1504.0,1480,1300,1500
16.60640001296997,767,206,43,7.22908985758693e-05,1504.6,1480,1300,1500
16.628013134002686,768,210,40,7.716049382716049e-05,1505.0,1480,1300,1500
16.649595022201538,769,213,38,8.01667468334135e-05,1505.3,1480,1300,1500
16.671189069747925,770,218,45,6.879471656576775e-05,1505.8,1480,1300,1500
16.69279408454895,771,220,43,7.058159232072275e-05,1506.0,1480,1300,1500
16.71438717842102,772,223,47,6.469979296066253e-05,1506.3,1480,1300,1500
16.736051082611084,773,225,49,6.352836541515787e-05,1506.5,1480,1300,1500
16.75774097442627,774,226,49,6.25e-05,1506.6,1480,1300,1500
16.779317140579224,775,228,54,5.698330389195966e-05,1506.8,1480,1300,1500
16.800942182540894,776,228,51,6.0302719652656335e-05,1506.8,1480,1300,1500
16.822556018829346,777,229,53,5.680527152919791e-05,1506.9,1480,1300,1500
16.84420108795166,778,229,51,5.9930480642454755e-05,1506.9,1480,1300,1500
16.865787982940674,779,230,56,5.3633681952266026e-05,1507.0,1480,1300,1500
16.887632131576538,780,229,62,4.848484848484849e-05,1506.9,1480,1300,1500
16.909274101257324,781,231,63,4.6869141357330336e-05,1507.1,1480,1300,1500
16.930881023406982,782,227,72,4.578754578754579e-05,1506.7,1480,1300,1500
16.95250701904297,783,228,79,4.754433509247373e-05,1506.8,1480,1292.0,1500
16.974192142486572,784,222,81,4.8393341076267905e-05,1506.2,1480,1288.0,1500
16.995893001556396,785,220,90,5.381552039608223e-05,1506.0,1480,1270.0,1500
17.01769518852234,786,212,93,6.075703262652652e-05,1505.2,1480,1264.0,1500
17.039366006851196,787,202,104,6.972528238739367e-05,1504.2,1480,1242.0,1500
