time,frame,x,y,size_inv,roll,pitch,thrust,yaw
0.0006728172302246094,1,153,84,0.004273504273504274,1498.075,1490.0,1304.0,1500
0.023665904998779297,2,153,84,0.004273504273504274,1497.9000000000001,1490.0,1304.0,1500
0.04607081413269043,3,154,84,0.004048582995951417,1498.0,1487.7507872244714,1304.0,1500
0.06842994689941406,4,154,84,0.004048582995951417,1497.8499999999999,1487.7507872244714,1304.0,1500
0.09075403213500977,5,153,84,0.004273504273504274,1497.425,1490.0,1304.0,1500
0.11297202110290527,6,153,84,0.004273504273504274,1497.25,1490.0,1304.0,1500
0.13515782356262207,7,154,84,0.004048582995951417,1497.3499999999999,1487.7507872244714,1304.0,1500
0.15750885009765625,8,154,84,0.004048582995951417,1497.2,1487.7507872244714,1304.0,1500
0.17994189262390137,9,154,84,0.004048582995951417,1497.05,1487.7507872244714,1304.0,1500
0.20254302024841309,10,153,84,0.004273504273504274,1496.625,1490.0,1304.0,1500
0.22522187232971191,11,153,84,0.004273504273504274,1496.625,1490.0,1304.0,1500
0.2483069896697998,12,153,84,0.004273504273504274,1496.625,1490.0,1304.0,1500
0.2712419033050537,13,155,84,0.003663003663003663,1497.1500000000001,1483.8949938949938,1304.0,1500
0.29430484771728516,14,154,84,0.004048582995951417,1496.9000000000001,1487.7507872244714,1304.0,1500
0.3172159194946289,15,154,84,0.004048582995951417,1496.925,1487.7507872244714,1304.0,1500
0.3403339385986328,16,154,84,0.004048582995951417,1496.95,1487.7507872244714,1304.0,1500
0.3633308410644531,17,154,84,0.004048582995951417,1496.95,1487.7507872244714,1304.0,1500
0.3862619400024414,18,153,84,0.004273504273504274,1496.675,1490.0,1304.0,1500
0.40912485122680664,19,153,84,0.004629629629629629,1496.6500000000001,1493.5612535612536,1304.0,1500
0.43205785751342773,20,153,84,0.004629629629629629,1496.6500000000001,1493.5612535612536,1304.0,1500
0.45497584342956543,21,155,84,0.0043859649122807015,1497.2,1491.1246063877643,1304.0,1500
0.477888822555542,22,155,84,0.004273504273504274,1497.25,1490.0,1304.0,1500
0.5007908344268799,23,156,85,0.004048582995951417,1497.5250000000001,1487.7507872244714,1303.75,1500
0.5238049030303955,24,156,85,0.004273504273504274,1497.575,1490.0,1303.75,1500
0.5466759204864502,25,157,85,0.004166666666666667,1497.9000000000001,1488.931623931624,1303.75,1500
0.5695929527282715,26,158,86,0.004048582995951417,1498.25,1487.7507872244714,1303.5,1500
0.592581033706665,27,157,86,0.004629629629629629,1498.075,1493.5612535612536,1303.5,1500
0.6155309677124023,28,158,88,0.0038461538461538464,1498.45,1485.7264957264956,1303.0,1500
0.6384289264678955,29,159,88,0.004166666666666667,1498.8499999999999,1488.931623931624,1303.0,1500
0.6613478660583496,30,160,88,0.004166666666666667,1499.2750000000001,1488.931623931624,1303.0,1500
0.684222936630249,31,159,89,0.004629629629629629,1499.125,1493.5612535612536,1302.75,1500
0.7071139812469482,32,160,90,0.0043859649122807015,1499.5,1491.1246063877643,1302.5,1500
0.7299690246582031,33,160,92,0.004048582995951417,1499.5999999999999,1487.7507872244714,1302.0,1500
0.7530379295349121,34,159,93,0.004273504273504274,1499.425,1490.0,1301.75,1500
0.7759008407592773,35,159,93,0.004629629629629629,1499.4749999999999,1493.5612535612536,1301.75,1500
0.7988338470458984,36,160,93,0.004048582995951417,1499.7750000000001,1487.7507872244714,1301.75,1500
0.8216969966888428,37,160,92,0.004048582995951417,1499.8499999999999,1487.7507872244714,1302.0,1500
0.8446688652038574,38,161,92,0.004048582995951417,1500.175,1487.7507872244714,1302.0,1500
0.8675968647003174,39,160,93,0.004273504273504274,1499.95,1490.0,1301.75,1500
0.89056396484375,40,160,94,0.004273504273504274,1499.95,1490.0,1301.5,1500
0.9134728908538818,41,160,94,0.004273504273504274,1499.9749999999999,1490.0,1301.5,1500
0.9364008903503418,42,160,94,0.004629629629629629,1499.9749999999999,1493.5612535612536,1301.5,1500
0.959312915802002,43,161,94,0.0043859649122807015,1500.25,1491.1246063877643,1301.5,1500
0.9822149276733398,44,161,94,0.005952380952380952,1500.3,1500,1301.5,1500
1.0050430297851562,45,160,93,0.004901960784313725,1500.075,1496.2845651080945,1301.75,1500
1.0282809734344482,46,160,93,0.004629629629629629,1500.075,1493.5612535612536,1301.75,1500
1.0512008666992188,47,160,93,0.0043859649122807015,1500.075,1491.1246063877643,1301.75,1500
1.0741019248962402,48,162,93,0.005555555555555556,1500.5999999999999,1500,1301.75,1500
1.0968749523162842,49,160,93,0.004048582995951417,1500.0999999999999,1487.7507872244714,1301.75,1500
1.1197848320007324,50,159,93,0.004273504273504274,1499.825,1490.0,1301.75,1500
1.142819881439209,51,160,92,0.0043859649122807015,1500.075,1491.1246063877643,1302.0,1500
1.1657660007476807,52,160,92,0.004048582995951417,1500.075,1487.7507872244714,1302.0,1500
1.188666820526123,53,159,92,0.004629629629629629,1499.7750000000001,1493.5612535612536,1302.0,1500
1.2115988731384277,54,159,92,0.004273504273504274,1499.7249999999999,1490.0,1302.0,1500
1.2344739437103271,55,159,91,0.004273504273504274,1499.7,1490.0,1302.25,1500
1.257385015487671,56,159,90,0.004629629629629629,1499.675,1493.5612535612536,1302.5,1500
1.280303955078125,57,160,90,0.004166666666666667,1499.925,1488.931623931624,1302.5,1500
1.3033099174499512,58,159,90,0.004629629629629629,1499.5999999999999,1493.5612535612536,1302.5,1500
1.3261988162994385,59,160,91,0.0043859649122807015,1499.8499999999999,1491.1246063877643,1302.25,1500
1.3491318225860596,60,159,92,0.004629629629629629,1499.5999999999999,1493.5612535612536,1302.0,1500
1.3720228672027588,61,159,93,0.004048582995951417,1499.575,1487.7507872244714,1301.75,1500
1.3949508666992188,62,158,92,0.004629629629629629,1499.2750000000001,1493.5612535612536,1302.0,1500
1.417846918106079,63,158,92,0.004273504273504274,1499.25,1490.0,1302.0,1500
1.4408118724822998,64,159,92,0.0043859649122807015,1499.5,1491.1246063877643,1302.0,1500
1.4637689590454102,65,159,93,0.004048582995951417,1499.5,1487.7507872244714,1301.75,1500
1.4866650104522705,66,158,94,0.004273504273504274,1499.2249999999999,1490.0,1301.5,1500
1.5095598697662354,67,158,95,0.004273504273504274,1499.175,1490.0,1301.25,1500
1.5327999591827393,68,158,95,0.004524886877828055,1499.1500000000001,1492.5138260432377,1301.25,1500
1.5557539463043213,69,158,94,0.0043859649122807015,1499.0999999999999,1491.1246063877643,1301.5,1500
1.578644037246704,70,158,94,0.004166666666666667,1499.075,1488.931623931624,1301.5,1500
1.601557970046997,71,158,94,0.0043859649122807015,1499.05,1491.1246063877643,1301.5,1500
1.6244449615478516,72,158,94,0.0043859649122807015,1499.05,1491.1246063877643,1301.5,1500
1.6473720073699951,73,157,94,0.004629629629629629,1498.7750000000001,1493.5612535612536,1301.5,1500
1.6703028678894043,74,158,95,0.0043859649122807015,1499.0,1491.1246063877643,1301.25,1500
1.6932950019836426,75,158,95,0.004048582995951417,1498.9749999999999,1487.7507872244714,1301.25,1500
1.7161729335784912,76,157,94,0.004629629629629629,1498.7,1493.5612535612536,1301.5,1500
1.7390978336334229,77,158,93,0.0043859649122807015,1498.95,1491.1246063877643,1301.75,1500
1.7619810104370117,78,157,93,0.004629629629629629,1498.675,1493.5612535612536,1301.75,1500
1.784925937652588,79,157,93,0.004629629629629629,1498.6500000000001,1493.5612535612536,1301.75,1500
1.8077988624572754,80,158,93,0.0043859649122807015,1498.9000000000001,1491.1246063877643,1301.75,1500
1.8307459354400635,81,157,94,0.004629629629629629,1498.625,1493.5612535612536,1301.5,1500
1.8537318706512451,82,158,94,0.004048582995951417,1498.875,1487.7507872244714,1301.5,1500
1.876659870147705,83,157,92,0.004629629629629629,1498.625,1493.5612535612536,1302.0,1500
1.8995139598846436,84,157,91,0.004629629629629629,1498.5999999999999,1493.5612535612536,1302.25,1500
1.9225668907165527,85,157,91,0.004629629629629629,1498.575,1493.5612535612536,1302.25,1500
1.9455039501190186,86,157,91,0.004629629629629629,1498.575,1493.5612535612536,1302.25,1500
1.9684338569641113,87,157,92,0.004629629629629629,1498.55,1493.5612535612536,1302.0,1500
1.991318941116333,88,157,92,0.004629629629629629,1498.55,1493.5612535612536,1302.0,1500
2.0142579078674316,89,157,92,0.004629629629629629,1498.55,1493.5612535612536,1302.0,1500
2.0374929904937744,90,156,92,0.004629629629629629,1498.25,1493.5612535612536,1302.0,1500
2.0605239868164062,91,156,92,0.004629629629629629,1498.2249999999999,1493.5612535612536,1302.0,1500
2.083554983139038,92,156,92,0.004629629629629629,1498.175,1493.5612535612536,1302.0,1500
2.1065030097961426,93,156,92,0.004629629629629629,1498.1500000000001,1493.5612535612536,1302.0,1500
2.129408836364746,94,156,92,0.004629629629629629,1498.125,1493.5612535612536,1302.0,1500
2.152292013168335,95,157,92,0.0043859649122807015,1498.375,1491.1246063877643,1302.0,1500
2.175201892852783,96,157,92,0.0043859649122807015,1498.375,1491.1246063877643,1302.0,1500
2.1981518268585205,97,156,93,0.005050505050505051,1498.0999999999999,1497.7700077700079,1301.75,1500
2.221284866333008,98,156,93,0.004629629629629629,1498.075,1493.5612535612536,1301.75,1500
2.244220018386841,99,156,93,0.004629629629629629,1498.05,1493.5612535612536,1301.75,1500
2.2672059535980225,100,156,93,0.004629629629629629,1498.05,1493.5612535612536,1301.75,1500
2.2903389930725098,101,156,92,0.004629629629629629,1498.05,1493.5612535612536,1302.0,1500
2.3133699893951416,102,156,92,0.004901960784313725,1498.05,1496.2845651080945,1302.0,1500
2.3362958431243896,103,156,92,0.004629629629629629,1498.05,1493.5612535612536,1302.0,1500
2.359266996383667,104,155,93,0.005050505050505051,1497.7750000000001,1497.7700077700079,1301.75,1500
2.382133960723877,105,155,93,0.004629629629629629,1497.7249999999999,1493.5612535612536,1301.75,1500
2.4050588607788086,106,156,93,0.0043859649122807015,1497.95,1491.1246063877643,1301.75,1500
2.4279189109802246,107,155,92,0.005555555555555556,1497.675,1500,1302.0,1500
2.4507980346679688,108,155,92,0.004629629629629629,1497.6500000000001,1493.5612535612536,1302.0,1500
2.4737558364868164,109,156,92,0.004784688995215311,1497.9000000000001,1495.1118472171104,1302.0,1500
2.4966559410095215,110,155,92,0.005050505050505051,1497.625,1497.7700077700079,1302.0,1500
2.519515037536621,111,156,91,0.004784688995215311,1497.875,1495.1118472171104,1302.25,1500
2.5425310134887695,112,155,91,0.005050505050505051,1497.5999999999999,1497.7700077700079,1302.25,1500
2.5654728412628174,113,155,91,0.005050505050505051,1497.575,1497.7700077700079,1302.25,1500
2.5885298252105713,114,154,90,0.004629629629629629,1497.3,1493.5612535612536,1302.5,1500
2.6114368438720703,115,154,90,0.004629629629629629,1497.2750000000001,1493.5612535612536,1302.5,1500
2.634385824203491,116,154,90,0.005050505050505051,1497.2249999999999,1497.7700077700079,1302.5,1500
2.657277822494507,117,154,90,0.005050505050505051,1497.2,1497.7700077700079,1302.5,1500
2.6802468299865723,118,154,90,0.005050505050505051,1497.175,1497.7700077700079,1302.5,1500
2.703207015991211,119,154,90,0.005050505050505051,1497.125,1497.7700077700079,1302.5,1500
2.726102828979492,120,154,90,0.005050505050505051,1497.0999999999999,1497.7700077700079,1302.5,1500
2.7489938735961914,121,154,89,0.004629629629629629,1497.05,1493.5612535612536,1302.75,1500
2.7719249725341797,122,154,89,0.005050505050505051,1497.0250000000001,1497.7700077700079,1302.75,1500
2.7947938442230225,123,154,89,0.005050505050505051,1497.0,1497.7700077700079,1302.75,1500
2.817725896835327,124,153,90,0.005050505050505051,1496.7249999999999,1497.7700077700079,1302.5,1500
2.8406708240509033,125,153,90,0.005050505050505051,1496.7,1497.7700077700079,1302.5,1500
2.8636598587036133,126,153,91,0.005050505050505051,1496.675,1497.7700077700079,1302.25,1500
2.886521816253662,127,153,90,0.005555555555555556,1496.6500000000001,1500,1302.5,1500
2.9093239307403564,128,153,90,0.005050505050505051,1496.625,1497.7700077700079,1302.5,1500
2.9321858882904053,129,153,89,0.005050505050505051,1496.5999999999999,1497.7700077700079,1302.75,1500
2.955150842666626,130,153,89,0.0053475935828877,1496.575,1500,1302.75,1500
2.9779369831085205,131,152,89,0.005050505050505051,1496.2750000000001,1497.7700077700079,1302.75,1500
3.000938892364502,132,152,89,0.005050505050505051,1496.2249999999999,1497.7700077700079,1302.75,1500
3.0238590240478516,133,152,89,0.005050505050505051,1496.175,1497.7700077700079,1302.75,1500
3.047128915786743,134,152,88,0.005555555555555556,1496.1500000000001,1500,1303.0,1500
3.0699260234832764,135,152,88,0.005050505050505051,1496.125,1497.7700077700079,1303.0,1500
3.0930018424987793,136,152,88,0.005050505050505051,1496.0999999999999,1497.7700077700079,1303.0,1500
3.115893840789795,137,153,87,0.005263157894736842,1496.3499999999999,1499.8965362123256,1303.25,1500
3.138840913772583,138,152,87,0.005050505050505051,1496.075,1497.7700077700079,1303.25,1500
3.1617298126220703,139,152,87,0.005555555555555556,1496.05,1500,1303.25,1500
3.1845498085021973,140,152,87,0.005555555555555556,1496.0250000000001,1500,1303.25,1500
3.2073168754577637,141,152,87,0.0053475935828877,1496.0250000000001,1500,1303.25,1500
3.2301909923553467,142,154,87,0.006060606060606061,1496.575,1500,1303.25,1500
3.2530839443206787,143,151,86,0.005555555555555556,1495.8,1500,1303.5,1500
3.2759079933166504,144,151,86,0.005050505050505051,1495.7750000000001,1497.7700077700079,1303.5,1500
3.298759937286377,145,150,85,0.006666666666666667,1495.4749999999999,1500,1303.75,1500
3.3215839862823486,146,150,86,0.005681818181818182,1495.425,1500,1303.5,1500
3.3443689346313477,147,151,86,0.0053475935828877,1495.625,1500,1303.5,1500
3.3671538829803467,148,151,87,0.0053475935828877,1495.5999999999999,1500,1303.25,1500
3.389930009841919,149,149,87,0.006666666666666667,1495.0250000000001,1500,1303.25,1500
3.412897825241089,150,150,86,0.0058823529411764705,1495.2249999999999,1500,1303.5,1500
3.4357268810272217,151,148,86,0.006060606060606061,1494.625,1500,1303.5,1500
3.4585108757019043,152,147,85,0.007142857142857143,1494.2,1500,1303.75,1500
3.481257915496826,153,147,85,0.007142857142857143,1494.0999999999999,1500,1303.75,1500
3.504128932952881,154,149,85,0.0058823529411764705,1494.55,1500,1303.75,1500
3.527050018310547,155,147,85,0.006493506493506494,1493.9749999999999,1500,1303.75,1500
3.549875020980835,156,150,85,0.006493506493506494,1494.7249999999999,1500,1303.75,1500
3.57279896736145,157,149,85,0.007575757575757576,1494.425,1500,1303.75,1500
3.5956249237060547,158,147,84,0.006666666666666667,1493.825,1500,1304.0,1500
3.618393898010254,159,147,84,0.00625,1493.7750000000001,1500,1304.0,1500
3.6412038803100586,160,146,84,0.006493506493506494,1493.425,1500,1304.0,1500
3.6639819145202637,161,146,83,0.007142857142857143,1493.375,1500,1304.25,1500
3.6867918968200684,162,147,83,0.00625,1493.625,1500,1304.25,1500
3.709507942199707,163,147,83,0.006060606060606061,1493.625,1500,1304.25,1500
3.7322709560394287,164,146,83,0.006493506493506494,1493.3,1500,1304.25,1500
3.755093812942505,165,147,84,0.006060606060606061,1493.55,1500,1304.0,1500
3.7778878211975098,166,146,84,0.007142857142857143,1493.2,1500,1304.0,1500
3.8006789684295654,167,147,84,0.006666666666666667,1493.4000000000001,1500,1304.0,1500
3.8235549926757812,168,146,84,0.007142857142857143,1493.125,1500,1304.0,1500
3.8464059829711914,169,147,83,0.006060606060606061,1493.375,1500,1304.25,1500
3.8693528175354004,170,146,82,0.007142857142857143,1493.125,1500,1304.5,1500
3.8921189308166504,171,147,82,0.00625,1493.4000000000001,1500,1304.5,1500
3.914902925491333,172,146,83,0.007142857142857143,1493.125,1500,1304.25,1500
3.9377119541168213,173,146,83,0.006493506493506494,1493.0999999999999,1500,1304.25,1500
3.960620880126953,174,147,83,0.005681818181818182,1493.375,1500,1304.25,1500
3.983470916748047,175,146,82,0.007142857142857143,1493.0999999999999,1500,1304.5,1500
4.006328821182251,176,147,83,0.006666666666666667,1493.375,1500,1304.25,1500
4.029083967208862,177,147,82,0.006666666666666667,1493.375,1500,1304.5,1500
4.051878929138184,178,147,83,0.006060606060606061,1493.4000000000001,1500,1304.25,1500
4.0746400356292725,179,146,83,0.00625,1493.125,1500,1304.25,1500
4.097427845001221,180,146,83,0.006666666666666667,1493.125,1500,1304.25,1500
4.120251893997192,181,145,83,0.007142857142857143,1492.825,1500,1304.25,1500
4.143172979354858,182,145,83,0.007142857142857143,1492.8,1500,1304.25,1500
4.165939807891846,183,145,84,0.00625,1492.7750000000001,1500,1304.0,1500
4.189047813415527,184,144,84,0.007142857142857143,1492.45,1500,1304.0,1500
4.211828947067261,185,144,84,0.006493506493506494,1492.4000000000001,1500,1304.0,1500
4.234634876251221,186,144,83,0.007142857142857143,1492.325,1500,1304.25,1500
4.257472991943359,187,144,83,0.007142857142857143,1492.25,1500,1304.25,1500
4.280511856079102,188,143,83,0.007142857142857143,1491.9000000000001,1500,1304.25,1500
4.303380966186523,189,144,83,0.006666666666666667,1492.0999999999999,1500,1304.25,1500
4.3262038230896,190,144,83,0.00625,1492.05,1500,1304.25,1500
4.348989009857178,191,144,83,0.006060606060606061,1492.0250000000001,1500,1304.25,1500
4.371805906295776,192,144,82,0.006666666666666667,1492.0,1500,1304.5,1500
4.39452600479126,193,144,82,0.006666666666666667,1491.9749999999999,1500,1304.5,1500
4.417318820953369,194,143,82,0.007142857142857143,1491.7,1500,1304.5,1500
4.440099000930786,195,143,82,0.007142857142857143,1491.675,1500,1304.5,1500
4.463076829910278,196,143,81,0.007142857142857143,1491.6500000000001,1500,1304.75,1500
4.485857009887695,197,143,81,0.007142857142857143,1491.625,1500,1304.75,1500
4.508636951446533,198,143,81,0.007142857142857143,1491.625,1500,1304.75,1500
4.531389951705933,199,143,82,0.006493506493506494,1491.5999999999999,1500,1304.5,1500
4.554250955581665,200,143,82,0.006666666666666667,1491.575,1500,1304.5,1500
4.577021837234497,201,142,82,0.007142857142857143,1491.2750000000001,1500,1304.5,1500
4.599812984466553,202,142,82,0.007142857142857143,1491.2249999999999,1500,1304.5,1500
4.622720003128052,203,143,82,0.006060606060606061,1491.45,1500,1304.5,1500
4.645525932312012,204,142,81,0.007142857142857143,1491.175,1500,1304.75,1500
4.668288946151733,205,143,83,0.006060606060606061,1491.425,1500,1304.25,1500
4.691104888916016,206,142,83,0.006666666666666667,1491.1500000000001,1500,1304.25,1500
4.713860034942627,207,141,82,0.007142857142857143,1490.8499999999999,1500,1304.5,1500
4.736658811569214,208,142,82,0.006666666666666667,1491.075,1500,1304.5,1500
4.759429931640625,209,142,82,0.006666666666666667,1491.05,1500,1304.5,1500
4.782240867614746,210,141,82,0.007142857142857143,1490.75,1500,1304.5,1500
4.805003881454468,211,141,81,0.007142857142857143,1490.7249999999999,1500,1304.75,1500
4.827811002731323,212,141,81,0.007142857142857143,1490.7,1500,1304.75,1500
4.850668907165527,213,142,82,0.006666666666666667,1490.925,1500,1304.5,1500
4.87362003326416,214,140,82,0.007142857142857143,1490.375,1500,1304.5,1500
4.89636492729187,215,140,81,0.007142857142857143,1490.3,1500,1304.75,1500
4.9191648960113525,216,141,81,0.006060606060606061,1490.5250000000001,1500,1304.75,1500
4.9419848918914795,217,140,81,0.007142857142857143,1490.25,1500,1304.75,1500
4.96480393409729,218,140,81,0.007142857142857143,1490.2,1500,1304.75,1500
4.987581968307495,219,140,81,0.007142857142857143,1490.1500000000001,1500,1304.75,1500
5.010530948638916,220,141,81,0.006666666666666667,1490.4000000000001,1500,1304.75,1500
5.03344988822937,221,140,81,0.007142857142857143,1490.125,1500,1304.75,1500
5.05623197555542,222,141,81,0.006666666666666667,1490.375,1500,1304.75,1500
5.0789759159088135,223,141,81,0.006493506493506494,1490.3499999999999,1500,1304.75,1500
5.101776838302612,224,141,81,0.006493506493506494,1490.375,1500,1304.75,1500
5.124544858932495,225,141,81,0.007142857142857143,1490.4000000000001,1500,1304.75,1500
5.1473729610443115,226,141,81,0.006493506493506494,1490.4000000000001,1500,1304.75,1500
5.170199871063232,227,141,80,0.007142857142857143,1490.425,1500,1305.0,1500
5.19310188293457,228,141,80,0.007142857142857143,1490.45,1500,1305.0,1500
5.215862035751343,229,141,80,0.007142857142857143,1490.4749999999999,1500,1305.0,1500
5.238688945770264,230,141,80,0.007142857142857143,1490.4749999999999,1500,1305.0,1500
5.261449813842773,231,142,81,0.006666666666666667,1490.7750000000001,1500,1304.75,1500
5.284240007400513,232,141,81,0.007142857142857143,1490.5250000000001,1500,1304.75,1500
5.3070080280303955,233,142,81,0.00625,1490.8,1500,1304.75,1500
5.330154895782471,234,142,80,0.006666666666666667,1490.825,1500,1305.0,1500
5.353031873703003,235,141,79,0.007142857142857143,1490.575,1500,1305.25,1500
5.375820875167847,236,141,80,0.007142857142857143,1490.575,1500,1305.0,1500
5.39855694770813,237,141,80,0.007142857142857143,1490.575,1500,1305.0,1500
5.421371936798096,238,141,81,0.007142857142857143,1490.575,1500,1304.75,1500
5.444167852401733,239,141,80,0.007142857142857143,1490.575,1500,1305.0,1500
5.466990947723389,240,142,80,0.007142857142857143,1490.8499999999999,1500,1305.0,1500
5.489806890487671,241,142,81,0.007142857142857143,1490.8499999999999,1500,1304.75,1500
5.512876033782959,242,143,81,0.006666666666666667,1491.1500000000001,1500,1304.75,1500
5.535705804824829,243,142,82,0.007936507936507936,1490.9000000000001,1500,1304.5,1500
5.558498859405518,244,143,82,0.006060606060606061,1491.175,1500,1304.5,1500
5.581321954727173,245,142,81,0.007142857142857143,1490.95,1500,1304.75,1500
5.604106903076172,246,142,81,0.007142857142857143,1490.9749999999999,1500,1304.75,1500
5.6269989013671875,247,142,81,0.007936507936507936,1491.0,1500,1304.75,1500
5.649946928024292,248,143,81,0.006666666666666667,1491.3,1500,1304.75,1500
5.672926902770996,249,142,80,0.007142857142857143,1491.075,1500,1305.0,1500
5.695719003677368,250,143,79,0.006666666666666667,1491.3499999999999,1500,1305.25,1500
5.718514919281006,251,143,80,0.006493506493506494,1491.375,1500,1305.0,1500
5.741281986236572,252,143,79,0.007142857142857143,1491.375,1500,1305.25,1500
5.764084815979004,253,144,79,0.006666666666666667,1491.675,1500,1305.25,1500
5.786847829818726,254,143,79,0.007936507936507936,1491.425,1500,1305.25,1500
5.809654951095581,255,145,78,0.006060606060606061,1492.0,1500,1305.5,1500
5.832648992538452,256,145,78,0.006666666666666667,1492.075,1500,1305.5,1500
5.855489015579224,257,144,78,0.006666666666666667,1491.875,1500,1305.5,1500
5.878222942352295,258,145,79,0.006060606060606061,1492.175,1500,1305.25,1500
5.900974988937378,259,145,78,0.006666666666666667,1492.25,1500,1305.5,1500
5.923811912536621,260,145,79,0.006666666666666667,1492.3,1500,1305.25,1500
5.9466469287872314,261,145,79,0.006666666666666667,1492.3499999999999,1500,1305.25,1500
5.969429969787598,262,145,78,0.006060606060606061,1492.4000000000001,1500,1305.5,1500
5.992247819900513,263,145,78,0.006493506493506494,1492.425,1500,1305.5,1500
6.015045881271362,264,146,77,0.00625,1492.75,1500,1305.75,1500
6.037829875946045,265,146,78,0.006060606060606061,1492.7750000000001,1500,1305.5,1500
6.060664892196655,266,145,78,0.006493506493506494,1492.5250000000001,1500,1305.5,1500
6.083536863327026,267,145,78,0.007142857142857143,1492.55,1500,1305.5,1500
6.106350898742676,268,146,77,0.006060606060606061,1492.825,1500,1305.75,1500
6.129171848297119,269,148,77,0.0053475935828877,1493.4000000000001,1500,1305.75,1500
6.1519458293914795,270,147,77,0.005681818181818182,1493.2,1500,1305.75,1500
6.174738883972168,271,146,76,0.007142857142857143,1492.9749999999999,1500,1306.0,1500
6.197499990463257,272,147,77,0.005681818181818182,1493.2750000000001,1500,1305.75,1500
6.220353841781616,273,147,76,0.005681818181818182,1493.325,1500,1306.0,1500
6.243222951889038,274,147,77,0.005681818181818182,1493.3499999999999,1500,1305.75,1500
6.266113996505737,275,148,77,0.005555555555555556,1493.6500000000001,1500,1305.75,1500
6.2891318798065186,276,149,77,0.005050505050505051,1494.0,1497.7700077700079,1305.75,1500
6.312096834182739,277,149,75,0.0058823529411764705,1494.0999999999999,1500,1306.25,1500
6.334888935089111,278,149,75,0.0053475935828877,1494.175,1500,1306.25,1500
6.357699871063232,279,149,75,0.0053475935828877,1494.2,1500,1306.25,1500
6.3805108070373535,280,149,75,0.005555555555555556,1494.25,1500,1306.25,1500
6.403369903564453,281,149,76,0.005050505050505051,1494.325,1497.7700077700079,1306.0,1500
6.426261901855469,282,149,75,0.005050505050505051,1494.375,1497.7700077700079,1306.25,1500
6.4491870403289795,283,150,75,0.0053475935828877,1494.7,1500,1306.25,1500
6.471951961517334,284,150,75,0.0053475935828877,1494.7750000000001,1500,1306.25,1500
6.495074033737183,285,150,75,0.005050505050505051,1494.825,1497.7700077700079,1306.25,1500
6.5179829597473145,286,150,76,0.005050505050505051,1494.8499999999999,1497.7700077700079,1306.0,1500
6.540935039520264,287,151,75,0.004901960784313725,1495.1500000000001,1496.2845651080945,1306.25,1500
6.563851833343506,288,151,76,0.005050505050505051,1495.2,1497.7700077700079,1306.0,1500
6.5867578983306885,289,151,76,0.005050505050505051,1495.25,1497.7700077700079,1306.0,1500
6.609632968902588,290,151,76,0.005050505050505051,1495.3,1497.7700077700079,1306.0,1500
6.632836818695068,291,152,76,0.005050505050505051,1495.625,1497.7700077700079,1306.0,1500
6.655719041824341,292,152,76,0.005050505050505051,1495.7,1497.7700077700079,1306.0,1500
6.678653001785278,293,152,76,0.005050505050505051,1495.75,1497.7700077700079,1306.0,1500
6.701519012451172,294,153,76,0.004784688995215311,1496.075,1495.1118472171104,1306.0,1500
6.724467992782593,295,153,75,0.004629629629629629,1496.1500000000001,1493.5612535612536,1306.25,1500
6.74737286567688,296,153,75,0.005050505050505051,1496.2249999999999,1497.7700077700079,1306.25,1500
6.7703399658203125,297,153,76,0.005050505050505051,1496.2750000000001,1497.7700077700079,1306.0,1500
6.793298006057739,298,153,76,0.004629629629629629,1496.325,1493.5612535612536,1306.0,1500
6.816222906112671,299,154,76,0.004629629629629629,1496.6500000000001,1493.5612535612536,1306.0,1500
6.839120864868164,300,154,76,0.005050505050505051,1496.7249999999999,1497.7700077700079,1306.0,1500
6.862094879150391,301,154,76,0.005050505050505051,1496.7750000000001,1497.7700077700079,1306.0,1500
6.884946823120117,302,155,75,0.0053475935828877,1497.0999999999999,1500,1306.25,1500
6.907763957977295,303,156,73,0.0043859649122807015,1497.45,1491.1246063877643,1306.75,1500
6.930712938308716,304,156,73,0.004629629629629629,1497.5250000000001,1493.5612535612536,1306.75,1500
6.953711032867432,305,157,74,0.0043859649122807015,1497.875,1491.1246063877643,1306.5,1500
6.976598024368286,306,157,74,0.0043859649122807015,1497.9749999999999,1491.1246063877643,1306.5,1500
6.999572992324829,307,157,73,0.004629629629629629,1498.075,1493.5612535612536,1306.75,1500
7.022616863250732,308,157,73,0.004629629629629629,1498.175,1493.5612535612536,1306.75,1500
7.045624017715454,309,158,73,0.0043859649122807015,1498.5250000000001,1491.1246063877643,1306.75,1500
7.06851601600647,310,159,72,0.0043859649122807015,1498.9000000000001,1491.1246063877643,1307.0,1500
7.091472864151001,311,159,73,0.0043859649122807015,1499.0250000000001,1491.1246063877643,1306.75,1500
7.114384889602661,312,159,74,0.004629629629629629,1499.125,1493.5612535612536,1306.5,1500
7.1373069286346436,313,159,74,0.004629629629629629,1499.2,1493.5612535612536,1306.5,1500
7.160274982452393,314,160,74,0.0043859649122807015,1499.55,1491.1246063877643,1306.5,1500
7.183321952819824,315,160,72,0.0043859649122807015,1499.625,1491.1246063877643,1307.0,1500
7.206204891204834,316,161,72,0.0043859649122807015,1499.9749999999999,1491.1246063877643,1307.0,1500
7.22914981842041,317,161,73,0.0043859649122807015,1500.075,1491.1246063877643,1306.75,1500
7.252035856246948,318,161,73,0.004629629629629629,1500.175,1493.5612535612536,1306.75,1500
7.274969816207886,319,162,74,0.0043859649122807015,1500.5250000000001,1491.1246063877643,1306.5,1500
7.297845840454102,320,163,74,0.004048582995951417,1500.875,1487.7507872244714,1306.5,1500
7.3207879066467285,321,163,74,0.0043859649122807015,1500.9749999999999,1491.1246063877643,1306.5,1500
7.343772888183594,322,163,74,0.004629629629629629,1501.075,1493.5612535612536,1306.5,1500
7.366700887680054,323,164,75,0.004048582995951417,1501.45,1487.7507872244714,1306.25,1500
7.389578819274902,324,164,75,0.0043859649122807015,1501.55,1491.1246063877643,1306.25,1500
7.412638902664185,325,164,75,0.0043859649122807015,1501.6500000000001,1491.1246063877643,1306.25,1500
7.435521841049194,326,164,76,0.004048582995951417,1501.7249999999999,1487.7507872244714,1306.0,1500
7.458436965942383,327,164,76,0.004048582995951417,1501.8,1487.7507872244714,1306.0,1500
7.4816508293151855,328,165,76,0.004048582995951417,1502.1500000000001,1487.7507872244714,1306.0,1500
7.504698991775513,329,166,76,0.004048582995951417,1502.5,1487.7507872244714,1306.0,1500
7.527643918991089,330,166,76,0.0038461538461538464,1502.575,1485.7264957264956,1306.0,1500
7.550633907318115,331,166,75,0.0038461538461538464,1502.6500000000001,1485.7264957264956,1306.25,1500
7.573663949966431,332,167,74,0.0035714285714285713,1503.0,1482.9792429792431,1306.5,1500
7.596551895141602,333,168,75,0.004048582995951417,1503.3499999999999,1487.7507872244714,1306.25,1500
7.619527816772461,334,168,75,0.004048582995951417,1503.45,1487.7507872244714,1306.25,1500
7.64274787902832,335,169,75,0.0034965034965034965,1503.825,1482.2299922299921,1306.25,1500
7.665684938430786,336,170,74,0.003246753246753247,1504.2249999999999,1480,1306.5,1500
7.68848991394043,337,171,73,0.003401360544217687,1504.6500000000001,1481.2785627071341,1306.75,1500
7.711423873901367,338,173,73,0.003105590062111801,1505.3499999999999,1480,1306.75,1500
7.7342188358306885,339,173,74,0.003246753246753247,1505.5250000000001,1480,1306.5,1500
7.757079839706421,340,173,76,0.003246753246753247,1505.7,1480,1306.0,1500
7.7798919677734375,341,174,78,0.002976190476190476,1506.1500000000001,1480,1305.5,1500
7.80282187461853,342,173,81,0.003246753246753247,1506.05,1480,1304.75,1500
7.825675964355469,343,173,83,0.003246753246753247,1506.175,1480,1304.25,1500
7.848536968231201,344,174,83,0.0033444816053511705,1506.575,1480.7097733184689,1304.25,1500
7.87138295173645,345,174,81,0.003246753246753247,1506.7,1480,1304.75,1500
7.894201993942261,346,175,79,0.003105590062111801,1507.075,1480,1305.25,1500
7.916991949081421,347,176,80,0.002898550724637681,1507.45,1480,1305.0,1500
7.939850807189941,348,176,81,0.0030303030303030303,1507.5250000000001,1480,1304.75,1500
7.9628050327301025,349,177,82,0.002898550724637681,1507.875,1480,1304.5,1500
7.985689878463745,350,178,82,0.002898550724637681,1508.25,1480,1304.5,1500
8.0086989402771,351,178,83,0.002777777777777778,1508.3499999999999,1480,1304.25,1500
8.031556844711304,352,179,83,0.002898550724637681,1508.75,1480,1304.25,1500
8.054358005523682,353,179,84,0.0030303030303030303,1508.9000000000001,1480,1304.0,1500
8.077188968658447,354,180,84,0.0030303030303030303,1509.3,1480,1304.0,1500
8.09999680519104,355,182,86,0.002898550724637681,1510.0,1480,1303.5,1500
8.123000860214233,356,183,86,0.002898550724637681,1510.45,1480,1303.5,1500
8.145833015441895,357,183,86,0.002898550724637681,1510.625,1480,1303.5,1500
8.168651819229126,358,184,86,0.002777777777777778,1511.075,1480,1303.5,1500
8.19143795967102,359,185,86,0.002717391304347826,1511.5250000000001,1480,1303.5,1500
8.21425485610962,360,185,87,0.002898550724637681,1511.7,1480,1303.25,1500
8.237026929855347,361,186,86,0.0026041666666666665,1512.1500000000001,1480,1303.5,1500
8.259982824325562,362,186,85,0.0026041666666666665,1512.325,1480,1303.75,1500
8.28313398361206,363,187,85,0.002898550724637681,1512.7750000000001,1480,1303.75,1500
8.305994987487793,364,188,84,0.002717391304347826,1513.2249999999999,1480,1304.0,1500
8.328840970993042,365,190,85,0.002717391304347826,1513.925,1480,1303.75,1500
8.351696014404297,366,190,85,0.0026041666666666665,1514.0999999999999,1480,1303.75,1500
8.374485969543457,367,191,85,0.002717391304347826,1514.55,1480,1303.75,1500
8.397297859191895,368,191,85,0.002898550724637681,1514.7249999999999,1480,1303.75,1500
8.420078039169312,369,192,83,0.002717391304347826,1515.1500000000001,1480,1304.25,1500
8.443084001541138,370,192,82,0.0026041666666666665,1515.325,1480,1304.5,1500
8.465893983840942,371,194,81,0.002403846153846154,1516.0250000000001,1480,1304.75,1500
8.488708972930908,372,194,81,0.0025575447570332483,1516.2249999999999,1480,1304.75,1500
8.511515855789185,373,197,82,0.0025,1517.2249999999999,1480,1304.5,1500
8.53435492515564,374,197,83,0.002352941176470588,1517.45,1480,1304.25,1500
8.557174921035767,375,196,83,0.0026041666666666665,1517.3499999999999,1480,1304.25,1500
8.580456018447876,376,198,83,0.002352941176470588,1518.05,1480,1304.25,1500
8.60332703590393,377,198,82,0.002403846153846154,1518.2249999999999,1480,1304.5,1500
8.626161813735962,378,199,81,0.0023148148148148147,1518.675,1480,1304.75,1500
8.648980855941772,379,200,82,0.002178649237472767,1519.125,1480,1304.5,1500
8.6718008518219,380,199,82,0.0022624434389140274,1519.05,1480,1304.5,1500
8.694615840911865,381,201,81,0.0023148148148148147,1519.7249999999999,1480,1304.75,1500
8.717473983764648,382,201,82,0.0022624434389140274,1519.9000000000001,1480,1304.5,1500
8.740326881408691,383,203,82,0.002178649237472767,1520,1480,1304.5,1500
8.76313591003418,384,202,82,0.0022624434389140274,1520,1480,1304.5,1500
8.785797834396362,385,205,82,0.0022624434389140274,1520,1480,1304.5,1500
8.808502912521362,386,210,82,0.002178649237472767,1520,1480,1304.5,1500
8.831162929534912,387,209,81,0.0022624434389140274,1520,1480,1304.75,1500
8.85389494895935,388,210,80,0.0021008403361344537,1520,1480,1305.0,1500
8.876577854156494,389,211,79,0.0021008403361344537,1520,1480,1305.25,1500
8.89926290512085,390,212,78,0.002178649237472767,1520,1480,1305.5,1500
8.921923875808716,391,211,78,0.00205761316872428,1520,1480,1305.5,1500
8.944681882858276,392,211,78,0.00205761316872428,1520,1480,1305.5,1500
8.967347860336304,393,211,79,0.00205761316872428,1520,1480,1305.25,1500
8.990063905715942,394,210,80,0.002178649237472767,1520,1480,1305.0,1500
9.012894868850708,395,210,80,0.002178649237472767,1520,1480,1305.0,1500
9.035621881484985,396,209,79,0.00205761316872428,1520,1480,1305.25,1500
9.058287858963013,397,209,79,0.002178649237472767,1520,1480,1305.25,1500
9.081013917922974,398,208,78,0.0019157088122605363,1520,1480,1305.5,1500
9.10370397567749,399,207,77,0.001984126984126984,1520,1480,1305.75,1500
9.126446008682251,400,206,78,0.001984126984126984,1520,1480,1305.5,1500
9.149147987365723,401,204,78,0.001984126984126984,1520,1480,1305.5,1500
9.171836853027344,402,203,78,0.00205761316872428,1520,1480,1305.5,1500
9.194478988647461,403,202,78,0.001984126984126984,1520,1480,1305.5,1500
9.217182874679565,404,201,78,0.001984126984126984,1520,1480,1305.5,1500
9.239840030670166,405,200,78,0.00205761316872428,1520,1480,1305.5,1500
9.262683868408203,406,199,78,0.001984126984126984,1520,1480,1305.5,1500
9.285355806350708,407,198,78,0.0018796992481203006,1520,1480,1305.5,1500
9.308092832565308,408,198,78,0.0018796992481203006,1519.95,1480,1305.5,1500
9.330948829650879,409,196,78,0.0020242914979757085,1519.175,1480,1305.5,1500
9.353806972503662,410,196,79,0.0017543859649122807,1518.925,1480,1305.25,1500
9.376622915267944,411,196,79,0.0018148820326678765,1518.7249999999999,1480,1305.25,1500
9.3994300365448,412,195,80,0.0017543859649122807,1518.2750000000001,1480,1305.0,1500
9.422200918197632,413,195,80,0.0017921146953405018,1518.0999999999999,1480,1305.0,1500
9.445060014724731,414,194,81,0.001697792869269949,1517.675,1480,1304.75,1500
9.467885971069336,415,193,81,0.0016129032258064516,1517.25,1480,1304.75,1500
9.490877866744995,416,192,81,0.001697792869269949,1516.825,1480,1304.75,1500
9.5137939453125,417,191,81,0.0015625,1516.4000000000001,1480,1304.75,1500
9.536597967147827,418,190,81,0.001644736842105263,1515.95,1480,1304.75,1500
9.55946397781372,419,189,79,0.001697792869269949,1515.5250000000001,1480,1305.25,1500
9.582254886627197,420,188,79,0.0015625,1515.075,1480,1305.25,1500
9.605027914047241,421,187,81,0.001644736842105263,1514.5999999999999,1480,1304.75,1500
9.627815008163452,422,186,81,0.001697792869269949,1514.125,1480,1304.75,1500
9.65071702003479,423,185,81,0.0016129032258064516,1513.625,1480,1304.75,1500
9.673557996749878,424,184,80,0.001644736842105263,1513.125,1480,1305.0,1500
9.696385860443115,425,184,80,0.001697792869269949,1512.9000000000001,1480,1305.0,1500
9.71919584274292,426,183,80,0.001594896331738437,1512.425,1480,1305.0,1500
9.742048978805542,427,181,81,0.001644736842105263,1511.675,1480,1304.75,1500
9.764864921569824,428,180,82,0.001697792869269949,1511.175,1480,1304.5,1500
9.787710905075073,429,179,81,0.0015625,1510.675,1480,1304.75,1500
9.810992956161499,430,178,81,0.0016129032258064516,1510.175,1480,1304.75,1500
9.834080934524536,431,176,81,0.0015625,1509.4000000000001,1480,1304.75,1500
9.856884956359863,432,175,80,0.0015625,1508.875,1480,1305.0,1500
9.879693984985352,433,176,79,0.0015151515151515152,1508.9000000000001,1480,1305.25,1500
9.902621030807495,434,174,79,0.0015625,1508.1500000000001,1480,1305.25,1500
9.925479888916016,435,173,80,0.0015625,1507.625,1480,1305.0,1500
9.948290824890137,436,171,81,0.001644736842105263,1506.825,1480,1304.75,1500
9.971130847930908,437,169,81,0.0015625,1506.0250000000001,1480,1304.75,1500
9.99393892288208,438,169,81,0.0015151515151515152,1505.75,1480,1304.75,1500
10.016816854476929,439,168,81,0.0014705882352941176,1505.2249999999999,1480,1304.75,1500
10.039628028869629,440,167,81,0.0015151515151515152,1504.7,1480,1304.75,1500
10.06258487701416,441,165,81,0.0015625,1503.925,1480,1304.75,1500
10.085379838943481,442,164,82,0.0015151515151515152,1503.4000000000001,1480,1304.5,1500
10.108224868774414,443,163,82,0.0014705882352941176,1502.825,1480,1304.5,1500
10.131038904190063,444,161,81,0.0015625,1502.0,1480,1304.75,1500
10.153873920440674,445,161,81,0.0015151515151515152,1501.7,1480,1304.75,1500
10.176668882369995,446,158,81,0.0014705882352941176,1500.625,1480,1304.75,1500
10.199503898620605,447,157,82,0.0014005602240896359,1500.075,1480,1304.5,1500
10.22226881980896,448,155,82,0.0016129032258064516,1499.2249999999999,1480,1304.5,1500
10.245124816894531,449,153,83,0.0015360983102918587,1498.3499999999999,1480,1304.25,1500
10.267993927001953,450,152,84,0.0014005602240896359,1497.7249999999999,1480,1304.0,1500
10.290993928909302,451,150,84,0.0016129032258064516,1496.8499999999999,1480,1304.0,1500
10.313812017440796,452,149,84,0.0014005602240896359,1496.2249999999999,1480,1304.0,1500
10.336684942245483,453,147,84,0.001488095238095238,1495.325,1480,1304.0,1500
10.359505891799927,454,146,85,0.0015360983102918587,1494.7,1480,1303.75,1500
10.382601022720337,455,143,86,0.0015625,1493.5,1480,1303.5,1500
10.405527830123901,456,143,87,0.001443001443001443,1493.125,1480,1303.25,1500
10.428393840789795,457,140,86,0.0015625,1491.95,1480,1303.5,1500
10.4512038230896,458,139,86,0.0015625,1491.3,1480,1303.5,1500
10.474000930786133,459,138,85,0.0016129032258064516,1490.675,1480,1303.75,1500
10.49678087234497,460,137,84,0.0015625,1490.05,1480,1304.0,1500
10.519536972045898,461,135,84,0.0015625,1489.175,1480,1304.0,1500
10.542516946792603,462,135,83,0.0015151515151515152,1488.825,1480,1304.25,1500
10.565407991409302,463,133,83,0.0016129032258064516,1487.9749999999999,1480,1304.25,1500
10.588276863098145,464,130,82,0.0016129032258064516,1486.825,1480,1304.5,1500
10.611294031143188,465,128,81,0.0016666666666666668,1485.95,1480,1304.75,1500
10.63416600227356,466,127,81,0.0015625,1485.3,1480,1304.75,1500
10.656989812850952,467,126,80,0.0015625,1484.7,1480,1305.0,1500
10.679757833480835,468,124,80,0.0017543859649122807,1483.825,1480,1305.0,1500
10.702730894088745,469,123,79,0.0016129032258064516,1483.2,1480,1305.25,1500
10.725543022155762,470,121,79,0.0016666666666666668,1482.3,1480,1305.25,1500
10.748417854309082,471,120,79,0.0016666666666666668,1481.675,1480,1305.25,1500
10.771224975585938,472,119,80,0.001697792869269949,1481.0250000000001,1480,1305.0,1500
10.794139862060547,473,117,80,0.001697792869269949,1480.125,1480,1305.0,1500
10.817080974578857,474,116,81,0.001697792869269949,1480,1480,1304.75,1500
10.839812994003296,475,114,81,0.0017543859649122807,1480,1480,1304.75,1500
10.86268401145935,476,113,82,0.0017543859649122807,1480,1480,1304.5,1500
10.885414838790894,477,113,82,0.001644736842105263,1480,1480,1304.5,1500
10.908085823059082,478,114,82,0.001949317738791423,1480,1480,1304.5,1500
10.930888891220093,479,112,82,0.001697792869269949,1480,1480,1304.5,1500
10.953723907470703,480,111,82,0.001697792869269949,1480,1480,1304.5,1500
10.976476907730103,481,110,84,0.0017543859649122807,1480,1480,1304.0,1500
10.99925184249878,482,106,84,0.0020242914979757085,1480,1480,1304.0,1500
11.022439002990723,483,105,83,0.0020242914979757085,1480,1480,1304.25,1500
11.045339822769165,484,104,84,0.0020242914979757085,1480,1480,1304.0,1500
11.068199872970581,485,103,85,0.0020242914979757085,1480,1480,1303.75,1500
11.090945959091187,486,103,85,0.00205761316872428,1480,1480,1303.75,1500
11.113669872283936,487,102,86,0.001949317738791423,1480,1480,1303.5,1500
11.13641881942749,488,101,85,0.00205761316872428,1480,1480,1303.75,1500
11.159109830856323,489,100,85,0.001949317738791423,1480,1480,1303.75,1500
11.18184781074524,490,99,85,0.001949317738791423,1480,1480,1303.75,1500
11.204594850540161,491,97,85,0.001984126984126984,1480,1480,1303.75,1500
11.227471828460693,492,96,85,0.00205761316872428,1480,1480,1303.75,1500
11.25026798248291,493,96,86,0.001949317738791423,1480,1480,1303.5,1500
11.27306580543518,494,98,86,0.0024154589371980675,1480,1480,1303.5,1500
11.295737981796265,495,107,86,0.0030959752321981426,1480,1480,1303.5,1500
11.318444967269897,496,115,89,0.0025575447570332483,1480,1480,1302.75,1500
11.341121912002563,497,112,89,0.0024509803921568627,1480,1480,1302.75,1500
11.363865852355957,498,111,86,0.0024509803921568627,1480,1480,1303.5,1500
11.38654088973999,499,107,83,0.00205761316872428,1480,1480,1304.25,1500
11.409238815307617,500,105,86,0.00205761316872428,1480,1480,1303.5,1500
11.431975841522217,501,105,89,0.00205761316872428,1480,1480,1302.75,1500
11.454807043075562,502,105,91,0.002178649237472767,1480,1480,1302.25,1500
11.47753095626831,503,105,92,0.002178649237472767,1480,1480,1302.0,1500
11.500258922576904,504,105,91,0.00205761316872428,1480,1480,1302.25,1500
11.523038864135742,505,106,90,0.00205761316872428,1480,1480,1302.5,1500
11.54574990272522,506,106,89,0.00205761316872428,1480,1480,1302.75,1500
11.568480968475342,507,107,88,0.00205761316872428,1480,1480,1303.0,1500
11.591174840927124,508,107,88,0.00205761316872428,1480,1480,1303.0,1500
11.613890886306763,509,107,88,0.00205761316872428,1480,1480,1303.0,1500
11.636562824249268,510,108,89,0.0022624434389140274,1480,1480,1302.75,1500
11.659255981445312,511,108,87,0.002564102564102564,1480,1480,1303.25,1500
11.681922912597656,512,108,82,0.0022624434389140274,1480,1480,1304.5,1500
11.704640865325928,513,108,79,0.002403846153846154,1480,1480,1305.25,1500
