time,frame,x,y,size_inv,roll,pitch,thrust,yaw
0,1,162,101,0.0025575447570332483,1500.2,1500.5754475703325,1418.0,1500
0.05,2,162,102,0.0033444816053511705,1500.2,1508.4448160535117,1416.0,1500
0.1,3,162,99,0.0036231884057971015,1500.2,1511.231884057971,1422.0,1500
0.15000000000000002,4,162,101,0.002717391304347826,1500.2,1502.1739130434783,1418.0,1500
0.2,5,162,102,0.003105590062111801,1500.2,1506.055900621118,1416.0,1500
0.25,6,162,98,0.004347826086956522,1500.2,1518.4782608695652,1424.0,1500
0.3,7,162,101,0.002840909090909091,1500.2,1503.409090909091,1418.0,1500
0.35,8,163,100,0.002898550724637681,1500.3,1503.9855072463768,1420.0,1500
0.39999999999999997,9,164,97,0.003105590062111801,1500.4,1506.055900621118,1426.0,1500
0.44999999999999996,10,164,97,0.003105590062111801,1500.4,1506.055900621118,1426.0,1500
0.49999999999999994,11,164,97,0.003105590062111801,1500.4,1506.055900621118,1426.0,1500
0.5499999999999999,12,164,97,0.003105590062111801,1500.4,1506.055900621118,1426.0,1500
0.6,13,164,97,0.003105590062111801,1500.4,1506.055900621118,1426.0,1500
0.65,14,164,97,0.003105590062111801,1500.4,1506.055900621118,1426.0,1500
0.7000000000000001,15,164,97,0.003105590062111801,1500.4,1506.055900621118,1426.0,1500
0.7500000000000001,16,164,97,0.003105590062111801,1500.4,1506.055900621118,1426.0,1500
0.8000000000000002,17,164,97,0.003105590062111801,1500.4,1506.055900621118,1426.0,1500
0.8500000000000002,18,164,97,0.003105590062111801,1500.4,1506.055900621118,1426.0,1500
0.9000000000000002,19,164,97,0.003105590062111801,1500.4,1506.055900621118,1426.0,1500
0.9500000000000003,20,164,97,0.003105590062111801,1500.4,1506.055900621118,1426.0,1500
1.0000000000000002,21,164,97,0.003105590062111801,1500.4,1506.055900621118,1426.0,1500
1.0500000000000003,22,164,97,0.003105590062111801,1500.4,1506.055900621118,1426.0,1500
1.1000000000000003,23,164,97,0.003105590062111801,1500.4,1506.055900621118,1426.0,1500
1.1500000000000004,24,164,97,0.003105590062111801,1500.4,1506.055900621118,1426.0,1500
1.2000000000000004,25,164,97,0.003105590062111801,1500.4,1506.055900621118,1426.0,1500
1.2500000000000004,26,164,97,0.003105590062111801,1500.4,1506.055900621118,1426.0,1500
1.3000000000000005,27,164,97,0.003105590062111801,1500.4,1506.055900621118,1426.0,1500
1.3500000000000005,28,164,97,0.003105590062111801,1500.4,1506.055900621118,1426.0,1500
1.4000000000000006,29,164,97,0.003105590062111801,1500.4,1506.055900621118,1426.0,1500
1.4500000000000006,30,164,97,0.003105590062111801,1500.4,1506.055900621118,1426.0,1500
1.5000000000000007,31,164,97,0.003105590062111801,1500.4,1506.055900621118,1426.0,1500
1.5500000000000007,32,164,97,0.003105590062111801,1500.4,1506.055900621118,1426.0,1500
1.6000000000000008,33,164,97,0.003105590062111801,1500.4,1506.055900621118,1426.0,1500
1.6500000000000008,34,164,97,0.003105590062111801,1500.4,1506.055900621118,1426.0,1500
1.7000000000000008,35,164,97,0.003105590062111801,1500.4,1506.055900621118,1426.0,1500
1.7500000000000009,36,164,97,0.003105590062111801,1500.4,1506.055900621118,1426.0,1500
1.800000000000001,37,164,97,0.003105590062111801,1500.4,1506.055900621118,1426.0,1500
1.850000000000001,38,164,97,0.003105590062111801,1500.4,1506.055900621118,1426.0,1500
1.900000000000001,39,164,97,0.003105590062111801,1500.4,1506.055900621118,1426.0,1500
1.950000000000001,40,164,97,0.003105590062111801,1500.4,1506.055900621118,1426.0,1500
2.000000000000001,41,164,97,0.003105590062111801,1500.4,1506.055900621118,1426.0,1500
2.0500000000000007,42,164,97,0.003105590062111801,1500.4,1506.055900621118,1426.0,1500
2.1000000000000005,43,164,97,0.003105590062111801,1500.4,1506.055900621118,1426.0,1500
2.1500000000000004,44,164,97,0.003105590062111801,1500.4,1506.055900621118,1426.0,1500
2.2,45,164,97,0.003105590062111801,1500.4,1506.055900621118,1426.0,1500
2.25,46,164,97,0.003105590062111801,1500.4,1506.055900621118,1426.0,1500
2.3,47,164,97,0.003105590062111801,1500.4,1506.055900621118,1426.0,1500
2.3499999999999996,48,164,97,0.003105590062111801,1500.4,1506.055900621118,1426.0,1500
2.3999999999999995,49,164,97,0.003105590062111801,1500.4,1506.055900621118,1426.0,1500
2.4499999999999993,50,164,97,0.003105590062111801,1500.4,1506.055900621118,1426.0,1500
2.499999999999999,51,164,97,0.003105590062111801,1500.4,1506.055900621118,1426.0,1500
2.549999999999999,52,164,97,0.003105590062111801,1500.4,1506.055900621118,1426.0,1500
2.5999999999999988,53,164,97,0.003105590062111801,1500.4,1506.055900621118,1426.0,1500
2.6499999999999986,54,164,97,0.003105590062111801,1500.4,1506.055900621118,1426.0,1500
2.6999999999999984,55,164,97,0.003105590062111801,1500.4,1506.055900621118,1426.0,1500
2.7499999999999982,56,164,97,0.003105590062111801,1500.4,1506.055900621118,1426.0,1500
2.799999999999998,57,164,97,0.003105590062111801,1500.4,1506.055900621118,1426.0,1500
2.849999999999998,58,164,97,0.003105590062111801,1500.4,1506.055900621118,1426.0,1500
2.8999999999999977,59,164,97,0.003105590062111801,1500.4,1506.055900621118,1426.0,1500
2.9499999999999975,60,164,97,0.003105590062111801,1500.4,1506.055900621118,1426.0,1500
2.9999999999999973,61,164,97,0.003105590062111801,1500.4,1506.055900621118,1426.0,1500
3.049999999999997,62,164,97,0.003105590062111801,1500.4,1506.055900621118,1426.0,1500
3.099999999999997,63,164,97,0.003105590062111801,1500.4,1506.055900621118,1426.0,1500
3.149999999999997,64,164,97,0.003105590062111801,1500.4,1506.055900621118,1426.0,1500
3.1999999999999966,65,164,97,0.003105590062111801,1500.4,1506.055900621118,1426.0,1500
3.2499999999999964,66,164,97,0.003105590062111801,1500.4,1506.055900621118,1426.0,1500
3.2999999999999963,67,164,97,0.003105590062111801,1500.4,1506.055900621118,1426.0,1500
3.349999999999996,68,164,97,0.003105590062111801,1500.4,1506.055900621118,1426.0,1500
3.399999999999996,69,164,97,0.003105590062111801,1500.4,1506.055900621118,1426.0,1500
3.4499999999999957,70,164,97,0.003105590062111801,1500.4,1506.055900621118,1426.0,1500
3.4999999999999956,71,164,97,0.003105590062111801,1500.4,1506.055900621118,1426.0,1500
3.5499999999999954,72,164,97,0.003105590062111801,1500.4,1506.055900621118,1426.0,1500
3.599999999999995,73,164,97,0.003105590062111801,1500.4,1506.055900621118,1426.0,1500
3.649999999999995,74,164,97,0.003105590062111801,1500.4,1506.055900621118,1426.0,1500
3.699999999999995,75,164,97,0.003105590062111801,1500.4,1506.055900621118,1426.0,1500
3.7499999999999947,76,164,97,0.003105590062111801,1500.4,1506.055900621118,1426.0,1500
3.7999999999999945,77,164,97,0.003105590062111801,1500.4,1506.055900621118,1426.0,1500
3.8499999999999943,78,164,97,0.003105590062111801,1500.4,1506.055900621118,1426.0,1500
3.899999999999994,79,164,97,0.003105590062111801,1500.4,1506.055900621118,1426.0,1500
3.949999999999994,80,164,97,0.003105590062111801,1500.4,1506.055900621118,1426.0,1500
3.999999999999994,81,164,97,0.003105590062111801,1500.4,1506.055900621118,1426.0,1500
4.049999999999994,82,164,97,0.003105590062111801,1500.4,1506.055900621118,1426.0,1500
4.099999999999993,83,164,97,0.003105590062111801,1500.4,1506.055900621118,1426.0,1500
4.149999999999993,84,164,97,0.003105590062111801,1500.4,1506.055900621118,1426.0,1500
4.199999999999993,85,164,97,0.003105590062111801,1500.4,1506.055900621118,1426.0,1500
4.249999999999993,86,164,97,0.003105590062111801,1500.4,1506.055900621118,1426.0,1500
4.299999999999993,87,164,97,0.003105590062111801,1500.4,1506.055900621118,1426.0,1500
4.3499999999999925,88,164,97,0.003105590062111801,1500.4,1506.055900621118,1426.0,1500
4.399999999999992,89,164,97,0.003105590062111801,1500.4,1506.055900621118,1426.0,1500
4.449999999999992,90,164,97,0.003105590062111801,1500.4,1506.055900621118,1426.0,1500
4.499999999999992,91,164,97,0.003105590062111801,1500.4,1506.055900621118,1426.0,1500
4.549999999999992,92,164,97,0.003105590062111801,1500.4,1506.055900621118,1426.0,1500
4.599999999999992,93,164,97,0.003105590062111801,1500.4,1506.055900621118,1426.0,1500
4.6499999999999915,94,164,97,0.003105590062111801,1500.4,1506.055900621118,1426.0,1500
4.699999999999991,95,164,97,0.003105590062111801,1500.4,1506.055900621118,1426.0,1500
4.749999999999991,96,164,97,0.003105590062111801,1500.4,1506.055900621118,1426.0,1500
4.799999999999991,97,164,97,0.003105590062111801,1500.4,1506.055900621118,1426.0,1500
4.849999999999991,98,164,97,0.003105590062111801,1500.4,1506.055900621118,1426.0,1500
4.899999999999991,99,164,97,0.003105590062111801,1500.4,1506.055900621118,1426.0,1500
4.94999999999999,100,164,97,0.003105590062111801,1500.4,1506.055900621118,1426.0,1500
4.99999999999999,101,164,97,0.003105590062111801,1500.4,1506.055900621118,1426.0,1500
5.04999999999999,102,164,97,0.003105590062111801,1500.4,1506.055900621118,1426.0,1500
