time,frame,x,y,size_inv,roll,pitch,thrust,yaw
0.00023317337036132812,1,,,,1500.0,1490.0,1400.0,1500
0.021717071533203125,2,,,,1500.0,1490.0,1400.0,1500
0.04288220405578613,3,,,,1500.0,1490.0,1400.0,1500
0.06396603584289551,4,,,,1500.0,1490.0,1400.0,1500
0.08498501777648926,5,,,,1500.0,1490.0,1400.0,1500
0.1060020923614502,6,,,,1500.0,1490.0,1400.0,1500
0.12701821327209473,7,,,,1500.0,1490.0,1400.0,1500
0.1481001377105713,8,,,,1500.0,1490.0,1400.0,1500
0.16929912567138672,9,,,,1500.0,1490.0,1400.0,1500
0.19039416313171387,10,,,,1500.0,1490.0,1400.0,1500
0.21156716346740723,11,,,,1500.0,1490.0,1400.0,1500
0.2328801155090332,12,,,,1500.0,1490.0,1400.0,1500
0.254162073135376,13,,,,1500.0,1490.0,1400.0,1500
0.27545619010925293,14,,,,1500.0,1490.0,1400.0,1500
0.29681921005249023,15,,,,1500.0,1490.0,1400.0,1500
0.3182060718536377,16,,,,1500.0,1490.0,1400.0,1500
0.3394629955291748,17,,,,1500.0,1490.0,1400.0,1500
0.3607652187347412,18,,,,1500.0,1490.0,1400.0,1500
0.3820312023162842,19,,,,1500.0,1490.0,1400.0,1500
0.4033222198486328,20,,,,1500.0,1490.0,1400.0,1500
0.424638032913208,21,,,,1500.0,1490.0,1400.0,1500
0.4461359977722168,22,,,,1500.0,1490.0,1400.0,1500
0.46747708320617676,23,,,,1500.0,1490.0,1400.0,1500
0.48880505561828613,24,,,,1500.0,1490.0,1400.0,1500
0.5100791454315186,25,,,,1500.0,1490.0,1400.0,1500
0.5313820838928223,26,,,,1500.0,1490.0,1400.0,1500
0.5526421070098877,27,,,,1500.0,1490.0,1400.0,1500
0.5739421844482422,28,,,,1500.0,1490.0,1400.0,1500
0.5952022075653076,29,,,,1500.0,1490.0,1400.0,1500
0.6164991855621338,30,,,,1500.0,1490.0,1400.0,1500
0.6378331184387207,31,,,,1500.0,1490.0,1400.0,1500
0.6591441631317139,32,,,,1500.0,1490.0,1400.0,1500
0.6804161071777344,33,,,,1500.0,1490.0,1400.0,1500
0.7017099857330322,34,,,,1500.0,1490.0,1400.0,1500
0.722966194152832,35,,,,1500.0,1490.0,1400.0,1500
0.7442600727081299,36,,,,1500.0,1490.0,1400.0,1500
0.765538215637207,37,,,,1500.0,1490.0,1400.0,1500
0.7868711948394775,38,,,,1500.0,1490.0,1400.0,1500
0.8081700801849365,39,,,,1500.0,1490.0,1400.0,1500
0.8294730186462402,40,,,,1500.0,1490.0,1400.0,1500
0.8507680892944336,41,,,,1500.0,1490.0,1400.0,1500
0.8720722198486328,42,,,,1500.0,1490.0,1400.0,1500
0.8933842182159424,43,,,,1500.0,1490.0,1400.0,1500
0.9148530960083008,44,,,,1500.0,1490.0,1400.0,1500
0.9361681938171387,45,,,,1500.0,1490.0,1400.0,1500
0.9575049877166748,46,,,,1500.0,1490.0,1400.0,1500
0.9787981510162354,47,,,,1500.0,1490.0,1400.0,1500
1.0000951290130615,48,,,,1500.0,1490.0,1400.0,1500
1.0213541984558105,49,,,,1500.0,1490.0,1400.0,1500
1.0426621437072754,50,,,,1500.0,1490.0,1400.0,1500
1.0639700889587402,51,,,,1500.0,1490.0,1400.0,1500
1.0852630138397217,52,,,,1500.0,1490.0,1400.0,1500
1.1065120697021484,53,,,,1500.0,1490.0,1400.0,1500
1.1279301643371582,54,,,,1500.0,1490.0,1400.0,1500
1.1492021083831787,55,,,,1500.0,1490.0,1400.0,1500
1.170492172241211,56,,,,1500.0,1490.0,1400.0,1500
1.1917710304260254,57,,,,1500.0,1490.0,1400.0,1500
1.2131052017211914,58,,,,1500.0,1490.0,1400.0,1500
1.2343721389770508,59,,,,1500.0,1490.0,1400.0,1500
1.2556700706481934,60,,,,1500.0,1490.0,1400.0,1500
1.2769620418548584,61,,,,1500.0,1490.0,1400.0,1500
1.2982831001281738,62,,,,1500.0,1490.0,1400.0,1500
1.319545030593872,63,,,,1500.0,1490.0,1400.0,1500
1.3408491611480713,64,,,,1500.0,1490.0,1400.0,1500
1.362145185470581,65,,,,1500.0,1490.0,1400.0,1500
1.3834400177001953,66,,,,1500.0,1490.0,1400.0,1500
1.4046921730041504,67,,,,1500.0,1490.0,1400.0,1500
1.4259660243988037,68,,,,1500.0,1490.0,1400.0,1500
1.4472310543060303,69,,,,1500.0,1490.0,1400.0,1500
1.468581199645996,70,,,,1500.0,1490.0,1400.0,1500
1.4899451732635498,71,,,,1500.0,1490.0,1400.0,1500
1.5112550258636475,72,,,,1500.0,1490.0,1400.0,1500
1.532520055770874,73,,,,1500.0,1490.0,1400.0,1500
1.5538110733032227,74,,,,1500.0,1490.0,1400.0,1500
1.5750679969787598,75,,,,1500.0,1490.0,1400.0,1500
1.596358060836792,76,,,,1500.0,1490.0,1400.0,1500
1.6176891326904297,77,,,,1500.0,1490.0,1400.0,1500
1.6389901638031006,78,,,,1500.0,1490.0,1400.0,1500
1.6604971885681152,79,,,,1500.0,1490.0,1400.0,1500
1.681814193725586,80,,,,1500.0,1490.0,1400.0,1500
1.7030630111694336,81,,,,1500.0,1490.0,1400.0,1500
1.7243402004241943,82,,,,1500.0,1490.0,1400.0,1500
1.7455930709838867,83,,,,1500.0,1490.0,1400.0,1500
1.766897201538086,84,,,,1500.0,1490.0,1400.0,1500
1.7881810665130615,85,,,,1500.0,1490.0,1400.0,1500
1.8094720840454102,86,,,,1500.0,1490.0,1400.0,1500
1.830759048461914,87,,,,1500.0,1490.0,1400.0,1500
1.8520681858062744,88,,,,1500.0,1490.0,1400.0,1500
1.873345136642456,89,,,,1500.0,1490.0,1400.0,1500
1.8946290016174316,90,,,,1500.0,1490.0,1400.0,1500
1.9158871173858643,91,,,,1500.0,1490.0,1400.0,1500
1.937178134918213,92,,,,1500.0,1490.0,1400.0,1500
1.9584641456604004,93,,,,1500.0,1490.0,1400.0,1500
1.979755163192749,94,,,,1500.0,1490.0,1400.0,1500
2.0010101795196533,95,,,,1500.0,1490.0,1400.0,1500
2.022278070449829,96,,,,1500.0,1490.0,1400.0,1500
2.04353404045105,97,,,,1500.0,1490.0,1400.0,1500
2.064840078353882,98,,,,1500.0,1490.0,1400.0,1500
2.086090087890625,99,,,,1500.0,1490.0,1400.0,1500
2.107365131378174,100,,,,1500.0,1490.0,1400.0,1500
2.128624200820923,101,,,,1500.0,1490.0,1400.0,1500
2.149923086166382,102,,,,1500.0,1490.0,1400.0,1500
2.1712331771850586,103,,,,1500.0,1490.0,1400.0,1500
2.1926941871643066,104,,,,1500.0,1490.0,1400.0,1500
2.214022159576416,105,,,,1500.0,1490.0,1400.0,1500
2.23535418510437,106,,,,1500.0,1490.0,1400.0,1500
2.2567172050476074,107,,,,1500.0,1490.0,1400.0,1500
2.278118133544922,108,,,,1500.0,1490.0,1400.0,1500
2.299375057220459,109,,,,1500.0,1490.0,1400.0,1500
2.3206520080566406,110,,,,1500.0,1490.0,1400.0,1500
2.3419101238250732,111,,,,1500.0,1490.0,1400.0,1500
2.363206148147583,112,,,,1500.0,1490.0,1400.0,1500
2.3844590187072754,113,,,,1500.0,1490.0,1400.0,1500
2.4057462215423584,114,,,,1500.0,1490.0,1400.0,1500
2.4270670413970947,115,,,,1500.0,1490.0,1400.0,1500
2.4485740661621094,116,,,,1500.0,1490.0,1400.0,1500
2.469884157180786,117,,,,1500.0,1490.0,1400.0,1500
2.491180181503296,118,,,,1500.0,1490.0,1400.0,1500
2.5124289989471436,119,,,,1500.0,1490.0,1400.0,1500
2.5337111949920654,120,,,,1500.0,1490.0,1400.0,1500
2.554969072341919,121,,,,1500.0,1490.0,1400.0,1500
2.5762441158294678,122,,,,1500.0,1490.0,1400.0,1500
2.597506046295166,123,,,,1500.0,1490.0,1400.0,1500
2.6188290119171143,124,,,,1500.0,1490.0,1400.0,1500
2.640111207962036,125,,,,1500.0,1490.0,1400.0,1500
2.661421060562134,126,,,,1500.0,1490.0,1400.0,1500
2.6826841831207275,127,,,,1500.0,1490.0,1400.0,1500
2.7039711475372314,128,,,,1500.0,1490.0,1400.0,1500
2.7252190113067627,129,,,,1500.0,1490.0,1400.0,1500
2.7464990615844727,130,,,,1500.0,1490.0,1400.0,1500
2.767890214920044,131,,,,1500.0,1490.0,1400.0,1500
2.7891712188720703,132,,,,1500.0,1490.0,1400.0,1500
2.8104372024536133,133,,,,1500.0,1490.0,1400.0,1500
2.831759214401245,134,,,,1500.0,1490.0,1400.0,1500
2.853030204772949,135,,,,1500.0,1490.0,1400.0,1500
2.8743340969085693,136,,,,1500.0,1490.0,1400.0,1500
2.8956010341644287,137,,,,1500.0,1490.0,1400.0,1500
2.91691517829895,138,,,,1500.0,1490.0,1400.0,1500
2.9381890296936035,139,,,,1500.0,1490.0,1400.0,1500
2.9595131874084473,140,,,,1500.0,1490.0,1400.0,1500
2.9807920455932617,141,,,,1500.0,1490.0,1400.0,1500
3.0020751953125,142,,,,1500.0,1490.0,1400.0,1500
3.0233230590820312,143,,,,1500.0,1490.0,1400.0,1500
3.0446090698242188,144,,,,1500.0,1490.0,1400.0,1500
3.065899133682251,145,,,,1500.0,1490.0,1400.0,1500
3.087184190750122,146,,,,1500.0,1490.0,1400.0,1500
3.108441114425659,147,,,,1500.0,1490.0,1400.0,1500
3.1297261714935303,148,,,,1500.0,1490.0,1400.0,1500
3.150979995727539,149,,,,1500.0,1490.0,1400.0,1500
3.1722710132598877,150,,,,1500.0,1490.0,1400.0,1500
3.1935272216796875,151,,,,1500.0,1490.0,1400.0,1500
3.2148091793060303,152,,,,1500.0,1490.0,1400.0,1500
3.236103057861328,153,,,,1500.0,1490.0,1400.0,1500
3.2575581073760986,154,,,,1500.0,1490.0,1400.0,1500
3.2788801193237305,155,,,,1500.0,1490.0,1400.0,1500
3.3001911640167236,156,,,,1500.0,1490.0,1400.0,1500
3.321470022201538,157,,,,1500.0,1490.0,1400.0,1500
3.3430140018463135,158,,,,1500.0,1490.0,1400.0,1500
3.3643481731414795,159,,,,1500.0,1490.0,1400.0,1500
3.3856260776519775,160,,,,1500.0,1490.0,1400.0,1500
3.4069221019744873,161,,,,1500.0,1490.0,1400.0,1500
3.4282171726226807,162,,,,1500.0,1490.0,1400.0,1500
3.4495491981506348,163,,,,1500.0,1490.0,1400.0,1500
3.470844030380249,164,,,,1500.0,1490.0,1400.0,1500
3.4921340942382812,165,,,,1500.0,1490.0,1400.0,1500
3.5134031772613525,166,,,,1500.0,1490.0,1400.0,1500
3.5346920490264893,167,,,,1500.0,1490.0,1400.0,1500
3.5559511184692383,168,,,,1500.0,1490.0,1400.0,1500
3.5772440433502197,169,,,,1500.0,1490.0,1400.0,1500
3.59850811958313,170,,,,1500.0,1490.0,1400.0,1500
3.6198060512542725,171,,,,1500.0,1490.0,1400.0,1500
3.641094207763672,172,,,,1500.0,1490.0,1400.0,1500
3.6625380516052246,173,,,,1500.0,1490.0,1400.0,1500
3.6838581562042236,174,,,,1500.0,1490.0,1400.0,1500
3.7051820755004883,175,,,,1500.0,1490.0,1400.0,1500
3.7265031337738037,176,,,,1500.0,1490.0,1400.0,1500
3.747969150543213,177,,,,1500.0,1490.0,1400.0,1500
3.7692501544952393,178,,,,1500.0,1490.0,1400.0,1500
3.7905449867248535,179,,,,1500.0,1490.0,1400.0,1500
3.8118271827697754,180,,,,1500.0,1490.0,1400.0,1500
3.833130121231079,181,,,,1500.0,1490.0,1400.0,1500
3.854767084121704,182,,,,1500.0,1490.0,1400.0,1500
3.8772521018981934,183,,,,1500.0,1490.0,1400.0,1500
3.8996801376342773,184,,,,1500.0,1490.0,1400.0,1500
3.9220921993255615,185,,,,1500.0,1490.0,1400.0,1500
3.944451093673706,186,,,,1500.0,1490.0,1400.0,1500
3.9670422077178955,187,,,,1500.0,1490.0,1400.0,1500
3.989589214324951,188,,,,1500.0,1490.0,1400.0,1500
4.0119500160217285,189,,,,1500.0,1490.0,1400.0,1500
4.034265041351318,190,,,,1500.0,1490.0,1400.0,1500
4.056790113449097,191,,,,1500.0,1490.0,1400.0,1500
4.079322099685669,192,,,,1500.0,1490.0,1400.0,1500
4.101685047149658,193,,,,1500.0,1490.0,1400.0,1500
4.124005079269409,194,,,,1500.0,1490.0,1400.0,1500
4.146353006362915,195,,,,1500.0,1490.0,1400.0,1500
4.168870210647583,196,,,,1500.0,1490.0,1400.0,1500
4.191502094268799,197,,,,1500.0,1490.0,1400.0,1500
4.213900089263916,198,,,,1500.0,1490.0,1400.0,1500
4.236315011978149,199,,,,1500.0,1490.0,1400.0,1500
4.259002208709717,200,,,,1500.0,1490.0,1400.0,1500
4.28140115737915,201,,,,1500.0,1490.0,1400.0,1500
4.303729057312012,202,,,,1500.0,1490.0,1400.0,1500
4.326064109802246,203,,,,1500.0,1490.0,1400.0,1500
4.348387002944946,204,,,,1500.0,1490.0,1400.0,1500
4.370879173278809,205,,,,1500.0,1490.0,1400.0,1500
4.393525123596191,206,,,,1500.0,1490.0,1400.0,1500
4.415966033935547,207,,,,1500.0,1490.0,1400.0,1500
4.438387155532837,208,,,,1500.0,1490.0,1400.0,1500
4.461026191711426,209,,,,1500.0,1490.0,1400.0,1500
4.483432054519653,210,,,,1500.0,1490.0,1400.0,1500
4.505853176116943,211,,,,1500.0,1490.0,1400.0,1500
4.528181076049805,212,,,,1500.0,1490.0,1400.0,1500
4.5505781173706055,213,,,,1500.0,1490.0,1400.0,1500
4.572975158691406,214,,,,1500.0,1490.0,1400.0,1500
4.5955870151519775,215,,,,1500.0,1490.0,1400.0,1500
4.6179962158203125,216,,,,1500.0,1490.0,1400.0,1500
4.640417098999023,217,,,,1500.0,1490.0,1400.0,1500
4.66278600692749,218,,,,1500.0,1490.0,1400.0,1500
4.685159206390381,219,,,,1500.0,1490.0,1400.0,1500
4.707484006881714,220,,,,1500.0,1490.0,1400.0,1500
4.729848146438599,221,,,,1500.0,1490.0,1400.0,1500
4.752201080322266,222,,,,1500.0,1490.0,1400.0,1500
4.7745912075042725,223,,,,1500.0,1490.0,1400.0,1500
4.7971742153167725,224,,,,1500.0,1490.0,1400.0,1500
4.819965124130249,225,,,,1500.0,1490.0,1400.0,1500
4.842372179031372,226,,,,1500.0,1490.0,1400.0,1500
4.864819049835205,227,,,,1500.0,1490.0,1400.0,1500
4.887318134307861,228,,,,1500.0,1490.0,1400.0,1500
4.909840106964111,229,,,,1500.0,1490.0,1400.0,1500
4.932201147079468,230,,,,1500.0,1490.0,1400.0,1500
4.954568147659302,231,,,,1500.0,1490.0,1400.0,1500
4.9770801067352295,232,,,,1500.0,1490.0,1400.0,1500
4.999707221984863,233,,,,1500.0,1490.0,1400.0,1500
5.022407054901123,234,,,,1500.0,1490.0,1400.0,1500
5.0450050830841064,235,,,,1500.0,1490.0,1400.0,1500
5.067911148071289,236,,,,1500.0,1490.0,1400.0,1500
5.090481996536255,237,,,,1500.0,1490.0,1400.0,1500
5.112856149673462,238,,,,1500.0,1490.0,1400.0,1500
5.135239124298096,239,,,,1500.0,1490.0,1400.0,1500
5.15755820274353,240,,,,1500.0,1490.0,1400.0,1500
5.179932117462158,241,,,,1500.0,1490.0,1400.0,1500
5.202259063720703,242,,,,1500.0,1490.0,1400.0,1500
5.224613189697266,243,,,,1500.0,1490.0,1400.0,1500
5.247115135192871,244,,,,1500.0,1490.0,1400.0,1500
5.269769191741943,245,,,,1500.0,1490.0,1400.0,1500
5.292147159576416,246,,,,1500.0,1490.0,1400.0,1500
5.314467191696167,247,,,,1500.0,1490.0,1400.0,1500
5.337115049362183,248,102,3,0.0008764241893076249,1494.2,1450,1415,1500
5.359867095947266,249,101,5,0.000547645125958379,1494.0999999999999,1450,1415,1500
5.382453203201294,250,101,7,0.00040160642570281126,1494.0999999999999,1450,1415,1500
5.4049811363220215,251,104,8,0.0003367003367003367,1494.4000000000001,1450,1415,1500
5.427556037902832,252,105,12,0.00024390243902439024,1494.5,1450,1415,1500
5.4501121044158936,253,106,13,0.00021777003484320557,1494.5999999999999,1450,1415,1500
5.4727091789245605,254,105,14,0.00020080321285140563,1494.5,1450,1415,1500
5.495232105255127,255,106,15,0.00018712574850299402,1494.5999999999999,1450,1415,1500
5.517811059951782,256,108,17,0.00017316017316017316,1494.8,1450,1415,1500
5.540335178375244,257,110,18,0.00016144656118824668,1495.0,1450,1415,1500
5.562895059585571,258,111,20,0.000148720999405116,1495.0999999999999,1450,1415,1500
5.585438013076782,259,112,21,0.0001385809312638581,1495.2,1450,1415,1500
5.60801100730896,260,114,23,0.00012973533990659055,1495.4000000000001,1450,1415,1500
5.630578994750977,261,117,24,0.0001226993865030675,1495.7,1450,1415,1500
5.653215169906616,262,119,27,0.00010888501742160279,1495.9000000000001,1450,1415,1500
5.675826072692871,263,121,29,0.00010272213662044171,1496.0999999999999,1450,1415,1500
5.698430061340332,264,122,30,9.895111814763506e-05,1496.2,1450,1415,1500
5.720966100692749,265,123,31,9.527439024390244e-05,1496.3,1450,1415,1500
5.74352502822876,266,124,33,9.100837277029486e-05,1496.4000000000001,1450,1415,1500
5.76607608795166,267,124,34,8.946144211844694e-05,1496.4000000000001,1450,1415,1500
5.788811206817627,268,125,35,8.573388203017832e-05,1496.5,1450,1415,1500
5.811358213424683,269,125,36,8.341675008341675e-05,1496.5,1450,1415,1500
5.833956003189087,270,127,38,7.967492630069317e-05,1496.7,1450,1415,1500
5.856526136398315,271,127,39,7.765783955890347e-05,1496.7,1450,1415,1500
5.879460096359253,272,128,41,7.303534910896874e-05,1496.8,1450,1415,1500
5.902052164077759,273,127,42,7.262164124909223e-05,1496.7,1450,1415,1500
5.924623012542725,274,126,43,7.139287499107589e-05,1496.5999999999999,1450,1415,1500
5.947329998016357,275,126,43,6.971556051310653e-05,1496.5999999999999,1450,1415,1500
5.9701220989227295,276,125,44,6.858710562414266e-05,1496.5,1450,1415,1500
5.9926841259002686,277,125,45,6.700616456714018e-05,1496.5,1450,1415,1500
6.015266180038452,278,124,46,6.556517178075007e-05,1496.4000000000001,1450,1415,1500
6.0378429889678955,279,123,46,6.486766995329527e-05,1496.3,1450,1415,1500
6.060492038726807,280,122,46,6.447453255963895e-05,1496.2,1450,1415,1500
6.083126068115234,281,120,47,6.418485237483954e-05,1496.0,1450,1415,1500
6.105785131454468,282,119,48,6.173220569170936e-05,1495.9000000000001,1450,1415,1500
6.128369092941284,283,118,48,6.147037128104254e-05,1495.8,1450,1415,1500
6.150994062423706,284,117,49,6.147037128104254e-05,1495.7,1450,1415,1500
6.173572063446045,285,117,50,6.110228522546743e-05,1495.7,1450,1415,1500
6.196149110794067,286,116,51,6.0849458439819885e-05,1495.5999999999999,1450,1415,1500
6.218914031982422,287,116,52,6.048509042521019e-05,1495.5999999999999,1450,1415,1500
6.241552114486694,288,115,52,5.9523809523809524e-05,1495.5,1450,1415,1500
6.264151096343994,289,115,54,5.9523809523809524e-05,1495.5,1450,1415,1500
6.286915063858032,290,114,55,5.8934464875058934e-05,1495.4000000000001,1450,1415,1500
6.309672117233276,291,114,56,5.8934464875058934e-05,1495.4000000000001,1450,1415,1500
6.332593202590942,292,113,58,5.8934464875058934e-05,1495.3,1450,1415,1500
6.355224132537842,293,112,59,5.835667600373483e-05,1495.2,1450,1415,1500
6.377827167510986,294,112,60,5.8011370228564796e-05,1495.2,1450,1415,1500
6.400370121002197,295,112,61,5.8011370228564796e-05,1495.2,1450,1415,1500
6.423623085021973,296,112,64,5.74481530418797e-05,1495.2,1450,1415,1500
6.447268009185791,297,111,64,5.656108597285068e-05,1495.0999999999999,1450,1415,1500
6.470184087753296,298,111,66,5.74481530418797e-05,1495.0999999999999,1450,1415,1500
6.492824077606201,299,111,67,5.549389567147614e-05,1495.0999999999999,1450,1415,1500
6.515462160110474,300,112,69,5.6022408963585436e-05,1495.2,1450,1415,1500
6.538053035736084,301,112,72,5.516936996579499e-05,1495.2,1450,1415,1500
6.560664176940918,302,111,73,5.497526113249038e-05,1495.0999999999999,1450,1415,1500
6.583250045776367,303,111,75,5.497526113249038e-05,1495.0999999999999,1450,1415,1500
6.6058549880981445,304,112,76,5.478851632697787e-05,1495.2,1450,1415,1500
6.628421068191528,305,112,78,5.478851632697787e-05,1495.2,1450,1415,1500
6.65105414390564,306,112,80,5.5444666223109334e-05,1495.2,1450,1415,1500
6.673638105392456,307,112,82,5.511463844797178e-05,1495.2,1450,1415,1500
6.696230173110962,308,112,83,5.443658138268917e-05,1495.2,1450,1415,1500
6.718979120254517,309,113,85,5.411255411255411e-05,1495.3,1450,1415,1500
6.7416090965271,310,114,87,5.3464499572284e-05,1495.4000000000001,1450,1415,1500
6.764209985733032,311,114,91,5.3625053625053626e-05,1495.4000000000001,1450,1415,1500
6.787005186080933,312,114,92,5.411255411255411e-05,1495.4000000000001,1450,1415,1500
6.809791088104248,313,114,94,5.378657487091222e-05,1495.4000000000001,1450,1412.0,1500
6.832519054412842,314,115,96,5.299136240792751e-05,1495.5,1450,1408.0,1500
6.8552470207214355,315,114,98,5.46000546000546e-05,1495.4000000000001,1450,1404.0,1500
6.878036022186279,316,115,99,5.3633681952266026e-05,1495.5,1450,1402.0,1500
6.900729179382324,317,114,100,5.3960716598316424e-05,1495.4000000000001,1450,1400.0,1500
6.92345118522644,318,114,101,5.3960716598316424e-05,1495.4000000000001,1450,1398.0,1500
6.9461140632629395,319,114,102,5.348737697903295e-05,1495.4000000000001,1450,1396.0,1500
6.969057083129883,320,115,105,5.5269993920300666e-05,1495.5,1450,1390.0,1500
6.991746187210083,321,114,104,5.448403617740002e-05,1495.4000000000001,1450,1392.0,1500
7.01446008682251,322,114,106,5.462689828471539e-05,1495.4000000000001,1450,1388.0,1500
7.037307024002075,323,116,106,5.4291763939410394e-05,1495.5999999999999,1450,1388.0,1500
7.060256004333496,324,116,107,5.4291763939410394e-05,1495.5999999999999,1450,1386.0,1500
7.082935094833374,325,115,108,5.5611166722277836e-05,1495.5,1450,1385,1500
7.10553503036499,326,96,110,7.536930961712391e-05,1493.5999999999999,1450,1385,1500
7.1281211376190186,327,115,108,5.462689828471539e-05,1495.5,1450,1385,1500
7.150719165802002,328,115,112,5.9523809523809524e-05,1495.5,1450,1385,1500
7.173286199569702,329,115,109,5.580357142857143e-05,1495.5,1450,1385,1500
7.195876121520996,330,112,115,6.366182836771072e-05,1495.2,1450,1385,1500
7.218496084213257,331,117,110,5.302226935312831e-05,1495.7,1450,1385,1500
7.241191148757935,332,116,112,5.462689828471539e-05,1495.5999999999999,1450,1385,1500
7.263811111450195,333,117,111,5.348737697903295e-05,1495.7,1450,1385,1500
7.28636908531189,334,117,111,5.334755934915977e-05,1495.7,1450,1385,1500
7.309324026107788,335,117,111,5.381552039608223e-05,1495.7,1450,1385,1500
7.331888198852539,336,112,117,6.304375236414071e-05,1495.2,1450,1385,1500
7.3545081615448,337,117,112,5.348737697903295e-05,1495.7,1450,1385,1500
7.377281188964844,338,121,116,5.484861781483107e-05,1496.0999999999999,1450,1385,1500
7.400084018707275,339,120,112,5.252652589557727e-05,1496.0,1450,1385,1500
7.42264199256897,340,118,112,5.334755934915977e-05,1495.8,1450,1385,1500
7.445233106613159,341,106,117,6.802721088435374e-05,1494.5999999999999,1450,1385,1500
7.467824220657349,342,94,116,8.361204013377926e-05,1493.4000000000001,1450,1385,1500
7.4906980991363525,343,118,115,5.8630393996247655e-05,1495.8,1450,1385,1500
7.513274192810059,344,119,111,5.3633681952266026e-05,1495.9000000000001,1450,1385,1500
7.535860061645508,345,119,112,5.611672278338945e-05,1495.9000000000001,1450,1385,1500
7.558403015136719,346,120,110,5.299136240792751e-05,1496.0,1450,1385,1500
7.580985069274902,347,120,110,5.2675937631689846e-05,1496.0,1450,1385,1500
7.6035521030426025,348,120,110,5.2675937631689846e-05,1496.0,1450,1385,1500
7.626145124435425,349,122,114,5.549389567147614e-05,1496.2,1450,1385,1500
7.6489081382751465,350,121,111,5.175983436853002e-05,1496.0999999999999,1450,1385,1500
7.6715521812438965,351,123,109,4.9558925562493803e-05,1496.3,1450,1385,1500
7.694125175476074,352,123,114,5.3339022829101774e-05,1496.3,1450,1385,1500
7.716794013977051,353,123,112,5.31632110579479e-05,1496.3,1450,1385,1500
7.739432096481323,354,123,108,4.927079227433977e-05,1496.3,1450,1385,1500
7.762040138244629,355,123,108,4.9691910157026436e-05,1496.3,1450,1385,1500
7.7846550941467285,356,124,107,4.829518014102193e-05,1496.4000000000001,1450,1386.0,1500
7.8074049949646,357,124,106,4.898599000685804e-05,1496.4000000000001,1450,1388.0,1500
7.830089092254639,358,125,105,4.815100154083205e-05,1496.5,1450,1390.0,1500
7.852826118469238,359,126,103,4.801690194948622e-05,1496.5999999999999,1450,1394.0,1500
7.875550031661987,360,125,101,4.815100154083205e-05,1496.5,1450,1398.0,1500
7.898214101791382,361,126,100,4.801690194948622e-05,1496.5999999999999,1450,1400.0,1500
7.920881032943726,362,127,98,4.748338081671415e-05,1496.7,1450,1404.0,1500
7.943608999252319,363,128,96,4.7628119641836543e-05,1496.8,1450,1408.0,1500
7.966371059417725,364,128,95,4.804227720393947e-05,1496.8,1450,1410.0,1500
7.989431142807007,365,129,93,4.804227720393947e-05,1496.9000000000001,1450,1414.0,1500
8.012128114700317,366,130,91,4.767353165522502e-05,1497.0,1450,1415,1500
8.034740209579468,367,133,89,4.616805170821791e-05,1497.3,1450,1415,1500
8.05750298500061,368,132,86,4.793404275716614e-05,1497.2,1450,1415,1500
8.0802321434021,369,133,84,4.767353165522502e-05,1497.3,1450,1415,1500
8.1028151512146,370,137,82,4.609144542772861e-05,1497.7,1450,1415,1500
8.125411987304688,371,138,79,4.5687134502923974e-05,1497.8,1450,1415,1500
8.147989988327026,372,138,77,4.5687134502923974e-05,1497.8,1450,1415,1500
8.17061710357666,373,138,75,4.650297619047619e-05,1497.8,1450,1415,1500
8.19318413734436,374,140,72,4.532269760696157e-05,1498.0,1450,1415,1500
8.215764045715332,375,139,70,4.532269760696157e-05,1497.9000000000001,1450,1415,1500
8.238348007202148,376,140,68,4.4420753375977256e-05,1498.0,1450,1415,1500
8.260976076126099,377,140,66,4.402764936380047e-05,1498.0,1450,1415,1500
8.283534049987793,378,141,63,4.254594962559564e-05,1498.0999999999999,1450,1415,1500
8.306148052215576,379,142,61,4.1573127130622764e-05,1498.2,1450,1415,1500
8.328875064849854,380,143,60,4.0824658093488464e-05,1498.3,1450,1415,1500
8.35151219367981,381,145,60,4.025764895330113e-05,1498.5,1450,1415,1500
8.374098062515259,382,147,58,3.887420307883688e-05,1498.7,1450,1415,1500
8.396844148635864,383,149,59,3.7852979029449615e-05,1498.9000000000001,1450,1415,1500
8.419695138931274,384,152,60,3.706037134492088e-05,1499.2,1450,1415,1500
8.44263505935669,385,154,60,3.6429872495446266e-05,1499.4000000000001,1450,1415,1500
8.465457201004028,386,156,61,3.5370684776457274e-05,1499.5999999999999,1450,1415,1500
8.48821210861206,387,158,62,3.435717721432007e-05,1499.8,1450,1415,1500
8.51101803779602,388,160,64,3.257116800208455e-05,1500.0,1450,1415,1500
8.533666133880615,389,160,64,3.178639542275906e-05,1500.0,1450,1415,1500
8.556276082992554,390,161,64,3.114294612270321e-05,1500.0999999999999,1450,1415,1500
8.579277992248535,391,161,64,3.064664419246093e-05,1500.0999999999999,1450,1415,1500
8.60191011428833,392,162,64,2.9815146094215862e-05,1500.2,1450,1415,1500
8.62453317642212,393,165,64,2.903347559736376e-05,1500.5,1450,1415,1500
8.64723801612854,394,166,64,2.8291744468963958e-05,1500.5999999999999,1450,1415,1500
8.670361995697021,395,168,63,2.7901785714285713e-05,1500.8,1450,1415,1500
8.692979097366333,396,169,63,2.750880281690141e-05,1500.9000000000001,1450,1415,1500
8.715589046478271,397,171,62,2.6936026936026937e-05,1501.0999999999999,1450,1415,1500
8.738204002380371,398,170,62,2.6632576968147438e-05,1501.0,1450,1415,1500
8.760838031768799,399,170,63,2.6422871637689582e-05,1501.0,1450,1415,1500
8.783415079116821,400,170,64,2.5926213994970316e-05,1501.0,1450,1415,1500
8.806010007858276,401,168,64,2.558395374421163e-05,1500.8,1450,1415,1500
8.828640222549438,402,165,64,2.5087177943353153e-05,1500.5,1450,1415,1500
8.85145902633667,403,162,64,2.442002442002442e-05,1500.2,1450,1415,1500
8.874129056930542,404,160,65,2.3780647309219758e-05,1500.0,1450,1415,1500
8.896898984909058,405,159,66,2.332089552238806e-05,1499.9000000000001,1450,1415,1500
8.919663190841675,406,159,69,2.248201438848921e-05,1499.9000000000001,1450,1415,1500
8.942306995391846,407,159,74,2.0833333333333333e-05,1499.9000000000001,1450,1415,1500
8.964942216873169,408,160,77,1.9969646137870437e-05,1500.0,1450,1415,1500
8.987560033798218,409,159,80,1.940993788819876e-05,1499.9000000000001,1450,1415,1500
9.010133028030396,410,160,82,1.876665540667342e-05,1500.0,1450,1415,1500
9.032706022262573,411,160,85,1.811200463667319e-05,1500.0,1450,1415,1500
9.055294036865234,412,160,87,1.7700368167657886e-05,1500.0,1450,1415,1500
9.077961206436157,413,160,89,1.7307026652821045e-05,1500.0,1450,1415,1500
9.100537061691284,414,160,91,1.693078694297711e-05,1500.0,1450,1415,1500
9.123154163360596,415,160,88,1.7600366087614624e-05,1500.0,1450,1415,1500
9.14573621749878,416,160,95,1.6310286897946536e-05,1500.0,1450,1410.0,1500
9.168439149856567,417,160,98,1.581352689090248e-05,1500.0,1450,1404.0,1500
9.191131114959717,418,159,99,1.5625e-05,1499.9000000000001,1450,1402.0,1500
9.213924169540405,419,160,99,1.557632398753894e-05,1500.0,1450,1402.0,1500
9.236818075180054,420,160,99,1.557632398753894e-05,1500.0,1450,1402.0,1500
9.259701013565063,421,160,99,1.557632398753894e-05,1500.0,1450,1402.0,1500
9.28240418434143,422,160,99,1.557632398753894e-05,1500.0,1450,1402.0,1500
9.305050134658813,423,160,99,1.557632398753894e-05,1500.0,1450,1402.0,1500
9.327754020690918,424,160,99,1.557632398753894e-05,1500.0,1450,1402.0,1500
9.350411176681519,425,159,99,1.5625e-05,1499.9000000000001,1450,1402.0,1500
9.37312912940979,426,160,99,1.557632398753894e-05,1500.0,1450,1402.0,1500
9.395786046981812,427,160,99,1.557632398753894e-05,1500.0,1450,1402.0,1500
9.418469190597534,428,160,99,1.557632398753894e-05,1500.0,1450,1402.0,1500
9.4411141872406,429,160,99,1.557632398753894e-05,1500.0,1450,1402.0,1500
9.46380615234375,430,160,99,1.557632398753894e-05,1500.0,1450,1402.0,1500
9.486446142196655,431,160,99,1.557632398753894e-05,1500.0,1450,1402.0,1500
9.509451150894165,432,160,99,1.557632398753894e-05,1500.0,1450,1402.0,1500
9.532093048095703,433,160,99,1.557632398753894e-05,1500.0,1450,1402.0,1500
9.554793119430542,434,160,99,1.557632398753894e-05,1500.0,1450,1402.0,1500
9.577489137649536,435,159,99,1.5625e-05,1499.9000000000001,1450,1402.0,1500
9.600176095962524,436,160,99,1.557632398753894e-05,1500.0,1450,1402.0,1500
9.622902154922485,437,160,99,1.557632398753894e-05,1500.0,1450,1402.0,1500
9.645787000656128,438,159,99,1.5625e-05,1499.9000000000001,1450,1402.0,1500
9.668507099151611,439,159,99,1.5625e-05,1499.9000000000001,1450,1402.0,1500
9.691215991973877,440,159,99,1.5625e-05,1499.9000000000001,1450,1402.0,1500
9.71385908126831,441,160,99,1.557632398753894e-05,1500.0,1450,1402.0,1500
9.736541986465454,442,160,99,1.557632398753894e-05,1500.0,1450,1402.0,1500
9.759579181671143,443,160,99,1.557632398753894e-05,1500.0,1450,1402.0,1500
9.782287120819092,444,160,99,1.557632398753894e-05,1500.0,1450,1402.0,1500
9.804977178573608,445,159,99,1.5625e-05,1499.9000000000001,1450,1402.0,1500
9.827688217163086,446,159,99,1.5625e-05,1499.9000000000001,1450,1402.0,1500
9.85034704208374,447,160,99,1.557632398753894e-05,1500.0,1450,1402.0,1500
9.873369216918945,448,160,99,1.557632398753894e-05,1500.0,1450,1402.0,1500
9.8960599899292,449,159,99,1.5625e-05,1499.9000000000001,1450,1402.0,1500
9.918991088867188,450,160,99,1.557632398753894e-05,1500.0,1450,1402.0,1500
9.941917181015015,451,160,99,1.557632398753894e-05,1500.0,1450,1402.0,1500
9.964694023132324,452,160,99,1.557632398753894e-05,1500.0,1450,1402.0,1500
9.987478017807007,453,160,99,1.557632398753894e-05,1500.0,1450,1402.0,1500
10.010200023651123,454,160,99,1.557632398753894e-05,1500.0,1450,1402.0,1500
10.032860040664673,455,159,99,1.5625e-05,1499.9000000000001,1450,1402.0,1500
10.055577993392944,456,160,99,1.557632398753894e-05,1500.0,1450,1402.0,1500
10.07827615737915,457,160,99,1.557632398753894e-05,1500.0,1450,1402.0,1500
10.100950002670288,458,160,99,1.557632398753894e-05,1500.0,1450,1402.0,1500
10.12362003326416,459,159,99,1.5625e-05,1499.9000000000001,1450,1402.0,1500
10.146311044692993,460,159,99,1.5625e-05,1499.9000000000001,1450,1402.0,1500
10.169390201568604,461,160,99,1.557632398753894e-05,1500.0,1450,1402.0,1500
10.192131042480469,462,160,99,1.557632398753894e-05,1500.0,1450,1402.0,1500
10.21478009223938,463,160,99,1.557632398753894e-05,1500.0,1450,1402.0,1500
10.237498998641968,464,160,99,1.557632398753894e-05,1500.0,1450,1402.0,1500
10.26018214225769,465,160,99,1.557632398753894e-05,1500.0,1450,1402.0,1500
10.282869100570679,466,159,99,1.5625e-05,1499.9000000000001,1450,1402.0,1500
10.305557012557983,467,160,99,1.557632398753894e-05,1500.0,1450,1402.0,1500
10.328263998031616,468,159,99,1.5625e-05,1499.9000000000001,1450,1402.0,1500
10.350903034210205,469,160,99,1.557632398753894e-05,1500.0,1450,1402.0,1500
10.373624086380005,470,160,99,1.557632398753894e-05,1500.0,1450,1402.0,1500
10.396315097808838,471,160,99,1.557632398753894e-05,1500.0,1450,1402.0,1500
10.419149160385132,472,159,99,1.5625e-05,1499.9000000000001,1450,1402.0,1500
10.441964149475098,473,160,99,1.557632398753894e-05,1500.0,1450,1402.0,1500
10.464925050735474,474,159,99,1.5625e-05,1499.9000000000001,1450,1402.0,1500
10.487652063369751,475,159,99,1.5625e-05,1499.9000000000001,1450,1402.0,1500
10.510379076004028,476,160,99,1.557632398753894e-05,1500.0,1450,1402.0,1500
10.533018112182617,477,160,99,1.557632398753894e-05,1500.0,1450,1402.0,1500
10.555728197097778,478,159,99,1.5625e-05,1499.9000000000001,1450,1402.0,1500
10.578407049179077,479,160,99,1.557632398753894e-05,1500.0,1450,1402.0,1500
10.601080179214478,480,160,99,1.557632398753894e-05,1500.0,1450,1402.0,1500
10.623752117156982,481,159,99,1.5625e-05,1499.9000000000001,1450,1402.0,1500
10.646480083465576,482,160,99,1.557632398753894e-05,1500.0,1450,1402.0,1500
10.669527053833008,483,159,99,1.5625e-05,1499.9000000000001,1450,1402.0,1500
10.692247152328491,484,159,99,1.5625e-05,1499.9000000000001,1450,1402.0,1500
10.714854001998901,485,160,99,1.557632398753894e-05,1500.0,1450,1402.0,1500
10.737529993057251,486,159,99,1.5625e-05,1499.9000000000001,1450,1402.0,1500
10.760210037231445,487,160,99,1.557632398753894e-05,1500.0,1450,1402.0,1500
10.783022165298462,488,160,99,1.557632398753894e-05,1500.0,1450,1402.0,1500
10.80569314956665,489,160,99,1.557632398753894e-05,1500.0,1450,1402.0,1500
10.828392028808594,490,160,99,1.557632398753894e-05,1500.0,1450,1402.0,1500
10.851051092147827,491,159,99,1.5625e-05,1499.9000000000001,1450,1402.0,1500
10.873776197433472,492,160,99,1.557632398753894e-05,1500.0,1450,1402.0,1500
10.896429061889648,493,160,99,1.557632398753894e-05,1500.0,1450,1402.0,1500
10.919443130493164,494,159,99,1.5625e-05,1499.9000000000001,1450,1402.0,1500
10.942114114761353,495,160,99,1.557632398753894e-05,1500.0,1450,1402.0,1500
10.96481704711914,496,160,99,1.557632398753894e-05,1500.0,1450,1402.0,1500
10.987488985061646,497,159,99,1.5625e-05,1499.9000000000001,1450,1402.0,1500
11.010167121887207,498,160,99,1.557632398753894e-05,1500.0,1450,1402.0,1500
11.032795190811157,499,159,99,1.5625e-05,1499.9000000000001,1450,1402.0,1500
11.055501222610474,500,159,99,1.5625e-05,1499.9000000000001,1450,1402.0,1500
11.078179121017456,501,160,99,1.557632398753894e-05,1500.0,1450,1402.0,1500
11.101170063018799,502,159,99,1.5625e-05,1499.9000000000001,1450,1402.0,1500
11.12385106086731,503,160,99,1.557632398753894e-05,1500.0,1450,1402.0,1500
11.146650075912476,504,160,99,1.557632398753894e-05,1500.0,1450,1402.0,1500
11.169665098190308,505,160,99,1.557632398753894e-05,1500.0,1450,1402.0,1500
11.192350149154663,506,159,99,1.5625e-05,1499.9000000000001,1450,1402.0,1500
11.214992046356201,507,160,99,1.557632398753894e-05,1500.0,1450,1402.0,1500
11.237680196762085,508,160,99,1.557632398753894e-05,1500.0,1450,1402.0,1500
11.26033616065979,509,159,99,1.5625e-05,1499.9000000000001,1450,1402.0,1500
11.28299617767334,510,159,99,1.5625e-05,1499.9000000000001,1450,1402.0,1500
11.30562710762024,511,160,99,1.557632398753894e-05,1500.0,1450,1402.0,1500
11.328301191329956,512,160,99,1.557632398753894e-05,1500.0,1450,1402.0,1500
11.350926160812378,513,159,99,1.5625e-05,1499.9000000000001,1450,1402.0,1500
11.373620986938477,514,160,99,1.557632398753894e-05,1500.0,1450,1402.0,1500
11.396249055862427,515,159,99,1.5625e-05,1499.9000000000001,1450,1402.0,1500
11.419252157211304,516,159,99,1.5625e-05,1499.9000000000001,1450,1402.0,1500
11.442017078399658,517,160,99,1.557632398753894e-05,1500.0,1450,1402.0,1500
11.464964151382446,518,160,99,1.557632398753894e-05,1500.0,1450,1402.0,1500
11.48769211769104,519,160,99,1.557632398753894e-05,1500.0,1450,1402.0,1500
11.510390043258667,520,160,99,1.557632398753894e-05,1500.0,1450,1402.0,1500
11.533018112182617,521,160,99,1.557632398753894e-05,1500.0,1450,1402.0,1500
11.555707216262817,522,160,99,1.557632398753894e-05,1500.0,1450,1402.0,1500
11.578359127044678,523,160,99,1.557632398753894e-05,1500.0,1450,1402.0,1500
11.6010160446167,524,159,99,1.5625e-05,1499.9000000000001,1450,1402.0,1500
11.623661041259766,525,160,99,1.557632398753894e-05,1500.0,1450,1402.0,1500
11.64634919166565,526,160,99,1.557632398753894e-05,1500.0,1450,1402.0,1500
11.669153213500977,527,159,99,1.5625e-05,1499.9000000000001,1450,1402.0,1500
11.691863059997559,528,159,99,1.5625e-05,1499.9000000000001,1450,1402.0,1500
11.714503049850464,529,160,99,1.557632398753894e-05,1500.0,1450,1402.0,1500
11.73734998703003,530,160,99,1.557632398753894e-05,1500.0,1450,1402.0,1500
11.760197162628174,531,159,99,1.5625e-05,1499.9000000000001,1450,1402.0,1500
11.78288221359253,532,159,99,1.5625e-05,1499.9000000000001,1450,1402.0,1500
11.805520057678223,533,160,99,1.557632398753894e-05,1500.0,1450,1402.0,1500
11.828214168548584,534,160,99,1.557632398753894e-05,1500.0,1450,1402.0,1500
11.850895166397095,535,159,99,1.5625e-05,1499.9000000000001,1450,1402.0,1500
11.873674154281616,536,160,99,1.557632398753894e-05,1500.0,1450,1402.0,1500
11.896352052688599,537,159,99,1.5625e-05,1499.9000000000001,1450,1402.0,1500
11.919443130493164,538,160,99,1.557632398753894e-05,1500.0,1450,1402.0,1500
11.942404985427856,539,159,99,1.5625e-05,1499.9000000000001,1450,1402.0,1500
11.965220212936401,540,159,99,1.5625e-05,1499.9000000000001,1450,1402.0,1500
11.987910985946655,541,160,99,1.557632398753894e-05,1500.0,1450,1402.0,1500
12.010609149932861,542,160,99,1.5654596972400945e-05,1500.0,1450,1402.0,1500
12.033230066299438,543,160,98,1.5733660593473677e-05,1500.0,1450,1404.0,1500
12.055943012237549,544,160,97,1.5894208150549938e-05,1500.0,1450,1406.0,1500
12.078607082366943,545,160,96,1.605806596653499e-05,1500.0,1450,1408.0,1500
12.101257085800171,546,160,95,1.622533748701973e-05,1500.0,1450,1410.0,1500
12.123907089233398,547,160,94,1.6482882526496234e-05,1500.0,1450,1412.0,1500
12.146732091903687,548,160,93,1.66591700401486e-05,1500.0,1450,1414.0,1500
12.169552087783813,549,160,91,1.693078694297711e-05,1500.0,1450,1415,1500
12.192151069641113,550,159,91,1.7076502732240437e-05,1499.9000000000001,1450,1415,1500
12.214753150939941,551,160,91,1.702330490441414e-05,1500.0,1450,1415,1500
12.237437009811401,552,159,91,1.7076502732240437e-05,1499.9000000000001,1450,1415,1500
12.260075092315674,553,160,91,1.693078694297711e-05,1500.0,1450,1415,1500
12.28295612335205,554,160,91,1.693078694297711e-05,1500.0,1450,1415,1500
12.305528163909912,555,159,92,1.6801075268817204e-05,1499.9000000000001,1450,1415,1500
12.32813310623169,556,160,93,1.66591700401486e-05,1500.0,1450,1414.0,1500
12.350746154785156,557,160,93,1.6570557433552065e-05,1500.0,1450,1414.0,1500
12.37345004081726,558,159,94,1.644736842105263e-05,1499.9000000000001,1450,1412.0,1500
12.396120071411133,559,160,95,1.622533748701973e-05,1500.0,1450,1410.0,1500
12.418944120407104,560,160,96,1.605806596653499e-05,1500.0,1450,1408.0,1500
12.44171404838562,561,160,97,1.5894208150549938e-05,1500.0,1450,1406.0,1500
12.464680194854736,562,160,98,1.581352689090248e-05,1500.0,1450,1404.0,1500
12.48746919631958,563,160,99,1.5654596972400945e-05,1500.0,1450,1402.0,1500
12.51023006439209,564,160,99,1.557632398753894e-05,1500.0,1450,1402.0,1500
12.532884120941162,565,160,99,1.557632398753894e-05,1500.0,1450,1402.0,1500
12.55560302734375,566,160,99,1.557632398753894e-05,1500.0,1450,1402.0,1500
12.578314065933228,567,160,99,1.557632398753894e-05,1500.0,1450,1402.0,1500
12.601023197174072,568,159,99,1.5625e-05,1499.9000000000001,1450,1402.0,1500
12.623666048049927,569,160,99,1.557632398753894e-05,1500.0,1450,1402.0,1500
12.646319150924683,570,160,99,1.557632398753894e-05,1500.0,1450,1402.0,1500
12.669086217880249,571,160,99,1.557632398753894e-05,1500.0,1450,1402.0,1500
12.691760063171387,572,160,99,1.557632398753894e-05,1500.0,1450,1402.0,1500
12.714388132095337,573,160,99,1.557632398753894e-05,1500.0,1450,1402.0,1500
12.737220048904419,574,160,101,1.581352689090248e-05,1500.0,1450,1398.0,1500
12.76005506515503,575,159,102,1.6108247422680413e-05,1499.9000000000001,1450,1396.0,1500
12.782761096954346,576,159,102,1.6108247422680413e-05,1499.9000000000001,1450,1396.0,1500
12.805350065231323,577,160,105,1.6482882526496234e-05,1500.0,1450,1390.0,1500
12.828016996383667,578,160,105,1.6482882526496234e-05,1500.0,1450,1390.0,1500
12.850597143173218,579,160,105,1.6482882526496234e-05,1500.0,1450,1390.0,1500
12.87323808670044,580,160,105,1.6482882526496234e-05,1500.0,1450,1390.0,1500
12.895855188369751,581,160,105,1.6482882526496234e-05,1500.0,1450,1390.0,1500
12.918447017669678,582,160,105,1.6482882526496234e-05,1500.0,1450,1390.0,1500
12.941065073013306,583,160,105,1.6482882526496234e-05,1500.0,1450,1390.0,1500
12.963792085647583,584,160,105,1.6482882526496234e-05,1500.0,1450,1390.0,1500
12.9863760471344,585,160,105,1.6482882526496234e-05,1500.0,1450,1390.0,1500
13.009380102157593,586,160,105,1.6482882526496234e-05,1500.0,1450,1390.0,1500
13.032004117965698,587,160,105,1.6482882526496234e-05,1500.0,1450,1390.0,1500
13.054655075073242,588,160,105,1.6482882526496234e-05,1500.0,1450,1390.0,1500
13.07746410369873,589,160,105,1.6482882526496234e-05,1500.0,1450,1390.0,1500
13.100347995758057,590,160,105,1.6482882526496234e-05,1500.0,1450,1390.0,1500
13.123108148574829,591,160,105,1.6482882526496234e-05,1500.0,1450,1390.0,1500
13.146140098571777,592,160,105,1.6482882526496234e-05,1500.0,1450,1390.0,1500
13.169108152389526,593,160,123,2.055921052631579e-05,1500.0,1450,1385,1500
13.191918134689331,594,160,123,2.055921052631579e-05,1500.0,1450,1385,1500
13.214677095413208,595,160,123,2.055921052631579e-05,1500.0,1450,1385,1500
13.237526178359985,596,161,126,2.1471207111263796e-05,1500.0999999999999,1450,1385,1500
13.260379076004028,597,160,128,2.1990588028323877e-05,1500.0,1450,1385,1500
13.283259153366089,598,161,129,2.2232597434358254e-05,1500.0999999999999,1450,1385,1500
13.306081056594849,599,161,129,2.239140170174653e-05,1500.0999999999999,1450,1385,1500
13.329163074493408,600,161,130,2.2787348464132712e-05,1500.0999999999999,1450,1385,1500
13.351998090744019,601,161,131,2.3122456529781724e-05,1500.0999999999999,1450,1385,1500
13.37489914894104,602,161,132,2.3293733985557885e-05,1500.0999999999999,1450,1385,1500
13.397732019424438,603,163,133,2.3869196801527628e-05,1500.3,1450,1385,1500
13.42061710357666,604,161,133,2.38231370306842e-05,1500.0999999999999,1450,1385,1500
13.443474054336548,605,161,134,2.400499303855202e-05,1500.0999999999999,1450,1385,1500
13.466841220855713,606,162,135,2.4645110410094636e-05,1500.2,1450,1385,1500
13.489857196807861,607,162,136,2.4839166397575698e-05,1500.2,1450,1385,1500
13.512731075286865,608,162,137,2.5236593059936908e-05,1500.2,1450,1385,1500
13.535534143447876,609,162,137,2.5440113971710593e-05,1500.2,1450,1385,1500
13.558509111404419,610,162,138,2.5646944166602548e-05,1500.2,1450,1385,1500
13.58137822151184,611,162,139,2.6371308016877638e-05,1500.2,1450,1385,1500
13.604310989379883,612,162,140,2.6592915647271565e-05,1500.2,1450,1385,1500
13.627499103546143,613,163,151,3.306878306878307e-05,1500.3,1450,1385,1500
13.650487184524536,614,163,142,2.7936082243826127e-05,1500.3,1450,1385,1500
13.673359155654907,615,163,144,2.8691111493659266e-05,1500.3,1450,1385,1500
13.696233034133911,616,164,144,2.904443799012489e-05,1500.4000000000001,1450,1385,1500
13.71924114227295,617,164,145,2.9677113010446345e-05,1500.4000000000001,1450,1385,1500
13.742123126983643,618,164,146,3.023705853894533e-05,1500.4000000000001,1450,1385,1500
13.764954090118408,619,165,147,3.091763541924314e-05,1500.5,1450,1385,1500
13.787893056869507,620,165,148,3.162555344718533e-05,1500.5,1450,1385,1500
13.810749053955078,621,166,149,3.2042039155371846e-05,1500.5999999999999,1450,1385,1500
13.833649158477783,622,166,150,3.279548734094189e-05,1500.5999999999999,1450,1385,1500
13.856527090072632,623,167,151,3.4041394335511986e-05,1500.7,1450,1385,1500
13.879693984985352,624,167,152,3.476567932137394e-05,1500.7,1450,1385,1500
13.902497053146362,625,168,153,3.5254715318173806e-05,1500.8,1450,1385,1500
13.925467014312744,626,168,153,3.563791874554526e-05,1500.8,1450,1385,1500
13.948698043823242,627,168,154,3.6148062463851935e-05,1500.8,1450,1385,1500
13.971855163574219,628,169,155,3.7082359921385395e-05,1500.9000000000001,1450,1385,1500
13.99495816230774,629,168,155,3.720514919264826e-05,1500.8,1450,1385,1500
14.017895221710205,630,169,155,3.7627934978928356e-05,1500.9000000000001,1450,1385,1500
14.04098105430603,631,169,156,3.875968992248062e-05,1500.9000000000001,1450,1385,1500
14.063690185546875,632,170,157,3.908540160250147e-05,1501.0,1450,1385,1500
14.086250066757202,633,170,156,3.875968992248062e-05,1501.0,1450,1385,1500
14.10896921157837,634,171,157,3.934684241589613e-05,1501.0999999999999,1450,1385,1500
14.131625175476074,635,171,157,3.9815257206561555e-05,1501.0999999999999,1450,1385,1500
14.154466152191162,636,170,157,3.994886545222116e-05,1501.0,1450,1385,1500
14.177136182785034,637,171,157,3.9815257206561555e-05,1501.0999999999999,1450,1385,1500
14.199828147888184,638,171,157,3.9815257206561555e-05,1501.0999999999999,1450,1385,1500
14.222403049468994,639,170,157,3.9478878799842084e-05,1501.0,1450,1385,1500
14.244990110397339,640,171,156,3.888932099245547e-05,1501.0999999999999,1450,1385,1500
14.267590999603271,641,170,156,3.875968992248062e-05,1501.0,1450,1385,1500
14.2901771068573,642,170,156,3.8314176245210727e-05,1501.0,1450,1385,1500
14.312713146209717,643,170,155,3.745318352059925e-05,1501.0,1450,1385,1500
14.335386991500854,644,170,154,3.650834215618269e-05,1501.0,1450,1385,1500
14.358270168304443,645,170,153,3.6111512350137224e-05,1501.0,1450,1385,1500
14.380958080291748,646,170,152,3.497114880223815e-05,1501.0,1450,1385,1500
14.403513193130493,647,169,151,3.4378437843784377e-05,1500.9000000000001,1450,1385,1500
14.426194190979004,648,168,150,3.356605800214823e-05,1500.8,1450,1385,1500
14.44913101196289,649,168,148,3.224974200206398e-05,1500.8,1450,1385,1500
14.471806049346924,650,166,146,3.054181174027243e-05,1500.5999999999999,1450,1385,1500
14.494415044784546,651,166,144,2.961208172934557e-05,1500.5999999999999,1450,1385,1500
14.517078161239624,652,166,142,2.8573061317789587e-05,1500.5999999999999,1450,1385,1500
14.53980016708374,653,165,141,2.775002775002775e-05,1500.5,1450,1385,1500
14.562640190124512,654,164,139,2.6832671460770635e-05,1500.4000000000001,1450,1385,1500
14.585239171981812,655,164,137,2.5889967637540453e-05,1500.4000000000001,1450,1385,1500
14.608163118362427,656,164,135,2.5087177943353153e-05,1500.4000000000001,1450,1385,1500
14.630771160125732,657,163,142,2.8141269171239623e-05,1500.3,1450,1385,1500
14.653372049331665,658,163,131,2.362223324593107e-05,1500.3,1450,1385,1500
14.675925016403198,659,163,128,2.279046446966589e-05,1500.3,1450,1385,1500
14.698518991470337,660,163,126,2.2015278603350725e-05,1500.3,1450,1385,1500
14.721057176589966,661,162,124,2.1362956633198035e-05,1500.2,1450,1385,1500
14.743757009506226,662,162,119,2.0100906550885444e-05,1500.2,1450,1385,1500
14.766687154769897,663,162,119,2.0100906550885444e-05,1500.2,1450,1385,1500
14.789452075958252,664,162,119,2.0100906550885444e-05,1500.2,1450,1385,1500
14.812260150909424,665,162,119,2.0100906550885444e-05,1500.2,1450,1385,1500
14.834894180297852,666,162,119,2.0100906550885444e-05,1500.2,1450,1385,1500
14.857486009597778,667,161,103,1.66602802259134e-05,1500.0999999999999,1450,1394.0,1500
14.880227088928223,668,161,99,1.6405275936741257e-05,1500.0999999999999,1450,1402.0,1500
14.902896165847778,669,160,96,1.6606881891855986e-05,1500.0,1450,1408.0,1500
14.9255850315094,670,160,90,1.7498425141737245e-05,1500.0,1450,1415,1500
14.948135137557983,671,159,87,1.8037518037518038e-05,1499.9000000000001,1450,1415,1500
14.970771074295044,672,159,84,1.85563184264242e-05,1499.9000000000001,1450,1415,1500
14.993337154388428,673,159,81,1.9235208124951912e-05,1499.9000000000001,1450,1415,1500
15.01593804359436,674,158,78,1.990287397500199e-05,1499.8,1450,1415,1500
15.038496017456055,675,158,76,2.0618131584915776e-05,1499.8,1450,1415,1500
15.061192989349365,676,158,73,2.1392204680614384e-05,1499.8,1450,1415,1500
15.083917140960693,677,158,70,2.2145451324297988e-05,1499.8,1450,1415,1500
15.10654902458191,678,159,67,2.3049972340033192e-05,1499.9000000000001,1450,1415,1500
15.129307985305786,679,159,63,2.4606299212598425e-05,1499.9000000000001,1450,1415,1500
15.151942014694214,680,160,61,2.5327356077299092e-05,1500.0,1450,1415,1500
15.17451810836792,681,159,59,2.6260504201680674e-05,1499.9000000000001,1450,1415,1500
15.197180986404419,682,160,57,2.7089259108763377e-05,1500.0,1450,1415,1500
15.219787120819092,683,159,55,2.7901785714285713e-05,1499.9000000000001,1450,1415,1500
15.242406129837036,684,159,54,2.8669724770642203e-05,1499.9000000000001,1450,1415,1500
15.265003204345703,685,159,52,2.9761904761904762e-05,1499.9000000000001,1450,1415,1500
15.28761911392212,686,159,50,3.0637254901960784e-05,1499.9000000000001,1450,1415,1500
15.310230016708374,687,159,49,3.1565656565656566e-05,1499.9000000000001,1450,1415,1500
15.332868099212646,688,159,47,3.255208333333333e-05,1499.9000000000001,1450,1415,1500
15.355437994003296,689,159,44,3.472222222222222e-05,1499.9000000000001,1450,1415,1500
15.378079175949097,690,159,43,3.5511363636363635e-05,1499.9000000000001,1450,1415,1500
15.400650024414062,691,159,42,3.676470588235294e-05,1499.9000000000001,1450,1415,1500
15.42323112487793,692,159,40,3.8109756097560976e-05,1499.9000000000001,1450,1415,1500
15.445811986923218,693,160,39,3.8940809968847354e-05,1500.0,1450,1415,1500
15.468438148498535,694,159,38,4.0584415584415584e-05,1499.9000000000001,1450,1415,1500
15.491007089614868,695,159,37,4.1666666666666665e-05,1499.9000000000001,1450,1415,1500
15.513621091842651,696,160,36,4.294241422252759e-05,1500.0,1450,1415,1500
15.536164999008179,697,160,35,4.4152059693584704e-05,1500.0,1450,1415,1500
15.559011220932007,698,161,34,4.57184656882915e-05,1500.0999999999999,1450,1415,1500
15.58162808418274,699,162,32,4.884004884004884e-05,1500.2,1450,1415,1500
15.604202032089233,700,163,31,5.087505087505087e-05,1500.3,1450,1415,1500
15.626857995986938,701,164,30,5.186184005808526e-05,1500.4000000000001,1450,1415,1500
15.649566173553467,702,163,29,5.3248136315228964e-05,1500.3,1450,1415,1500
15.672147989273071,703,164,29,5.415064710023285e-05,1500.4000000000001,1450,1415,1500
15.694784164428711,704,165,28,5.677624481916766e-05,1500.5,1450,1415,1500
15.717375993728638,705,163,27,5.76036866359447e-05,1500.3,1450,1415,1500
15.740289211273193,706,164,27,5.846243788365975e-05,1500.4000000000001,1450,1415,1500
15.762957096099854,707,165,26,5.9930480642454755e-05,1500.5,1450,1415,1500
15.785575151443481,708,165,26,5.9930480642454755e-05,1500.5,1450,1415,1500
15.808151006698608,709,166,25,6.284565108094519e-05,1500.5999999999999,1450,1415,1500
15.830775022506714,710,166,25,6.284565108094519e-05,1500.5999999999999,1450,1415,1500
15.853358030319214,711,170,25,6.38895987733197e-05,1501.0,1450,1415,1500
15.875972032546997,712,172,25,6.646726487205052e-05,1501.2,1450,1415,1500
15.89853310585022,713,172,25,6.475006475006475e-05,1501.2,1450,1415,1500
15.92110300064087,714,172,25,6.51890482398957e-05,1501.2,1450,1415,1500
15.943669080734253,715,172,26,6.352836541515787e-05,1501.2,1450,1415,1500
15.966323137283325,716,166,26,6.012506012506013e-05,1500.5999999999999,1450,1415,1500
15.989039182662964,717,166,27,5.922416345869114e-05,1500.5999999999999,1450,1415,1500
16.011656045913696,718,165,28,5.696058327637275e-05,1500.5,1450,1415,1500
16.034220218658447,719,164,30,5.153045449860868e-05,1500.4000000000001,1450,1415,1500
16.056915998458862,720,163,31,4.9920127795527154e-05,1500.3,1450,1415,1500
16.07959818840027,721,163,33,4.7837734404898585e-05,1500.3,1450,1415,1500
16.102209091186523,722,162,35,4.485511796896026e-05,1500.2,1450,1415,1500
16.124781131744385,723,163,36,4.317416457991538e-05,1500.3,1450,1415,1500
16.147402048110962,724,162,38,4.07000407000407e-05,1500.2,1450,1415,1500
16.169958114624023,725,161,41,3.8006917258941126e-05,1500.0999999999999,1450,1415,1500
16.192599058151245,726,160,43,3.5511363636363635e-05,1500.0,1450,1415,1500
16.21516513824463,727,159,46,3.360215053763441e-05,1499.9000000000001,1450,1415,1500
16.23774814605713,728,159,48,3.188775510204082e-05,1499.9000000000001,1450,1415,1500
16.260346174240112,729,160,55,2.806544862619629e-05,1500.0,1450,1415,1500
16.282963037490845,730,160,58,2.6626194850493917e-05,1500.0,1450,1415,1500
16.30550217628479,731,160,61,2.512310320570797e-05,1500.0,1450,1415,1500
16.328129053115845,732,159,65,2.385496183206107e-05,1499.9000000000001,1450,1415,1500
16.35075807571411,733,160,70,2.1938484489491466e-05,1500.0,1450,1415,1500
16.373351097106934,734,160,75,2.0495163141498608e-05,1500.0,1450,1415,1500
16.395909070968628,735,160,80,1.9290123456790123e-05,1500.0,1450,1415,1500
16.41850519180298,736,161,85,1.8332141744119964e-05,1500.0999999999999,1450,1415,1500
16.44121813774109,737,161,90,1.7319316233395106e-05,1500.0999999999999,1450,1415,1500
16.46410608291626,738,161,93,1.672688344707614e-05,1500.0999999999999,1450,1414.0,1500
16.48690414428711,739,161,99,1.572327044025157e-05,1500.0999999999999,1450,1402.0,1500
16.509696006774902,740,161,99,1.572327044025157e-05,1500.0999999999999,1450,1402.0,1500
16.53236699104309,741,161,99,1.567398119122257e-05,1500.0999999999999,1450,1402.0,1500
16.555058002471924,742,161,99,1.567398119122257e-05,1500.0999999999999,1450,1402.0,1500
16.57775115966797,743,161,99,1.567398119122257e-05,1500.0999999999999,1450,1402.0,1500
16.6004581451416,744,161,100,1.5832304233558153e-05,1500.0999999999999,1450,1400.0,1500
16.623144149780273,745,161,103,1.6242467555671058e-05,1500.0999999999999,1450,1394.0,1500
16.645876169204712,746,160,75,2.48015873015873e-05,1500.0,1450,1415,1500
16.668457984924316,747,160,75,2.48015873015873e-05,1500.0,1450,1415,1500
16.690962076187134,748,160,75,2.48015873015873e-05,1500.0,1450,1415,1500
16.713426113128662,749,160,114,1.827485380116959e-05,1500.0,1450,1385,1500
16.735998153686523,750,160,117,1.8995517057974317e-05,1500.0,1450,1385,1500
16.758563995361328,751,159,122,2.0292207792207792e-05,1499.9000000000001,1450,1385,1500
16.781331062316895,752,160,121,1.9842450939540053e-05,1500.0,1450,1385,1500
16.80399203300476,753,169,163,4.535970244035199e-05,1500.9000000000001,1450,1385,1500
16.8266761302948,754,160,123,2.0495163141498608e-05,1500.0,1450,1385,1500
16.849327087402344,755,160,125,2.0907817432938177e-05,1500.0,1450,1385,1500
16.871937036514282,756,160,126,2.1404109589041096e-05,1500.0,1450,1385,1500
16.89482617378235,757,160,128,2.1853146853146853e-05,1500.0,1450,1385,1500
16.917457103729248,758,160,129,2.2163120567375888e-05,1500.0,1450,1385,1500
16.940097093582153,759,161,132,2.322071287588529e-05,1500.0999999999999,1450,1385,1500
16.962969064712524,760,161,133,2.38231370306842e-05,1500.0999999999999,1450,1385,1500
16.985583066940308,761,162,134,2.426595486532395e-05,1500.2,1450,1385,1500
17.008222103118896,762,162,136,2.491777135453005e-05,1500.2,1450,1385,1500
17.030903100967407,763,163,137,2.560163850486431e-05,1500.3,1450,1385,1500
17.053532123565674,764,163,139,2.631994525451387e-05,1500.3,1450,1385,1500
17.076131105422974,765,164,140,2.684779982280452e-05,1500.4000000000001,1450,1385,1500
17.09888219833374,766,164,141,2.7542139473394292e-05,1500.4000000000001,1450,1385,1500
17.121450185775757,767,165,142,2.8205562136853388e-05,1500.5,1450,1385,1500
17.144037008285522,768,165,144,2.932551319648094e-05,1500.5,1450,1385,1500
17.16664409637451,769,166,145,2.969032985956474e-05,1500.5999999999999,1450,1385,1500
17.189290046691895,770,166,146,3.0245289296192117e-05,1500.5999999999999,1450,1385,1500
17.21184206008911,771,166,146,3.072951877573597e-05,1500.5999999999999,1450,1385,1500
17.23441219329834,772,166,147,3.0921459492888065e-05,1500.5999999999999,1450,1385,1500
17.257025003433228,773,166,147,3.121878121878122e-05,1500.5999999999999,1450,1385,1500
17.279700994491577,774,167,148,3.1624553303184595e-05,1500.7,1450,1385,1500
17.302245140075684,775,167,148,3.172790151659369e-05,1500.7,1450,1385,1500
17.3248291015625,776,167,148,3.203895937459951e-05,1500.7,1450,1385,1500
17.34738516807556,777,167,148,3.203895937459951e-05,1500.7,1450,1385,1500
17.370010137557983,778,167,149,3.2356176794150005e-05,1500.7,1450,1385,1500
17.39257001876831,779,167,149,3.2356176794150005e-05,1500.7,1450,1385,1500
17.415155172348022,780,168,149,3.246226261970459e-05,1500.8,1450,1385,1500
17.43772006034851,781,168,149,3.246226261970459e-05,1500.8,1450,1385,1500
17.460333108901978,782,168,149,3.246226261970459e-05,1500.8,1450,1385,1500
17.48289203643799,783,168,149,3.278688524590164e-05,1500.8,1450,1385,1500
17.505454063415527,784,168,149,3.278688524590164e-05,1500.8,1450,1385,1500
17.52801012992859,785,168,150,3.322700691121744e-05,1500.8,1450,1385,1500
17.550621032714844,786,168,150,3.322700691121744e-05,1500.8,1450,1385,1500
17.5731840133667,787,168,150,3.322700691121744e-05,1500.8,1450,1385,1500
17.595808029174805,788,168,150,3.378834977699689e-05,1500.8,1450,1385,1500
17.618396043777466,789,169,150,3.367683707146225e-05,1500.9000000000001,1450,1385,1500
17.640977144241333,790,169,150,3.333666700003334e-05,1500.9000000000001,1450,1385,1500
17.663559198379517,791,168,150,3.322700691121744e-05,1500.8,1450,1385,1500
17.686151027679443,792,169,149,3.3003300330033e-05,1500.9000000000001,1450,1385,1500
17.708867073059082,793,168,148,3.224974200206398e-05,1500.8,1450,1385,1500
17.731504201889038,794,168,148,3.1831927423205473e-05,1500.8,1450,1385,1500
17.754101037979126,795,167,147,3.112356053532524e-05,1500.7,1450,1385,1500
17.776798009872437,796,166,146,3.054181174027243e-05,1500.5999999999999,1450,1385,1500
17.79944610595703,797,167,144,2.961208172934557e-05,1500.7,1450,1385,1500
17.822021007537842,798,165,141,2.7898672023211696e-05,1500.5,1450,1385,1500
17.844572067260742,799,165,140,2.7107617240444564e-05,1500.5,1450,1385,1500
17.867226123809814,800,164,137,2.5847808105872622e-05,1500.4000000000001,1450,1385,1500
17.889919996261597,801,164,135,2.4960063897763577e-05,1500.4000000000001,1450,1385,1500
17.91248106956482,802,163,133,2.3945213351850965e-05,1500.3,1450,1385,1500
17.935075044631958,803,163,131,2.32460830350086e-05,1500.3,1450,1385,1500
17.957614183425903,804,163,128,2.23563603845294e-05,1500.3,1450,1385,1500
17.98025918006897,805,170,126,2.2675736961451248e-05,1501.0,1450,1385,1500
18.002824068069458,806,163,123,2.0885547201336676e-05,1500.3,1450,1385,1500
18.025421142578125,807,163,121,2.0220402386007482e-05,1500.3,1450,1385,1500
18.04798913002014,808,163,118,1.9476093095724998e-05,1500.3,1450,1385,1500
18.070908069610596,809,162,113,1.8634466308884912e-05,1500.2,1450,1385,1500
18.093507051467896,810,162,113,1.8634466308884912e-05,1500.2,1450,1385,1500
18.116082191467285,811,162,113,1.8634466308884912e-05,1500.2,1450,1385,1500
18.138609170913696,812,162,98,1.6063740923986378e-05,1500.2,1450,1404.0,1500
18.161317110061646,813,162,94,1.6603021749958493e-05,1500.2,1450,1412.0,1500
18.183964014053345,814,161,72,2.1606672140356942e-05,1500.0999999999999,1450,1415,1500
18.206616163253784,815,160,85,1.8225559524677407e-05,1500.0,1450,1415,1500
18.22929310798645,816,159,81,1.9171779141104296e-05,1499.9000000000001,1450,1415,1500
18.251929998397827,817,159,76,2.035581972886048e-05,1499.9000000000001,1450,1415,1500
18.27450919151306,818,160,67,2.2906358805204326e-05,1500.0,1450,1415,1500
18.29717206954956,819,160,64,2.3963575365444525e-05,1500.0,1450,1415,1500
18.31978416442871,820,159,61,2.540650406504065e-05,1499.9000000000001,1450,1415,1500
18.34237504005432,821,159,58,2.670940170940171e-05,1499.9000000000001,1450,1415,1500
18.36497402191162,822,159,54,2.840909090909091e-05,1499.9000000000001,1450,1415,1500
18.387571096420288,823,160,51,2.9954469206805657e-05,1500.0,1450,1415,1500
18.41010022163391,824,159,48,3.188775510204082e-05,1499.9000000000001,1450,1415,1500
18.43277907371521,825,159,46,3.360215053763441e-05,1499.9000000000001,1450,1415,1500
18.45566415786743,826,159,43,3.5511363636363635e-05,1499.9000000000001,1450,1415,1500
18.478353023529053,827,160,41,3.753331081334684e-05,1500.0,1450,1415,1500
18.500969171524048,828,159,37,4.111842105263158e-05,1499.9000000000001,1450,1415,1500
18.523563146591187,829,159,36,4.280821917808219e-05,1499.9000000000001,1450,1415,1500
18.54613208770752,830,159,34,4.464285714285714e-05,1499.9000000000001,1450,1415,1500
18.56888508796692,831,159,33,4.6099944680066385e-05,1499.9000000000001,1450,1415,1500
18.591458082199097,832,160,32,4.7200981780421035e-05,1500.0,1450,1415,1500
18.61406421661377,833,159,32,4.8227634434530984e-05,1499.9000000000001,1450,1415,1500
18.63675308227539,834,159,31,4.898119122257053e-05,1499.9000000000001,1450,1415,1500
18.659525156021118,835,160,31,4.898119122257053e-05,1500.0,1450,1415,1500
18.682087182998657,836,160,31,5.0072605277652595e-05,1500.0,1450,1415,1500
18.704692125320435,837,161,31,4.975867044832562e-05,1500.0999999999999,1450,1415,1500
18.727376222610474,838,160,30,5.0720227226617976e-05,1500.0,1450,1415,1500
18.750200033187866,839,162,30,5.13663447709061e-05,1500.2,1450,1415,1500
18.772855043411255,840,162,30,5.120327700972862e-05,1500.2,1450,1415,1500
