time,frame,x,y,size_inv,roll,pitch,thrust,yaw
0.00022101402282714844,1,,,,1500.0,1490.0,1400.0,1500
0.021596193313598633,2,,,,1500.0,1490.0,1400.0,1500
0.0433809757232666,3,,,,1500.0,1490.0,1400.0,1500
0.06505012512207031,4,,,,1500.0,1490.0,1400.0,1500
0.08662199974060059,5,,,,1500.0,1490.0,1400.0,1500
0.10816407203674316,6,,,,1500.0,1490.0,1400.0,1500
0.1297130584716797,7,,,,1500.0,1490.0,1400.0,1500
0.15125799179077148,8,,,,1500.0,1490.0,1400.0,1500
0.17295408248901367,9,,,,1500.0,1490.0,1400.0,1500
0.19453096389770508,10,,,,1500.0,1490.0,1400.0,1500
0.21622610092163086,11,,,,1500.0,1490.0,1400.0,1500
0.23805618286132812,12,,,,1500.0,1490.0,1400.0,1500
0.259890079498291,13,,,,1500.0,1490.0,1400.0,1500
0.2817111015319824,14,,,,1500.0,1490.0,1400.0,1500
0.3036980628967285,15,,,,1500.0,1490.0,1400.0,1500
0.3255729675292969,16,,,,1500.0,1490.0,1400.0,1500
0.34740614891052246,17,,,,1500.0,1490.0,1400.0,1500
0.3692200183868408,18,,,,1500.0,1490.0,1400.0,1500
0.39103102684020996,19,,,,1500.0,1490.0,1400.0,1500
0.4129981994628906,20,,,,1500.0,1490.0,1400.0,1500
0.43489718437194824,21,,,,1500.0,1490.0,1400.0,1500
0.45672607421875,22,,,,1500.0,1490.0,1400.0,1500
0.4785330295562744,23,,,,1500.0,1490.0,1400.0,1500
0.5003859996795654,24,,,,1500.0,1490.0,1400.0,1500
0.5222020149230957,25,,,,1500.0,1490.0,1400.0,1500
0.5441591739654541,26,,,,1500.0,1490.0,1400.0,1500
0.5659811496734619,27,,,,1500.0,1490.0,1400.0,1500
0.5877881050109863,28,,,,1500.0,1490.0,1400.0,1500
0.6096031665802002,29,,,,1500.0,1490.0,1400.0,1500
0.6314151287078857,30,,,,1500.0,1490.0,1400.0,1500
0.6533670425415039,31,,,,1500.0,1490.0,1400.0,1500
0.6752650737762451,32,,,,1500.0,1490.0,1400.0,1500
0.6970920562744141,33,,,,1500.0,1490.0,1400.0,1500
0.7189180850982666,34,,,,1500.0,1490.0,1400.0,1500
0.740739107131958,35,,,,1500.0,1490.0,1400.0,1500
0.7625610828399658,36,,,,1500.0,1490.0,1400.0,1500
0.7845170497894287,37,,,,1500.0,1490.0,1400.0,1500
0.8063759803771973,38,,,,1500.0,1490.0,1400.0,1500
0.8281850814819336,39,,,,1500.0,1490.0,1400.0,1500
0.8501381874084473,40,,,,1500.0,1490.0,1400.0,1500
0.8719401359558105,41,,,,1500.0,1490.0,1400.0,1500
0.893930196762085,42,,,,1500.0,1490.0,1400.0,1500
0.9157130718231201,43,,,,1500.0,1490.0,1400.0,1500
0.937432050704956,44,,,,1500.0,1490.0,1400.0,1500
0.9594261646270752,45,,,,1500.0,1490.0,1400.0,1500
0.9812390804290771,46,,,,1500.0,1490.0,1400.0,1500
1.0032150745391846,47,,,,1500.0,1490.0,1400.0,1500
1.025264024734497,48,,,,1500.0,1490.0,1400.0,1500
1.0470890998840332,49,,,,1500.0,1490.0,1400.0,1500
1.069068193435669,50,,,,1500.0,1490.0,1400.0,1500
1.090825080871582,51,,,,1500.0,1490.0,1400.0,1500
1.1128110885620117,52,,,,1500.0,1490.0,1400.0,1500
1.1346211433410645,53,,,,1500.0,1490.0,1400.0,1500
1.1564300060272217,54,,,,1500.0,1490.0,1400.0,1500
1.1782469749450684,55,,,,1500.0,1490.0,1400.0,1500
1.2000541687011719,56,,,,1500.0,1490.0,1400.0,1500
1.221879005432129,57,,,,1500.0,1490.0,1400.0,1500
1.243852138519287,58,,,,1500.0,1490.0,1400.0,1500
1.2657010555267334,59,,,,1500.0,1490.0,1400.0,1500
1.2875230312347412,60,,,,1500.0,1490.0,1400.0,1500
1.309338092803955,61,,,,1500.0,1490.0,1400.0,1500
1.331144094467163,62,,,,1500.0,1490.0,1400.0,1500
1.353121042251587,63,,,,1500.0,1490.0,1400.0,1500
1.374981164932251,64,,,,1500.0,1490.0,1400.0,1500
1.3968260288238525,65,,,,1500.0,1490.0,1400.0,1500
1.4186980724334717,66,,,,1500.0,1490.0,1400.0,1500
1.4408900737762451,67,,,,1500.0,1490.0,1400.0,1500
1.4627270698547363,68,,,,1500.0,1490.0,1400.0,1500
1.484701156616211,69,,,,1500.0,1490.0,1400.0,1500
1.5065100193023682,70,,,,1500.0,1490.0,1400.0,1500
1.5283331871032715,71,,,,1500.0,1490.0,1400.0,1500
1.5501561164855957,72,,,,1500.0,1490.0,1400.0,1500
1.5719761848449707,73,,,,1500.0,1490.0,1400.0,1500
1.5939531326293945,74,,,,1500.0,1490.0,1400.0,1500
1.6157681941986084,75,,,,1500.0,1490.0,1400.0,1500
1.6375951766967773,76,,,,1500.0,1490.0,1400.0,1500
1.6594080924987793,77,,,,1500.0,1490.0,1400.0,1500
1.6812081336975098,78,,,,1500.0,1490.0,1400.0,1500
1.7032079696655273,79,,,,1500.0,1490.0,1400.0,1500
1.7338311672210693,80,,,,1500.0,1490.0,1400.0,1500
1.755850076675415,81,,,,1500.0,1490.0,1400.0,1500
1.7776851654052734,82,,,,1500.0,1490.0,1400.0,1500
1.7995190620422363,83,,,,1500.0,1490.0,1400.0,1500
1.8213651180267334,84,,,,1500.0,1490.0,1400.0,1500
1.8433220386505127,85,,,,1500.0,1490.0,1400.0,1500
1.865199089050293,86,,,,1500.0,1490.0,1400.0,1500
1.8870091438293457,87,,,,1500.0,1490.0,1400.0,1500
1.9088239669799805,88,,,,1500.0,1490.0,1400.0,1500
1.9306449890136719,89,,,,1500.0,1490.0,1400.0,1500
1.9524900913238525,90,,,,1500.0,1490.0,1400.0,1500
1.9744479656219482,91,,,,1500.0,1490.0,1400.0,1500
1.9962711334228516,92,,,,1500.0,1490.0,1400.0,1500
2.018076181411743,93,,,,1500.0,1490.0,1400.0,1500
2.039885997772217,94,,,,1500.0,1490.0,1400.0,1500
2.061716079711914,95,,,,1500.0,1490.0,1400.0,1500
2.083698034286499,96,,,,1500.0,1490.0,1400.0,1500
2.1055450439453125,97,,,,1500.0,1490.0,1400.0,1500
2.127345085144043,98,,,,1500.0,1490.0,1400.0,1500
2.1491541862487793,99,,,,1500.0,1490.0,1400.0,1500
2.1709601879119873,100,,,,1500.0,1490.0,1400.0,1500
2.1929211616516113,101,,,,1500.0,1490.0,1400.0,1500
2.2147209644317627,102,,,,1500.0,1490.0,1400.0,1500
2.236536979675293,103,,,,1500.0,1490.0,1400.0,1500
2.2583580017089844,104,,,,1500.0,1490.0,1400.0,1500
2.28016996383667,105,,,,1500.0,1490.0,1400.0,1500
2.3020219802856445,106,,,,1500.0,1490.0,1400.0,1500
2.3239920139312744,107,,,,1500.0,1490.0,1400.0,1500
2.3458080291748047,108,,,,1500.0,1490.0,1400.0,1500
2.367624044418335,109,,,,1500.0,1490.0,1400.0,1500
2.3894271850585938,110,,,,1500.0,1490.0,1400.0,1500
2.411252975463867,111,,,,1500.0,1490.0,1400.0,1500
2.433232069015503,112,,,,1500.0,1490.0,1400.0,1500
2.4551010131835938,113,,,,1500.0,1490.0,1400.0,1500
2.4769420623779297,114,,,,1500.0,1490.0,1400.0,1500
2.4987549781799316,115,,,,1500.0,1490.0,1400.0,1500
2.520573139190674,116,,,,1500.0,1490.0,1400.0,1500
2.542525053024292,117,,,,1500.0,1490.0,1400.0,1500
2.5643370151519775,118,,,,1500.0,1490.0,1400.0,1500
2.5861730575561523,119,,,,1500.0,1490.0,1400.0,1500
2.607999086380005,120,,,,1500.0,1490.0,1400.0,1500
2.62980318069458,121,,,,1500.0,1490.0,1400.0,1500
2.6516010761260986,122,,,,1500.0,1490.0,1400.0,1500
2.6735801696777344,123,,,,1500.0,1490.0,1400.0,1500
2.6954259872436523,124,,,,1500.0,1490.0,1400.0,1500
2.7172391414642334,125,,,,1500.0,1490.0,1400.0,1500
2.739053964614868,126,,,,1500.0,1490.0,1400.0,1500
2.7608730792999268,127,,,,1500.0,1490.0,1400.0,1500
2.782824993133545,128,,,,1500.0,1490.0,1400.0,1500
2.80462908744812,129,,,,1500.0,1490.0,1400.0,1500
2.826460123062134,130,,,,1500.0,1490.0,1400.0,1500
2.8482911586761475,131,,,,1500.0,1490.0,1400.0,1500
2.8701040744781494,132,,,,1500.0,1490.0,1400.0,1500
2.8919191360473633,133,,,,1500.0,1490.0,1400.0,1500
2.9139060974121094,134,,,,1500.0,1490.0,1400.0,1500
2.935737133026123,135,,,,1500.0,1490.0,1400.0,1500
2.957571029663086,136,,,,1500.0,1490.0,1400.0,1500
2.9793930053710938,137,,,,1500.0,1490.0,1400.0,1500
3.0012099742889404,138,,,,1500.0,1490.0,1400.0,1500
3.023159980773926,139,,,,1500.0,1490.0,1400.0,1500
3.045229196548462,140,,,,1500.0,1490.0,1400.0,1500
3.067066192626953,141,,,,1500.0,1490.0,1400.0,1500
3.088879108428955,142,,,,1500.0,1490.0,1400.0,1500
3.1106879711151123,143,,,,1500.0,1490.0,1400.0,1500
3.1326451301574707,144,,,,1500.0,1490.0,1400.0,1500
3.1544430255889893,145,,,,1500.0,1490.0,1400.0,1500
3.1762571334838867,146,,,,1500.0,1490.0,1400.0,1500
3.198111057281494,147,,,,1500.0,1490.0,1400.0,1500
3.219865083694458,148,,,,1500.0,1490.0,1400.0,1500
3.24190616607666,149,,,,1500.0,1490.0,1400.0,1500
3.263883113861084,150,,,,1500.0,1490.0,1400.0,1500
3.2857019901275635,151,,,,1500.0,1490.0,1400.0,1500
3.3075289726257324,152,,,,1500.0,1490.0,1400.0,1500
3.3293440341949463,153,,,,1500.0,1490.0,1400.0,1500
3.351145029067993,154,,,,1500.0,1490.0,1400.0,1500
3.373126983642578,155,,,,1500.0,1490.0,1400.0,1500
3.395001173019409,156,,,,1500.0,1490.0,1400.0,1500
3.416872024536133,157,,,,1500.0,1490.0,1400.0,1500
3.439206123352051,158,,,,1500.0,1490.0,1400.0,1500
3.46107816696167,159,,,,1500.0,1490.0,1400.0,1500
3.4830620288848877,160,,,,1500.0,1490.0,1400.0,1500
3.5049471855163574,161,,,,1500.0,1490.0,1400.0,1500
3.5267810821533203,162,,,,1500.0,1490.0,1400.0,1500
3.548598051071167,163,,,,1500.0,1490.0,1400.0,1500
3.5704140663146973,164,,,,1500.0,1490.0,1400.0,1500
3.59222412109375,165,,,,1500.0,1490.0,1400.0,1500
3.6142070293426514,166,,,,1500.0,1490.0,1400.0,1500
3.6360251903533936,167,,,,1500.0,1490.0,1400.0,1500
3.657835006713867,168,,,,1500.0,1490.0,1400.0,1500
3.6796350479125977,169,,,,1500.0,1490.0,1400.0,1500
3.701449155807495,170,,,,1500.0,1490.0,1400.0,1500
3.7234251499176025,171,,,,1500.0,1490.0,1400.0,1500
3.7453231811523438,172,,,,1500.0,1490.0,1400.0,1500
3.767141103744507,173,,,,1500.0,1490.0,1400.0,1500
3.78895902633667,174,,,,1500.0,1490.0,1400.0,1500
3.8109490871429443,175,,,,1500.0,1490.0,1400.0,1500
3.8329110145568848,176,,,,1500.0,1490.0,1400.0,1500
3.854771137237549,177,,,,1500.0,1490.0,1400.0,1500
3.8769609928131104,178,,,,1500.0,1490.0,1400.0,1500
3.8987929821014404,179,,,,1500.0,1490.0,1400.0,1500
3.9206271171569824,180,,,,1500.0,1490.0,1400.0,1500
3.942434072494507,181,,,,1500.0,1490.0,1400.0,1500
3.9644241333007812,182,,,,1500.0,1490.0,1400.0,1500
3.986253023147583,183,,,,1500.0,1490.0,1400.0,1500
4.008227109909058,184,,,,1500.0,1490.0,1400.0,1500
4.030058145523071,185,,,,1500.0,1490.0,1400.0,1500
4.051913022994995,186,,,,1500.0,1490.0,1400.0,1500
4.073848009109497,187,,,,1500.0,1490.0,1400.0,1500
4.0960609912872314,188,,,,1500.0,1490.0,1400.0,1500
4.118065118789673,189,,,,1500.0,1490.0,1400.0,1500
4.139877080917358,190,,,,1500.0,1490.0,1400.0,1500
4.161825180053711,191,,,,1500.0,1490.0,1400.0,1500
4.18383002281189,192,,,,1500.0,1490.0,1400.0,1500
4.205670118331909,193,,,,1500.0,1490.0,1400.0,1500
4.22749400138855,194,,,,1500.0,1490.0,1400.0,1500
4.249305009841919,195,,,,1500.0,1490.0,1400.0,1500
4.271262168884277,196,,,,1500.0,1490.0,1400.0,1500
4.293076038360596,197,,,,1500.0,1490.0,1400.0,1500
4.315099000930786,198,,,,1500.0,1490.0,1400.0,1500
4.336909055709839,199,,,,1500.0,1490.0,1400.0,1500
4.358721971511841,200,,,,1500.0,1490.0,1400.0,1500
4.380545139312744,201,,,,1500.0,1490.0,1400.0,1500
4.40236496925354,202,,,,1500.0,1490.0,1400.0,1500
4.42431902885437,203,,,,1500.0,1490.0,1400.0,1500
4.4461281299591064,204,,,,1500.0,1490.0,1400.0,1500
4.467939138412476,205,,,,1500.0,1490.0,1400.0,1500
4.489753007888794,206,,,,1500.0,1490.0,1400.0,1500
4.5115602016448975,207,,,,1500.0,1490.0,1400.0,1500
4.533545970916748,208,,,,1500.0,1490.0,1400.0,1500
4.555384159088135,209,,,,1500.0,1490.0,1400.0,1500
4.577192068099976,210,,,,1500.0,1490.0,1400.0,1500
4.599002122879028,211,,,,1500.0,1490.0,1400.0,1500
4.6208271980285645,212,,,,1500.0,1490.0,1400.0,1500
4.642654180526733,213,,,,1500.0,1490.0,1400.0,1500
4.664605140686035,214,,,,1500.0,1490.0,1400.0,1500
4.686520099639893,215,146,2,0.015384615384615385,1498.5999999999999,1530,1415,1500
4.7085630893707275,216,131,4,0.0018181818181818182,1497.0999999999999,1450,1415,1500
4.7305920124053955,217,121,6,0.000949667616334283,1496.0999999999999,1450,1415,1500
4.752626180648804,218,122,7,0.0007621951219512195,1496.2,1450,1415,1500
4.7747721672058105,219,124,8,0.0006693440428380187,1496.4000000000001,1450,1415,1500
4.797191143035889,220,127,9,0.0006049606775559589,1496.7,1450,1415,1500
4.820878982543945,221,127,10,0.0005473453749315818,1496.7,1450,1415,1500
4.844670057296753,222,129,11,0.0004734848484848485,1496.9000000000001,1450,1415,1500
4.868192195892334,223,131,13,0.00040257648953301127,1497.0999999999999,1450,1415,1500
4.891764163970947,224,133,14,0.0003707823507601038,1497.3,1450,1415,1500
4.915321111679077,225,136,15,0.0003289473684210526,1497.5999999999999,1450,1415,1500
4.938877105712891,226,138,16,0.0003189792663476874,1497.8,1450,1415,1500
4.962440013885498,227,139,16,0.0003189792663476874,1497.9000000000001,1450,1415,1500
4.986347198486328,228,140,19,0.00027277686852154935,1498.0,1450,1415,1500
5.010282039642334,229,142,20,0.0002454590083456063,1498.2,1450,1415,1500
5.033967971801758,230,143,20,0.0002454590083456063,1498.3,1450,1415,1500
5.057634115219116,231,144,20,0.00024295432458697764,1498.4000000000001,1450,1415,1500
5.081211090087891,232,146,22,0.00022182786157941438,1498.5999999999999,1450,1415,1500
5.10476016998291,233,147,24,0.00020824656393169514,1498.7,1450,1415,1500
5.12812614440918,234,148,24,0.0002061855670103093,1498.8,1450,1415,1500
5.151036024093628,235,151,20,0.00025144581342720644,1499.0999999999999,1450,1415,1500
5.173887014389038,236,151,25,0.00019825535289452815,1499.0999999999999,1450,1415,1500
5.196786165237427,237,153,22,0.00022644927536231884,1499.3,1450,1415,1500
5.2195961475372314,238,153,27,0.00018552875695732838,1499.3,1450,1415,1500
5.24244499206543,239,153,28,0.00018086453246518358,1499.3,1450,1415,1500
5.265254974365234,240,154,20,0.00026595744680851064,1499.4000000000001,1450,1415,1500
5.288104057312012,241,157,25,0.0002244668911335578,1499.7,1450,1415,1500
5.310911178588867,242,165,19,0.000390625,1500.5,1450,1415,1500
5.333773136138916,243,158,31,0.00018705574261129816,1499.8,1450,1415,1500
5.356628179550171,244,158,34,0.0001645548790521639,1499.8,1450,1415,1500
5.379453182220459,245,157,36,0.00016616816218012627,1499.7,1450,1415,1500
5.40223503112793,246,156,34,0.00017857142857142857,1499.5999999999999,1450,1415,1500
5.425278186798096,247,157,38,0.00016025641025641026,1499.7,1450,1415,1500
5.448348045349121,248,156,25,0.00031887755102040814,1499.5999999999999,1450,1415,1500
5.471240997314453,249,125,24,0.001081081081081081,1496.5,1450,1415,1500
5.494086980819702,250,135,30,0.000468384074941452,1497.5,1450,1415,1500
5.516993045806885,251,140,29,0.0004095004095004095,1498.0,1450,1415,1500
5.539766073226929,252,134,32,0.0004464285714285714,1497.4000000000001,1450,1415,1500
5.562596082687378,253,159,27,0.0006142506142506142,1499.9000000000001,1450,1415,1500
5.58538818359375,254,150,32,0.0003007518796992481,1499.0,1450,1415,1500
5.608224153518677,255,171,30,0.0005970149253731343,1501.0999999999999,1450,1415,1500
5.631028175354004,256,129,28,0.0008417508417508417,1496.9000000000001,1450,1415,1500
5.653895139694214,257,118,28,0.001336898395721925,1495.8,1450,1415,1500
5.676761150360107,258,165,36,0.0005202913631633715,1500.5,1450,1415,1500
5.699580192565918,259,119,31,0.0012422360248447205,1495.9000000000001,1450,1415,1500
5.722375154495239,260,116,31,0.0017543859649122807,1495.5999999999999,1450,1415,1500
5.745285987854004,261,116,33,0.001358695652173913,1495.5999999999999,1450,1415,1500
5.768059968948364,262,135,37,0.0005341880341880342,1497.5,1450,1415,1500
5.790974140167236,263,117,35,0.0015151515151515152,1495.7,1450,1415,1500
5.813889980316162,264,112,32,0.003205128205128205,1495.2,1453.1025641025642,1415,1500
5.836876153945923,265,155,38,0.0016339869281045752,1499.5,1450,1415,1500
5.859671115875244,266,118,41,0.0019230769230769232,1495.8,1450,1415,1500
5.882521152496338,267,154,44,0.001984126984126984,1499.4000000000001,1450,1415,1500
5.905310153961182,268,114,51,0.0013513513513513514,1495.4000000000001,1450,1415,1500
5.9281721115112305,269,154,50,0.0008818342151675485,1499.4000000000001,1450,1415,1500
5.9509971141815186,270,153,46,0.002688172043010753,1499.3,1450,1415,1500
5.973858118057251,271,105,65,0.002857142857142857,1494.5,1450,1415,1500
5.996669054031372,272,110,51,0.0017301038062283738,1495.0,1450,1415,1500
6.019507169723511,273,109,52,0.0017921146953405018,1494.9000000000001,1450,1415,1500
6.042378187179565,274,110,105,0.002136752136752137,1495.0,1450,1390.0,1500
6.0653910636901855,275,106,61,0.0016,1494.5999999999999,1450,1415,1500
6.088171005249023,276,111,63,0.0026041666666666665,1495.0999999999999,1450,1415,1500
6.111029148101807,277,108,59,0.002976190476190476,1494.8,1450,1415,1500
6.133998155593872,278,110,57,0.003125,1495.0,1451.5,1415,1500
6.157015085220337,279,120,115,0.001984126984126984,1496.0,1450,1385,1500
6.1798601150512695,280,129,114,0.001053740779768177,1496.9000000000001,1450,1385,1500
6.203039169311523,281,107,117,0.004608294930875576,1494.7,1481.1658986175116,1385,1500
6.226070165634155,282,106,118,0.005747126436781609,1494.5999999999999,1503.9425287356321,1385,1500
6.249001979827881,283,106,116,0.002652519893899204,1494.5999999999999,1450,1385,1500
6.271795034408569,284,113,120,0.002325581395348837,1495.3,1450,1385,1500
6.294706106185913,285,109,69,0.004032258064516129,1494.9000000000001,1469.6451612903227,1415,1500
6.31763219833374,286,106,64,0.004,1494.5999999999999,1469.0,1415,1500
6.340510129928589,287,105,120,0.002652519893899204,1494.5,1450,1385,1500
6.363257169723511,288,115,108,0.007246376811594203,1495.5,1530,1385,1500
6.38616418838501,289,107,66,0.003205128205128205,1494.7,1453.1025641025642,1415,1500
6.409067153930664,290,111,110,0.005555555555555556,1495.0999999999999,1500.1111111111111,1385,1500
6.431993007659912,291,107,121,0.002840909090909091,1494.7,1450,1385,1500
6.454748153686523,292,97,115,0.007575757575757576,1493.7,1530,1385,1500
6.477560997009277,293,107,119,0.002150537634408602,1494.7,1450,1385,1500
6.5003321170806885,294,105,122,0.003968253968253968,1494.5,1468.3650793650793,1385,1500
6.523261070251465,295,110,70,0.002232142857142857,1495.0,1450,1415,1500
6.546128034591675,296,111,109,0.0020833333333333333,1495.0999999999999,1450,1385,1500
6.568972110748291,297,101,121,0.005263157894736842,1494.0999999999999,1494.2631578947369,1385,1500
6.591852188110352,298,120,124,0.003401360544217687,1496.0,1457.0272108843537,1385,1500
6.6148459911346436,299,105,121,0.003703703703703704,1494.5,1463.0740740740741,1385,1500
6.637724161148071,300,106,73,0.005714285714285714,1494.5999999999999,1503.2857142857142,1415,1500
6.66064715385437,301,108,68,0.0022988505747126436,1494.8,1450,1415,1500
6.68345308303833,302,106,123,0.005555555555555556,1494.5999999999999,1500.1111111111111,1385,1500
6.706590175628662,303,106,68,0.0027472527472527475,1494.5999999999999,1450,1415,1500
6.7293970584869385,304,99,120,0.005555555555555556,1493.9000000000001,1500.1111111111111,1385,1500
6.752422094345093,305,105,66,0.003787878787878788,1494.5,1464.7575757575758,1415,1500
6.775660037994385,306,111,124,0.004273504273504274,1495.0999999999999,1474.4700854700855,1385,1500
6.798619031906128,307,108,123,0.004329004329004329,1494.8,1475.5800865800866,1385,1500
6.8215651512146,308,108,124,0.006060606060606061,1494.8,1510.2121212121212,1385,1500
6.844576120376587,309,103,122,0.004830917874396135,1494.3,1485.6183574879226,1385,1500
6.8674609661102295,310,103,120,0.0036231884057971015,1494.3,1461.463768115942,1385,1500
6.890393972396851,311,106,120,0.002564102564102564,1494.5999999999999,1450,1385,1500
6.913297176361084,312,114,124,0.008620689655172414,1495.4000000000001,1530,1385,1500
6.936223030090332,313,105,64,0.005847953216374269,1494.5,1505.9590643274853,1415,1500
6.959136009216309,314,99,72,0.005128205128205128,1493.9000000000001,1491.5641025641025,1415,1500
6.9820640087127686,315,104,63,0.006493506493506494,1494.4000000000001,1518.8701298701299,1415,1500
7.0049521923065186,316,108,111,0.004761904761904762,1494.8,1484.2380952380952,1385,1500
7.027902126312256,317,103,123,0.007246376811594203,1494.3,1530,1385,1500
7.050721168518066,318,119,106,0.004651162790697674,1495.9000000000001,1482.0232558139535,1388.0,1500
7.073804140090942,319,108,120,0.002331002331002331,1494.8,1450,1385,1500
7.096644163131714,320,100,117,0.006535947712418301,1494.0,1519.7189542483661,1385,1500
7.1195759773254395,321,108,112,0.0031746031746031746,1494.8,1452.4920634920636,1385,1500
7.142459154129028,322,110,122,0.003289473684210526,1495.0,1454.7894736842106,1385,1500
7.165452003479004,323,98,120,0.004807692307692308,1493.8,1485.1538461538462,1385,1500
7.188117980957031,324,105,121,0.003246753246753247,1494.5,1453.9350649350649,1385,1500
7.211138010025024,325,103,122,0.004629629629629629,1494.3,1481.5925925925926,1385,1500
7.234061002731323,326,105,120,0.002652519893899204,1494.5,1450,1385,1500
7.256920099258423,327,104,120,0.0029585798816568047,1494.4000000000001,1450,1385,1500
7.280025005340576,328,105,65,0.005208333333333333,1494.5,1493.1666666666667,1415,1500
7.302983999252319,329,101,121,0.004784688995215311,1494.0999999999999,1484.6937799043062,1385,1500
7.326085090637207,330,102,66,0.004166666666666667,1494.2,1472.3333333333333,1415,1500
7.349003076553345,331,103,66,0.008771929824561403,1494.3,1530,1415,1500
7.371769189834595,332,110,68,0.00196078431372549,1495.0,1450,1415,1500
7.394646167755127,333,105,119,0.0024691358024691358,1494.5,1450,1385,1500
7.417513132095337,334,104,123,0.00641025641025641,1494.4000000000001,1517.2051282051282,1385,1500
7.440725088119507,335,103,121,0.004166666666666667,1494.3,1472.3333333333333,1385,1500
7.4636759757995605,336,105,63,0.007575757575757576,1494.5,1530,1415,1500
7.486579179763794,337,102,77,0.00625,1494.2,1514.0,1415,1500
7.509449005126953,338,103,122,0.004830917874396135,1494.3,1485.6183574879226,1385,1500
7.532389163970947,339,107,84,0.003703703703703704,1494.7,1463.0740740740741,1415,1500
7.555277109146118,340,105,120,0.0030864197530864196,1494.5,1450.7283950617284,1385,1500
7.5781919956207275,341,100,122,0.006172839506172839,1494.0,1512.4567901234568,1385,1500
7.601049184799194,342,103,122,0.004830917874396135,1494.3,1485.6183574879226,1385,1500
7.6240880489349365,343,108,121,0.0029411764705882353,1494.8,1450,1385,1500
7.647001028060913,344,131,125,0.004329004329004329,1497.0999999999999,1475.5800865800866,1385,1500
7.669932126998901,345,99,122,0.007407407407407408,1493.9000000000001,1530,1385,1500
7.692702054977417,346,102,120,0.0034965034965034965,1494.2,1458.93006993007,1385,1500
7.715701103210449,347,100,122,0.006535947712418301,1494.0,1519.7189542483661,1385,1500
7.738563060760498,348,166,127,0.008130081300813009,1500.5999999999999,1530,1385,1500
7.761362075805664,349,98,121,0.007142857142857143,1493.8,1530,1385,1500
7.784227132797241,350,107,86,0.003134796238244514,1494.7,1451.6959247648904,1415,1500
7.80727219581604,351,106,108,0.0030303030303030303,1494.5999999999999,1450,1385,1500
7.8300700187683105,352,110,120,0.0020242914979757085,1495.0,1450,1385,1500
7.852863073348999,353,101,117,0.0029239766081871343,1494.0999999999999,1450,1385,1500
7.875856161117554,354,106,121,0.0033333333333333335,1494.5999999999999,1455.6666666666667,1385,1500
7.898781061172485,355,106,121,0.0030303030303030303,1494.5999999999999,1450,1385,1500
7.921589136123657,356,104,66,0.004545454545454545,1494.4000000000001,1479.909090909091,1415,1500
7.944509029388428,357,102,121,0.004132231404958678,1494.2,1471.6446280991736,1385,1500
7.967401027679443,358,105,121,0.003367003367003367,1494.5,1456.3400673400674,1385,1500
7.990321159362793,359,101,120,0.004048582995951417,1494.0999999999999,1469.9716599190283,1385,1500
8.013190031051636,360,106,118,0.0020833333333333333,1494.5999999999999,1450,1385,1500
8.036147117614746,361,99,117,0.003703703703703704,1493.9000000000001,1463.0740740740741,1385,1500
8.059061050415039,362,101,121,0.005,1494.0999999999999,1489.0,1385,1500
8.081945180892944,363,111,122,0.002564102564102564,1495.0999999999999,1450,1385,1500
8.104727983474731,364,103,120,0.0036231884057971015,1494.3,1461.463768115942,1385,1500
8.127674102783203,365,111,114,0.006944444444444444,1495.0999999999999,1527.8888888888889,1385,1500
8.150544166564941,366,105,120,0.002976190476190476,1494.5,1450,1385,1500
8.173356056213379,367,104,65,0.005555555555555556,1494.4000000000001,1500.1111111111111,1415,1500
8.196315050125122,368,97,122,0.009259259259259259,1493.7,1530,1385,1500
8.219135046005249,369,113,119,0.0014534883720930232,1495.3,1450,1385,1500
8.241918087005615,370,99,119,0.0044444444444444444,1493.9000000000001,1477.8888888888889,1385,1500
8.264906167984009,371,111,121,0.002331002331002331,1495.0999999999999,1450,1385,1500
8.287711143493652,372,108,118,0.001893939393939394,1494.8,1450,1385,1500
8.310567140579224,373,105,120,0.0027472527472527475,1494.5,1450,1385,1500
8.333333015441895,374,107,119,0.0020833333333333333,1494.7,1450,1385,1500
8.356268167495728,375,105,121,0.003703703703703704,1494.5,1463.0740740740741,1385,1500
8.379426002502441,376,104,65,0.006172839506172839,1494.4000000000001,1512.4567901234568,1415,1500
8.402397155761719,377,101,122,0.00625,1494.0999999999999,1514.0,1385,1500
8.425271034240723,378,105,118,0.002232142857142857,1494.5,1450,1385,1500
8.448115110397339,379,103,106,0.0036231884057971015,1494.3,1461.463768115942,1388.0,1500
8.471074104309082,380,108,75,0.002380952380952381,1494.8,1450,1415,1500
8.493966102600098,381,111,122,0.0025,1495.0999999999999,1450,1385,1500
8.516810178756714,382,103,71,0.0035714285714285713,1494.3,1460.4285714285713,1415,1500
8.5397469997406,383,101,112,0.005263157894736842,1494.0999999999999,1494.2631578947369,1385,1500
8.562609195709229,384,110,118,0.001644736842105263,1495.0,1450,1385,1500
8.585503101348877,385,111,110,0.004608294930875576,1495.0999999999999,1481.1658986175116,1385,1500
8.608374118804932,386,104,69,0.005,1494.4000000000001,1489.0,1415,1500
8.631290197372437,387,108,77,0.002777777777777778,1494.8,1450,1415,1500
8.654115200042725,388,100,119,0.003968253968253968,1494.0,1468.3650793650793,1385,1500
8.677088022232056,389,106,120,0.004310344827586207,1494.5999999999999,1475.2068965517242,1385,1500
8.699987173080444,390,106,66,0.003968253968253968,1494.5999999999999,1468.3650793650793,1415,1500
8.722942113876343,391,103,117,0.003205128205128205,1494.3,1453.1025641025642,1385,1500
8.746132135391235,392,108,121,0.0022624434389140274,1494.8,1450,1385,1500
8.769062042236328,393,107,124,0.008333333333333333,1494.7,1530,1385,1500
8.791892051696777,394,112,122,0.0025,1495.2,1450,1385,1500
8.814697980880737,395,109,123,0.006172839506172839,1494.9000000000001,1512.4567901234568,1385,1500
8.837647199630737,396,109,82,0.0024813895781637717,1494.9000000000001,1450,1415,1500
8.860437154769897,397,121,125,0.005,1496.0999999999999,1489.0,1385,1500
8.883332967758179,398,116,120,0.003787878787878788,1495.5999999999999,1464.7575757575758,1385,1500
8.906427145004272,399,112,85,0.008771929824561403,1495.2,1530,1415,1500
8.92931318283081,400,107,115,0.005208333333333333,1494.7,1493.1666666666667,1385,1500
8.952311038970947,401,107,122,0.004629629629629629,1494.7,1481.5925925925926,1385,1500
8.975125074386597,402,99,114,0.008333333333333333,1493.9000000000001,1530,1385,1500
8.99791407585144,403,106,79,0.003205128205128205,1494.5999999999999,1453.1025641025642,1415,1500
9.020892143249512,404,108,91,0.006211180124223602,1494.8,1513.2236024844719,1415,1500
9.04389500617981,405,103,123,0.005952380952380952,1494.3,1508.047619047619,1385,1500
9.066861152648926,406,107,117,0.002688172043010753,1494.7,1450,1385,1500
9.089794158935547,407,101,75,0.011111111111111112,1494.0999999999999,1530,1415,1500
9.11300015449524,408,120,125,0.004,1496.0,1469.0,1385,1500
9.13627815246582,409,109,74,0.002304147465437788,1494.9000000000001,1450,1415,1500
9.159116983413696,410,104,73,0.005050505050505051,1494.4000000000001,1490.0101010101009,1415,1500
9.182048082351685,411,100,120,0.004629629629629629,1494.0,1481.5925925925926,1385,1500
9.204913139343262,412,117,122,0.002066115702479339,1495.7,1450,1385,1500
9.227766990661621,413,102,122,0.005681818181818182,1494.2,1502.6363636363637,1385,1500
9.250640153884888,414,112,123,0.0027100271002710027,1495.2,1450,1385,1500
9.273470163345337,415,101,76,0.006666666666666667,1494.0999999999999,1522.3333333333333,1415,1500
9.296454191207886,416,104,119,0.002564102564102564,1494.4000000000001,1450,1385,1500
9.31929898262024,417,113,122,0.002380952380952381,1495.3,1450,1385,1500
9.342075109481812,418,102,73,0.004629629629629629,1494.2,1481.5925925925926,1415,1500
9.365063190460205,419,103,122,0.005050505050505051,1494.3,1490.0101010101009,1385,1500
9.387907028198242,420,103,74,0.007518796992481203,1494.3,1530,1415,1500
9.410735130310059,421,103,119,0.005681818181818182,1494.3,1502.6363636363637,1385,1500
9.43373703956604,422,104,70,0.004545454545454545,1494.4000000000001,1479.909090909091,1415,1500
9.45696210861206,423,104,66,0.005,1494.4000000000001,1489.0,1415,1500
9.47986102104187,424,108,70,0.0027472527472527475,1494.8,1450,1415,1500
9.502986192703247,425,106,72,0.006211180124223602,1494.5999999999999,1513.2236024844719,1415,1500
9.5260591506958,426,108,122,0.004032258064516129,1494.8,1469.6451612903227,1385,1500
9.548979043960571,427,101,121,0.0053475935828877,1494.0999999999999,1495.9518716577541,1385,1500
9.571848154067993,428,108,119,0.00267379679144385,1494.8,1450,1385,1500
9.594752073287964,429,135,125,0.003875968992248062,1497.5,1466.5193798449613,1385,1500
9.617639064788818,430,104,122,0.004830917874396135,1494.4000000000001,1485.6183574879226,1385,1500
9.640567064285278,431,103,68,0.004629629629629629,1494.3,1481.5925925925926,1415,1500
9.66345500946045,432,103,113,0.003105590062111801,1494.3,1451.111801242236,1385,1500
9.686491966247559,433,110,116,0.0030864197530864196,1495.0,1450.7283950617284,1385,1500
9.709376096725464,434,105,67,0.004545454545454545,1494.5,1479.909090909091,1415,1500
9.73229718208313,435,113,124,0.003484320557491289,1495.3,1458.6864111498257,1385,1500
9.755174160003662,436,102,81,0.00625,1494.2,1514.0,1415,1500
9.778061151504517,437,175,125,0.004166666666666667,1501.5,1472.3333333333333,1385,1500
9.800953149795532,438,108,72,0.0030864197530864196,1494.8,1450.7283950617284,1415,1500
9.824018001556396,439,109,102,0.005208333333333333,1494.9000000000001,1493.1666666666667,1396.0,1500
9.847057104110718,440,105,68,0.003663003663003663,1494.5,1462.2600732600733,1415,1500
9.869990110397339,441,132,122,0.0021645021645021645,1497.2,1450,1385,1500
9.892762184143066,442,109,121,0.0029411764705882353,1494.9000000000001,1450,1385,1500
9.915678024291992,443,114,80,0.002136752136752137,1495.4000000000001,1450,1415,1500
9.938460111618042,444,110,120,0.002777777777777778,1495.0,1450,1385,1500
9.961282968521118,445,123,118,0.000925925925925926,1496.3,1450,1385,1500
9.984174966812134,446,109,122,0.005376344086021506,1494.9000000000001,1496.5268817204301,1385,1500
10.00718903541565,447,110,122,0.007407407407407408,1495.0,1530,1385,1500
10.029963970184326,448,117,114,0.0010741138560687433,1495.7,1450,1385,1500
10.052824974060059,449,103,80,0.01,1494.3,1530,1415,1500
10.075685024261475,450,111,72,0.003472222222222222,1495.0999999999999,1458.4444444444443,1415,1500
10.098613023757935,451,109,112,0.001443001443001443,1494.9000000000001,1450,1385,1500
10.121399164199829,452,111,67,0.002304147465437788,1495.0999999999999,1450,1415,1500
10.144272089004517,453,102,110,0.005847953216374269,1494.2,1505.9590643274853,1385,1500
10.16718602180481,454,109,67,0.0027472527472527475,1494.9000000000001,1450,1415,1500
10.190028190612793,455,115,76,0.0038461538461538464,1495.5,1465.9230769230769,1415,1500
10.212890148162842,456,109,115,0.0023148148148148147,1494.9000000000001,1450,1385,1500
10.235924005508423,457,108,84,0.007692307692307693,1494.8,1530,1415,1500
10.258714199066162,458,106,60,0.005050505050505051,1494.5999999999999,1490.0101010101009,1415,1500
10.281629085540771,459,104,116,0.00909090909090909,1494.4000000000001,1530,1385,1500
10.304403066635132,460,102,113,0.0058823529411764705,1494.2,1506.6470588235295,1385,1500
10.327336072921753,461,109,108,0.0035842293906810036,1494.9000000000001,1460.6845878136201,1385,1500
10.350212097167969,462,107,114,0.004464285714285714,1494.7,1478.2857142857142,1385,1500
10.373116970062256,463,103,113,0.005847953216374269,1494.3,1505.9590643274853,1385,1500
10.396183967590332,464,111,113,0.004201680672268907,1495.0999999999999,1473.0336134453783,1385,1500
10.419138193130493,465,107,110,0.0026455026455026454,1494.7,1450,1385,1500
10.441926002502441,466,108,61,0.007142857142857143,1494.8,1530,1415,1500
10.464846134185791,467,120,75,0.004,1496.0,1469.0,1415,1500
10.487699031829834,468,106,108,0.004166666666666667,1494.5999999999999,1472.3333333333333,1385,1500
10.510637998580933,469,112,60,0.005494505494505495,1495.2,1498.8901098901099,1415,1500
10.533565998077393,470,107,112,0.005714285714285714,1494.7,1503.2857142857142,1385,1500
10.556563138961792,471,113,110,0.002197802197802198,1495.3,1450,1385,1500
10.579365015029907,472,109,58,0.0038461538461538464,1494.9000000000001,1465.9230769230769,1415,1500
10.60258412361145,473,127,102,0.005747126436781609,1496.7,1503.9425287356321,1396.0,1500
10.62559199333191,474,103,111,0.011111111111111112,1494.3,1530,1385,1500
10.64842700958252,475,111,56,0.003952569169960474,1495.0999999999999,1468.0513833992095,1415,1500
10.671327114105225,476,109,56,0.003787878787878788,1494.9000000000001,1464.7575757575758,1415,1500
10.694307088851929,477,109,56,0.008771929824561403,1494.9000000000001,1530,1415,1500
10.717146158218384,478,111,55,0.0036231884057971015,1495.0999999999999,1461.463768115942,1415,1500
10.740203142166138,479,107,112,0.008,1494.7,1530,1385,1500
10.763015985488892,480,118,110,0.002364066193853428,1495.8,1450,1385,1500
10.786031007766724,481,109,56,0.004545454545454545,1494.9000000000001,1479.909090909091,1415,1500
10.809015035629272,482,113,111,0.00980392156862745,1495.3,1530,1385,1500
10.831815004348755,483,111,102,0.009523809523809525,1495.0999999999999,1530,1396.0,1500
10.854798078536987,484,109,106,0.002564102564102564,1494.9000000000001,1450,1388.0,1500
10.877699136734009,485,109,105,0.006944444444444444,1494.9000000000001,1527.8888888888889,1390.0,1500
10.900721073150635,486,109,59,0.004545454545454545,1494.9000000000001,1479.909090909091,1415,1500
10.923667192459106,487,113,63,0.0034482758620689655,1495.3,1457.9655172413793,1415,1500
10.946683168411255,488,107,105,0.0036231884057971015,1494.7,1461.463768115942,1390.0,1500
10.969662189483643,489,110,52,0.005681818181818182,1495.0,1502.6363636363637,1415,1500
10.992594003677368,490,108,54,0.004629629629629629,1494.8,1481.5925925925926,1415,1500
11.015520095825195,491,113,63,0.004,1495.3,1469.0,1415,1500
11.038422107696533,492,110,52,0.007142857142857143,1495.0,1530,1415,1500
11.06124997138977,493,114,105,0.004201680672268907,1495.4000000000001,1473.0336134453783,1390.0,1500
11.084349155426025,494,113,61,0.0036363636363636364,1495.3,1461.7272727272727,1415,1500
11.107233047485352,495,112,49,0.007142857142857143,1495.2,1530,1415,1500
11.130069971084595,496,113,46,0.005555555555555556,1495.3,1500.1111111111111,1415,1500
11.152943134307861,497,162,103,0.01,1500.2,1530,1394.0,1500
11.176043033599854,498,114,48,0.003246753246753247,1495.4000000000001,1453.9350649350649,1415,1500
11.198945045471191,499,116,44,0.004166666666666667,1495.5999999999999,1472.3333333333333,1415,1500
11.221918106079102,500,124,98,0.0035714285714285713,1496.4000000000001,1460.4285714285713,1404.0,1500
11.244891166687012,501,116,49,0.003968253968253968,1495.5999999999999,1468.3650793650793,1415,1500
11.267872095108032,502,125,68,0.003134796238244514,1496.5,1451.6959247648904,1415,1500
11.29075312614441,503,127,44,0.0017825311942959,1496.7,1450,1415,1500
11.313642978668213,504,120,42,0.0029239766081871343,1496.0,1450,1415,1500
11.336482048034668,505,124,48,0.0024630541871921183,1496.4000000000001,1450,1415,1500
11.359332084655762,506,120,52,0.005952380952380952,1496.0,1508.047619047619,1415,1500
11.382215976715088,507,136,76,0.0018315018315018315,1497.5999999999999,1450,1415,1500
11.405127048492432,508,123,38,0.003246753246753247,1496.3,1453.9350649350649,1415,1500
11.428130149841309,509,122,34,0.005847953216374269,1496.2,1505.9590643274853,1415,1500
11.451287984848022,510,130,86,0.0025,1497.0,1450,1415,1500
11.4741530418396,511,131,34,0.002380952380952381,1497.0999999999999,1450,1415,1500
11.497058153152466,512,129,40,0.0030303030303030303,1496.9000000000001,1450,1415,1500
11.519891023635864,513,126,38,0.003472222222222222,1496.5999999999999,1458.4444444444443,1415,1500
11.542854070663452,514,195,38,0.0035714285714285713,1503.5,1460.4285714285713,1415,1500
11.565814018249512,515,126,38,0.0035087719298245615,1496.5999999999999,1459.1754385964912,1415,1500
11.5887770652771,516,132,33,0.003472222222222222,1497.2,1458.4444444444443,1415,1500
11.611677169799805,517,134,40,0.0025974025974025974,1497.4000000000001,1450,1415,1500
11.634600162506104,518,122,61,0.003968253968253968,1496.2,1468.3650793650793,1415,1500
11.657494068145752,519,128,36,0.006060606060606061,1496.8,1510.2121212121212,1415,1500
11.680708169937134,520,127,76,0.005555555555555556,1496.7,1500.1111111111111,1415,1500
11.70369005203247,521,129,26,0.0026455026455026454,1496.9000000000001,1450,1415,1500
11.726596117019653,522,135,36,0.0013513513513513514,1497.5,1450,1415,1500
11.74938702583313,523,156,28,0.0005263157894736842,1499.5999999999999,1450,1415,1500
11.772217035293579,524,135,34,0.001736111111111111,1497.5,1450,1415,1500
11.795010089874268,525,136,22,0.0016835016835016834,1497.5999999999999,1450,1415,1500
11.817906141281128,526,141,26,0.0008361204013377926,1498.0999999999999,1450,1415,1500
11.84070110321045,527,174,22,0.001893939393939394,1501.4000000000001,1450,1415,1500
11.863662004470825,528,186,21,0.0011337868480725624,1502.5999999999999,1450,1415,1500
11.886521100997925,529,136,25,0.0010893246187363835,1497.5999999999999,1450,1415,1500
11.909382104873657,530,136,20,0.001838235294117647,1497.5999999999999,1450,1415,1500
11.932183027267456,531,132,53,0.001443001443001443,1497.2,1450,1415,1500
11.955096006393433,532,136,15,0.002777777777777778,1497.5999999999999,1450,1415,1500
11.977879047393799,533,138,18,0.0017301038062283738,1497.8,1450,1415,1500
12.000704050064087,534,188,21,0.0009191176470588235,1502.8,1450,1415,1500
12.023674011230469,535,189,22,0.0010245901639344263,1502.9000000000001,1450,1415,1500
12.046712160110474,536,172,21,0.0012345679012345679,1501.2,1450,1415,1500
12.069530010223389,537,136,23,0.0010141987829614604,1497.5999999999999,1450,1415,1500
12.092375040054321,538,135,21,0.0012903225806451613,1497.5,1450,1415,1500
12.11516809463501,539,138,16,0.001736111111111111,1497.8,1450,1415,1500
12.138002157211304,540,189,19,0.000835421888053467,1502.9000000000001,1450,1415,1500
12.160799980163574,541,137,13,0.0026041666666666665,1497.7,1450,1415,1500
12.183719158172607,542,175,16,0.002197802197802198,1501.5,1450,1415,1500
12.2066171169281,543,140,18,0.0011441647597254005,1498.0,1450,1415,1500
12.229534149169922,544,176,16,0.0017543859649122807,1501.5999999999999,1450,1415,1500
12.252320051193237,545,169,21,0.0003846153846153846,1500.9000000000001,1450,1415,1500
12.275235176086426,546,171,18,0.0004391743522178305,1501.0999999999999,1450,1415,1500
12.297917127609253,547,181,19,0.0005952380952380953,1502.0999999999999,1450,1415,1500
12.320661067962646,548,186,18,0.0007042253521126761,1502.5999999999999,1450,1415,1500
12.34321403503418,549,188,17,0.0012406947890818859,1502.8,1450,1415,1500
12.366888046264648,550,172,20,0.0003741114852225963,1501.2,1450,1415,1500
12.390424966812134,551,142,16,0.0011655011655011655,1498.2,1450,1415,1500
12.414031028747559,552,184,17,0.0007507507507507507,1502.4000000000001,1450,1415,1500
12.437640190124512,553,190,18,0.0007558578987150416,1503.0,1450,1415,1500
12.461182117462158,554,187,21,0.0005797101449275362,1502.7,1450,1415,1500
12.484709024429321,555,195,21,0.0010482180293501049,1503.5,1450,1415,1500
12.508239030838013,556,139,16,0.0015479876160990713,1497.9000000000001,1450,1415,1500
12.531790018081665,557,190,17,0.0011111111111111111,1503.0,1450,1415,1500
12.555572032928467,558,177,17,0.0015479876160990713,1501.7,1450,1415,1500
12.579146146774292,559,181,17,0.0008547008547008547,1502.0999999999999,1450,1415,1500
12.6026930809021,560,189,17,0.0011904761904761906,1502.9000000000001,1450,1415,1500
12.62663197517395,561,142,32,0.0008695652173913044,1498.2,1450,1415,1500
12.650169134140015,562,129,17,0.0033333333333333335,1496.9000000000001,1455.6666666666667,1415,1500
12.673871994018555,563,127,17,0.004761904761904762,1496.7,1484.2380952380952,1415,1500
12.697617053985596,564,138,23,0.0015873015873015873,1497.8,1450,1415,1500
12.721197128295898,565,185,21,0.0010351966873706005,1502.5,1450,1415,1500
12.744817018508911,566,143,26,0.0007002801120448179,1498.3,1450,1415,1500
12.768686056137085,567,129,21,0.002898550724637681,1496.9000000000001,1450,1415,1500
12.792323112487793,568,133,28,0.0011947431302270011,1497.3,1450,1415,1500
12.8161940574646,569,130,33,0.002777777777777778,1497.0,1450,1415,1500
12.83977198600769,570,171,26,0.0017857142857142857,1501.0999999999999,1450,1415,1500
12.86369800567627,571,124,64,0.0014367816091954023,1496.4000000000001,1450,1415,1500
12.8874351978302,572,132,33,0.0013774104683195593,1497.2,1450,1415,1500
12.911031007766724,573,170,34,0.000992063492063492,1501.0,1450,1415,1500
12.93462610244751,574,134,40,0.0005963029218843172,1497.4000000000001,1450,1415,1500
12.95819616317749,575,126,28,0.0026041666666666665,1496.5999999999999,1450,1415,1500
12.981736183166504,576,172,28,0.0027100271002710027,1501.2,1450,1415,1500
13.005256175994873,577,133,73,0.00130718954248366,1497.3,1450,1415,1500
13.028836011886597,578,125,76,0.001893939393939394,1496.5,1450,1415,1500
13.052424192428589,579,130,37,0.00267379679144385,1497.0,1450,1415,1500
13.076367139816284,580,127,77,0.002849002849002849,1496.7,1450,1415,1500
13.099927186965942,581,206,44,0.003676470588235294,1504.5999999999999,1462.5294117647059,1415,1500
13.123654127120972,582,158,36,0.0007763975155279503,1499.8,1450,1415,1500
13.14726996421814,583,128,58,0.002136752136752137,1496.8,1450,1415,1500
13.170799970626831,584,171,37,0.0014492753623188406,1501.0999999999999,1450,1415,1500
13.194383144378662,585,129,37,0.0014705882352941176,1496.9000000000001,1450,1415,1500
13.217956066131592,586,123,47,0.0019157088122605363,1496.3,1450,1415,1500
13.24150013923645,587,127,45,0.0019047619047619048,1496.7,1450,1415,1500
13.265045166015625,588,125,82,0.0044444444444444444,1496.5,1477.8888888888889,1415,1500
13.288696050643921,589,124,47,0.0034965034965034965,1496.4000000000001,1458.93006993007,1415,1500
13.312376022338867,590,125,52,0.0027548209366391185,1496.5,1450,1415,1500
13.336173057556152,591,128,46,0.00411522633744856,1496.8,1471.3045267489713,1415,1500
13.35982608795166,592,117,49,0.008333333333333333,1495.7,1530,1415,1500
13.383383989334106,593,162,42,0.0030864197530864196,1500.2,1450.7283950617284,1415,1500
13.406638145446777,594,121,41,0.0034965034965034965,1496.0999999999999,1458.93006993007,1415,1500
13.42965817451477,595,160,45,0.0036363636363636364,1500.0,1461.7272727272727,1415,1500
13.45278811454773,596,119,45,0.001893939393939394,1495.9000000000001,1450,1415,1500
13.47559905052185,597,160,42,0.004273504273504274,1500.0,1474.4700854700855,1415,1500
13.498520135879517,598,137,45,0.0010683760683760685,1497.7,1450,1415,1500
13.521286010742188,599,122,77,0.0024813895781637717,1496.2,1450,1415,1500
13.544137001037598,600,138,44,0.0009416195856873823,1497.8,1450,1415,1500
13.566962003707886,601,121,46,0.004629629629629629,1496.0999999999999,1481.5925925925926,1415,1500
13.589872121810913,602,128,43,0.0021008403361344537,1496.8,1450,1415,1500
13.612650156021118,603,115,96,0.004629629629629629,1495.5,1481.5925925925926,1408.0,1500
13.635703086853027,604,126,62,0.003289473684210526,1496.5999999999999,1454.7894736842106,1415,1500
13.658574104309082,605,118,93,0.005555555555555556,1495.8,1500.1111111111111,1414.0,1500
13.68154501914978,606,161,48,0.0030303030303030303,1500.0999999999999,1450,1415,1500
13.704326152801514,607,125,51,0.006802721088435374,1496.5,1525.0544217687075,1415,1500
13.727274179458618,608,119,99,0.003703703703703704,1495.9000000000001,1463.0740740740741,1402.0,1500
13.750265121459961,609,118,46,0.003246753246753247,1495.8,1453.9350649350649,1415,1500
13.773181200027466,610,126,55,0.005555555555555556,1496.5999999999999,1500.1111111111111,1415,1500
13.796256065368652,611,122,65,0.0022624434389140274,1496.2,1450,1415,1500
13.819133043289185,612,118,57,0.005,1495.8,1489.0,1415,1500
13.841973066329956,613,175,55,0.002136752136752137,1501.5,1450,1415,1500
13.864837169647217,614,118,53,0.002352941176470588,1495.8,1450,1415,1500
13.887607097625732,615,113,88,0.004830917874396135,1495.3,1485.6183574879226,1415,1500
13.910531997680664,616,116,48,0.004048582995951417,1495.5999999999999,1469.9716599190283,1415,1500
13.933430194854736,617,117,98,0.001953125,1495.7,1450,1404.0,1500
13.956488132476807,618,116,49,0.005,1495.5999999999999,1489.0,1415,1500
13.979364156723022,619,117,55,0.0036231884057971015,1495.7,1461.463768115942,1415,1500
14.002564191818237,620,124,102,0.0021929824561403508,1496.4000000000001,1450,1396.0,1500
14.02547812461853,621,167,52,0.0022172949002217295,1500.7,1450,1415,1500
14.048346042633057,622,113,103,0.0038461538461538464,1495.3,1465.9230769230769,1394.0,1500
14.07131814956665,623,118,52,0.003952569169960474,1495.8,1468.0513833992095,1415,1500
14.094273090362549,624,157,65,0.001953125,1499.7,1450,1415,1500
14.11710500717163,625,114,51,0.00625,1495.4000000000001,1514.0,1415,1500
14.140011072158813,626,116,48,0.005555555555555556,1495.5999999999999,1500.1111111111111,1415,1500
14.162896156311035,627,115,101,0.004761904761904762,1495.5,1484.2380952380952,1398.0,1500
14.186114072799683,628,116,104,0.0030303030303030303,1495.5999999999999,1450,1392.0,1500
14.208989143371582,629,117,51,0.004166666666666667,1495.7,1472.3333333333333,1415,1500
14.231925010681152,630,114,105,0.005747126436781609,1495.4000000000001,1503.9425287356321,1390.0,1500
14.254884004592896,631,110,106,0.006493506493506494,1495.0,1518.8701298701299,1388.0,1500
14.277867078781128,632,122,56,0.003676470588235294,1496.2,1462.5294117647059,1415,1500
14.300734043121338,633,115,54,0.004329004329004329,1495.5,1475.5800865800866,1415,1500
14.323713064193726,634,114,103,0.0030864197530864196,1495.4000000000001,1450.7283950617284,1394.0,1500
14.346830129623413,635,161,61,0.006493506493506494,1500.0999999999999,1518.8701298701299,1415,1500
14.369678974151611,636,108,97,0.008333333333333333,1494.8,1530,1406.0,1500
14.39235806465149,637,120,92,0.003289473684210526,1496.0,1454.7894736842106,1415,1500
14.415049076080322,638,115,73,0.002849002849002849,1495.5,1450,1415,1500
14.437559127807617,639,113,104,0.002564102564102564,1495.3,1450,1392.0,1500
14.460214138031006,640,117,52,0.003076923076923077,1495.7,1450.5384615384614,1415,1500
14.482823133468628,641,123,56,0.0014619883040935672,1496.3,1450,1415,1500
14.50540018081665,642,114,56,0.004545454545454545,1495.4000000000001,1479.909090909091,1415,1500
14.528009176254272,643,170,64,0.002232142857142857,1501.0,1450,1415,1500
14.550563097000122,644,157,83,0.0064516129032258064,1499.7,1518.0322580645161,1415,1500
14.573172092437744,645,118,56,0.002403846153846154,1495.8,1450,1415,1500
14.595869064331055,646,117,93,0.001736111111111111,1495.7,1450,1414.0,1500
14.61849308013916,647,122,61,0.003003003003003003,1496.2,1450,1415,1500
14.641048192977905,648,115,52,0.003246753246753247,1495.5,1453.9350649350649,1415,1500
14.663717985153198,649,116,51,0.0036231884057971015,1495.5999999999999,1461.463768115942,1415,1500
14.68652606010437,650,176,66,0.003003003003003003,1501.5999999999999,1450,1415,1500
14.70923113822937,651,113,61,0.005555555555555556,1495.3,1500.1111111111111,1415,1500
14.731948137283325,652,114,54,0.002976190476190476,1495.4000000000001,1450,1415,1500
14.754533052444458,653,158,56,0.00267379679144385,1499.8,1450,1415,1500
14.777119159698486,654,113,58,0.011111111111111112,1495.3,1530,1415,1500
14.799655199050903,655,112,80,0.005681818181818182,1495.2,1502.6363636363637,1415,1500
14.822363138198853,656,114,66,0.006211180124223602,1495.4000000000001,1513.2236024844719,1415,1500
14.84499716758728,657,115,53,0.0026041666666666665,1495.5,1450,1415,1500
14.867552995681763,658,154,66,0.0020833333333333333,1499.4000000000001,1450,1415,1500
14.89008903503418,659,171,56,0.003289473684210526,1501.0999999999999,1454.7894736842106,1415,1500
14.912774085998535,660,118,70,0.001893939393939394,1495.8,1450,1415,1500
14.935343027114868,661,116,52,0.005434782608695652,1495.5999999999999,1497.695652173913,1415,1500
14.958083152770996,662,120,62,0.004201680672268907,1496.0,1473.0336134453783,1415,1500
14.98072099685669,663,116,74,0.001644736842105263,1495.5999999999999,1450,1415,1500
15.00331711769104,664,116,97,0.002331002331002331,1495.5999999999999,1450,1406.0,1500
15.026057004928589,665,153,57,0.0022624434389140274,1499.3,1450,1415,1500
15.048671007156372,666,112,107,0.0038314176245210726,1495.2,1465.6283524904215,1386.0,1500
15.071391105651855,667,115,104,0.0023148148148148147,1495.5,1450,1392.0,1500
15.09432315826416,668,112,53,0.0043859649122807015,1495.2,1476.719298245614,1415,1500
15.116971969604492,669,115,56,0.0035714285714285713,1495.5,1460.4285714285713,1415,1500
15.139636993408203,670,154,56,0.003968253968253968,1499.4000000000001,1468.3650793650793,1415,1500
15.162294149398804,671,113,108,0.0031746031746031746,1495.3,1452.4920634920636,1385,1500
15.184995174407959,672,114,65,0.003076923076923077,1495.4000000000001,1450.5384615384614,1415,1500
15.207632064819336,673,108,76,0.005,1494.8,1489.0,1415,1500
15.23029112815857,674,113,56,0.0033444816053511705,1495.3,1455.8896321070233,1415,1500
15.252918004989624,675,113,55,0.004347826086956522,1495.3,1475.9565217391305,1415,1500
15.275575160980225,676,113,108,0.002197802197802198,1495.3,1450,1385,1500
15.298081159591675,677,114,85,0.0022222222222222222,1495.4000000000001,1450,1415,1500
15.320653200149536,678,111,53,0.005,1495.0999999999999,1489.0,1415,1500
15.344192028045654,679,159,63,0.0034965034965034965,1499.9000000000001,1458.93006993007,1415,1500
15.367578983306885,680,113,105,0.0031746031746031746,1495.3,1452.4920634920636,1390.0,1500
15.390928030014038,681,106,108,0.004347826086956522,1494.5999999999999,1475.9565217391305,1385,1500
15.414316177368164,682,118,110,0.0032679738562091504,1495.8,1454.3594771241831,1385,1500
15.437883138656616,683,115,108,0.001984126984126984,1495.5,1450,1385,1500
15.460998058319092,684,111,68,0.002857142857142857,1495.0999999999999,1450,1415,1500
15.48426604270935,685,110,100,0.0021551724137931034,1495.0,1450,1400.0,1500
15.507548093795776,686,117,60,0.001893939393939394,1495.7,1450,1415,1500
15.530686140060425,687,114,110,0.002304147465437788,1495.4000000000001,1450,1385,1500
15.553873062133789,688,108,108,0.0022988505747126436,1494.8,1450,1385,1500
15.577138185501099,689,112,59,0.004347826086956522,1495.2,1475.9565217391305,1415,1500
15.600366115570068,690,113,63,0.0029585798816568047,1495.3,1450,1415,1500
15.623578071594238,691,109,108,0.00196078431372549,1494.9000000000001,1450,1385,1500
15.646716117858887,692,116,70,0.0015432098765432098,1495.5999999999999,1450,1415,1500
15.669862031936646,693,110,58,0.004784688995215311,1495.0,1484.6937799043062,1415,1500
15.693011999130249,694,112,110,0.0018796992481203006,1495.2,1450,1385,1500
15.716253995895386,695,111,59,0.005434782608695652,1495.0999999999999,1497.695652173913,1415,1500
15.739413976669312,696,109,111,0.002331002331002331,1494.9000000000001,1450,1385,1500
15.76256799697876,697,111,109,0.0019305019305019305,1495.0999999999999,1450,1385,1500
15.78517198562622,698,108,69,0.007518796992481203,1494.8,1530,1415,1500
15.807911157608032,699,112,57,0.004830917874396135,1495.2,1485.6183574879226,1415,1500
15.830700159072876,700,114,79,0.0020161290322580645,1495.4000000000001,1450,1415,1500
15.853739976882935,701,111,59,0.002898550724637681,1495.0999999999999,1450,1415,1500
15.876391172409058,702,112,63,0.002380952380952381,1495.2,1450,1415,1500
15.898977994918823,703,122,112,0.000980392156862745,1496.2,1450,1385,1500
15.921511173248291,704,111,59,0.002717391304347826,1495.0999999999999,1450,1415,1500
15.944143056869507,705,110,113,0.0025974025974025974,1495.0,1450,1385,1500
15.966747999191284,706,111,63,0.0033444816053511705,1495.0999999999999,1455.8896321070233,1415,1500
15.98946213722229,707,116,86,0.0025,1495.5999999999999,1450,1415,1500
16.01197910308838,708,118,111,0.0015082956259426848,1495.8,1450,1385,1500
16.034584999084473,709,112,72,0.005555555555555556,1495.2,1500.1111111111111,1415,1500
16.05726408958435,710,109,59,0.0035087719298245615,1494.9000000000001,1459.1754385964912,1415,1500
16.0799400806427,711,110,75,0.0027472527472527475,1495.0,1450,1415,1500
16.10246205329895,712,111,58,0.003952569169960474,1495.0999999999999,1468.0513833992095,1415,1500
16.12514901161194,713,111,112,0.0023923444976076554,1495.0999999999999,1450,1385,1500
16.14766216278076,714,115,71,0.0016806722689075631,1495.5,1450,1415,1500
16.17021608352661,715,115,115,0.0024154589371980675,1495.5,1450,1385,1500
16.193016052246094,716,108,61,0.002631578947368421,1494.8,1450,1415,1500
16.21578311920166,717,111,59,0.003952569169960474,1495.0999999999999,1468.0513833992095,1415,1500
16.238455057144165,718,155,66,0.002564102564102564,1499.5,1450,1415,1500
16.26103401184082,719,113,113,0.006172839506172839,1495.3,1512.4567901234568,1385,1500
16.283794164657593,720,105,110,0.0033333333333333335,1494.5,1455.6666666666667,1385,1500
16.30661916732788,721,111,60,0.004830917874396135,1495.0999999999999,1485.6183574879226,1415,1500
16.329315185546875,722,110,76,0.003246753246753247,1495.0,1453.9350649350649,1415,1500
16.351991176605225,723,107,107,0.0022222222222222222,1494.7,1450,1386.0,1500
16.37458610534668,724,110,111,0.0025974025974025974,1495.0,1450,1385,1500
16.397145986557007,725,112,111,0.002136752136752137,1495.2,1450,1385,1500
16.41969108581543,726,110,58,0.003787878787878788,1495.0,1464.7575757575758,1415,1500
16.44236707687378,727,107,111,0.0030303030303030303,1494.7,1450,1385,1500
16.464888095855713,728,109,58,0.004166666666666667,1494.9000000000001,1472.3333333333333,1415,1500
16.487576007843018,729,116,59,0.0021645021645021645,1495.5999999999999,1450,1415,1500
16.510138034820557,730,106,109,0.0023148148148148147,1494.5999999999999,1450,1385,1500
16.532719135284424,731,112,100,0.003703703703703704,1495.2,1463.0740740740741,1400.0,1500
16.555435180664062,732,108,105,0.001488095238095238,1494.8,1450,1390.0,1500
16.5781090259552,733,106,111,0.003703703703703704,1494.5999999999999,1463.0740740740741,1385,1500
16.60074520111084,734,113,109,0.001524390243902439,1495.3,1450,1385,1500
16.623332023620605,735,115,62,0.0017825311942959,1495.5,1450,1415,1500
16.64601707458496,736,109,61,0.0026041666666666665,1494.9000000000001,1450,1415,1500
16.668737173080444,737,111,58,0.004,1495.0999999999999,1469.0,1415,1500
16.691434144973755,738,109,96,0.003703703703703704,1494.9000000000001,1463.0740740740741,1408.0,1500
16.71423101425171,739,108,113,0.0024509803921568627,1494.8,1450,1385,1500
16.736911058425903,740,105,104,0.004464285714285714,1494.5,1478.2857142857142,1392.0,1500
16.759644985198975,741,109,60,0.0034965034965034965,1494.9000000000001,1458.93006993007,1415,1500
16.782344102859497,742,109,105,0.0025974025974025974,1494.9000000000001,1450,1390.0,1500
16.804972171783447,743,113,113,0.004166666666666667,1495.3,1472.3333333333333,1385,1500
16.827656984329224,744,112,78,0.002932551319648094,1495.2,1450,1415,1500
16.850176095962524,745,104,114,0.003205128205128205,1494.4000000000001,1453.1025641025642,1385,1500
16.87286400794983,746,107,111,0.0016129032258064516,1494.7,1450,1385,1500
16.8953959941864,747,109,109,0.0058823529411764705,1494.9000000000001,1506.6470588235295,1385,1500
16.918074131011963,748,108,64,0.0030303030303030303,1494.8,1450,1415,1500
16.940620183944702,749,109,115,0.002197802197802198,1494.9000000000001,1450,1385,1500
16.96320915222168,750,113,104,0.0008116883116883117,1495.3,1450,1392.0,1500
16.985954999923706,751,108,66,0.002898550724637681,1494.8,1450,1415,1500
17.008552074432373,752,104,120,0.005494505494505495,1494.4000000000001,1498.8901098901099,1385,1500
17.03119397163391,753,109,61,0.006666666666666667,1494.9000000000001,1522.3333333333333,1415,1500
17.05394196510315,754,130,122,0.005714285714285714,1497.0,1503.2857142857142,1385,1500
17.076640129089355,755,112,120,0.003367003367003367,1495.2,1456.3400673400674,1385,1500
17.09931516647339,756,115,119,0.0022727272727272726,1495.5,1450,1385,1500
17.12183904647827,757,108,117,0.002403846153846154,1494.8,1450,1385,1500
17.144399166107178,758,104,116,0.002777777777777778,1494.4000000000001,1450,1385,1500
17.16693615913391,759,106,118,0.003703703703703704,1494.5999999999999,1463.0740740740741,1385,1500
17.189601182937622,760,109,78,0.0024630541871921183,1494.9000000000001,1450,1415,1500
17.212125062942505,761,105,65,0.008771929824561403,1494.5,1530,1415,1500
17.234690189361572,762,106,77,0.004166666666666667,1494.5999999999999,1472.3333333333333,1415,1500
17.25730299949646,763,112,117,0.002631578947368421,1495.2,1450,1385,1500
17.280153036117554,764,105,65,0.005,1494.5,1489.0,1415,1500
17.302762031555176,765,105,65,0.007575757575757576,1494.5,1530,1415,1500
17.325343132019043,766,113,123,0.0035714285714285713,1495.3,1460.4285714285713,1385,1500
17.348006010055542,767,102,106,0.0058823529411764705,1494.2,1506.6470588235295,1388.0,1500
17.37075901031494,768,106,71,0.0026455026455026454,1494.5999999999999,1450,1415,1500
17.393357038497925,769,110,105,0.006172839506172839,1495.0,1512.4567901234568,1390.0,1500
17.41662907600403,770,157,89,0.006211180124223602,1499.7,1513.2236024844719,1415,1500
17.439857006072998,771,106,70,0.002777777777777778,1494.5999999999999,1450,1415,1500
17.462751150131226,772,106,66,0.005434782608695652,1494.5999999999999,1497.695652173913,1415,1500
17.485727071762085,773,106,69,0.004132231404958678,1494.5999999999999,1471.6446280991736,1415,1500
17.50869107246399,774,105,66,0.00625,1494.5,1514.0,1415,1500
17.53155207633972,775,113,71,0.0025974025974025974,1495.3,1450,1415,1500
17.55438208580017,776,114,76,0.005952380952380952,1495.4000000000001,1508.047619047619,1415,1500
17.577365159988403,777,119,123,0.004201680672268907,1495.9000000000001,1473.0336134453783,1385,1500
17.60030198097229,778,105,123,0.008695652173913044,1494.5,1530,1385,1500
17.62306308746338,779,110,116,0.00980392156862745,1495.0,1530,1385,1500
17.64606499671936,780,164,69,0.002331002331002331,1500.4000000000001,1450,1415,1500
17.66886019706726,781,111,122,0.004166666666666667,1495.0999999999999,1472.3333333333333,1385,1500
17.691864013671875,782,101,92,0.008928571428571428,1494.0999999999999,1530,1415,1500
17.714802980422974,783,105,96,0.006802721088435374,1494.5,1525.0544217687075,1408.0,1500
17.737802982330322,784,102,85,0.007407407407407408,1494.2,1530,1415,1500
17.76057720184326,785,121,78,0.006211180124223602,1496.0999999999999,1513.2236024844719,1415,1500
17.783610105514526,786,114,85,0.013333333333333334,1495.4000000000001,1530,1415,1500
17.806543111801147,787,106,91,0.005434782608695652,1494.5999999999999,1497.695652173913,1415,1500
17.829491138458252,788,103,117,0.006802721088435374,1494.3,1525.0544217687075,1385,1500
17.85238218307495,789,104,65,0.011111111111111112,1494.4000000000001,1530,1415,1500
17.875291109085083,790,110,74,0.003472222222222222,1495.0,1458.4444444444443,1415,1500
17.89822006225586,791,115,102,0.008771929824561403,1495.5,1530,1396.0,1500
17.921168088912964,792,138,123,0.00625,1497.8,1514.0,1385,1500
17.94409704208374,793,107,122,0.00510204081632653,1494.7,1491.0408163265306,1385,1500
