time,frame,x,y,size_inv,roll,pitch,thrust,yaw
0.0006170272827148438,1,185,71,0.008928571428571428,1502.5,1490.0,1465,1500
0.023504972457885742,2,185,71,0.008928571428571428,1502.5,1490.0,1465,1500
0.0452570915222168,3,185,71,0.008928571428571428,1502.5,1490.0,1465,1500
0.0668799877166748,4,185,71,0.008928571428571428,1502.5,1490.0,1465,1500
0.08846616744995117,5,185,71,0.008928571428571428,1502.5,1490.0,1465,1500
0.11005997657775879,6,186,71,0.008333333333333333,1502.6,1478.095238095238,1465,1500
0.13167810440063477,7,185,71,0.008928571428571428,1502.5,1490.0,1465,1500
0.15326404571533203,8,185,71,0.008928571428571428,1502.5,1490.0,1465,1500
0.17490696907043457,9,185,71,0.008928571428571428,1502.5,1490.0,1465,1500
0.19668197631835938,10,185,71,0.008928571428571428,1502.5,1490.0,1465,1500
0.21853899955749512,11,185,71,0.008928571428571428,1502.5,1490.0,1465,1500
0.24038004875183105,12,185,71,0.008928571428571428,1502.5,1490.0,1465,1500
0.26229405403137207,13,185,71,0.008928571428571428,1502.5,1490.0,1465,1500
0.2842440605163574,14,185,71,0.008928571428571428,1502.5,1490.0,1465,1500
0.30608510971069336,15,186,71,0.008333333333333333,1502.6,1478.095238095238,1465,1500
0.32794904708862305,16,185,71,0.007936507936507936,1502.5,1470.1587301587301,1465,1500
0.3498270511627197,17,185,70,0.008928571428571428,1502.5,1490.0,1465,1500
0.3717491626739502,18,186,70,0.008928571428571428,1502.6,1490.0,1465,1500
0.39369797706604004,19,187,71,0.01020408163265306,1502.7,1515.5102040816325,1465,1500
0.4155759811401367,20,187,72,0.01020408163265306,1502.7,1515.5102040816325,1465,1500
0.43747615814208984,21,189,74,0.01020408163265306,1502.9,1515.5102040816325,1465,1500
0.45935606956481934,22,188,75,0.01020408163265306,1502.8,1515.5102040816325,1465,1500
0.48122215270996094,23,190,75,0.014285714285714285,1503.0,1530,1465,1500
0.5030741691589355,24,191,74,0.014285714285714285,1503.1,1530,1465,1500
0.5247430801391602,25,191,73,0.014285714285714285,1503.1,1530,1465,1500
0.5462641716003418,26,191,72,0.0125,1503.1,1530,1465,1500
0.5677511692047119,27,191,71,0.014285714285714285,1503.1,1530,1465,1500
0.5893280506134033,28,191,69,0.016666666666666666,1503.1,1530,1465,1500
0.6108620166778564,29,192,68,0.012987012987012988,1503.2,1530,1465,1500
0.6324930191040039,30,192,67,0.014285714285714285,1503.2,1530,1465,1500
0.6541681289672852,31,193,65,0.012987012987012988,1503.3,1530,1465,1500
0.6757049560546875,32,191,64,0.008928571428571428,1503.1,1490.0,1465,1500
0.6972851753234863,33,193,64,0.0125,1503.3,1530,1465,1500
0.7188050746917725,34,191,64,0.008928571428571428,1503.1,1490.0,1465,1500
0.7404201030731201,35,193,65,0.014285714285714285,1503.3,1530,1465,1500
0.7619731426239014,36,192,65,0.008928571428571428,1503.2,1490.0,1465,1500
0.7836830615997314,37,193,66,0.0125,1503.3,1530,1465,1500
0.8051910400390625,38,193,67,0.011111111111111112,1503.3,1530,1465,1500
0.826728105545044,39,193,67,0.0125,1503.3,1530,1465,1500
0.8482401371002197,40,192,67,0.01020408163265306,1503.2,1515.5102040816325,1465,1500
0.8698651790618896,41,193,67,0.014285714285714285,1503.3,1530,1465,1500
0.8913929462432861,42,193,66,0.014285714285714285,1503.3,1530,1465,1500
0.9129271507263184,43,193,65,0.014285714285714285,1503.3,1530,1465,1500
0.9344520568847656,44,193,64,0.011363636363636364,1503.3,1530,1465,1500
0.9560360908508301,45,193,64,0.011363636363636364,1503.3,1530,1465,1500
0.9777929782867432,46,193,64,0.011904761904761904,1503.3,1530,1465,1500
0.9993810653686523,47,191,63,0.01020408163265306,1503.1,1515.5102040816325,1465,1500
1.021031141281128,48,191,63,0.01020408163265306,1503.1,1515.5102040816325,1465,1500
1.042639970779419,49,192,62,0.0125,1503.2,1530,1465,1500
1.0641710758209229,50,191,62,0.007936507936507936,1503.1,1470.1587301587301,1465,1500
1.0857641696929932,51,192,61,0.011363636363636364,1503.2,1530,1465,1500
1.107309103012085,52,192,61,0.011363636363636364,1503.2,1530,1465,1500
1.1288340091705322,53,192,62,0.012987012987012988,1503.2,1530,1465,1500
1.1503691673278809,54,192,64,0.012987012987012988,1503.2,1530,1465,1500
1.1723241806030273,55,192,66,0.010101010101010102,1503.2,1513.4487734487734,1465,1500
1.1940979957580566,56,189,65,0.008928571428571428,1502.9,1490.0,1465,1500
1.2156810760498047,57,191,64,0.008403361344537815,1503.1,1479.4957983193278,1465,1500
1.23728609085083,58,190,63,0.01020408163265306,1503.0,1515.5102040816325,1465,1500
1.2588920593261719,59,191,62,0.014285714285714285,1503.1,1530,1465,1500
1.2804160118103027,60,192,63,0.008928571428571428,1503.2,1490.0,1465,1500
1.3019969463348389,61,190,66,0.0125,1503.0,1530,1465,1500
1.3235960006713867,62,191,68,0.008928571428571428,1503.1,1490.0,1465,1500
1.3451931476593018,63,189,68,0.008333333333333333,1502.9,1478.095238095238,1465,1500
1.366811990737915,64,191,69,0.01020408163265306,1503.1,1515.5102040816325,1465,1500
1.3884129524230957,65,190,68,0.0125,1503.0,1530,1465,1500
1.4099271297454834,66,190,68,0.011363636363636364,1503.0,1530,1465,1500
1.4314560890197754,67,190,69,0.007352941176470588,1503.0,1458.4873949579833,1465,1500
1.4530880451202393,68,190,71,0.008403361344537815,1503.0,1479.4957983193278,1465,1500
1.4747099876403809,69,191,71,0.008928571428571428,1503.1,1490.0,1465,1500
1.4962899684906006,70,191,71,0.008928571428571428,1503.1,1490.0,1465,1500
1.5178611278533936,71,189,70,0.0125,1502.9,1530,1465,1500
1.5393660068511963,72,190,71,0.008928571428571428,1503.0,1490.0,1465,1500
1.5609619617462158,73,189,74,0.008403361344537815,1502.9,1479.4957983193278,1465,1500
1.5826029777526855,74,190,76,0.01020408163265306,1503.0,1515.5102040816325,1465,1500
1.604274034500122,75,189,78,0.007936507936507936,1502.9,1470.1587301587301,1465,1500
1.6258580684661865,76,189,77,0.007407407407407408,1502.9,1459.5767195767196,1465,1500
1.6474730968475342,77,188,77,0.007936507936507936,1502.8,1470.1587301587301,1465,1500
1.6690969467163086,78,188,77,0.008928571428571428,1502.8,1490.0,1465,1500
1.6906821727752686,79,187,79,0.007352941176470588,1502.7,1458.4873949579833,1465,1500
1.7122721672058105,80,188,82,0.008333333333333333,1502.8,1478.095238095238,1465,1500
1.7340199947357178,81,187,86,0.008928571428571428,1502.7,1490.0,1465,1500
1.755661964416504,82,185,89,0.005555555555555556,1502.5,1450,1465,1500
1.7771830558776855,83,186,90,0.007936507936507936,1502.6,1470.1587301587301,1465.0,1500
1.7988381385803223,84,187,90,0.007407407407407408,1502.7,1459.5767195767196,1465.0,1500
1.820479154586792,85,186,90,0.007407407407407408,1502.6,1459.5767195767196,1465.0,1500
1.8421180248260498,86,185,91,0.007936507936507936,1502.5,1470.1587301587301,1463.0,1500
1.8639090061187744,87,185,92,0.008333333333333333,1502.5,1478.095238095238,1461.0,1500
1.8855769634246826,88,184,94,0.008928571428571428,1502.4,1490.0,1457.0,1500
1.907231092453003,89,184,97,0.008928571428571428,1502.4,1490.0,1451.0,1500
1.9288699626922607,90,184,99,0.007936507936507936,1502.4,1470.1587301587301,1447.0,1500
1.9505350589752197,91,184,99,0.006666666666666667,1502.4,1450,1447.0,1500
1.9721269607543945,92,183,99,0.006666666666666667,1502.3,1450,1447.0,1500
1.993812084197998,93,181,98,0.006172839506172839,1502.1,1450,1449.0,1500
2.015408992767334,94,181,97,0.005555555555555556,1502.1,1450,1451.0,1500
2.0369911193847656,95,182,100,0.006666666666666667,1502.2,1450,1445.0,1500
2.058601140975952,96,181,104,0.007936507936507936,1502.1,1470.1587301587301,1440,1500
2.080212116241455,97,181,108,0.007407407407407408,1502.1,1459.5767195767196,1440,1500
2.1017980575561523,98,180,110,0.005555555555555556,1502.0,1450,1440,1500
2.1232941150665283,99,180,111,0.007142857142857143,1502.0,1454.2857142857142,1440,1500
2.1448991298675537,100,179,111,0.004629629629629629,1501.9,1450,1440,1500
2.166485071182251,101,180,110,0.006666666666666667,1502.0,1450,1440,1500
2.188002109527588,102,180,111,0.006060606060606061,1502.0,1450,1440,1500
2.209503173828125,103,179,112,0.007936507936507936,1501.9,1470.1587301587301,1440,1500
2.231117010116577,104,179,114,0.006666666666666667,1501.9,1450,1440,1500
2.2526509761810303,105,178,116,0.006666666666666667,1501.8,1450,1440,1500
2.2741920948028564,106,178,117,0.006666666666666667,1501.8,1450,1440,1500
2.2960190773010254,107,177,118,0.006060606060606061,1501.7,1450,1440,1500
2.317553997039795,108,177,118,0.006060606060606061,1501.7,1450,1440,1500
2.3390681743621826,109,176,117,0.006666666666666667,1501.6,1450,1440,1500
2.360599994659424,110,175,118,0.006493506493506494,1501.5,1450,1440,1500
2.382106065750122,111,173,119,0.005050505050505051,1501.3,1450,1440,1500
2.403714179992676,112,175,120,0.006060606060606061,1501.5,1450,1440,1500
2.425297975540161,113,173,121,0.005050505050505051,1501.3,1450,1440,1500
2.4468581676483154,114,173,122,0.006060606060606061,1501.3,1450,1440,1500
2.468402147293091,115,171,122,0.005050505050505051,1501.1,1450,1440,1500
2.4899239540100098,116,173,122,0.006060606060606061,1501.3,1450,1440,1500
2.511441946029663,117,172,122,0.006060606060606061,1501.2,1450,1440,1500
2.532945156097412,118,171,123,0.006060606060606061,1501.1,1450,1440,1500
2.5544660091400146,119,170,123,0.005952380952380952,1501.0,1450,1440,1500
2.575978994369507,120,169,123,0.005050505050505051,1500.9,1450,1440,1500
2.5974860191345215,121,171,123,0.0053475935828877,1501.1,1450,1440,1500
2.6190061569213867,122,169,123,0.005555555555555556,1500.9,1450,1440,1500
2.6405279636383057,123,167,123,0.005050505050505051,1500.7,1450,1440,1500
2.6620869636535645,124,169,122,0.006060606060606061,1500.9,1450,1440,1500
2.6837589740753174,125,168,122,0.006060606060606061,1500.8,1450,1440,1500
2.7052900791168213,126,167,121,0.005555555555555556,1500.7,1450,1440,1500
2.7268290519714355,127,167,121,0.006493506493506494,1500.7,1450,1440,1500
2.748396158218384,128,167,120,0.005208333333333333,1500.7,1450,1440,1500
2.769930124282837,129,166,120,0.006493506493506494,1500.6,1450,1440,1500
2.791457176208496,130,166,118,0.007142857142857143,1500.6,1454.2857142857142,1440,1500
2.813066005706787,131,166,118,0.006060606060606061,1500.6,1450,1440,1500
2.8345930576324463,132,165,117,0.006493506493506494,1500.5,1450,1440,1500
2.8561291694641113,133,165,116,0.006060606060606061,1500.5,1450,1440,1500
2.8776819705963135,134,164,114,0.007142857142857143,1500.4,1454.2857142857142,1440,1500
2.8993101119995117,135,164,111,0.006666666666666667,1500.4,1450,1440,1500
2.920849084854126,136,164,111,0.006060606060606061,1500.4,1450,1440,1500
2.942409038543701,137,163,111,0.006060606060606061,1500.3,1450,1440,1500
2.963992118835449,138,163,110,0.007142857142857143,1500.3,1454.2857142857142,1440,1500
2.9855899810791016,139,164,109,0.006666666666666667,1500.4,1450,1440,1500
3.0071070194244385,140,163,107,0.008928571428571428,1500.3,1490.0,1440,1500
3.0286731719970703,141,162,100,0.023809523809523808,1500.2,1530,1445.0,1500
3.0501279830932617,142,,,,1500.0,1490.0,1445.0,1500
3.071455955505371,143,,,,1500.0,1490.0,1445.0,1500
3.092895030975342,144,149,63,0.013333333333333334,1498.9,1530,1465,1500
3.114457130432129,145,145,74,0.016666666666666666,1498.5,1530,1465,1500
3.13598895072937,146,142,83,0.01020408163265306,1498.2,1515.5102040816325,1465,1500
3.1576521396636963,147,141,86,0.007142857142857143,1498.1,1454.2857142857142,1465,1500
3.1792681217193604,148,140,85,0.006666666666666667,1498.0,1450,1465,1500
3.200778007507324,149,138,83,0.005555555555555556,1497.8,1450,1465,1500
3.2223010063171387,150,138,81,0.005050505050505051,1497.8,1450,1465,1500
3.243967056274414,151,140,81,0.007142857142857143,1498.0,1454.2857142857142,1465,1500
3.265578031539917,152,141,84,0.008928571428571428,1498.1,1490.0,1465,1500
3.2871651649475098,153,143,90,0.009523809523809525,1498.3,1501.904761904762,1465.0,1500
3.3088021278381348,154,144,96,0.008333333333333333,1498.4,1478.095238095238,1453.0,1500
3.3304600715637207,155,144,105,0.005681818181818182,1498.4,1450,1440,1500
3.3519880771636963,156,144,105,0.007142857142857143,1498.4,1454.2857142857142,1440,1500
3.373739004135132,157,145,104,0.007407407407407408,1498.5,1459.5767195767196,1440,1500
3.3953540325164795,158,146,102,0.007142857142857143,1498.6,1454.2857142857142,1441.0,1500
3.4170241355895996,159,148,102,0.006666666666666667,1498.8,1450,1441.0,1500
3.438913106918335,160,149,104,0.008928571428571428,1498.9,1490.0,1440,1500
3.4605350494384766,161,150,108,0.007407407407407408,1499.0,1459.5767195767196,1440,1500
3.4821419715881348,162,149,112,0.005555555555555556,1498.9,1450,1440,1500
3.5037779808044434,163,151,114,0.006666666666666667,1499.1,1450,1440,1500
3.525304079055786,164,151,115,0.006493506493506494,1499.1,1450,1440,1500
3.5468180179595947,165,151,114,0.005555555555555556,1499.1,1450,1440,1500
3.568351984024048,166,153,113,0.006666666666666667,1499.3,1450,1440,1500
3.5898640155792236,167,153,114,0.006493506493506494,1499.3,1450,1440,1500
3.6113951206207275,168,153,116,0.007142857142857143,1499.3,1454.2857142857142,1440,1500
3.6329901218414307,169,154,118,0.006666666666666667,1499.4,1450,1440,1500
3.654541015625,170,155,121,0.007407407407407408,1499.5,1459.5767195767196,1440,1500
3.676133155822754,171,154,123,0.007142857142857143,1499.4,1454.2857142857142,1440,1500
3.6977250576019287,172,155,124,0.006666666666666667,1499.5,1450,1440,1500
3.7192511558532715,173,154,125,0.005555555555555556,1499.4,1450,1440,1500
3.740817070007324,174,155,126,0.006493506493506494,1499.5,1450,1440,1500
3.762346029281616,175,155,126,0.006060606060606061,1499.5,1450,1440,1500
3.783998966217041,176,154,126,0.005555555555555556,1499.4,1450,1440,1500
3.805516004562378,177,154,127,0.006172839506172839,1499.4,1450,1440,1500
3.8270370960235596,178,154,128,0.006172839506172839,1499.4,1450,1440,1500
3.8485569953918457,179,156,128,0.007142857142857143,1499.6,1454.2857142857142,1440,1500
3.870159149169922,180,156,129,0.006666666666666667,1499.6,1450,1440,1500
3.8916890621185303,181,156,129,0.006666666666666667,1499.6,1450,1440,1500
3.9132120609283447,182,156,129,0.006666666666666667,1499.6,1450,1440,1500
3.9347240924835205,183,155,129,0.007142857142857143,1499.5,1454.2857142857142,1440,1500
3.956348180770874,184,156,129,0.006666666666666667,1499.6,1450,1440,1500
