time,frame,x,y,size_inv,roll,pitch,thrust,yaw
0.00043582916259765625,1,,,,1500.0,1490.0,1150.0,1500
0.022972822189331055,2,,,,1500.0,1490.0,1150.0,1500
0.04498887062072754,3,,,,1500.0,1490.0,1150.0,1500
0.06692194938659668,4,,,,1500.0,1490.0,1150.0,1500
0.08878183364868164,5,,,,1500.0,1490.0,1150.0,1500
0.11084485054016113,6,,,,1500.0,1490.0,1150.0,1500
0.13264989852905273,7,,,,1500.0,1490.0,1150.0,1500
0.1546638011932373,8,,,,1500.0,1490.0,1150.0,1500
0.17665600776672363,9,,,,1500.0,1490.0,1150.0,1500
0.19858694076538086,10,,,,1500.0,1490.0,1150.0,1500
0.220991849899292,11,,,,1500.0,1490.0,1150.0,1500
0.2435009479522705,12,,,,1500.0,1490.0,1150.0,1500
0.2659788131713867,13,,,,1500.0,1490.0,1150.0,1500
0.2884399890899658,14,,,,1500.0,1490.0,1150.0,1500
0.31113481521606445,15,,,,1500.0,1490.0,1150.0,1500
0.3336198329925537,16,,,,1500.0,1490.0,1150.0,1500
0.35608482360839844,17,,,,1500.0,1490.0,1150.0,1500
0.37855982780456543,18,,,,1500.0,1490.0,1150.0,1500
0.40117502212524414,19,,,,1500.0,1490.0,1150.0,1500
0.4236588478088379,20,,,,1500.0,1490.0,1150.0,1500
0.4461348056793213,21,,,,1500.0,1490.0,1150.0,1500
0.4685969352722168,22,,,,1500.0,1490.0,1150.0,1500
0.4911689758300781,23,,,,1500.0,1490.0,1150.0,1500
0.5136618614196777,24,,,,1500.0,1490.0,1150.0,1500
0.5361299514770508,25,,,,1500.0,1490.0,1150.0,1500
0.5585899353027344,26,,,,1500.0,1490.0,1150.0,1500
0.5811789035797119,27,,,,1500.0,1490.0,1150.0,1500
0.6036708354949951,28,,,,1500.0,1490.0,1150.0,1500
0.6261348724365234,29,,,,1500.0,1490.0,1150.0,1500
0.6485958099365234,30,,,,1500.0,1490.0,1150.0,1500
0.6712028980255127,31,,,,1500.0,1490.0,1150.0,1500
0.6936919689178467,32,,,,1500.0,1490.0,1150.0,1500
0.7161939144134521,33,,,,1500.0,1490.0,1150.0,1500
0.7386469841003418,34,,,,1500.0,1490.0,1150.0,1500
0.7612428665161133,35,,,,1500.0,1490.0,1150.0,1500
0.7837789058685303,36,,,,1500.0,1490.0,1150.0,1500
0.8062539100646973,37,,,,1500.0,1490.0,1150.0,1500
0.8287270069122314,38,,,,1500.0,1490.0,1150.0,1500
0.8513247966766357,39,,,,1500.0,1490.0,1150.0,1500
0.8737838268280029,40,,,,1500.0,1490.0,1150.0,1500
0.8962478637695312,41,,,,1500.0,1490.0,1150.0,1500
0.9187347888946533,42,,,,1500.0,1490.0,1150.0,1500
0.9413199424743652,43,,,,1500.0,1490.0,1150.0,1500
0.9638090133666992,44,,,,1500.0,1490.0,1150.0,1500
0.9862658977508545,45,,,,1500.0,1490.0,1150.0,1500
1.0087299346923828,46,,,,1500.0,1490.0,1150.0,1500
1.0313198566436768,47,,,,1500.0,1490.0,1150.0,1500
1.0537807941436768,48,,,,1500.0,1490.0,1150.0,1500
1.0762238502502441,49,,,,1500.0,1490.0,1150.0,1500
1.0986878871917725,50,,,,1500.0,1490.0,1150.0,1500
1.121431827545166,51,246,28,0.02857142857142857,1508.1700000000001,1500,1165,1500
1.1441428661346436,52,241,27,0.0017006802721088435,1507.2650000000001,1500,1165,1500
1.166813850402832,53,243,32,0.0004716981132075472,1507.05,1500,1165,1500
1.189612865447998,54,242,40,0.0010683760683760685,1506.54,1500,1165.0,1500
1.2125489711761475,55,219,25,0.0005040322580645161,1503.9449999999999,1500,1165,1500
1.2352099418640137,56,225,37,0.00019069412662090009,1509.3800000000001,1500,1165,1500
1.2577989101409912,57,218,36,0.0002938583602703497,1513.25,1500,1165,1500
1.2804958820343018,58,217,37,0.00022197558268590456,1517.845,1500,1165,1500
1.303147792816162,59,224,42,0.00016835016835016836,1520,1500,1164.5,1500
1.3257839679718018,60,218,45,0.00017921146953405018,1520,1500,1163.75,1500
1.348444938659668,61,222,46,0.00018318373328448433,1520,1484.8138974853478,1163.5,1500
1.3713469505310059,62,208,47,0.00020161290322580645,1520,1483.499121815878,1163.25,1500
1.394110918045044,63,213,51,0.0001753155680224404,1520,1482.9397659186591,1162.25,1500
1.41690993309021,64,206,50,0.0002420721374969741,1519.9300000000001,1482.7810276825253,1162.5,1500
1.4397828578948975,65,218,56,0.0001699235344095157,1520,1481.7254329279958,1161.0,1500
1.4625778198242188,66,206,58,0.0002380952380952381,1519.79,1482.4545510763273,1160.5,1500
1.485468864440918,67,204,68,0.00026455026455026457,1519.0599999999999,1482.6897932451575,1158.0,1500
1.5083320140838623,68,199,61,0.0002757859900717044,1518.4100000000001,1482.8559609077577,1159.75,1500
1.5316998958587646,69,202,65,0.00023912003825920613,1517.74,1482.5600712595417,1158.75,1500
1.5546069145202637,70,198,67,0.00027085590465872155,1517.4400000000001,1482.9690743586616,1158.25,1500
1.5774719715118408,71,203,65,0.0002403846153846154,1517.075,1482.7215623480206,1158.75,1500
1.6003808975219727,72,196,66,0.0003367003367003367,1516.1949999999999,1483.8198069946525,1158.5,1500
1.6232829093933105,73,195,70,0.0002915451895043732,1515.345,1483.4844851441746,1157.5,1500
1.6461539268493652,74,199,78,0.0005630630630630631,1515.54,1486.5206548053277,1155.5,1500
1.6691088676452637,75,197,66,0.0003295978905735003,1514.2449999999999,1484.3456774365961,1158.5,1500
1.6920549869537354,76,193,61,0.0005159958720330237,1513.73,1486.487557885129,1159.75,1500
1.7149569988250732,77,192,67,0.00036429872495446266,1513.21,1485.0703348747477,1158.25,1500
1.737833023071289,78,194,64,0.0005659309564233164,1513.1949999999999,1487.3768021557878,1159.0,1500
1.760718822479248,79,198,60,0.0005847953216374269,1513.4349999999999,1487.9111210913072,1160.0,1500
1.7836689949035645,80,201,69,0.00031655587211142766,1513.6600000000001,1485.2744265634999,1157.75,1500
1.8065948486328125,81,193,60,0.0005296610169491525,1512.3099999999999,1487.6947544134416,1160.0,1500
1.8295338153839111,82,206,65,0.0002849002849002849,1513.3199999999999,1485.1953470411529,1158.75,1500
1.8524668216705322,83,201,55,0.00025138260432378077,1512.73,1484.8200076502073,1161.25,1500
1.8753128051757812,84,203,52,0.00022893772893772894,1512.8499999999999,1484.2614335622213,1162.0,1500
1.8981869220733643,85,202,51,0.00024509803921568627,1512.9649999999999,1484.3385368136433,1162.25,1500
1.9212119579315186,86,209,51,0.0001893939393939394,1513.585,1483.4548938827866,1162.25,1500
1.9440689086914062,87,205,50,0.0002032520325203252,1513.96,1483.4324281216163,1162.5,1500
1.966951847076416,88,211,53,0.00015356265356265356,1514.895,1482.523166029179,1161.75,1500
1.9898369312286377,89,209,50,0.00015479876160990713,1514.9400000000001,1482.1055305496241,1162.5,1500
2.012741804122925,90,217,41,0.00015943877551020407,1515.72,1481.9948135920256,1164.75,1500
2.0356218814849854,91,215,42,0.00017024174327545113,1516.3699999999999,1481.7434239960044,1164.5,1500
2.0584847927093506,92,230,49,0.0003360215053763441,1517.6900000000001,1483.4523428374894,1162.75,1500
2.0814919471740723,93,223,39,0.00015873015873015873,1517.48,1481.5867769254339,1165,1500
2.104290008544922,94,224,38,0.00018601190476190475,1517.835,1481.8166685615756,1165,1500
2.1270530223846436,95,234,39,0.0002834467120181406,1519.575,1482.8293653069404,1165,1500
2.1498188972473145,96,236,38,0.0003083564600678384,1520,1483.1974253081114,1165,1500
2.172499895095825,97,230,29,0.000315059861373661,1520,1483.3762671500228,1165,1500
2.1951849460601807,98,231,22,0.000851063829787234,1520,1489.4338080103832,1165,1500
2.217885971069336,99,241,27,0.0005012531328320802,1520,1486.2821554120537,1165,1500
2.240530014038086,100,233,16,0.0021645021645021645,1520,1500,1165,1500
2.2629358768463135,101,238,21,0.001697792869269949,1520,1500,1165,1500
2.2853469848632812,102,243,22,0.0011363636363636363,1520,1496.9662170933432,1165,1500
2.3080108165740967,103,238,16,0.003968253968253968,1520,1500,1165,1500
2.3304247856140137,104,252,24,0.0028735632183908046,1520,1500,1165,1500
2.3528099060058594,105,253,23,0.003703703703703704,1520,1500,1165,1500
2.375194787979126,106,245,15,0.00625,1520,1500,1165,1500
2.3975989818573,107,242,14,0.022727272727272728,1520,1500,1165,1500
2.4200079441070557,108,249,16,0.010416666666666666,1520,1500,1165,1500
2.442401885986328,109,248,14,0.006944444444444444,1520,1500,1165,1500
2.4647958278656006,110,242,7,0.007518796992481203,1520,1500,1165,1500
2.48717999458313,111,250,14,0.041666666666666664,1520,1500,1165,1500
2.509565830230713,112,243,6,0.041666666666666664,1520,1500,1165,1500
2.5318329334259033,113,,,,1520,1500,1150.0,1500
2.554130792617798,114,,,,1520,1500,1150.0,1500
2.5765209197998047,115,246,9,0.03333333333333333,1520,1500,1165,1500
2.599336862564087,116,242,4,0.016666666666666666,1520,1500,1165,1500
2.621845006942749,117,246,6,0.041666666666666664,1520,1500,1165,1500
2.6441359519958496,118,,,,1517.595,1500,1150.0,1500
2.6665639877319336,119,,,,1512.7550000000001,1500,1150.0,1500
2.6890769004821777,120,,,,1513.405,1500,1150.0,1500
2.7116148471832275,121,,,,1513.375,1500,1150.0,1500
2.7340009212493896,122,,,,1513.97,1500,1150.0,1500
2.756382942199707,123,,,,1513.97,1500,1150.0,1500
2.7790098190307617,124,239,5,0.05555555555555555,1520,1500,1165,1500
2.801558017730713,125,231,3,0.016666666666666666,1515.5899999999999,1500,1165,1500
2.8242440223693848,126,242,9,0.03333333333333333,1511.77,1500,1165,1500
2.8469150066375732,127,234,7,0.0035714285714285713,1505.8699999999999,1500,1165,1500
2.869601011276245,128,227,4,0.009259259259259259,1504.835,1500,1165,1500
2.892232894897461,129,221,4,0.007142857142857143,1508.6700000000001,1500,1165,1500
2.914881944656372,130,216,10,0.006802721088435374,1512.1500000000001,1500,1165,1500
2.9375369548797607,131,234,8,0.0035714285714285713,1518.5,1500,1165,1500
2.9601569175720215,132,216,20,0.005747126436781609,1520,1500,1165,1500
2.9825949668884277,133,229,19,0.0014005602240896359,1520,1500,1165,1500
3.0049920082092285,134,222,22,0.001519756838905775,1520,1500,1165,1500
3.027359962463379,135,208,15,0.0020161290322580645,1520,1500,1165,1500
3.049804925918579,136,221,27,0.0014204545454545455,1520,1500,1165,1500
3.072208881378174,137,222,31,0.0011098779134295228,1520,1500,1165,1500
3.0946059226989746,138,208,17,0.0005296610169491525,1520,1500,1165,1500
3.117025852203369,139,186,15,0.0012787723785166241,1518.8099999999999,1500,1165,1500
3.1396899223327637,140,203,26,0.0005561735261401557,1520,1500,1165,1500
3.1621198654174805,141,193,20,0.0004975124378109452,1518.52,1499.0511487284455,1165,1500
3.1849119663238525,142,188,25,0.0005717552887364208,1518.52,1494.6182060896551,1165,1500
3.2077059745788574,143,185,26,0.00046598322460391424,1517.1800000000001,1492.6259084488443,1165,1500
3.230517864227295,144,187,29,0.0005473453749315818,1515.395,1492.4671184881468,1165,1500
3.2533018589019775,145,176,25,0.0009157509157509158,1514.155,1495.0507957798329,1165,1500
3.276082992553711,146,182,32,0.001388888888888889,1513.27,1499.7506098546471,1165,1500
3.29892897605896,147,184,19,0.0018796992481203006,1511.6199999999999,1500,1165,1500
3.321692943572998,148,186,37,0.002079002079002079,1510.55,1500,1165,1500
3.344331979751587,149,178,34,0.0012254901960784314,1509.8499999999999,1500,1165,1500
3.3670079708099365,150,181,45,0.006944444444444444,1508.6400000000001,1500,1163.75,1500
3.3897738456726074,151,176,28,0.0032258064516129032,1507.5650000000001,1500,1165,1500
3.4124369621276855,152,153,54,0.005681818181818182,1505.2,1500,1161.5,1500
3.435192823410034,153,179,34,0.0030303030303030303,1507.8900000000001,1500,1165,1500
3.4578440189361572,154,158,57,0.005263157894736842,1505.395,1500,1160.75,1500
3.480599880218506,155,161,53,0.0023923444976076554,1506.0699999999999,1500,1161.75,1500
3.5033419132232666,156,171,31,0.006535947712418301,1506.7650000000001,1500,1165,1500
3.526021957397461,157,174,46,0.0005208333333333333,1505.2550000000001,1500,1163.5,1500
3.5487828254699707,158,176,46,0.004166666666666667,1505.085,1500,1163.5,1500
3.571678876876831,159,158,53,0.004032258064516129,1502.1849999999999,1500,1161.75,1500
3.594451904296875,160,176,62,0.002197802197802198,1502.8099999999999,1500,1159.5,1500
3.617220878601074,161,176,49,0.004,1502.51,1500,1162.75,1500
3.6399660110473633,162,176,51,0.003472222222222222,1503.655,1500,1162.25,1500
3.662716865539551,163,169,51,0.003968253968253968,1502.825,1500,1162.25,1500
3.685516834259033,164,154,73,0.000966183574879227,1501.345,1500,1156.75,1500
3.7084569931030273,165,152,81,0.0022727272727272726,1502.0899999999999,1500,1154.75,1500
3.7314159870147705,166,152,74,0.001358695652173913,1502.4849999999999,1500,1156.5,1500
3.754210948944092,167,163,55,0.0014619883040935672,1503.76,1500,1161.25,1500
3.777329921722412,168,161,71,0.0003450655624568668,1503.2149999999999,1500,1157.25,1500
3.8001558780670166,169,151,83,0.0022172949002217295,1502.01,1500,1154.25,1500
3.822924852371216,170,158,65,0.0009250693802035153,1501.3599999999999,1500,1158.75,1500
3.8456828594207764,171,160,72,0.0008012820512820513,1500.2,1500,1157.0,1500
3.8684349060058594,172,159,60,0.003205128205128205,1499.405,1500,1160.0,1500
3.8913090229034424,173,142,72,0.0033333333333333335,1497.3599999999999,1500,1157.0,1500
3.9140758514404297,174,148,80,0.0029411764705882353,1497.8099999999999,1500,1155.0,1500
3.9368228912353516,175,162,82,0.005,1499.52,1500,1154.5,1500
3.9596149921417236,176,149,73,0.0015625,1498.7149999999999,1500,1156.75,1500
3.982424020767212,177,157,65,0.0011961722488038277,1499.3050000000001,1500,1158.75,1500
4.005199909210205,178,149,82,0.002331002331002331,1497.425,1500,1154.5,1500
4.027949810028076,179,159,62,0.003134796238244514,1498.2049999999999,1500,1159.5,1500
4.050704002380371,180,156,64,0.002564102564102564,1498.155,1500,1159.0,1500
4.073433876037598,181,170,73,0.0016666666666666668,1498.845,1500,1156.75,1500
4.096161842346191,182,143,84,0.002150537634408602,1496.105,1500,1154.0,1500
4.1189539432525635,183,142,86,0.0029585798816568047,1496.425,1500,1153.5,1500
4.1417717933654785,184,156,67,0.0012077294685990338,1498.4449999999999,1500,1158.25,1500
4.16452693939209,185,147,62,0.004629629629629629,1497.26,1500,1159.5,1500
4.187307834625244,186,156,63,0.004,1499.385,1500,1159.25,1500
4.210114002227783,187,150,64,0.0017543859649122807,1497.98,1500,1159.0,1500
4.23293399810791,188,148,65,0.0016025641025641025,1497.365,1500,1158.75,1500
4.255702018737793,189,145,94,0.0015384615384615385,1496.9549999999999,1500,1151.5,1500
4.278439998626709,190,143,74,0.002564102564102564,1496.28,1500,1156.5,1500
4.30135178565979,191,151,64,0.0014534883720930232,1496.335,1500,1159.0,1500
4.324107885360718,192,151,71,0.0006157635467980296,1496.7149999999999,1500,1157.25,1500
4.346865892410278,193,147,69,0.0008841732979664014,1496.6500000000001,1500,1157.75,1500
4.369627952575684,194,143,59,0.0024509803921568627,1495.655,1500,1160.25,1500
4.392404794692993,195,137,72,0.0007496251874062968,1494.865,1500,1157.0,1500
4.415185928344727,196,142,63,0.0021645021645021645,1495.135,1500,1159.25,1500
4.437956809997559,197,141,72,0.0015015015015015015,1495.1400000000001,1500,1157.0,1500
4.460704803466797,198,140,63,0.001282051282051282,1495.02,1500,1159.25,1500
4.483461856842041,199,144,64,0.0011261261261261261,1495.3050000000001,1500,1159.0,1500
4.5062220096588135,200,136,64,0.00267379679144385,1494.1800000000001,1500,1159.0,1500
4.529038906097412,201,139,69,0.000531632110579479,1494.0,1497.2964735063267,1157.75,1500
4.551954984664917,202,138,60,0.0017301038062283738,1493.365,1500,1160.0,1500
4.574707984924316,203,136,65,0.0016339869281045752,1492.8,1500,1158.75,1500
4.597482919692993,204,142,67,0.0034965034965034965,1493.4649999999999,1500,1158.25,1500
4.620265960693359,205,141,79,0.0015384615384615385,1493.2850000000001,1500,1155.25,1500
4.64303994178772,206,146,66,0.0006071645415907711,1493.585,1500,1158.5,1500
4.665802001953125,207,135,78,0.00046685340802987864,1492.335,1497.7552141094181,1155.5,1500
4.688644886016846,208,124,85,0.0009057971014492754,1491.075,1500,1153.75,1500
4.711705923080444,209,129,63,0.000975609756097561,1491.53,1500,1159.25,1500
4.734488010406494,210,131,60,0.0012626262626262627,1492.0550000000001,1500,1160.0,1500
4.757268905639648,211,127,63,0.0008019246190858059,1492.135,1499.4382776490356,1159.25,1500
4.780183792114258,212,126,74,0.0011574074074074073,1491.915,1500,1156.5,1500
4.802979946136475,213,131,77,0.0006793478260869565,1491.72,1496.6851742182084,1155.75,1500
4.825852870941162,214,133,67,0.00031055900621118014,1491.1849999999999,1489.8113415291584,1158.25,1500
4.848726987838745,215,127,58,0.0004748338081671415,1490.0550000000001,1490.3904618184235,1160.5,1500
4.871725797653198,216,122,67,0.0007002801120448179,1488.5350000000001,1492.7380404276544,1158.25,1500
4.8945839405059814,217,131,58,0.000326797385620915,1488.915,1488.8631571410065,1160.5,1500
4.917757987976074,218,138,52,0.00026838432635534085,1489.9649999999999,1487.6416137732567,1162.0,1500
4.9406578540802,219,131,48,0.0004033884630899556,1489.4949999999999,1488.4194338475954,1163.0,1500
4.963523864746094,220,131,55,0.00024467824810374357,1489.2550000000001,1485.8143836832107,1161.25,1500
4.986407995223999,221,124,43,0.0005027652086475615,1488.27,1488.0960938782107,1164.25,1500
5.009363889694214,222,133,45,0.0003139717425431711,1489.4349999999999,1485.3647235523024,1163.75,1500
5.032355785369873,223,133,41,0.00029394473838918284,1489.845,1484.7790504230647,1164.75,1500
5.055262804031372,224,132,33,0.00036656891495601173,1489.6300000000001,1485.5613020974779,1165,1500
5.0780348777771,225,131,38,0.00041649312786339027,1489.75,1486.002203546248,1165,1500
5.100813865661621,226,136,37,0.0003078817733990148,1490.3,1484.5236916629585,1165,1500
5.1235949993133545,227,134,30,0.0005952380952380953,1490.2049999999999,1487.6656955909664,1165,1500
5.146355867385864,228,132,29,0.0005208333333333333,1489.7349999999999,1487.1740969788968,1165,1500
5.169204950332642,229,141,25,0.00035310734463276836,1490.645,1485.446555973434,1165,1500
5.192111968994141,230,140,23,0.00043878894251864854,1490.5,1486.4974826467076,1165,1500
5.214921951293945,231,141,24,0.00043878894251864854,1491.2349999999999,1486.4335063805788,1165,1500
5.237722873687744,232,142,23,0.0005128205128205128,1491.3499999999999,1487.3726708538748,1165,1500
5.260530948638916,233,143,20,0.0006510416666666666,1491.3399999999999,1489.1119793206137,1165,1500
5.283320903778076,234,144,17,0.0006510416666666666,1491.9200000000001,1489.3964520723243,1165,1500
5.306111812591553,235,144,16,0.0007142857142857143,1492.395,1490.3266851349372,1165,1500
5.3289759159088135,236,146,18,0.0008695652173913044,1492.845,1492.4411636099853,1165,1500
5.351879835128784,237,147,13,0.0008012820512820513,1493.3599999999999,1491.9643759049368,1165,1500
5.374683856964111,238,148,11,0.0010319917440660474,1494.04,1494.7826312435095,1165,1500
5.397472858428955,239,146,10,0.0011363636363636363,1493.9949999999999,1496.6096064582161,1165,1500
5.420289993286133,240,150,11,0.0012626262626262627,1494.585,1498.6960700409502,1165,1500
5.443066835403442,241,140,8,0.004464285714285714,1493.8900000000001,1500,1165,1500
5.465772867202759,242,152,7,0.001984126984126984,1495.3399999999999,1500,1165,1500
5.488432884216309,243,164,5,0.00510204081632653,1496.7349999999999,1500,1165,1500
5.511335849761963,244,167,6,0.01020408163265306,1497.04,1500,1165,1500
5.534000873565674,245,159,3,0.010416666666666666,1496.5250000000001,1500,1165,1500
5.55663800239563,246,171,9,0.05555555555555555,1497.24,1500,1165,1500
5.57915997505188,247,,,,1496.375,1500,1150.0,1500
5.601777791976929,248,173,3,0.03125,1498.51,1500,1165,1500
5.624447822570801,249,167,3,0.005681818181818182,1499.0650000000001,1500,1165,1500
5.646965980529785,250,,,,1498.855,1500,1150.0,1500
5.669432878494263,251,,,,1500.615,1500,1150.0,1500
5.6918909549713135,252,,,,1501.0550000000001,1500,1150.0,1500
5.7144529819488525,253,171,6,0.013888888888888888,1502.6600000000001,1500,1165,1500
5.737132787704468,254,171,5,0.037037037037037035,1502.6400000000001,1500,1165,1500
5.759804964065552,255,171,4,0.03333333333333333,1502.6400000000001,1500,1165,1500
5.782380819320679,256,,,,1500.9349999999999,1500,1150.0,1500
5.80494499206543,257,171,4,0.047619047619047616,1501.98,1500,1165,1500
5.827610969543457,258,166,4,0.047619047619047616,1501.395,1500,1165,1500
5.85016393661499,259,,,,1501.0699999999999,1500,1150.0,1500
5.872712850570679,260,163,3,0.025,1502.0150000000001,1500,1165,1500
5.895356893539429,261,164,5,0.01818181818181818,1502.095,1500,1165,1500
5.918018817901611,262,155,5,0.0049261083743842365,1501.8800000000001,1500,1165,1500
5.9406578540802,263,149,7,0.006944444444444444,1501.0899999999999,1500,1165,1500
5.963281869888306,264,144,10,0.004608294930875576,1500.0650000000001,1500,1165,1500
5.985944986343384,265,150,9,0.002197802197802198,1500.29,1500,1165,1500
6.008962869644165,266,152,10,0.0011337868480725624,1500.77,1500,1165,1500
6.0317299365997314,267,150,13,0.0010204081632653062,1499.7149999999999,1500,1165,1500
6.0543999671936035,268,146,15,0.0008865248226950354,1498.395,1500,1165,1500
6.077033996582031,269,142,18,0.0007267441860465116,1497.125,1500,1165,1500
6.099639892578125,270,141,19,0.0005263157894736842,1496.355,1500,1165,1500
6.122376918792725,271,132,19,0.0008163265306122449,1494.895,1500,1165,1500
6.145009994506836,272,139,30,0.00030921459492888067,1495.375,1500,1165,1500
6.167704820632935,273,136,34,0.0002994908655286014,1494.96,1493.5198175845867,1165,1500
6.190492868423462,274,141,39,0.00021659085986571366,1495.355,1488.2991134569479,1165,1500
6.213298797607422,275,135,42,0.00023089355806972986,1494.29,1486.4752317992557,1164.5,1500
6.2361838817596436,276,138,44,0.00022104332449160034,1493.46,1485.4639859398933,1164.0,1500
6.259119987487793,277,129,52,0.0007127583749109052,1492.0050000000001,1490.073486655732,1162.0,1500
6.282047986984253,278,132,45,0.00030441400304414006,1491.7750000000001,1485.4079321174133,1163.75,1500
6.3049328327178955,279,127,47,0.00044802867383512545,1491.29,1486.5653633131119,1163.25,1500
6.327812910079956,280,131,57,0.0002723311546840959,1491.3800000000001,1484.5544034868119,1160.75,1500
6.350697994232178,281,141,63,0.0001884303749764462,1492.6949999999999,1483.0874995340996,1159.25,1500
6.373593807220459,282,143,63,0.00018422991893883567,1492.2750000000001,1482.9205102977335,1159.25,1500
6.396488904953003,283,124,55,0.0005197505197505198,1490.1949999999999,1486.4959759600722,1161.25,1500
6.41943883895874,284,139,61,0.00024588148512417015,1490.865,1483.7865762390672,1159.75,1500
6.4423699378967285,285,128,52,0.0007936507936507937,1489.5599999999999,1489.8270265599147,1162.0,1500
6.465227842330933,286,143,66,0.0010582010582010583,1491.2149999999999,1493.3096869391268,1158.5,1500
6.488094806671143,287,134,66,0.00033068783068783067,1491.1300000000001,1485.6524841197713,1158.5,1500
6.510926008224487,288,124,78,0.0012004801920768306,1489.6900000000001,1495.2464739226941,1155.5,1500
6.533874988555908,289,148,76,0.00031625553447185326,1492.7049999999999,1486.272454207281,1156.0,1500
6.556778907775879,290,126,83,0.0012239902080783353,1490.3499999999999,1496.30145999674,1154.25,1500
6.579653978347778,291,124,79,0.0007267441860465116,1490.355,1491.8673135874919,1155.25,1500
6.6025519371032715,292,134,73,0.0004278990158322636,1490.8599999999999,1489.1225309822428,1156.75,1500
6.625458002090454,293,140,63,0.0009718172983479105,1491.3800000000001,1495.0137805859968,1159.25,1500
6.6483118534088135,294,133,66,0.0015873015873015873,1491.25,1500,1158.5,1500
6.671199798583984,295,137,64,0.0014705882352941176,1491.4849999999999,1500,1159.0,1500
6.693994998931885,296,138,72,0.001282051282051282,1490.47,1500,1157.0,1500
6.716772794723511,297,136,77,0.001851851851851852,1490.26,1500,1155.75,1500
6.739632844924927,298,144,85,0.0015151515151515152,1491.9200000000001,1500,1153.75,1500
6.762458801269531,299,129,84,0.0020242914979757085,1489.615,1500,1154.0,1500
6.785271883010864,300,136,64,0.0029239766081871343,1490.925,1500,1159.0,1500
6.808053970336914,301,135,65,0.0025252525252525255,1491.6099999999999,1500,1158.75,1500
6.830813884735107,302,131,83,0.0017094017094017094,1491.345,1500,1154.25,1500
6.853567838668823,303,135,67,0.0023148148148148147,1492.01,1500,1158.25,1500
6.8763158321380615,304,145,79,0.002325581395348837,1492.71,1500,1155.25,1500
6.899123907089233,305,139,73,0.0010582010582010583,1492.04,1500,1156.75,1500
6.921979904174805,306,135,72,0.0031746031746031746,1491.4749999999999,1500,1157.0,1500
6.9447410106658936,307,129,74,0.0013020833333333333,1490.6099999999999,1500,1156.5,1500
6.9675328731536865,308,138,69,0.003125,1491.0,1500,1157.75,1500
6.990286827087402,309,132,92,0.0021141649048625794,1491.345,1500,1152.0,1500
7.013056993484497,310,135,68,0.002457002457002457,1491.8299999999999,1500,1158.0,1500
7.035813808441162,311,130,66,0.003703703703703704,1491.355,1500,1158.5,1500
7.058903932571411,312,134,74,0.0032679738562091504,1491.6199999999999,1500,1156.5,1500
7.081743001937866,313,130,67,0.003134796238244514,1491.425,1500,1158.25,1500
7.104512929916382,314,128,72,0.0049261083743842365,1490.53,1500,1157.0,1500
7.127278804779053,315,142,70,0.004629629629629629,1491.675,1500,1157.5,1500
7.150041818618774,316,137,68,0.0038461538461538464,1490.865,1500,1158.0,1500
7.172784805297852,317,129,81,0.004166666666666667,1490.365,1500,1154.75,1500
7.195552825927734,318,133,70,0.003003003003003003,1490.3099999999999,1500,1157.5,1500
7.218336820602417,319,143,77,0.002652519893899204,1491.0150000000001,1500,1155.75,1500
7.241207838058472,320,133,68,0.0031746031746031746,1490.4449999999999,1500,1158.0,1500
7.263942003250122,321,140,88,0.0027100271002710027,1491.5150000000001,1500,1153.0,1500
7.286672830581665,322,135,69,0.0022624434389140274,1490.71,1500,1157.75,1500
7.309459924697876,323,136,66,0.004608294930875576,1490.96,1500,1158.5,1500
7.332268953323364,324,131,67,0.001984126984126984,1491.345,1500,1158.25,1500
7.355018854141235,325,133,75,0.0011614401858304297,1491.05,1500,1156.25,1500
7.377779960632324,326,142,68,0.001984126984126984,1492.105,1500,1158.0,1500
7.400516986846924,327,130,70,0.0007763975155279503,1491.26,1500,1157.5,1500
7.423293828964233,328,136,64,0.002849002849002849,1492.0250000000001,1500,1159.0,1500
7.446044921875,329,133,61,0.003134796238244514,1491.0550000000001,1500,1159.75,1500
7.468794822692871,330,131,68,0.0013297872340425532,1490.865,1500,1158.0,1500
7.491659879684448,331,131,68,0.0006944444444444445,1491.03,1500,1158.0,1500
7.514418840408325,332,128,71,0.0006211180124223603,1490.4649999999999,1500,1157.25,1500
7.5371928215026855,333,127,66,0.0009523809523809524,1490.4100000000001,1500,1158.5,1500
7.559964895248413,334,128,60,0.0019723865877712033,1490.645,1500,1160.0,1500
7.58272385597229,335,125,73,0.0013513513513513514,1490.2650000000001,1500,1156.75,1500
7.605518817901611,336,142,61,0.0006393861892583121,1491.3050000000001,1498.7149132670297,1159.75,1500
7.628391981124878,337,128,58,0.0020242914979757085,1489.7950000000001,1500,1160.5,1500
7.651376008987427,338,151,70,0.0005115089514066496,1491.48,1496.3465409733647,1157.5,1500
7.674250841140747,339,127,70,0.0010319917440660474,1488.8099999999999,1499.44856440578,1157.5,1500
7.697130918502808,340,129,64,0.0007122507122507123,1488.6600000000001,1495.6336175658348,1159.0,1500
7.720035791397095,341,129,63,0.0007396449704142012,1489.3299999999999,1495.9527606734396,1159.25,1500
7.742936849594116,342,128,61,0.0009380863039399625,1489.23,1498.2541423002147,1159.75,1500
7.765805006027222,343,130,59,0.001282051282051282,1490.855,1500,1160.25,1500
7.788625955581665,344,127,75,0.0013297872340425532,1490.5,1500,1156.25,1500
7.81165885925293,345,136,61,0.0005473453749315818,1491.585,1493.2297980096528,1159.75,1500
7.834573984146118,346,123,67,0.0005128205128205128,1489.5999999999999,1492.7579837121043,1158.25,1500
7.857442855834961,347,126,58,0.0016666666666666668,1489.9100000000001,1500,1160.5,1500
7.8802149295806885,348,128,63,0.0005952380952380953,1488.9649999999999,1493.3082638488027,1159.25,1500
7.903072834014893,349,137,60,0.0007102272727272727,1489.8150000000001,1494.1363911523556,1160.0,1500
7.925951957702637,350,129,59,0.0011111111111111111,1489.4349999999999,1498.5440899350544,1160.25,1500
7.948814868927002,351,134,59,0.0006666666666666666,1489.55,1494.0266671868624,1160.25,1500
7.971844911575317,352,131,64,0.0011574074074074073,1489.115,1499.1533956977373,1159.0,1500
7.994738817214966,353,131,56,0.0012077294685990338,1488.99,1499.5822944962013,1161.0,1500
8.017612934112549,354,125,59,0.0006863417982155113,1489.0,1493.724972356539,1160.25,1500
8.040496826171875,355,130,61,0.0006060606060606061,1489.1099999999999,1492.9808756661189,1159.75,1500
8.063378810882568,356,128,51,0.0016025641025641025,1489.5450000000001,1500,1162.25,1500
8.086150884628296,357,134,55,0.0009057971014492754,1490.405,1496.3071146445318,1161.25,1500
8.109073877334595,358,136,60,0.000445632798573975,1490.7449999999999,1491.5558663191148,1160.0,1500
8.132345914840698,359,133,62,0.00041118421052631577,1489.7449999999999,1490.9123373764371,1159.5,1500
8.155277967453003,360,133,61,0.0003944773175542406,1489.7850000000001,1490.0286346531595,1159.75,1500
8.178136825561523,361,133,51,0.00030193236714975844,1489.4300000000001,1488.7384508495977,1162.25,1500
8.201005935668945,362,130,43,0.00034352456200618345,1489.3150000000001,1488.3404899527609,1164.25,1500
8.223912000656128,363,142,41,0.0002203128442388191,1490.76,1486.1209561507269,1164.75,1500
8.246761798858643,364,139,36,0.00025025025025025025,1490.8699999999999,1485.9842386628761,1165,1500
8.269619941711426,365,139,25,0.0004065040650406504,1491.0050000000001,1487.3472202697601,1165,1500
8.292476892471313,366,145,23,0.0011441647597254005,1491.8199999999999,1494.2654278737689,1165,1500
8.315249919891357,367,135,12,0.001349527665317139,1490.575,1496.762787493554,1165,1500
8.33802580833435,368,140,5,0.0034965034965034965,1491.415,1500,1165,1500
8.360554933547974,369,,,,1493.6400000000001,1492.5071973277859,1150.0,1500
8.383052825927734,370,,,,1493.865,1492.7127200102318,1150.0,1500
8.405572891235352,371,,,,1494.45,1493.010787643082,1150.0,1500
8.428071022033691,372,,,,1494.5999999999999,1493.2672630810757,1150.0,1500
8.450555801391602,373,,,,1494.3900000000001,1493.646950236837,1150.0,1500
8.473037004470825,374,,,,1495.5450000000001,1493.9966999865867,1150.0,1500
8.495546817779541,375,,,,1496.7,1494.1901959215461,1150.0,1500
8.51804494857788,376,,,,1497.5250000000001,1493.6460311618207,1150.0,1500
8.540552854537964,377,,,,1498.9000000000001,1492.8965034965036,1150.0,1500
8.563060998916626,378,,,,1500.0,1490.0,1150.0,1500
8.585533857345581,379,,,,1500.0,1490.0,1150.0,1500
8.608016967773438,380,,,,1500.0,1490.0,1150.0,1500
8.630497932434082,381,,,,1500.0,1490.0,1150.0,1500
8.652976989746094,382,,,,1500.0,1490.0,1150.0,1500
8.675442934036255,383,,,,1500.0,1490.0,1150.0,1500
8.697894811630249,384,,,,1500.0,1490.0,1150.0,1500
8.720398902893066,385,,,,1500.0,1490.0,1150.0,1500
8.742860794067383,386,,,,1500.0,1490.0,1150.0,1500
8.76533579826355,387,,,,1500.0,1490.0,1150.0,1500
8.787858963012695,388,,,,1500.0,1490.0,1150.0,1500
8.810338973999023,389,,,,1500.0,1490.0,1150.0,1500
8.832806825637817,390,,,,1500.0,1490.0,1150.0,1500
8.855554819107056,391,,,,1500.0,1490.0,1150.0,1500
8.878255844116211,392,,,,1500.0,1490.0,1150.0,1500
8.900887966156006,393,,,,1500.0,1490.0,1150.0,1500
8.923406839370728,394,,,,1500.0,1490.0,1150.0,1500
8.94588589668274,395,,,,1500.0,1490.0,1150.0,1500
8.9683358669281,396,,,,1500.0,1490.0,1150.0,1500
8.990938901901245,397,,,,1500.0,1490.0,1150.0,1500
9.013437986373901,398,,,,1500.0,1490.0,1150.0,1500
9.035898923873901,399,,,,1500.0,1490.0,1150.0,1500
9.058365821838379,400,,,,1500.0,1490.0,1150.0,1500
9.080940961837769,401,,,,1500.0,1490.0,1150.0,1500
9.103410959243774,402,,,,1500.0,1490.0,1150.0,1500
9.125855922698975,403,,,,1500.0,1490.0,1150.0,1500
9.148306846618652,404,,,,1500.0,1490.0,1150.0,1500
9.17087697982788,405,,,,1500.0,1490.0,1150.0,1500
9.193356990814209,406,,,,1500.0,1490.0,1150.0,1500
9.215839862823486,407,,,,1500.0,1490.0,1150.0,1500
9.238359928131104,408,,,,1500.0,1490.0,1150.0,1500
9.261212825775146,409,,,,1500.0,1490.0,1150.0,1500
9.283728837966919,410,,,,1500.0,1490.0,1150.0,1500
9.306214809417725,411,,,,1500.0,1490.0,1150.0,1500
9.328685998916626,412,,,,1500.0,1490.0,1150.0,1500
9.351253986358643,413,,,,1500.0,1490.0,1150.0,1500
9.373724937438965,414,,,,1500.0,1490.0,1150.0,1500
9.396198987960815,415,,,,1500.0,1490.0,1150.0,1500
9.418678998947144,416,,,,1500.0,1490.0,1150.0,1500
9.441243886947632,417,,,,1500.0,1490.0,1150.0,1500
9.463712930679321,418,,,,1500.0,1490.0,1150.0,1500
9.486173868179321,419,,,,1500.0,1490.0,1150.0,1500
9.508633852005005,420,,,,1500.0,1490.0,1150.0,1500
9.53124189376831,421,,,,1500.0,1490.0,1150.0,1500
9.553709983825684,422,,,,1500.0,1490.0,1150.0,1500
9.576336860656738,423,113,15,0.0007183908045977011,1495.5350000000001,1491.3022988505747,1165,1500
9.599678993225098,424,113,21,0.0004716981132075472,1495.77,1488.7070700498807,1165,1500
9.622715950012207,425,117,32,0.00032938076416337287,1496.385,1487.0132773236023,1165,1500
9.645539999008179,426,110,35,0.00042517006802721087,1495.9349999999999,1487.7963404302679,1165,1500
9.668336868286133,427,126,49,0.00018754688672168043,1497.7049999999999,1485.0076555039343,1162.75,1500
9.691361904144287,428,130,53,0.00017361111111111112,1495.4349999999999,1484.4419088589398,1161.75,1500
9.714293956756592,429,130,56,0.00024177949709864604,1492.7650000000001,1484.7653722159137,1161.0,1500
9.737191915512085,430,134,50,0.0003741114852225963,1490.7149999999999,1485.8628035823758,1162.5,1500
9.760113954544067,431,121,70,0.0003546099290780142,1486.6099999999999,1485.422397950008,1157.5,1500
9.783041954040527,432,127,81,0.0005787037037037037,1485.335,1487.6420393999686,1154.75,1500
9.805931806564331,433,119,78,0.0014245014245014246,1485.5250000000001,1496.8061272278496,1155.5,1500
9.828809976577759,434,129,78,0.0017152658662092624,1487.4649999999999,1500,1155.5,1500
9.851701021194458,435,125,71,0.0006587615283267457,1488.0450000000001,1490.7216767832679,1157.25,1500
9.874588012695312,436,136,67,0.0007496251874062968,1489.675,1491.9547684934425,1158.25,1500
9.897478818893433,437,125,73,0.0011655011655011655,1488.6400000000001,1497.0914825531706,1156.75,1500
9.920355796813965,438,127,67,0.0015037593984962407,1488.1949999999999,1500,1158.25,1500
9.943125009536743,439,131,87,0.0016260162601626016,1488.53,1500,1153.25,1500
9.965906858444214,440,135,86,0.00033456005352960856,1488.385,1491.4569050522111,1153.5,1500
9.988799810409546,441,146,86,0.00037105751391465676,1490.26,1491.8383272408983,1153.5,1500
10.011959791183472,442,144,87,0.00022471910112359551,1489.855,1490.0209585104076,1153.25,1500
10.034816980361938,443,143,89,0.00023629489603024575,1490.115,1488.9485099310029,1152.75,1500
10.057675838470459,444,141,91,0.00024177949709864604,1489.9749999999999,1487.5298695725762,1152.25,1500
10.080581903457642,445,145,90,0.0002063983488132095,1490.875,1486.7236949102085,1152.5,1500
10.103442907333374,446,148,88,0.0002860411899313501,1491.7149999999999,1487.0565393239149,1153.0,1500
10.126331806182861,447,134,95,0.00030395136778115504,1491.4100000000001,1486.3740913046929,1151.25,1500
10.14926290512085,448,131,94,0.00033772374197906115,1492.05,1485.5457793901548,1151.5,1500
10.172237873077393,449,129,95,0.0003459010722933241,1492.46,1484.3474375054282,1151.25,1500
10.195122003555298,450,134,93,0.0003109452736318408,1493.5650000000001,1483.9742647389155,1151.75,1500
10.218033790588379,451,141,96,0.00028129395218002813,1494.4100000000001,1483.5879879626627,1151.0,1500
10.240924835205078,452,131,91,0.0009157509157509158,1492.875,1490.6235894129989,1152.25,1500
10.263794898986816,453,131,76,0.0011363636363636363,1492.2149999999999,1493.7297853594596,1156.0,1500
10.286670923233032,454,129,82,0.0008230452674897119,1491.355,1491.1778674411114,1154.5,1500
10.309616804122925,455,139,77,0.0006305170239596469,1491.7249999999999,1489.6767036809572,1155.75,1500
10.33260989189148,456,129,78,0.000744047619047619,1490.4000000000001,1491.2700160609531,1155.5,1500
10.355562925338745,457,131,85,0.0010131712259371835,1490.4349999999999,1494.6704719880047,1153.75,1500
10.378772974014282,458,129,71,0.0011363636363636363,1490.2449999999999,1496.701035986654,1157.25,1500
10.401968002319336,459,122,71,0.0016129032258064516,1489.5799999999999,1500,1157.25,1500
10.424908876419067,460,131,67,0.0011198208286674132,1490.7950000000001,1498.6114856182403,1158.25,1500
10.448041915893555,461,131,66,0.0015037593984962407,1490.125,1500,1158.5,1500
10.47088098526001,462,133,69,0.0005473453749315818,1490.3150000000001,1493.7407909863789,1157.75,1500
10.493855953216553,463,127,62,0.0012515644555694619,1489.615,1500,1159.5,1500
10.51688289642334,464,119,66,0.0009319664492078285,1488.4449999999999,1497.8111237300654,1158.5,1500
10.539881944656372,465,125,58,0.0011961722488038277,1488.635,1500,1160.5,1500
10.562912940979004,466,125,56,0.001,1488.7750000000001,1499.3130668437836,1161.0,1500
10.586097002029419,467,120,53,0.001388888888888889,1488.45,1500,1161.75,1500
10.609006881713867,468,115,53,0.0008333333333333334,1487.9000000000001,1497.7190875370384,1161.75,1500
10.632007837295532,469,125,57,0.0003861003861003861,1488.7049999999999,1492.0199552250028,1160.75,1500
10.654922008514404,470,119,46,0.0007704160246533128,1487.8050000000001,1495.513706806518,1163.5,1500
10.677807807922363,471,116,51,0.00042735042735042735,1487.22,1491.0066418623433,1162.25,1500
10.700692892074585,472,115,47,0.00045248868778280545,1486.4300000000001,1491.1631677795183,1163.25,1500
10.7236168384552,473,110,58,0.00022104332449160034,1485.2950000000001,1487.8181930155283,1160.5,1500
10.746497869491577,474,111,43,0.00040257648953301127,1485.7950000000001,1489.1041347062678,1164.25,1500
10.769444942474365,475,118,45,0.0002557544757033248,1486.1700000000001,1486.6954967948705,1163.75,1500
10.792450904846191,476,113,48,0.00020202020202020202,1485.1900000000001,1485.3601742600592,1163.0,1500
10.815390825271606,477,100,55,0.0002100840336134454,1483.6900000000001,1484.2620077207164,1161.25,1500
10.838308811187744,478,117,44,0.00024703557312252963,1485.0799999999999,1484.0452253555964,1164.0,1500
10.861304998397827,479,101,54,0.00020475020475020476,1482.76,1483.4410214905229,1161.5,1500
10.884172916412354,480,105,53,0.0001972386587771203,1483.1700000000001,1482.7927286649158,1161.75,1500
10.907063007354736,481,107,54,0.00016835016835016836,1483.2349999999999,1482.2448435016461,1161.5,1500
10.92994999885559,482,132,53,0.00010579771476936098,1484.75,1481.2726279928245,1161.75,1500
10.9528169631958,483,112,48,0.00015715857300015716,1483.1600000000001,1481.722351823641,1163.0,1500
10.975696802139282,484,127,46,0.00011488970588235294,1483.98,1481.0119763688124,1163.5,1500
10.998574018478394,485,131,44,0.00010834236186348862,1483.5350000000001,1480.799090814784,1164.0,1500
11.021601915359497,486,130,39,0.00010911074740861975,1482.99,1480.7138652156236,1165,1500
11.04442286491394,487,129,36,0.00011257458065968704,1484.665,1480.6509940951805,1165,1500
11.067215919494629,488,125,33,0.00011488970588235294,1483.925,1480.5419994801671,1165,1500
11.090016841888428,489,125,32,0.00011502185415228893,1485.365,1480.4535926122685,1165,1500
11.112818956375122,490,122,29,0.00012919896640826872,1486.54,1480.5273240424594,1165,1500
11.135603904724121,491,124,27,0.00012939958592132506,1488.0350000000001,1480.4903796551612,1165,1500
11.158387899398804,492,113,24,0.00017094017094017094,1486.8499999999999,1480.9709279615204,1165,1500
11.181305885314941,493,103,21,0.00019876764062810574,1486.675,1481.2908117260276,1165,1500
11.204104900360107,494,103,19,0.0002101723413198823,1486.675,1481.5001413683831,1165,1500
11.226928949356079,495,101,17,0.00022675736961451248,1486.085,1481.7844066590803,1165,1500
11.24973201751709,496,94,15,0.00028153153153153153,1485.2049999999999,1482.5045690623735,1165,1500
11.272522926330566,497,108,14,0.00022371364653243848,1485.75,1482.0375292782553,1165,1500
11.29531979560852,498,103,13,0.0002587991718426501,1484.04,1482.5322939973178,1165,1500
11.318131923675537,499,97,12,0.0003053435114503817,1482.26,1483.188059050693,1165,1500
11.340940952301025,500,107,11,0.0002898550724637681,1482.075,1483.1938307668825,1165,1500
11.363729000091553,501,105,10,0.00029708853238265005,1480.1700000000001,1483.4338543125325,1165,1500
11.38651180267334,502,99,11,0.00032938076416337287,1480,1483.9152172235631,1165,1500
11.409281015396118,503,96,12,0.0003252032520325203,1480,1483.9998777136589,1165,1500
11.432049989700317,504,98,15,0.00024813895781637717,1480,1483.267201387994,1165,1500
11.454738855361938,505,104,18,0.0001802451333813987,1480,1482.5417509074111,1165,1500
11.477435827255249,506,105,22,0.0001511715797430083,1480.5899999999999,1482.1206554192386,1165,1500
11.500231981277466,507,104,25,0.0001352265043948614,1480,1481.8727175236197,1165,1500
11.522921800613403,508,102,28,0.00012531328320802005,1480,1481.6400994231165,1165,1500
11.545614004135132,509,103,32,0.00010911074740861975,1480,1481.2818413010807,1165,1500
11.568565845489502,510,100,38,9.516558812333461e-05,1480,1480.9477002238875,1165,1500
11.591440916061401,511,99,50,9.191176470588235e-05,1480,1480.7099852220363,1162.5,1500
11.614313840866089,512,99,52,9.03342366757001e-05,1480,1480.4551634142467,1162.0,1500
11.637090921401978,513,97,57,8.876264867743653e-05,1480,1480.2030069309089,1160.75,1500
11.659926891326904,514,98,62,9.453582907922102e-05,1480,1480.1071356061898,1159.5,1500
11.68270993232727,515,97,66,8.862105636299185e-05,1480,1480,1158.5,1500
11.705389022827148,516,96,68,8.748906386701662e-05,1480,1480,1158.0,1500
11.728103876113892,517,92,73,0.00010088781275221953,1480,1480,1156.75,1500
11.750804901123047,518,87,61,0.000160333493666827,1480,1480.6104871779876,1159.75,1500
11.773623943328857,519,84,71,0.00015460729746444033,1480,1480.5987217660195,1157.25,1500
11.79646897315979,520,95,89,0.0001246416552411816,1480,1480.3285414109048,1152.75,1500
11.819312810897827,521,90,88,0.00013736263736263736,1480,1480.501202104776,1153.0,1500
11.842167854309082,522,94,90,0.0001429388221841052,1480,1480.6095685384992,1152.5,1500
11.864935874938965,523,100,93,0.0001476886722788362,1480,1480.7159930630478,1151.75,1500
11.88768982887268,524,100,94,0.00015693659761456373,1480,1480.8708730849405,1151.5,1500
11.910477876663208,525,97,94,0.0001768033946251768,1480,1481.1577233933087,1151.5,1500
11.93326187133789,526,97,93,0.0001719986240110079,1480,1481.194185247311,1151.75,1500
11.956056833267212,527,96,92,0.0001719986240110079,1480,1481.2652960585699,1152.0,1500
11.978893995285034,528,94,92,0.00018037518037518038,1480,1481.3691033089199,1152.0,1500
12.001781940460205,529,98,95,0.000176522506619594,1480,1481.3524917805191,1151.25,1500
12.024650812149048,530,97,97,0.00019252984212552945,1480,1481.580453322463,1150.75,1500
12.047594785690308,531,98,95,0.0001941747572815534,1480,1481.6537145939421,1151.25,1500
12.070339918136597,532,99,97,0.00019801980198019803,1480,1481.7472460207246,1150.75,1500
12.093210935592651,533,101,99,0.00020614306328592042,1480,1481.886933024789,1150.25,1500
12.116015911102295,534,97,99,0.00020214271275520516,1480,1481.8921356346225,1150.25,1500
12.138810873031616,535,100,99,0.0002042483660130719,1480,1481.940637138589,1150.25,1500
12.161733865737915,536,101,101,0.00020859407592824363,1480,1482.020689689658,1149.75,1500
12.184551000595093,537,103,101,0.00021312872975277067,1480,1482.107166333645,1149.75,1500
12.207395792007446,538,102,103,0.00022675736961451248,1480,1482.2898349215018,1149.25,1500
12.230227947235107,539,106,103,0.00022002200220022002,1480,1482.2659807429395,1149.25,1500
12.253031969070435,540,105,102,0.00022727272727272727,1480,1482.3732308788117,1149.5,1500
12.275828838348389,541,106,103,0.00023255813953488373,1480,1482.4644683836866,1149.25,1500
12.29862380027771,542,107,103,0.00023025558369790466,1480,1482.4736786070346,1149.25,1500
12.321550846099854,543,107,103,0.0002244668911335578,1480,1482.4341155092386,1149.25,1500
12.344345808029175,544,107,103,0.00023730422401518748,1480.2,1482.597650349315,1149.25,1500
12.367230892181396,545,101,103,0.0002768549280177187,1480,1483.0657639513449,1149.25,1500
12.390030860900879,546,110,103,0.0002405002405002405,1481.05,1482.7341232407421,1149.25,1500
12.412968873977661,547,108,105,0.0002651113467656416,1481.0650000000001,1483.0322169204089,1148.75,1500
12.435858964920044,548,108,105,0.0002587991718426501,1481.335,1483.0011369734073,1148.75,1500
12.458745956420898,549,109,106,0.0002642706131078224,1481.48,1483.1000999969665,1148.5,1500
12.481746912002563,550,111,106,0.00027100271002710027,1481.4100000000001,1483.2111509489137,1148.5,1500
12.50462794303894,551,107,106,0.00030111412225233364,1481.2449999999999,1483.5808210538835,1148.5,1500
12.527531862258911,552,116,106,0.00025673940949935817,1482.1600000000001,1483.1635577521552,1148.5,1500
12.550421953201294,553,107,106,0.000297441998810232,1481.3199999999999,1483.6435587529406,1148.5,1500
12.573339939117432,554,116,106,0.0002454590083456063,1482.2950000000001,1483.1318836326247,1148.5,1500
12.596535921096802,555,118,106,0.0002349072116513977,1483.01,1482.9844179493164,1148.5,1500
12.619531869888306,556,118,105,0.00024295432458697764,1482.79,1483.0673431627588,1148.75,1500
12.64252781867981,557,120,106,0.0002349072116513977,1483.4100000000001,1482.9566678982887,1148.5,1500
12.665438890457153,558,119,106,0.00023191094619666049,1483.1949999999999,1482.8998170180955,1148.5,1500
12.688304901123047,559,117,106,0.00023640661938534278,1483.375,1482.9169097562599,1148.5,1500
12.711439847946167,560,122,106,0.00023191094619666049,1484.24,1482.8328612605426,1148.5,1500
12.734354972839355,561,122,105,0.00021523891519586742,1484.825,1482.5802657434781,1148.75,1500
12.757215976715088,562,117,105,0.0002527805864509606,1484.5599999999999,1482.9517236329807,1148.75,1500
12.780232906341553,563,122,105,0.0002149151085321298,1485.7049999999999,1482.4905419635143,1148.75,1500
12.803165912628174,564,123,104,0.00020408163265306123,1485.8299999999999,1482.340829829031,1149.0,1500
12.826066017150879,565,123,105,0.00022634676324128565,1486.0450000000001,1482.5549206865032,1148.75,1500
12.848997831344604,566,122,104,0.00021710811984368216,1486.165,1482.4366880477839,1149.0,1500
12.871932983398438,567,125,102,0.00021934634788330776,1486.26,1482.443509464412,1149.5,1500
12.894811868667603,568,124,104,0.00020408163265306123,1486.3150000000001,1482.2630329985659,1149.0,1500
12.917685985565186,569,126,104,0.00019805902158843335,1486.8299999999999,1482.1644592901227,1149.0,1500
12.940568923950195,570,125,104,0.00020008003201280514,1486.7750000000001,1482.1528384801827,1149.0,1500
12.963451862335205,571,127,103,0.0001904036557501904,1486.95,1482.0312394581108,1149.25,1500
12.986310005187988,572,128,103,0.00020202020202020202,1487.4749999999999,1482.0966445363802,1149.25,1500
13.009296894073486,573,127,102,0.00021258503401360543,1487.47,1482.1999627817956,1149.5,1500
13.03226089477539,574,127,104,0.0002108370229812355,1487.6300000000001,1482.1892380618001,1149.0,1500
13.055117845535278,575,129,102,0.00021934634788330776,1487.9200000000001,1482.2673308954629,1149.5,1500
13.07799482345581,576,130,104,0.00020824656393169514,1488.28,1482.1474715000347,1149.0,1500
13.100897789001465,577,130,103,0.00021934634788330776,1488.4349999999999,1482.2584693395509,1149.25,1500
13.12381386756897,578,130,104,0.00021505376344086021,1488.585,1482.2265156259143,1149.0,1500
13.146708011627197,579,131,105,0.00021039343572480537,1488.72,1482.1922467628901,1148.75,1500
13.1696298122406,580,129,103,0.00021944261575597982,1488.74,1482.302101146945,1149.25,1500
13.192596912384033,581,130,104,0.00021312872975277067,1489.0050000000001,1482.2616873609154,1149.0,1500
13.215519905090332,582,131,103,0.00024437927663734115,1489.21,1482.6165519043784,1149.25,1500
