time,frame,x,y,size_inv,roll,pitch,thrust,yaw
0.0002319812774658203,1,,,,1500.0,1490.0,1350.0,1500
0.02208089828491211,2,,,,1500.0,1490.0,1350.0,1500
0.044317007064819336,3,,,,1500.0,1490.0,1350.0,1500
0.06606912612915039,4,,,,1500.0,1490.0,1350.0,1500
0.08809995651245117,5,,,,1500.0,1490.0,1350.0,1500
0.10992693901062012,6,,,,1500.0,1490.0,1350.0,1500
0.13172197341918945,7,,,,1500.0,1490.0,1350.0,1500
0.1534569263458252,8,,,,1500.0,1490.0,1350.0,1500
0.17521405220031738,9,,,,1500.0,1490.0,1350.0,1500
0.19711899757385254,10,,,,1500.0,1490.0,1350.0,1500
0.21911096572875977,11,,,,1500.0,1490.0,1350.0,1500
0.24118304252624512,12,,,,1500.0,1490.0,1350.0,1500
0.2631499767303467,13,,,,1500.0,1490.0,1350.0,1500
0.28518009185791016,14,,,,1500.0,1490.0,1350.0,1500
0.307452917098999,15,,,,1500.0,1490.0,1350.0,1500
0.3294711112976074,16,,,,1500.0,1490.0,1350.0,1500
0.3514859676361084,17,,,,1500.0,1490.0,1350.0,1500
0.37348413467407227,18,,,,1500.0,1490.0,1350.0,1500
0.3956949710845947,19,,,,1500.0,1490.0,1350.0,1500
0.41768908500671387,20,,,,1500.0,1490.0,1350.0,1500
0.4397768974304199,21,,,,1500.0,1490.0,1350.0,1500
0.46178507804870605,22,,,,1500.0,1490.0,1350.0,1500
0.48381590843200684,23,,,,1500.0,1490.0,1350.0,1500
0.505842924118042,24,,,,1500.0,1490.0,1350.0,1500
0.5280570983886719,25,,,,1500.0,1490.0,1350.0,1500
0.5501561164855957,26,,,,1500.0,1490.0,1350.0,1500
0.5722479820251465,27,,,,1500.0,1490.0,1350.0,1500
0.5943069458007812,28,,,,1500.0,1490.0,1350.0,1500
0.6163549423217773,29,,,,1500.0,1490.0,1350.0,1500
0.6385819911956787,30,,,,1500.0,1490.0,1350.0,1500
0.6606049537658691,31,,,,1500.0,1490.0,1350.0,1500
0.6826329231262207,32,,,,1500.0,1490.0,1350.0,1500
0.7047240734100342,33,,,,1500.0,1490.0,1350.0,1500
0.7269561290740967,34,,,,1500.0,1490.0,1350.0,1500
0.7490799427032471,35,,,,1500.0,1490.0,1350.0,1500
0.7711660861968994,36,,,,1500.0,1490.0,1350.0,1500
0.7932219505310059,37,,,,1500.0,1490.0,1350.0,1500
0.8152210712432861,38,,,,1500.0,1490.0,1350.0,1500
0.8374769687652588,39,,,,1500.0,1490.0,1350.0,1500
0.8595879077911377,40,,,,1500.0,1490.0,1350.0,1500
0.8816931247711182,41,,,,1500.0,1490.0,1350.0,1500
0.9037299156188965,42,,,,1500.0,1490.0,1350.0,1500
0.9256961345672607,43,,,,1500.0,1490.0,1350.0,1500
0.9479460716247559,44,,,,1500.0,1490.0,1350.0,1500
0.9699509143829346,45,,,,1500.0,1490.0,1350.0,1500
0.991987943649292,46,,,,1500.0,1490.0,1350.0,1500
1.0140230655670166,47,,,,1500.0,1490.0,1350.0,1500
1.0360500812530518,48,,,,1500.0,1490.0,1350.0,1500
1.058293104171753,49,,,,1500.0,1490.0,1350.0,1500
1.080380916595459,50,,,,1500.0,1490.0,1350.0,1500
1.1024861335754395,51,,,,1500.0,1490.0,1350.0,1500
1.124582052230835,52,,,,1500.0,1490.0,1350.0,1500
1.1465990543365479,53,,,,1500.0,1490.0,1350.0,1500
1.1689999103546143,54,,,,1500.0,1490.0,1350.0,1500
1.1911280155181885,55,,,,1500.0,1490.0,1350.0,1500
1.2131390571594238,56,,,,1500.0,1490.0,1350.0,1500
1.235239028930664,57,,,,1500.0,1490.0,1350.0,1500
1.257462978363037,58,,,,1500.0,1490.0,1350.0,1500
1.2795259952545166,59,,,,1500.0,1490.0,1350.0,1500
1.3015189170837402,60,,,,1500.0,1490.0,1350.0,1500
1.3235681056976318,61,,,,1500.0,1490.0,1350.0,1500
1.3455510139465332,62,,,,1500.0,1490.0,1350.0,1500
1.3677630424499512,63,,,,1500.0,1490.0,1350.0,1500
1.3898251056671143,64,,,,1500.0,1490.0,1350.0,1500
1.411864995956421,65,,,,1500.0,1490.0,1350.0,1500
1.4338700771331787,66,,,,1500.0,1490.0,1350.0,1500
1.455909013748169,67,,,,1500.0,1490.0,1350.0,1500
1.4779839515686035,68,,,,1500.0,1490.0,1350.0,1500
1.4997661113739014,69,,,,1500.0,1490.0,1350.0,1500
1.5214910507202148,70,,,,1500.0,1490.0,1350.0,1500
1.5432789325714111,71,,,,1500.0,1490.0,1350.0,1500
1.5650980472564697,72,,,,1500.0,1490.0,1350.0,1500
1.5868899822235107,73,,,,1500.0,1490.0,1350.0,1500
1.6087849140167236,74,,,,1500.0,1490.0,1350.0,1500
1.6305830478668213,75,,,,1500.0,1490.0,1350.0,1500
1.6523699760437012,76,,,,1500.0,1490.0,1350.0,1500
1.6742141246795654,77,,,,1500.0,1490.0,1350.0,1500
1.6959669589996338,78,,,,1500.0,1490.0,1350.0,1500
1.7180259227752686,79,,,,1500.0,1490.0,1350.0,1500
1.7399399280548096,80,,,,1500.0,1490.0,1350.0,1500
1.761747121810913,81,,,,1500.0,1490.0,1350.0,1500
1.7835381031036377,82,,,,1500.0,1490.0,1350.0,1500
1.8053030967712402,83,,,,1500.0,1490.0,1350.0,1500
1.8270909786224365,84,,,,1500.0,1490.0,1350.0,1500
1.8489799499511719,85,,,,1500.0,1490.0,1350.0,1500
1.8707480430603027,86,,,,1500.0,1490.0,1350.0,1500
1.892524003982544,87,,,,1500.0,1490.0,1350.0,1500
1.9143218994140625,88,,,,1500.0,1490.0,1350.0,1500
1.9360771179199219,89,,,,1500.0,1490.0,1350.0,1500
1.957819938659668,90,,,,1500.0,1490.0,1350.0,1500
1.9796040058135986,91,,,,1500.0,1490.0,1350.0,1500
2.0013840198516846,92,,,,1500.0,1490.0,1350.0,1500
2.02319598197937,93,,,,1500.0,1490.0,1350.0,1500
2.0450189113616943,94,,,,1500.0,1490.0,1350.0,1500
2.0667810440063477,95,,,,1500.0,1490.0,1350.0,1500
2.088711977005005,96,,,,1500.0,1490.0,1350.0,1500
2.1105480194091797,97,,,,1500.0,1490.0,1350.0,1500
2.132359027862549,98,,,,1500.0,1490.0,1350.0,1500
2.154093027114868,99,,,,1500.0,1490.0,1350.0,1500
2.17596697807312,100,,,,1500.0,1490.0,1350.0,1500
2.197916030883789,101,,,,1500.0,1490.0,1350.0,1500
2.220093011856079,102,,,,1500.0,1490.0,1350.0,1500
2.2435688972473145,103,,,,1500.0,1490.0,1350.0,1500
2.2670340538024902,104,,,,1500.0,1490.0,1350.0,1500
2.29054594039917,105,,,,1500.0,1490.0,1350.0,1500
2.3139350414276123,106,,,,1500.0,1490.0,1350.0,1500
2.3372530937194824,107,,,,1500.0,1490.0,1350.0,1500
2.360713005065918,108,,,,1500.0,1490.0,1350.0,1500
2.383892059326172,109,,,,1500.0,1490.0,1350.0,1500
2.407258987426758,110,,,,1500.0,1490.0,1350.0,1500
2.430880069732666,111,,,,1500.0,1490.0,1350.0,1500
2.4542479515075684,112,,,,1500.0,1490.0,1350.0,1500
2.477708101272583,113,,,,1500.0,1490.0,1350.0,1500
2.5011091232299805,114,,,,1500.0,1490.0,1350.0,1500
2.5243780612945557,115,,,,1500.0,1490.0,1350.0,1500
2.5478649139404297,116,,,,1500.0,1490.0,1350.0,1500
2.5712289810180664,117,,,,1500.0,1490.0,1350.0,1500
2.594515085220337,118,,,,1500.0,1490.0,1350.0,1500
2.6178109645843506,119,,,,1500.0,1490.0,1350.0,1500
2.641223907470703,120,,,,1500.0,1490.0,1350.0,1500
2.6645240783691406,121,,,,1500.0,1490.0,1350.0,1500
2.6879611015319824,122,,,,1500.0,1490.0,1350.0,1500
2.7113430500030518,123,,,,1500.0,1490.0,1350.0,1500
2.7346251010894775,124,,,,1500.0,1490.0,1350.0,1500
2.7579760551452637,125,,,,1500.0,1490.0,1350.0,1500
2.7813289165496826,126,,,,1500.0,1490.0,1350.0,1500
2.8046350479125977,127,,,,1500.0,1490.0,1350.0,1500
2.8280420303344727,128,,,,1500.0,1490.0,1350.0,1500
2.851501941680908,129,,,,1500.0,1490.0,1350.0,1500
2.874774932861328,130,,,,1500.0,1490.0,1350.0,1500
2.8980391025543213,131,,,,1500.0,1490.0,1350.0,1500
2.9213919639587402,132,,,,1500.0,1490.0,1350.0,1500
2.944582939147949,133,,,,1500.0,1490.0,1350.0,1500
2.9679651260375977,134,,,,1500.0,1490.0,1350.0,1500
2.991455078125,135,,,,1500.0,1490.0,1350.0,1500
3.01478910446167,136,,,,1500.0,1490.0,1350.0,1500
3.038278102874756,137,,,,1500.0,1490.0,1350.0,1500
3.061537027359009,138,,,,1500.0,1490.0,1350.0,1500
3.0847549438476562,139,,,,1500.0,1490.0,1350.0,1500
3.108030080795288,140,,,,1500.0,1490.0,1350.0,1500
3.131330966949463,141,,,,1500.0,1490.0,1350.0,1500
3.154534101486206,142,,,,1500.0,1490.0,1350.0,1500
3.177941083908081,143,,,,1500.0,1490.0,1350.0,1500
3.2012650966644287,144,,,,1500.0,1490.0,1350.0,1500
3.2245569229125977,145,,,,1500.0,1490.0,1350.0,1500
3.2480430603027344,146,,,,1500.0,1490.0,1350.0,1500
3.2713088989257812,147,,,,1500.0,1490.0,1350.0,1500
3.2945799827575684,148,,,,1500.0,1490.0,1350.0,1500
3.317847967147827,149,,,,1500.0,1490.0,1350.0,1500
3.3412868976593018,150,,,,1500.0,1490.0,1350.0,1500
3.364607095718384,151,,,,1500.0,1490.0,1350.0,1500
3.388011932373047,152,,,,1500.0,1490.0,1350.0,1500
3.411384105682373,153,,,,1500.0,1490.0,1350.0,1500
3.434662103652954,154,,,,1500.0,1490.0,1350.0,1500
3.458022117614746,155,,,,1500.0,1490.0,1350.0,1500
3.481348991394043,156,,,,1500.0,1490.0,1350.0,1500
3.5046160221099854,157,,,,1500.0,1490.0,1350.0,1500
3.5283820629119873,158,,,,1500.0,1490.0,1350.0,1500
3.551784038543701,159,,,,1500.0,1490.0,1350.0,1500
3.5751700401306152,160,,,,1500.0,1490.0,1350.0,1500
3.598860025405884,161,,,,1500.0,1490.0,1350.0,1500
3.6226859092712402,162,,,,1500.0,1490.0,1350.0,1500
3.6463780403137207,163,,,,1500.0,1490.0,1350.0,1500
3.671128034591675,164,,,,1500.0,1490.0,1350.0,1500
3.6947669982910156,165,,,,1500.0,1490.0,1350.0,1500
3.7184441089630127,166,,,,1500.0,1490.0,1350.0,1500
3.7421600818634033,167,,,,1500.0,1490.0,1350.0,1500
3.7658889293670654,168,,,,1500.0,1490.0,1350.0,1500
3.7899410724639893,169,,,,1500.0,1490.0,1350.0,1500
3.813662052154541,170,,,,1500.0,1490.0,1350.0,1500
3.8375489711761475,171,,,,1500.0,1490.0,1350.0,1500
3.8613250255584717,172,,,,1500.0,1490.0,1350.0,1500
3.8845880031585693,173,,,,1500.0,1490.0,1350.0,1500
3.908440113067627,174,,,,1500.0,1490.0,1350.0,1500
3.932126045227051,175,,,,1500.0,1490.0,1350.0,1500
3.955933094024658,176,,,,1500.0,1490.0,1350.0,1500
3.979645013809204,177,,,,1500.0,1490.0,1350.0,1500
4.00332498550415,178,,,,1500.0,1490.0,1350.0,1500
4.0270280838012695,179,,,,1500.0,1490.0,1350.0,1500
4.05092191696167,180,,,,1500.0,1490.0,1350.0,1500
4.074589967727661,181,,,,1500.0,1490.0,1350.0,1500
4.098906993865967,182,,,,1500.0,1490.0,1350.0,1500
4.122431993484497,183,,,,1500.0,1490.0,1350.0,1500
4.145913124084473,184,,,,1500.0,1490.0,1350.0,1500
4.169197082519531,185,,,,1500.0,1490.0,1350.0,1500
4.192409038543701,186,,,,1500.0,1490.0,1350.0,1500
4.215749025344849,187,,,,1500.0,1490.0,1350.0,1500
4.2391180992126465,188,,,,1500.0,1490.0,1350.0,1500
4.262447118759155,189,,,,1500.0,1490.0,1350.0,1500
4.285691022872925,190,,,,1500.0,1490.0,1350.0,1500
4.3089869022369385,191,,,,1500.0,1490.0,1350.0,1500
4.3323750495910645,192,,,,1500.0,1490.0,1350.0,1500
4.355713129043579,193,,,,1500.0,1490.0,1350.0,1500
4.378961086273193,194,,,,1500.0,1490.0,1350.0,1500
4.402164936065674,195,,,,1500.0,1490.0,1350.0,1500
4.425601959228516,196,,,,1500.0,1490.0,1350.0,1500
4.44891095161438,197,,,,1500.0,1490.0,1350.0,1500
4.4722490310668945,198,,,,1500.0,1490.0,1350.0,1500
4.4955010414123535,199,,,,1500.0,1490.0,1350.0,1500
4.518732070922852,200,,,,1500.0,1490.0,1350.0,1500
4.541969060897827,201,,,,1500.0,1490.0,1350.0,1500
4.565234899520874,202,,,,1500.0,1490.0,1350.0,1500
4.5884411334991455,203,,,,1500.0,1490.0,1350.0,1500
4.611820936203003,204,,,,1500.0,1490.0,1350.0,1500
4.635226011276245,205,,,,1500.0,1490.0,1350.0,1500
4.65851902961731,206,,,,1500.0,1490.0,1350.0,1500
4.681919097900391,207,,,,1500.0,1490.0,1350.0,1500
4.705190896987915,208,,,,1500.0,1490.0,1350.0,1500
4.728534936904907,209,,,,1500.0,1490.0,1350.0,1500
4.751914024353027,210,,,,1500.0,1490.0,1350.0,1500
4.775355100631714,211,,,,1500.0,1490.0,1350.0,1500
4.798603057861328,212,,,,1500.0,1490.0,1350.0,1500
4.821968078613281,213,,,,1500.0,1490.0,1350.0,1500
4.845328092575073,214,,,,1500.0,1490.0,1350.0,1500
4.868658065795898,215,,,,1500.0,1490.0,1350.0,1500
4.892022132873535,216,,,,1500.0,1490.0,1350.0,1500
4.915401935577393,217,,,,1500.0,1490.0,1350.0,1500
4.938728094100952,218,,,,1500.0,1490.0,1350.0,1500
4.962057113647461,219,,,,1500.0,1490.0,1350.0,1500
4.985491037368774,220,,,,1500.0,1490.0,1350.0,1500
5.0088889598846436,221,,,,1500.0,1490.0,1350.0,1500
5.032179117202759,222,,,,1500.0,1490.0,1350.0,1500
5.055593013763428,223,,,,1500.0,1490.0,1350.0,1500
5.078774929046631,224,,,,1500.0,1490.0,1350.0,1500
5.1020591259002686,225,,,,1500.0,1490.0,1350.0,1500
5.125314950942993,226,,,,1500.0,1490.0,1350.0,1500
5.148699045181274,227,,,,1500.0,1490.0,1350.0,1500
5.172100067138672,228,,,,1500.0,1490.0,1350.0,1500
5.195501089096069,229,,,,1500.0,1490.0,1350.0,1500
5.218806028366089,230,,,,1500.0,1490.0,1350.0,1500
5.242141008377075,231,,,,1500.0,1490.0,1350.0,1500
5.265391111373901,232,,,,1500.0,1490.0,1350.0,1500
5.288693904876709,233,,,,1500.0,1490.0,1350.0,1500
5.312169075012207,234,,,,1500.0,1490.0,1350.0,1500
5.335467100143433,235,,,,1500.0,1490.0,1350.0,1500
5.358978033065796,236,,,,1500.0,1490.0,1350.0,1500
5.382405996322632,237,,,,1500.0,1490.0,1350.0,1500
5.405749082565308,238,,,,1500.0,1490.0,1350.0,1500
5.428992033004761,239,,,,1500.0,1490.0,1350.0,1500
5.452378988265991,240,,,,1500.0,1490.0,1350.0,1500
5.475645065307617,241,,,,1500.0,1490.0,1350.0,1500
5.499140977859497,242,,,,1500.0,1490.0,1350.0,1500
5.522601127624512,243,,,,1500.0,1490.0,1350.0,1500
5.546083927154541,244,,,,1500.0,1490.0,1350.0,1500
5.569375038146973,245,,,,1500.0,1490.0,1350.0,1500
5.5925819873809814,246,,,,1500.0,1490.0,1350.0,1500
5.615899085998535,247,,,,1500.0,1490.0,1350.0,1500
5.639216899871826,248,,,,1500.0,1490.0,1350.0,1500
5.6625590324401855,249,,,,1500.0,1490.0,1350.0,1500
5.685750961303711,250,,,,1500.0,1490.0,1350.0,1500
5.709028005599976,251,,,,1500.0,1490.0,1350.0,1500
5.732325077056885,252,,,,1500.0,1490.0,1350.0,1500
5.75557804107666,253,,,,1500.0,1490.0,1350.0,1500
5.778724908828735,254,,,,1500.0,1490.0,1350.0,1500
5.8020241260528564,255,,,,1500.0,1490.0,1350.0,1500
5.825199127197266,256,,,,1500.0,1490.0,1350.0,1500
5.848570108413696,257,,,,1500.0,1490.0,1350.0,1500
5.872028112411499,258,,,,1500.0,1490.0,1350.0,1500
5.895601987838745,259,,,,1500.0,1490.0,1350.0,1500
5.918910980224609,260,,,,1500.0,1490.0,1350.0,1500
5.942188024520874,261,,,,1500.0,1490.0,1350.0,1500
5.96564793586731,262,,,,1500.0,1490.0,1350.0,1500
5.989228010177612,263,,,,1500.0,1490.0,1350.0,1500
6.012542963027954,264,,,,1500.0,1490.0,1350.0,1500
6.035955905914307,265,,,,1500.0,1490.0,1350.0,1500
6.059174060821533,266,,,,1500.0,1490.0,1350.0,1500
6.0824220180511475,267,,,,1500.0,1490.0,1350.0,1500
6.105616092681885,268,,,,1500.0,1490.0,1350.0,1500
6.128916025161743,269,,,,1500.0,1490.0,1350.0,1500
6.152118921279907,270,,,,1500.0,1490.0,1350.0,1500
6.1754560470581055,271,,,,1500.0,1490.0,1350.0,1500
6.198715925216675,272,,,,1500.0,1490.0,1350.0,1500
6.222141981124878,273,,,,1500.0,1490.0,1350.0,1500
6.245463132858276,274,,,,1500.0,1490.0,1350.0,1500
6.268697023391724,275,,,,1500.0,1490.0,1350.0,1500
6.291988134384155,276,,,,1500.0,1490.0,1350.0,1500
6.315227031707764,277,,,,1500.0,1490.0,1350.0,1500
6.338634967803955,278,,,,1500.0,1490.0,1350.0,1500
6.362025022506714,279,,,,1500.0,1490.0,1350.0,1500
6.3853209018707275,280,,,,1500.0,1490.0,1350.0,1500
6.408581972122192,281,,,,1500.0,1490.0,1350.0,1500
6.431966066360474,282,,,,1500.0,1490.0,1350.0,1500
6.455363035202026,283,,,,1500.0,1490.0,1350.0,1500
6.47939395904541,284,,,,1500.0,1490.0,1350.0,1500
6.502764940261841,285,,,,1500.0,1490.0,1350.0,1500
6.526137113571167,286,,,,1500.0,1490.0,1350.0,1500
6.549371957778931,287,,,,1500.0,1490.0,1350.0,1500
6.572709083557129,288,,,,1500.0,1490.0,1350.0,1500
6.595991134643555,289,,,,1500.0,1490.0,1350.0,1500
6.619410991668701,290,,,,1500.0,1490.0,1350.0,1500
6.642844915390015,291,,,,1500.0,1490.0,1350.0,1500
6.66614294052124,292,,,,1500.0,1490.0,1350.0,1500
6.6893861293792725,293,,,,1500.0,1490.0,1350.0,1500
6.712628126144409,294,,,,1500.0,1490.0,1350.0,1500
6.736074924468994,295,,,,1500.0,1490.0,1350.0,1500
6.759422063827515,296,,,,1500.0,1490.0,1350.0,1500
6.7827980518341064,297,,,,1500.0,1490.0,1350.0,1500
6.806193113327026,298,,,,1500.0,1490.0,1350.0,1500
6.829461097717285,299,,,,1500.0,1490.0,1350.0,1500
6.852809906005859,300,,,,1500.0,1490.0,1350.0,1500
6.8761889934539795,301,,,,1500.0,1490.0,1350.0,1500
6.899574041366577,302,,,,1500.0,1490.0,1350.0,1500
6.92292594909668,303,,,,1500.0,1490.0,1350.0,1500
6.9463560581207275,304,,,,1500.0,1490.0,1350.0,1500
6.969762086868286,305,,,,1500.0,1490.0,1350.0,1500
6.9929749965667725,306,,,,1500.0,1490.0,1350.0,1500
7.016258955001831,307,,,,1500.0,1490.0,1350.0,1500
7.0395190715789795,308,,,,1500.0,1490.0,1350.0,1500
7.062827110290527,309,,,,1500.0,1490.0,1350.0,1500
7.086281061172485,310,,,,1500.0,1490.0,1350.0,1500
7.109555006027222,311,,,,1500.0,1490.0,1350.0,1500
7.132842063903809,312,,,,1500.0,1490.0,1350.0,1500
7.156201124191284,313,,,,1500.0,1490.0,1350.0,1500
7.179457902908325,314,,,,1500.0,1490.0,1350.0,1500
7.203125953674316,315,,,,1500.0,1490.0,1350.0,1500
7.226550102233887,316,,,,1500.0,1490.0,1350.0,1500
7.250112056732178,317,,,,1500.0,1490.0,1350.0,1500
7.273314952850342,318,,,,1500.0,1490.0,1350.0,1500
7.296549081802368,319,,,,1500.0,1490.0,1350.0,1500
7.320008039474487,320,,,,1500.0,1490.0,1350.0,1500
7.343426942825317,321,,,,1500.0,1490.0,1350.0,1500
7.366779088973999,322,,,,1500.0,1490.0,1350.0,1500
7.39019513130188,323,,,,1500.0,1490.0,1350.0,1500
7.413573980331421,324,,,,1500.0,1490.0,1350.0,1500
7.436860084533691,325,,,,1500.0,1490.0,1350.0,1500
7.460274934768677,326,,,,1500.0,1490.0,1350.0,1500
7.4836719036102295,327,,,,1500.0,1490.0,1350.0,1500
7.506957054138184,328,,,,1500.0,1490.0,1350.0,1500
7.53043007850647,329,,,,1500.0,1490.0,1350.0,1500
7.553797960281372,330,,,,1500.0,1490.0,1350.0,1500
7.577116966247559,331,,,,1500.0,1490.0,1350.0,1500
7.600621938705444,332,,,,1500.0,1490.0,1350.0,1500
7.6238319873809814,333,,,,1500.0,1490.0,1350.0,1500
7.647160053253174,334,,,,1500.0,1490.0,1350.0,1500
7.670530080795288,335,,,,1500.0,1490.0,1350.0,1500
7.693907976150513,336,,,,1500.0,1490.0,1350.0,1500
7.717457056045532,337,,,,1500.0,1490.0,1350.0,1500
7.740816116333008,338,,,,1500.0,1490.0,1350.0,1500
7.76419997215271,339,,,,1500.0,1490.0,1350.0,1500
7.787476062774658,340,,,,1500.0,1490.0,1350.0,1500
7.810868978500366,341,,,,1500.0,1490.0,1350.0,1500
7.834230899810791,342,,,,1500.0,1490.0,1350.0,1500
7.857649087905884,343,,,,1500.0,1490.0,1350.0,1500
7.88104510307312,344,,,,1500.0,1490.0,1350.0,1500
7.904294013977051,345,,,,1500.0,1490.0,1350.0,1500
7.927788019180298,346,,,,1500.0,1490.0,1350.0,1500
7.95138692855835,347,,,,1500.0,1490.0,1350.0,1500
7.974646091461182,348,,,,1500.0,1490.0,1350.0,1500
7.997996091842651,349,,,,1500.0,1490.0,1350.0,1500
8.021440982818604,350,,,,1500.0,1490.0,1350.0,1500
8.044872999191284,351,,,,1500.0,1490.0,1350.0,1500
8.068291902542114,352,,,,1500.0,1490.0,1350.0,1500
8.091588020324707,353,,,,1500.0,1490.0,1350.0,1500
8.114972114562988,354,,,,1500.0,1490.0,1350.0,1500
8.138368129730225,355,,,,1500.0,1490.0,1350.0,1500
8.161715984344482,356,,,,1500.0,1490.0,1350.0,1500
8.185135126113892,357,,,,1500.0,1490.0,1350.0,1500
8.208477020263672,358,,,,1500.0,1490.0,1350.0,1500
8.23193097114563,359,,,,1500.0,1490.0,1350.0,1500
8.255204916000366,360,,,,1500.0,1490.0,1350.0,1500
8.278608083724976,361,,,,1500.0,1490.0,1350.0,1500
8.302020072937012,362,,,,1500.0,1490.0,1350.0,1500
8.325314998626709,363,,,,1500.0,1490.0,1350.0,1500
8.348603010177612,364,,,,1500.0,1490.0,1350.0,1500
8.371761083602905,365,,,,1500.0,1490.0,1350.0,1500
8.39505410194397,366,,,,1500.0,1490.0,1350.0,1500
8.41837191581726,367,,,,1500.0,1490.0,1350.0,1500
8.441752910614014,368,,,,1500.0,1490.0,1350.0,1500
8.46515703201294,369,,,,1500.0,1490.0,1350.0,1500
8.488416910171509,370,,,,1500.0,1490.0,1350.0,1500
8.511667966842651,371,,,,1500.0,1490.0,1350.0,1500
8.534996032714844,372,,,,1500.0,1490.0,1350.0,1500
8.558388948440552,373,,,,1500.0,1490.0,1350.0,1500
8.5816330909729,374,,,,1500.0,1490.0,1350.0,1500
8.604886054992676,375,,,,1500.0,1490.0,1350.0,1500
8.628145933151245,376,,,,1500.0,1490.0,1350.0,1500
8.651575088500977,377,,,,1500.0,1490.0,1350.0,1500
8.674832105636597,378,,,,1500.0,1490.0,1350.0,1500
8.698117971420288,379,,,,1500.0,1490.0,1350.0,1500
8.721323013305664,380,,,,1500.0,1490.0,1350.0,1500
8.744647979736328,381,,,,1500.0,1490.0,1350.0,1500
8.76799201965332,382,,,,1500.0,1490.0,1350.0,1500
8.791386127471924,383,,,,1500.0,1490.0,1350.0,1500
8.814949035644531,384,,,,1500.0,1490.0,1350.0,1500
8.838361978530884,385,,,,1500.0,1490.0,1350.0,1500
8.86164402961731,386,,,,1500.0,1490.0,1350.0,1500
8.884959936141968,387,,,,1500.0,1490.0,1350.0,1500
8.908297061920166,388,,,,1500.0,1490.0,1350.0,1500
8.931703090667725,389,,,,1500.0,1490.0,1350.0,1500
8.955039024353027,390,,,,1500.0,1490.0,1350.0,1500
8.978503942489624,391,,,,1500.0,1490.0,1350.0,1500
9.001800060272217,392,,,,1500.0,1490.0,1350.0,1500
9.025048971176147,393,,,,1500.0,1490.0,1350.0,1500
9.052609920501709,394,,,,1500.0,1490.0,1350.0,1500
9.076174020767212,395,,,,1500.0,1490.0,1350.0,1500
9.099627017974854,396,270,8,0.01818181818181818,1510.45,1500,1365,1500
9.123162984848022,397,78,7,0.0014285714285714286,1491.6600000000001,1500,1365,1500
9.146721124649048,398,245,17,0.0006009615384615385,1507.9349999999999,1500,1365,1500
9.170468091964722,399,88,27,0.002304147465437788,1492.595,1500,1365,1500
9.193856000900269,400,254,29,0.0004873294346978557,1508.7249999999999,1500,1365,1500
9.217533111572266,401,76,44,0.0017211703958691911,1497.9449999999999,1500,1364.0,1500
9.241404056549072,402,266,32,0.0009302325581395349,1511.4949999999999,1500,1365,1500
9.264985084533691,403,264,37,0.0005549389567147614,1515.875,1500,1365,1500
9.288480043411255,404,264,64,0.00038580246913580245,1511.0350000000001,1500,1359.0,1500
9.312124967575073,405,267,52,0.0002680246582685607,1516.4400000000001,1500,1362.0,1500
9.335845947265625,406,261,53,0.00018037518037518038,1504.2449999999999,1488.6653058894235,1361.75,1500
9.359569072723389,407,251,55,0.00013802622498274673,1513.6600000000001,1486.9512711319105,1361.25,1500
9.38336992263794,408,252,56,0.0001450747134774409,1514.865,1486.5658691918732,1361.0,1500
9.407087087631226,409,233,60,9.182736455463728e-05,1520,1483.821075601762,1360.0,1500
9.43107295036316,410,232,62,8.818342151675486e-05,1520,1483.3854901582022,1359.5,1500
9.454900979995728,411,152,65,3.103084465959163e-05,1520,1481.1238248384209,1358.75,1500
9.478615999221802,412,150,67,2.986857825567503e-05,1520,1480.2118381944979,1358.25,1500
9.502312898635864,413,134,68,2.8291744468963958e-05,1520,1480,1358.0,1500
9.525707006454468,414,139,70,2.6365050489071687e-05,1520,1480,1357.5,1500
9.549276113510132,415,130,71,2.775002775002775e-05,1520,1480,1357.25,1500
9.57296109199524,416,129,74,2.6881720430107527e-05,1515.0899999999999,1480,1356.5,1500
9.59666395187378,417,130,75,2.6315789473684212e-05,1509.7349999999999,1480,1356.25,1500
9.620503902435303,418,129,76,2.618349392542941e-05,1503.1700000000001,1480,1356.0,1500
9.644150018692017,419,129,78,2.5580027114828743e-05,1498.05,1480,1355.5,1500
9.66786789894104,420,130,62,3.187250996015936e-05,1492.54,1480,1359.5,1500
9.691538095474243,421,128,73,2.699492495410863e-05,1491.0799999999999,1480,1356.75,1500
9.715152978897095,422,127,75,2.597065316192702e-05,1489.895,1480,1356.25,1500
9.738889932632446,423,127,76,2.5464731347084288e-05,1489.6300000000001,1480,1356.0,1500
9.762691020965576,424,127,75,2.5799793601651186e-05,1489.0899999999999,1480,1356.25,1500
9.78638505935669,425,128,59,3.306878306878307e-05,1489.2,1480,1360.25,1500
9.810190916061401,426,130,53,3.688947912055482e-05,1489.335,1480,1361.75,1500
9.833763122558594,427,128,57,3.4209085933223865e-05,1488.9649999999999,1480,1360.75,1500
9.857501029968262,428,127,81,2.4058703235895585e-05,1488.7550000000001,1480,1354.75,1500
9.881354093551636,429,127,79,2.4567610062893083e-05,1488.645,1480,1355.25,1500
9.904998064041138,430,127,79,2.4567610062893083e-05,1488.54,1480,1355.25,1500
9.928879976272583,431,128,67,2.9048656499636893e-05,1488.76,1480,1358.25,1500
9.952656030654907,432,127,77,2.5040064102564102e-05,1488.72,1480,1355.75,1500
9.976500988006592,433,127,80,2.4112654320987653e-05,1488.72,1480,1355.0,1500
10.000370025634766,434,128,80,2.4168016047562655e-05,1488.8150000000001,1480,1355.0,1500
10.024110078811646,435,128,77,2.5103552152629598e-05,1488.7550000000001,1480,1355.75,1500
10.047970056533813,436,128,79,2.4319066147859924e-05,1488.645,1480,1355.25,1500
10.071794986724854,437,128,82,2.3582124749439923e-05,1488.585,1480,1354.5,1500
10.095613956451416,438,128,82,2.3440063756973418e-05,1488.5799999999999,1480,1354.5,1500
10.119307041168213,439,128,86,2.227568386349461e-05,1488.635,1480,1353.5,1500
10.143099069595337,440,136,41,4.859086491739553e-05,1489.45,1480,1364.75,1500
10.166789054870605,441,128,83,2.316101537891421e-05,1488.6500000000001,1480,1354.25,1500
10.190656900405884,442,129,85,2.2578969947391e-05,1488.8,1480,1353.75,1500
10.214318037033081,443,130,66,2.9836496001909535e-05,1488.9449999999999,1480,1358.5,1500
10.238439083099365,444,130,85,2.227568386349461e-05,1488.9349999999999,1480,1353.75,1500
10.262241125106812,445,129,84,2.271178741766977e-05,1489.3099999999999,1480,1354.0,1500
10.285851001739502,446,130,83,2.2855053252274078e-05,1489.4000000000001,1480,1354.25,1500
10.309480905532837,447,130,78,2.459238128027937e-05,1489.45,1480,1355.5,1500
10.333259105682373,448,137,72,2.7367268746579092e-05,1490.2249999999999,1480,1357.0,1500
10.356931924819946,449,145,53,3.9769337840524956e-05,1491.0599999999999,1480,1361.75,1500
10.38080906867981,450,153,35,6.0916179337231965e-05,1491.355,1480,1365,1500
10.404453039169312,451,160,30,7.451564828614009e-05,1492.0150000000001,1480,1365,1500
10.42804503440857,452,171,23,9.42684766214178e-05,1492.9649999999999,1480,1365,1500
10.451757907867432,453,186,14,0.00015124016938898973,1494.605,1480.0529136799246,1365,1500
10.475409030914307,454,219,25,9.567546880979717e-05,1498.3599999999999,1480,1365,1500
10.499013900756836,455,198,13,0.00038580246913580245,1497.355,1482.835027144057,1365,1500
10.5225350856781,456,,,,1495.2049999999999,1485.5541473994467,1350.0,1500
10.545879125595093,457,,,,1497.5150000000001,1486.1295550181665,1350.0,1500
10.569278001785278,458,,,,1500.3399999999999,1486.7021877494199,1350.0,1500
10.592677116394043,459,,,,1504.7049999999999,1487.2624184115793,1350.0,1500
10.615984916687012,460,,,,1507.3699999999999,1487.8015022322422,1350.0,1500
10.639358043670654,461,,,,1507.3699999999999,1488.3269865839561,1350.0,1500
10.662764072418213,462,,,,1506.7650000000001,1488.8327181073346,1350.0,1500
10.686257123947144,463,,,,1505.335,1489.2814779379455,1350.0,1500
10.709489107131958,464,,,,1502.0899999999999,1489.7858024691359,1350.0,1500
10.732960939407349,465,,,,1500.0,1490.0,1350.0,1500
10.756376028060913,466,,,,1500.0,1490.0,1350.0,1500
10.779693126678467,467,,,,1500.0,1490.0,1350.0,1500
10.803069114685059,468,,,,1500.0,1490.0,1350.0,1500
10.826502084732056,469,,,,1500.0,1490.0,1350.0,1500
10.850059032440186,470,,,,1500.0,1490.0,1350.0,1500
10.873486995697021,471,,,,1500.0,1490.0,1350.0,1500
10.896757125854492,472,,,,1500.0,1490.0,1350.0,1500
10.920350074768066,473,,,,1500.0,1490.0,1350.0,1500
10.94367003440857,474,,,,1500.0,1490.0,1350.0,1500
10.966943979263306,475,,,,1500.0,1490.0,1350.0,1500
10.990411043167114,476,,,,1500.0,1490.0,1350.0,1500
11.013704061508179,477,,,,1500.0,1490.0,1350.0,1500
11.037113904953003,478,,,,1500.0,1490.0,1350.0,1500
11.060770988464355,479,,,,1500.0,1490.0,1350.0,1500
11.084151029586792,480,,,,1500.0,1490.0,1350.0,1500
11.107578039169312,481,,,,1500.0,1490.0,1350.0,1500
11.131160020828247,482,,,,1500.0,1490.0,1350.0,1500
11.154437065124512,483,,,,1500.0,1490.0,1350.0,1500
11.177820920944214,484,,,,1500.0,1490.0,1350.0,1500
11.20125412940979,485,,,,1500.0,1490.0,1350.0,1500
11.22458004951477,486,,,,1500.0,1490.0,1350.0,1500
11.248062133789062,487,,,,1500.0,1490.0,1350.0,1500
11.271363973617554,488,,,,1500.0,1490.0,1350.0,1500
11.29473090171814,489,,,,1500.0,1490.0,1350.0,1500
11.318018913269043,490,,,,1500.0,1490.0,1350.0,1500
11.341398000717163,491,,,,1500.0,1490.0,1350.0,1500
11.364816904067993,492,,,,1500.0,1490.0,1350.0,1500
11.38814091682434,493,,,,1500.0,1490.0,1350.0,1500
11.411468029022217,494,,,,1500.0,1490.0,1350.0,1500
11.434956073760986,495,,,,1500.0,1490.0,1350.0,1500
11.458250045776367,496,,,,1500.0,1490.0,1350.0,1500
11.481627941131592,497,,,,1500.0,1490.0,1350.0,1500
11.505034923553467,498,,,,1500.0,1490.0,1350.0,1500
11.528333902359009,499,,,,1500.0,1490.0,1350.0,1500
11.551584005355835,500,,,,1500.0,1490.0,1350.0,1500
11.574923992156982,501,,,,1500.0,1490.0,1350.0,1500
11.59817910194397,502,,,,1500.0,1490.0,1350.0,1500
11.6214759349823,503,,,,1500.0,1490.0,1350.0,1500
11.644872903823853,504,,,,1500.0,1490.0,1350.0,1500
11.668306112289429,505,,,,1500.0,1490.0,1350.0,1500
11.691713094711304,506,,,,1500.0,1490.0,1350.0,1500
11.714970111846924,507,,,,1500.0,1490.0,1350.0,1500
11.738255977630615,508,,,,1500.0,1490.0,1350.0,1500
11.761775016784668,509,,,,1500.0,1490.0,1350.0,1500
11.785130977630615,510,,,,1500.0,1490.0,1350.0,1500
11.808449029922485,511,,,,1500.0,1490.0,1350.0,1500
11.831835985183716,512,,,,1500.0,1490.0,1350.0,1500
11.855200052261353,513,,,,1500.0,1490.0,1350.0,1500
11.878469944000244,514,,,,1500.0,1490.0,1350.0,1500
11.901847124099731,515,,,,1500.0,1490.0,1350.0,1500
11.925233125686646,516,,,,1500.0,1490.0,1350.0,1500
11.948570013046265,517,,,,1500.0,1490.0,1350.0,1500
11.972065925598145,518,,,,1500.0,1490.0,1350.0,1500
11.995562076568604,519,,,,1500.0,1490.0,1350.0,1500
12.018988132476807,520,,,,1500.0,1490.0,1350.0,1500
12.042338132858276,521,,,,1500.0,1490.0,1350.0,1500
12.065535068511963,522,,,,1500.0,1490.0,1350.0,1500
12.088884115219116,523,,,,1500.0,1490.0,1350.0,1500
12.112306118011475,524,,,,1500.0,1490.0,1350.0,1500
12.135674953460693,525,,,,1500.0,1490.0,1350.0,1500
12.159017086029053,526,,,,1500.0,1490.0,1350.0,1500
12.182358980178833,527,,,,1500.0,1490.0,1350.0,1500
12.205765008926392,528,,,,1500.0,1490.0,1350.0,1500
12.229083061218262,529,,,,1500.0,1490.0,1350.0,1500
12.252408027648926,530,,,,1500.0,1490.0,1350.0,1500
12.27573299407959,531,,,,1500.0,1490.0,1350.0,1500
12.299158096313477,532,,,,1500.0,1490.0,1350.0,1500
12.322514057159424,533,,,,1500.0,1490.0,1350.0,1500
12.345761060714722,534,,,,1500.0,1490.0,1350.0,1500
12.369071006774902,535,,,,1500.0,1490.0,1350.0,1500
12.392360925674438,536,,,,1500.0,1490.0,1350.0,1500
12.415648937225342,537,,,,1500.0,1490.0,1350.0,1500
12.439049005508423,538,,,,1500.0,1490.0,1350.0,1500
12.462337970733643,539,,,,1500.0,1490.0,1350.0,1500
12.485606908798218,540,,,,1500.0,1490.0,1350.0,1500
12.508945941925049,541,,,,1500.0,1490.0,1350.0,1500
12.532346963882446,542,,,,1500.0,1490.0,1350.0,1500
12.555562973022461,543,,,,1500.0,1490.0,1350.0,1500
12.578912019729614,544,,,,1500.0,1490.0,1350.0,1500
12.602138042449951,545,,,,1500.0,1490.0,1350.0,1500
12.625602960586548,546,,,,1500.0,1490.0,1350.0,1500
12.648952007293701,547,,,,1500.0,1490.0,1350.0,1500
12.67226505279541,548,,,,1500.0,1490.0,1350.0,1500
12.695508003234863,549,,,,1500.0,1490.0,1350.0,1500
12.718955039978027,550,,,,1500.0,1490.0,1350.0,1500
12.742249011993408,551,,,,1500.0,1490.0,1350.0,1500
12.765453100204468,552,,,,1500.0,1490.0,1350.0,1500
12.788872003555298,553,,,,1500.0,1490.0,1350.0,1500
12.812134027481079,554,,,,1500.0,1490.0,1350.0,1500
12.835659980773926,555,,,,1500.0,1490.0,1350.0,1500
12.859018087387085,556,,,,1500.0,1490.0,1350.0,1500
12.882326126098633,557,,,,1500.0,1490.0,1350.0,1500
12.90565800666809,558,,,,1500.0,1490.0,1350.0,1500
12.928947925567627,559,,,,1500.0,1490.0,1350.0,1500
12.952368974685669,560,,,,1500.0,1490.0,1350.0,1500
12.975595951080322,561,,,,1500.0,1490.0,1350.0,1500
12.998955011367798,562,,,,1500.0,1490.0,1350.0,1500
13.022171974182129,563,,,,1500.0,1490.0,1350.0,1500
13.045583009719849,564,,,,1500.0,1490.0,1350.0,1500
13.068881034851074,565,,,,1500.0,1490.0,1350.0,1500
13.09220004081726,566,,,,1500.0,1490.0,1350.0,1500
13.115577936172485,567,,,,1500.0,1490.0,1350.0,1500
13.138988018035889,568,,,,1500.0,1490.0,1350.0,1500
13.162405014038086,569,,,,1500.0,1490.0,1350.0,1500
13.18572998046875,570,,,,1500.0,1490.0,1350.0,1500
13.209137916564941,571,,,,1500.0,1490.0,1350.0,1500
13.232521057128906,572,,,,1500.0,1490.0,1350.0,1500
13.255779027938843,573,,,,1500.0,1490.0,1350.0,1500
13.279096126556396,574,,,,1500.0,1490.0,1350.0,1500
13.30233907699585,575,,,,1500.0,1490.0,1350.0,1500
13.325653076171875,576,,,,1500.0,1490.0,1350.0,1500
13.349014043807983,577,,,,1500.0,1490.0,1350.0,1500
13.372491121292114,578,,,,1500.0,1490.0,1350.0,1500
13.395859003067017,579,,,,1500.0,1490.0,1350.0,1500
13.419279098510742,580,,,,1500.0,1490.0,1350.0,1500
13.442585945129395,581,,,,1500.0,1490.0,1350.0,1500
13.465793132781982,582,,,,1500.0,1490.0,1350.0,1500
13.489131927490234,583,,,,1500.0,1490.0,1350.0,1500
13.512434959411621,584,,,,1500.0,1490.0,1350.0,1500
13.535824060440063,585,,,,1500.0,1490.0,1350.0,1500
13.559593915939331,586,,,,1500.0,1490.0,1350.0,1500
13.583000898361206,587,,,,1500.0,1490.0,1350.0,1500
13.606251955032349,588,,,,1500.0,1490.0,1350.0,1500
13.629624128341675,589,,,,1500.0,1490.0,1350.0,1500
13.652925968170166,590,,,,1500.0,1490.0,1350.0,1500
13.676422119140625,591,,,,1500.0,1490.0,1350.0,1500
13.699912071228027,592,,,,1500.0,1490.0,1350.0,1500
13.723398923873901,593,65,17,0.041666666666666664,1490.9749999999999,1500,1365,1500
13.74695611000061,594,86,19,0.0017857142857142857,1493.4449999999999,1500,1365,1500
13.770695924758911,595,94,25,0.03571428571428571,1494.575,1500,1365,1500
13.793989896774292,596,,,,1501.175,1500,1350.0,1500
13.817480087280273,597,69,46,0.041666666666666664,1492.53,1500,1363.5,1500
13.84113597869873,598,,,,1495.9300000000001,1500,1350.0,1500
13.864455938339233,599,,,,1491.49,1500,1350.0,1500
13.887937068939209,600,316,2,0.020833333333333332,1502.3499999999999,1500,1365,1500
13.911520957946777,601,315,4,0.011111111111111112,1501.4749999999999,1500,1365,1500
13.935159921646118,602,311,6,0.004807692307692308,1494.8599999999999,1500,1365,1500
13.958765029907227,603,309,7,0.002976190476190476,1499.1400000000001,1500,1365,1500
13.982326030731201,604,306,13,0.0014245014245014246,1502.1800000000001,1500,1365,1500
14.005995988845825,605,306,16,0.0010141987829614604,1514.4400000000001,1500,1365,1500
14.029560089111328,606,302,15,0.0009765625,1520,1500,1365,1500
14.05284309387207,607,295,22,0.0006349206349206349,1520,1500,1365,1500
14.076050043106079,608,298,36,0.00031857279388340236,1520,1500,1365,1500
14.099265098571777,609,296,42,0.00024509803921568627,1520,1500,1364.5,1500
14.122862100601196,610,296,42,0.00024740227610094015,1520,1500,1364.5,1500
14.146347999572754,611,103,38,0.00011005943209333039,1520,1491.855792988493,1365,1500
14.16982913017273,612,102,44,9.770395701025892e-05,1520,1487.0222498869803,1364.0,1500
14.193480968475342,613,177,74,2.3391812865497078e-05,1520,1483.3263297822077,1356.5,1500
14.217376947402954,614,181,85,2.1111744463445014e-05,1520,1481.9001394181491,1353.75,1500
14.24129605293274,615,182,88,2.0429009193054138e-05,1520,1480.8995422916769,1353.0,1500
14.265120029449463,616,184,94,1.959631589261219e-05,1520,1480,1351.5,1500
14.288824081420898,617,186,98,1.9083241097668028e-05,1518.2750000000001,1480,1350.5,1500
14.312510013580322,618,189,99,1.9011406844106464e-05,1511.8599999999999,1480,1350.25,1500
14.336251020431519,619,189,99,1.923076923076923e-05,1505.4949999999999,1480,1350.25,1500
14.36027193069458,620,186,148,3.883495145631068e-05,1498.905,1480,1338.0,1500
14.384395122528076,621,191,151,4.0690104166666664e-05,1503.825,1480,1337.25,1500
14.408224105834961,622,193,153,4.233341800016933e-05,1508.6099999999999,1480,1336.75,1500
14.431132078170776,623,181,19,0.00010869565217391305,1508.1099999999999,1480,1365,1500
14.45395803451538,624,182,21,0.00010067451927917044,1508.6849999999999,1480,1365,1500
14.476743936538696,625,184,22,9.410878976096367e-05,1509.115,1480,1365,1500
14.499748945236206,626,184,25,8.289124668435013e-05,1509.5350000000001,1480,1365,1500
14.522568941116333,627,184,19,0.00011013215859030837,1509.9649999999999,1480,1365,1500
14.545345067977905,628,186,19,0.00010775862068965517,1509.7,1480,1365,1500
14.568205118179321,629,185,19,0.00011246063877642825,1509.2,1480,1365,1500
14.590996026992798,630,185,24,8.990380293086398e-05,1509.085,1480,1365,1500
14.613784074783325,631,183,19,0.00011446886446886447,1508.5050000000001,1480.1081163560434,1365,1500
14.636693954467773,632,186,26,8.086689309396733e-05,1508.3,1480,1365,1500
14.659992933273315,633,182,25,8.637816360024185e-05,1508.1949999999999,1480,1365,1500
14.683051109313965,634,182,23,9.33184023889511e-05,1508.375,1480,1365,1500
14.706079959869385,635,182,27,8.009611533840609e-05,1508.4449999999999,1480,1365,1500
14.729175090789795,636,181,38,5.526388505111909e-05,1508.3,1480,1365,1500
14.75223708152771,637,181,26,8.157937673356176e-05,1508.4349999999999,1480,1365,1500
14.77527403831482,638,180,28,7.728572532653218e-05,1508.125,1480,1365,1500
14.798594951629639,639,179,30,7.19010641357492e-05,1507.875,1480,1365,1500
14.821655988693237,640,180,30,7.066139061616732e-05,1507.8199999999999,1480,1365,1500
14.844696998596191,641,180,27,7.797878976918278e-05,1507.7149999999999,1480,1365,1500
14.867861032485962,642,182,36,5.6779468544174426e-05,1507.635,1480,1365,1500
14.891034126281738,643,177,30,7.066139061616732e-05,1507.04,1480,1365,1500
14.914047002792358,644,177,36,5.755726948313572e-05,1506.885,1480,1365,1500
14.937094926834106,645,176,31,6.592827004219409e-05,1506.6949999999999,1480,1365,1500
14.960249900817871,646,178,40,4.958104021022361e-05,1506.8499999999999,1480,1365.0,1500
14.98338508605957,647,177,29,6.97350069735007e-05,1506.8299999999999,1480,1365,1500
15.006398916244507,648,171,28,7.694675284702985e-05,1506.095,1480,1365,1500
15.029458999633789,649,174,18,0.00011592858798979828,1506.3,1480,1365,1500
15.052479982376099,650,170,28,7.662835249042145e-05,1505.71,1480,1365,1500
15.075495958328247,651,173,24,9.110787172011662e-05,1505.925,1480,1365,1500
15.098593950271606,652,172,22,9.66183574879227e-05,1505.575,1480,1365,1500
15.122545003890991,653,172,27,8.009611533840609e-05,1505.24,1480,1365,1500
15.145755052566528,654,172,14,0.00015603058199407084,1505.085,1480.4389067570344,1365,1500
15.168973922729492,655,181,177,8.022462896109105e-05,1505.5999999999999,1480,1335,1500
15.19202208518982,656,174,24,8.873114463176575e-05,1504.6199999999999,1480,1365,1500
15.215068101882935,657,171,15,0.00014204545454545454,1504.05,1480.4248123934606,1365,1500
15.238240003585815,658,171,19,0.0001155001155001155,1504.1099999999999,1480.1979123656604,1365,1500
15.26138710975647,659,171,13,0.00016608536787908985,1504.0050000000001,1480.7539216693394,1365,1500
15.284543991088867,660,170,23,9.057971014492754e-05,1504.5650000000001,1480.0128164496523,1365,1500
15.30781102180481,661,172,24,8.647526807333103e-05,1504.8299999999999,1480,1365,1500
15.330969095230103,662,168,25,8.562376915831835e-05,1504.3900000000001,1480,1365,1500
15.354106903076172,663,165,20,0.00010535187526337969,1504.0650000000001,1480.1701666687854,1365,1500
15.378439903259277,664,166,17,0.00012291052114060964,1504.135,1480.3126330667042,1365,1500
15.401717901229858,665,164,41,5.087505087505087e-05,1503.3599999999999,1480,1364.75,1500
15.424870014190674,666,170,26,7.947862025115244e-05,1503.8599999999999,1480,1365,1500
15.448015928268433,667,170,26,7.961149590000795e-05,1503.6849999999999,1480,1365,1500
15.47116208076477,668,170,26,7.961149590000795e-05,1503.3299999999999,1480,1365,1500
15.494214057922363,669,172,44,4.5351473922902495e-05,1503.2249999999999,1480,1364.0,1500
15.51741909980774,670,167,33,6.433350488934638e-05,1502.3800000000001,1480,1365,1500
15.540544033050537,671,175,31,6.510416666666667e-05,1503.0450000000001,1480,1365,1500
15.563606023788452,672,173,23,9.671179883945841e-05,1502.9400000000001,1480,1365,1500
15.58670711517334,673,176,20,0.00011397310234784591,1503.4849999999999,1480,1365,1500
15.609925031661987,674,180,27,8.080155138978668e-05,1504.175,1480,1365,1500
15.632978916168213,675,178,26,8.858180529719195e-05,1504.085,1480,1365,1500
15.656007051467896,676,190,30,7.136739937196689e-05,1505.4849999999999,1480,1365,1500
15.679168939590454,677,197,31,6.871435442864014e-05,1506.23,1480,1365,1500
15.702186107635498,678,195,23,9.342301943198804e-05,1506.2650000000001,1480,1365,1500
15.725364923477173,679,194,25,8.70170553428472e-05,1506.5350000000001,1480,1365,1500
15.748462915420532,680,193,27,8.456659619450317e-05,1506.9649999999999,1480,1365,1500
15.771488904953003,681,192,20,0.00011284134506883322,1507.6800000000001,1480.0264114784013,1365,1500
15.794366121292114,682,192,24,9.433962264150943e-05,1509.0250000000001,1480,1365,1500
15.817536115646362,683,193,24,9.581297307655457e-05,1510.1800000000001,1480,1365,1500
15.84064507484436,684,194,19,0.00012038040207054291,1511.05,1480.1208485936299,1365,1500
15.86373496055603,685,193,24,9.764671418806757e-05,1511.7750000000001,1480,1365,1500
15.886786937713623,686,192,18,0.0001271294177472667,1511.7850000000001,1480.2531656776634,1365,1500
15.91038703918457,687,193,17,0.00013605442176870748,1511.605,1480.4097557852178,1365,1500
15.933542966842651,688,194,15,0.0001481042654028436,1511.5899999999999,1480.5849354675302,1365,1500
15.956644058227539,689,193,15,0.00014880952380952382,1511.4949999999999,1480.6537805200635,1365,1500
15.979939937591553,690,191,15,0.00015360983102918587,1511.3050000000001,1480.7708268270949,1365,1500
16.003067016601562,691,191,15,0.00015216068167985393,1511.3099999999999,1480.7956546702126,1365,1500
16.026211977005005,692,191,13,0.00016846361185983828,1511.375,1481.0328079612307,1365,1500
16.049519062042236,693,191,15,0.00014534883720930232,1511.4449999999999,1480.8511960788583,1365,1500
16.072885990142822,694,191,13,0.00016767270288397049,1511.4000000000001,1481.1217270364182,1365,1500
16.096028089523315,695,188,15,0.00014880952380952382,1511.0050000000001,1480.9842580552952,1365,1500
16.119221925735474,696,192,19,0.00011655011655011655,1511.345,1480.651084681504,1365,1500
16.14213490486145,697,186,10,0.00022251891410769915,1510.6600000000001,1481.7972371494188,1365,1500
16.164988040924072,698,187,16,0.0001365001365001365,1510.615,1480.9254452444404,1365,1500
16.18789792060852,699,185,13,0.00016015374759769378,1510.335,1481.1733255792042,1365,1500
16.21082901954651,700,176,12,0.00017170329670329672,1509.3299999999999,1481.3069145359343,1365,1500
16.233724117279053,701,220,9,0.000384172109104879,1513.645,1483.6636140873752,1365,1500
16.256561040878296,702,160,10,0.00021645021645021645,1507.5,1482.0343817654191,1365,1500
16.27939009666443,703,166,11,0.00018821757952192734,1507.9849999999999,1481.7949241384488,1365,1500
16.302231073379517,704,195,10,0.00030525030525030525,1510.5050000000001,1483.1028289980989,1365,1500
16.325063943862915,705,90,5,0.001366120218579235,1499.7750000000001,1494.9288388261577,1365,1500
16.34794807434082,706,200,7,0.0005333333333333334,1512.415,1487.0177531904822,1365,1500
16.37088108062744,707,221,8,0.0007032348804500703,1512.78,1489.1974846279918,1365,1500
16.39370608329773,708,207,5,0.0012626262626262627,1510.02,1495.91752457588,1365,1500
16.416537046432495,709,211,6,0.0010834236186348862,1510.8900000000001,1495.0487680070032,1365,1500
16.43939709663391,710,210,9,0.0004065040650406504,1505.46,1488.5143732393983,1365,1500
16.462237119674683,711,174,10,0.0006402048655569782,1500.8900000000001,1491.1074140010137,1365,1500
16.485209941864014,712,170,13,0.00046882325363338024,1504.0999999999999,1489.6459709189608,1365,1500
16.508238077163696,713,51,145,0.0011111111111111111,1495.2349999999999,1496.9917430253274,1338.75,1500
16.531184911727905,714,93,145,0.0009049773755656109,1500.905,1495.5301327401876,1338.75,1500
16.554119110107422,715,171,10,0.0004329004329004329,1515.5,1489.876143527857,1365,1500
16.576993942260742,716,216,6,0.001006036217303823,1518.3599999999999,1496.0802042558614,1365,1500
16.599982023239136,717,148,8,0.0004901960784313725,1508.865,1490.7087640651182,1365,1500
16.622865915298462,718,216,5,0.001388888888888889,1506.26,1499.8219547959561,1365,1500
16.645721912384033,719,56,188,0.0006313131313131314,1483.9549999999999,1491.7940867328766,1335,1500
16.668564081192017,720,78,184,0.0002949852507374631,1484.4749999999999,1488.3192891128169,1335,1500
16.69143509864807,721,60,191,0.0007911392405063291,1485.7650000000001,1493.4317633854548,1335,1500
16.714242935180664,722,67,191,0.0010080645161290322,1485.6600000000001,1496.1402574041774,1335,1500
16.737072944641113,723,183,9,0.00033738191632928474,1506.5,1488.6597022113983,1365,1500
16.76004195213318,724,96,188,0.00045004500450045,1495.5650000000001,1489.3314007220447,1335,1500
16.782854080200195,725,152,5,0.0014903129657228018,1495.6800000000001,1500,1365,1500
16.805583000183105,726,169,11,0.00026881720430107527,1488.2550000000001,1487.8393162398706,1365,1500
16.8284330368042,727,64,190,0.0006662225183211193,1480,1491.9893958199607,1335,1500
16.851176023483276,728,200,7,0.0006720430107526882,1485.0150000000001,1491.3307548661403,1365,1500
16.874293088912964,729,76,188,0.000445632798573975,1480,1488.880972411614,1335,1500
16.897027015686035,730,61,193,0.0010834236186348862,1480,1496.0473189801205,1335,1500
16.919944047927856,731,56,193,0.0013227513227513227,1484.0,1498.97220810353,1335,1500
16.94280695915222,732,142,7,0.0005899705014749262,1492.0450000000001,1491.2263058761118,1365,1500
16.965635061264038,733,200,6,0.0008116883116883117,1498.78,1493.9177903736047,1365,1500
16.988487005233765,734,59,183,0.000496031746031746,1483.665,1490.8072114585702,1335,1500
17.011327981948853,735,162,6,0.0006321112515802782,1488.4549999999999,1491.3098047999131,1365,1500
17.034214973449707,736,128,7,0.0006060606060606061,1480,1491.3865417464758,1365,1500
17.05693793296814,737,208,5,0.0009057971014492754,1490.4400000000001,1494.6234812834907,1365,1500
17.079888105392456,738,208,7,0.0008771929824561404,1490.4000000000001,1494.5425900652629,1365,1500
17.10276198387146,739,178,8,0.0008818342151675485,1485.8699999999999,1495.0252038089704,1365,1500
17.125652074813843,740,178,8,0.000380517503805175,1491.345,1489.3091305805171,1365,1500
17.148504972457886,741,176,10,0.00021944261575597982,1494.865,1486.5950729930298,1365,1500
17.171340942382812,742,186,9,0.0004032258064516129,1499.605,1488.2461602049627,1365,1500
17.19417095184326,743,178,10,0.00033772374197906115,1499.395,1487.1171749905279,1365,1500
17.217019081115723,744,240,10,0.0004329004329004329,1511.8299999999999,1488.0058105866106,1365,1500
17.240029096603394,745,168,17,0.00012800819252432156,1505.5599999999999,1484.4527851237933,1365,1500
17.262877941131592,746,187,17,0.00011155734047300312,1510.0450000000001,1483.7937733376925,1365,1500
17.285725116729736,747,217,14,0.00018053800324968405,1511.6800000000001,1483.7583208672597,1365,1500
17.308562994003296,748,205,15,0.00021258503401360543,1508.6949999999999,1483.4141832264565,1365,1500
17.33139705657959,749,234,22,0.00013846579894765993,1515.0350000000001,1481.9296224595771,1365,1500
17.35425901412964,750,244,19,0.0001899335232668566,1515.105,1482.2537157222307,1365,1500
17.377092123031616,751,253,22,0.00019665683382497542,1516.28,1482.298163045881,1365,1500
17.400068044662476,752,257,17,0.0002915451895043732,1518.1849999999999,1483.1353659857277,1365,1500
17.422945022583008,753,266,15,0.000390625,1520,1484.1790653487049,1365,1500
17.44569993019104,754,270,13,0.0005030181086519115,1520,1485.3731141109756,1365,1500
17.46845507621765,755,275,15,0.0005376344086021505,1520,1486.1289033265557,1365,1500
17.491204023361206,756,278,12,0.000784313725490196,1520,1489.2684528804534,1365,1500
17.513943910598755,757,283,9,0.0013850415512465374,1520,1496.4802346860135,1365,1500
17.536679983139038,758,286,7,0.002564102564102564,1520,1500,1365,1500
17.559189081192017,759,290,2,0.014285714285714285,1520,1500,1365,1500
17.581573009490967,760,,,,1520,1500,1350.0,1500
17.603930950164795,761,,,,1520,1500,1350.0,1500
17.62629008293152,762,,,,1520,1500,1350.0,1500
17.64861297607422,763,,,,1520,1500,1350.0,1500
17.670936107635498,764,,,,1520,1500,1350.0,1500
17.693241119384766,765,,,,1520,1500,1350.0,1500
17.715487003326416,766,,,,1520,1500,1350.0,1500
17.737950086593628,767,,,,1514.0799999999999,1500,1350.0,1500
17.76042604446411,768,,,,1507.1500000000001,1500,1350.0,1500
17.78287100791931,769,,,,1500.0,1490.0,1350.0,1500
17.80540704727173,770,,,,1500.0,1490.0,1350.0,1500
17.827976942062378,771,,,,1500.0,1490.0,1350.0,1500
17.850542068481445,772,,,,1500.0,1490.0,1350.0,1500
17.87305212020874,773,,,,1500.0,1490.0,1350.0,1500
17.89555811882019,774,,,,1500.0,1490.0,1350.0,1500
17.91807794570923,775,,,,1500.0,1490.0,1350.0,1500
17.940594911575317,776,,,,1500.0,1490.0,1350.0,1500
17.96309208869934,777,,,,1500.0,1490.0,1350.0,1500
17.98575711250305,778,274,1,0.025,1510.8299999999999,1500,1365,1500
18.0084810256958,779,271,3,0.006944444444444444,1509.9749999999999,1500,1365,1500
18.0311861038208,780,269,6,0.002380952380952381,1509.23,1500,1365,1500
18.0538969039917,781,267,8,0.0013227513227513227,1508.4949999999999,1500,1365,1500
18.076601028442383,782,271,12,0.0006779661016949153,1508.3399999999999,1500,1365,1500
18.09974193572998,783,271,13,0.0004938271604938272,1514.625,1500,1365,1500
18.122502088546753,784,271,25,0.00020859407592824363,1520,1500,1365,1500
18.145007133483887,785,269,26,0.00018335166850018335,1520,1500,1365,1500
18.167500972747803,786,264,18,0.0002370791844476055,1520,1500,1365,1500
18.19001793861389,787,260,20,0.0001984126984126984,1520,1500,1365,1500
18.212491035461426,788,254,34,0.00010989010989010989,1520,1491.8561702464169,1365,1500
18.235255002975464,789,252,34,0.00010815487778498811,1520,1485.0025283587061,1365,1500
18.25801992416382,790,246,34,9.587727708533077e-05,1520,1482.5946772478426,1365,1500
18.280802965164185,791,241,40,8.17594636579184e-05,1520,1481.212507254475,1365.0,1500
18.30362606048584,792,239,45,6.825472663981981e-05,1520,1480.4677485092388,1363.75,1500
18.32643699645996,793,236,45,6.508721687060662e-05,1520,1480.0073334679237,1363.75,1500
18.34923505783081,794,226,44,6.422607578676943e-05,1520,1480,1364.0,1500
18.371937036514282,795,219,43,6.76132521974307e-05,1520,1480,1364.25,1500
18.394618034362793,796,216,43,6.530825496342738e-05,1520,1480,1364.25,1500
18.41738510131836,797,213,42,6.285355122564425e-05,1520,1480,1364.5,1500
18.440212965011597,798,149,44,0.0001562744178777934,1520,1480.3981532928676,1364.0,1500
18.46305012702942,799,140,41,0.00016244314489928524,1518.655,1480.5141288301968,1364.75,1500
18.48597002029419,800,132,38,0.0001349527665317139,1516.8050000000001,1480.2783005359674,1365,1500
18.508827924728394,801,118,37,0.0001606425702811245,1514.52,1480.6140816800848,1365,1500
18.531675100326538,802,113,36,0.0001488981536628946,1513.0899999999999,1480.5772809409257,1365,1500
18.554543018341064,803,94,31,0.00021026072329688813,1506.6800000000001,1481.3360801436918,1365,1500
18.57746410369873,804,89,32,0.00023674242424242425,1501.7049999999999,1481.7734135016028,1365,1500
18.60035991668701,805,72,29,0.0003324468085106383,1495.52,1482.9952909005983,1365,1500
18.623202085494995,806,72,39,0.0006849315068493151,1490.3599999999999,1487.1397611358709,1365,1500
18.646090030670166,807,80,41,0.00030959752321981426,1485.825,1483.6331652715701,1364.75,1500
18.66907000541687,808,243,38,0.0005574136008918618,1498.355,1486.5124652313045,1365,1500
18.691946983337402,809,245,25,0.0011148272017837235,1494.97,1493.0389852971077,1365,1500
18.714772939682007,810,249,28,0.0005830903790087463,1491.1849999999999,1488.169754681835,1365,1500
18.73769211769104,811,249,29,0.0004977600796416127,1487.77,1487.6535691975241,1365,1500
18.76063108444214,812,260,30,0.00030432136335970786,1486.155,1485.8746052444019,1365,1500
18.783464908599854,813,263,23,0.0003324468085106383,1494.55,1486.2780457811248,1365,1500
18.80630612373352,814,268,22,0.0002937720329024677,1503.5150000000001,1485.9483276337032,1365,1500
18.82918906211853,815,269,26,0.00018681113394358303,1513.25,1484.7330829695472,1365,1500
18.852030038833618,816,253,32,0.00011307100859339665,1520,1483.4238212177895,1365,1500
18.874769926071167,817,247,46,7.415647015202076e-05,1520,1482.7992347803079,1363.5,1500
18.897639989852905,818,257,35,0.000111781801922647,1520,1482.729856299045,1365,1500
18.920438051223755,819,260,28,0.0001486767766874814,1520,1482.1326556215972,1365,1500
18.94315195083618,820,264,27,0.00016233766233766234,1520,1481.8485117614277,1365,1500
18.965853929519653,821,268,21,0.00021853146853146853,1520,1482.1312212122557,1365,1500
18.988559007644653,822,269,19,0.00024752475247524753,1520,1482.364357440809,1365,1500
19.011281967163086,823,269,20,0.0002414875633904854,1520,1482.2130263048414,1365,1500
19.034008026123047,824,269,17,0.0002777777777777778,1520,1482.5599341935895,1365,1500
19.056740045547485,825,271,19,0.0002525252525252525,1520,1482.3731230596459,1365,1500
19.07960605621338,826,271,13,0.00036075036075036075,1520,1483.7030534940541,1365,1500
19.102355003356934,827,270,18,0.0002702702702702703,1520,1482.9943663893714,1365,1500
19.12508797645569,828,271,23,0.00021710811984368216,1520,1482.5680712030264,1365,1500
19.148092031478882,829,269,16,0.00030303030303030303,1520,1483.5816465612356,1365,1500
19.170926094055176,830,266,20,0.00022251891410769915,1520,1482.8367139237796,1365,1500
19.19368290901184,831,263,17,0.00024366471734892786,1520,1483.0733052050093,1365,1500
19.216409921646118,832,261,17,0.00023342670401493932,1520,1482.9568270232091,1365,1500
19.239180088043213,833,258,12,0.0003278688524590164,1520,1483.9876297967185,1365,1500
19.26189613342285,834,256,22,0.00017361111111111112,1520,1482.3408857165728,1365,1500
19.284598112106323,835,251,12,0.00031746031746031746,1520,1483.8443128449999,1365,1500
19.30743908882141,836,243,40,9.996001599360256e-05,1520,1481.4085194855759,1365.0,1500
19.330416917800903,837,236,39,0.0001100715465052284,1520,1481.3494360669272,1365,1500
19.353128910064697,838,225,37,0.00011799410029498526,1520,1481.329547585276,1365,1500
19.375843048095703,839,215,35,0.0001246416552411816,1520,1481.2176344869488,1365,1500
19.398564100265503,840,208,52,0.00023529411764705883,1520,1482.3369343145469,1362.0,1500
19.421380043029785,841,212,41,0.00010442773600668337,1520,1480.889033516801,1364.75,1500
19.44420289993286,842,211,42,0.00010199918400652795,1520,1480.7333204767911,1364.5,1500
19.467001914978027,843,211,45,9.312721177127957e-05,1520,1480.4098591137508,1363.75,1500
19.489975929260254,844,201,44,9.856100926473487e-05,1520,1480.389146986839,1364.0,1500
19.512831926345825,845,199,43,9.63020030816641e-05,1520,1480.1453986106296,1364.25,1500
19.53572392463684,846,198,50,8.182636445462728e-05,1518.98,1480,1362.5,1500
19.55855393409729,847,199,51,7.512019230769231e-05,1517.7650000000001,1480,1362.25,1500
19.581515073776245,848,199,49,7.5947444368497e-05,1517.0550000000001,1480,1362.75,1500
19.60437297821045,849,201,48,7.363770250368188e-05,1516.4849999999999,1480,1363.0,1500
19.627209901809692,850,198,48,7.341065922771986e-05,1515.6949999999999,1480,1363.0,1500
19.650185108184814,851,194,48,7.580351728320194e-05,1514.5450000000001,1480,1363.0,1500
19.673656940460205,852,194,47,7.518796992481203e-05,1513.9100000000001,1480,1363.25,1500
19.697575092315674,853,190,44,8.169934640522875e-05,1512.895,1480,1364.0,1500
19.7207989692688,854,185,44,8.448086508405846e-05,1512.4749999999999,1480,1364.0,1500
19.743783950805664,855,181,42,8.809020436927414e-05,1512.105,1480,1364.5,1500
19.767055988311768,856,174,40,0.00010119409026512852,1511.2850000000001,1480,1365.0,1500
19.790303945541382,857,172,38,0.00011052166224580017,1510.9200000000001,1480,1365,1500
19.813358068466187,858,169,37,0.00011799410029498526,1510.23,1480.0619611205536,1365,1500
19.8364999294281,859,166,35,0.00012980269989615784,1509.145,1480.2362121139579,1365,1500
19.859673976898193,860,163,34,0.00014492753623188405,1508.0,1480.4589773543194,1365,1500
19.882760047912598,861,160,32,0.00016118633139909736,1506.6700000000001,1480.7069481201074,1365,1500
19.905893087387085,862,157,31,0.0001775568181818182,1505.2349999999999,1480.9730218361917,1365,1500
19.929090976715088,863,155,29,0.00020177562550443906,1503.95,1481.3352861885171,1365,1500
19.95221495628357,864,149,26,0.000257201646090535,1502.3900000000001,1482.0622671753845,1365,1500
19.975335121154785,865,146,24,0.00030921459492888067,1501.1849999999999,1482.8035210543276,1365,1500
19.998459100723267,866,133,22,0.0005555555555555556,1499.25,1485.7212921258847,1365,1500
20.02157211303711,867,134,21,0.0005285412262156448,1498.6400000000001,1485.8691683964555,1365,1500
20.04469609260559,868,134,21,0.0005672149744753262,1497.9749999999999,1486.7051267532327,1365,1500
20.067835092544556,869,130,21,0.0006459948320413437,1496.7349999999999,1488.0091174610379,1365,1500
20.091016054153442,870,131,20,0.0006775067750677507,1495.9749999999999,1488.856816130138,1365,1500
20.114157915115356,871,131,21,0.0006285355122564425,1494.5,1488.8344526828821,1365,1500
20.1374249458313,872,125,28,0.0012626262626262627,1492.6800000000001,1496.2604296310249,1365,1500
20.16077208518982,873,124,22,0.000966183574879227,1491.4749999999999,1494.0604107029292,1365,1500
20.183845043182373,874,123,22,0.0009881422924901185,1490.365,1495.0109385254377,1365,1500
20.207240104675293,875,123,22,0.0010869565217391304,1489.5799999999999,1496.7768227447382,1365,1500
20.230616092681885,876,122,6,0.004201680672268907,1489.415,1500,1365,1500
20.253623962402344,877,121,10,0.0026455026455026454,1488.8399999999999,1500,1365,1500
20.27661395072937,878,120,7,0.00390625,1488.21,1500,1365,1500
20.299768924713135,879,120,7,0.0044444444444444444,1487.8399999999999,1500,1365,1500
20.322778940200806,880,117,5,0.010101010101010102,1487.1300000000001,1500,1365,1500
20.34577202796936,881,115,9,0.05,1486.47,1500,1365,1500
20.368629932403564,882,,,,1490.5550000000001,1500,1350.0,1500
20.391338109970093,883,,,,1490.135,1500,1350.0,1500
20.414051055908203,884,,,,1489.77,1500,1350.0,1500
20.43677806854248,885,,,,1489.2249999999999,1500,1350.0,1500
20.45964503288269,886,,,,1488.615,1500,1350.0,1500
20.482341051101685,887,,,,1490.76,1500,1350.0,1500
20.5050311088562,888,,,,1492.96,1500,1350.0,1500
20.527782917022705,889,,,,1495.1600000000001,1500,1350.0,1500
20.550540924072266,890,,,,1497.5250000000001,1500,1350.0,1500
20.57331895828247,891,,,,1500.0,1490.0,1350.0,1500
20.596097946166992,892,,,,1500.0,1490.0,1350.0,1500
20.618937015533447,893,,,,1500.0,1490.0,1350.0,1500
20.64177393913269,894,,,,1500.0,1490.0,1350.0,1500
20.66455101966858,895,,,,1500.0,1490.0,1350.0,1500
20.687371969223022,896,,,,1500.0,1490.0,1350.0,1500
20.710215091705322,897,,,,1500.0,1490.0,1350.0,1500
20.733021020889282,898,,,,1500.0,1490.0,1350.0,1500
20.75582194328308,899,,,,1500.0,1490.0,1350.0,1500
20.778685092926025,900,,,,1500.0,1490.0,1350.0,1500
20.80145812034607,901,,,,1500.0,1490.0,1350.0,1500
20.82424306869507,902,,,,1500.0,1490.0,1350.0,1500
20.847038984298706,903,,,,1500.0,1490.0,1350.0,1500
20.869969129562378,904,,,,1500.0,1490.0,1350.0,1500
20.89281392097473,905,,,,1500.0,1490.0,1350.0,1500
20.915606021881104,906,,,,1500.0,1490.0,1350.0,1500
20.93848991394043,907,,,,1500.0,1490.0,1350.0,1500
20.96128797531128,908,,,,1500.0,1490.0,1350.0,1500
20.98404598236084,909,,,,1500.0,1490.0,1350.0,1500
21.006829023361206,910,,,,1500.0,1490.0,1350.0,1500
21.02986192703247,911,,,,1500.0,1490.0,1350.0,1500
21.052624940872192,912,,,,1500.0,1490.0,1350.0,1500
21.07541012763977,913,,,,1500.0,1490.0,1350.0,1500
21.098205089569092,914,,,,1500.0,1490.0,1350.0,1500
21.12101912498474,915,,,,1500.0,1490.0,1350.0,1500
21.1438250541687,916,,,,1500.0,1490.0,1350.0,1500
21.166604042053223,917,,,,1500.0,1490.0,1350.0,1500
21.18954110145569,918,,,,1500.0,1490.0,1350.0,1500
