time,frame,x,y,size_inv,roll,pitch,thrust,yaw
0.00020003318786621094,1,214,61,6.351626016260163e-05,1505.4,1480,1300,1500
0.05144810676574707,2,215,60,6.354047528275512e-05,1505.5,1480,1300,1500
0.1024320125579834,3,215,60,6.505334374186833e-05,1505.5,1480,1300,1500
0.1533498764038086,4,215,61,6.253908692933083e-05,1505.5,1480,1300,1500
0.20433807373046875,5,215,60,6.454111268878275e-05,1505.5,1480,1300,1500
0.2552828788757324,6,217,61,6.351626016260163e-05,1505.7,1480,1300,1500
0.30625009536743164,7,216,61,6.45244547683572e-05,1505.6,1480,1300,1500
0.35722804069519043,8,216,61,6.251562890722681e-05,1505.6,1480,1300,1500
0.4082479476928711,9,216,60,6.456611570247934e-05,1505.6,1480,1300,1500
0.45921897888183594,10,216,61,6.351626016260163e-05,1505.6,1480,1300,1500
0.5101659297943115,11,217,61,6.401638819537802e-05,1505.7,1480,1300,1500
0.561121940612793,12,218,61,6.401638819537802e-05,1505.8,1480,1300,1500
0.6120870113372803,13,217,61,6.251562890722681e-05,1505.7,1480,1300,1500
0.6630690097808838,14,216,62,6.25e-05,1505.6,1480,1300,1500
0.7140049934387207,15,217,61,6.351626016260163e-05,1505.7,1480,1300,1500
0.7649540901184082,16,218,61,6.45244547683572e-05,1505.8,1480,1300,1500
0.8159060478210449,17,218,61,6.302388605281402e-05,1505.8,1480,1300,1500
0.8668680191040039,18,218,61,6.351626016260163e-05,1505.8,1480,1300,1500
0.9178369045257568,19,219,61,6.3500127000254e-05,1505.9,1480,1300,1500
0.9688088893890381,20,219,60,6.456611570247934e-05,1505.9,1480,1300,1500
1.0197620391845703,21,218,60,6.354047528275512e-05,1505.8,1480,1300,1500
1.0707390308380127,22,219,61,6.302388605281402e-05,1505.9,1480,1300,1500
1.1217329502105713,23,217,61,6.351626016260163e-05,1505.7,1480,1300,1500
1.1727049350738525,24,216,61,6.302388605281402e-05,1505.6,1480,1300,1500
1.2236709594726562,25,215,61,6.251562890722681e-05,1505.5,1480,1300,1500
1.2746288776397705,26,212,57,6.793478260869565e-05,1505.2,1480,1300,1500
1.3256158828735352,27,208,59,6.510416666666667e-05,1504.8,1480,1300,1500
1.3767759799957275,28,206,59,6.616819956328988e-05,1504.6,1480,1300,1500
1.4286398887634277,29,203,58,6.78334011667345e-05,1504.3,1480,1300,1500
1.4805400371551514,30,201,57,6.901311249137337e-05,1504.1,1480,1300,1500
1.5323569774627686,31,197,56,6.961849067112225e-05,1503.7,1480,1300,1500
1.5840480327606201,32,195,57,6.956521739130434e-05,1503.5,1480,1300,1500
1.635758876800537,33,190,57,6.956521739130434e-05,1503.0,1480,1300,1500
1.6874089241027832,34,186,53,7.598206823189727e-05,1502.6,1480,1300,1500
1.7390460968017578,35,180,55,7.378984651711924e-05,1502.0,1480,1300,1500
1.7907118797302246,36,175,55,7.38443361394181e-05,1501.5,1480,1300,1500
1.8424899578094482,37,168,53,7.853608733212911e-05,1500.8,1480,1300,1500
1.894197940826416,38,162,57,8.227743952608195e-05,1500.2,1480,1300,1500
1.9459049701690674,39,156,55,8.403361344537815e-05,1499.6,1480,1300,1500
1.9975619316101074,40,151,46,8.791981712678038e-05,1499.1,1480,1300,1500
2.0492398738861084,41,140,50,0.00016233766233766234,1498.0,1480,1300,1500
2.1009368896484375,42,140,52,7.42831674342594e-05,1498.0,1480,1300,1500
2.1525959968566895,43,147,30,0.00034211426616489907,1498.7,1480,1300,1500
2.2042579650878906,44,151,49,0.0001,1499.1,1480,1300,1500
2.25581693649292,45,141,30,0.0002620545073375262,1498.1,1480,1300,1500
2.3074378967285156,46,151,52,6.886103842445945e-05,1499.1,1480,1300,1500
2.3591060638427734,47,164,52,6.738544474393532e-05,1500.4,1480,1300,1500
2.4108800888061523,48,177,56,6.13421666053245e-05,1501.7,1480,1300,1500
2.462589979171753,49,195,58,6.053268765133172e-05,1503.5,1480,1300,1500
2.5142390727996826,50,207,59,6.133840397472858e-05,1504.7,1480,1300,1500
2.565885066986084,51,225,60,6.16294835449279e-05,1506.5,1480,1300,1500
2.617543935775757,52,234,61,6.251562890722681e-05,1507.4,1480,1300,1500
2.66920804977417,53,247,62,6.349206349206349e-05,1508.7,1480,1300,1500
2.7209510803222656,54,257,65,6.308750236578134e-05,1509.7,1480,1300,1500
2.772653102874756,55,261,55,7.570595805889923e-05,1510.1,1480,1300,1500
2.8243460655212402,56,263,60,7.24952878062926e-05,1510.3,1480,1300,1500
2.8764100074768066,57,264,64,6.868131868131868e-05,1510.4,1480,1300,1500
2.928104877471924,58,262,66,6.481721545242416e-05,1510.2,1480,1300,1500
2.979764938354492,59,261,67,6.284565108094519e-05,1510.1,1480,1300,1500
3.0314369201660156,60,255,61,6.45244547683572e-05,1509.5,1480,1300,1500
3.0830979347229004,61,250,66,5.830223880597015e-05,1509.0,1480,1300,1500
3.134756088256836,62,240,67,5.7421762848119435e-05,1508.0,1480,1300,1500
3.186422109603882,63,231,67,5.611672278338945e-05,1507.1,1480,1300,1500
3.2380928993225098,64,217,62,5.9701492537313435e-05,1505.7,1480,1300,1500
3.289731025695801,65,205,65,5.612932195779075e-05,1504.5,1480,1300,1500
3.3413939476013184,66,187,61,6.067224851352991e-05,1502.7,1480,1300,1500
3.3931360244750977,67,174,61,6.253908692933083e-05,1501.4,1480,1300,1500
3.444796085357666,68,154,59,7.290755322251386e-05,1499.4,1480,1300,1500
3.4964609146118164,69,141,56,8.296001327360213e-05,1498.1,1480,1300,1500
3.5481228828430176,70,155,84,0.0009970089730807576,1499.5,1484.9700897308076,1282.0,1500
3.599937915802002,71,126,28,0.003968253968253968,1496.6,1514.6825396825398,1300,1500
3.6516940593719482,72,153,93,0.002631578947368421,1499.3,1501.3157894736842,1264.0,1500
3.7035140991210938,73,118,23,0.0038314176245210726,1495.8,1513.3141762452108,1300,1500
3.7552640438079834,74,123,19,0.0008051529790660225,1496.3,1483.0515297906602,1300,1500
3.8069980144500732,75,179,76,0.002136752136752137,1501.9,1496.3675213675215,1298.0,1500
3.858768939971924,76,180,43,0.002079002079002079,1502.0,1495.790020790021,1300,1500
3.910533905029297,77,130,7,0.0024509803921568627,1497.0,1499.5098039215686,1300,1500
3.9623780250549316,78,190,49,0.00011640088464672332,1503.0,1480,1300,1500
4.014031887054443,79,193,41,0.00011926058437686345,1503.3,1480,1300,1500
4.065672874450684,80,191,40,8.122157244964262e-05,1503.1,1480,1300,1500
4.117321014404297,81,200,37,0.0001310272536687631,1504.0,1480,1300,1500
4.168946027755737,82,209,33,0.00010429703796412182,1504.9,1480,1300,1500
4.220690011978149,83,209,29,0.00011904761904761905,1504.9,1480,1300,1500
4.272413969039917,84,215,29,0.00012840267077555214,1505.5,1480,1300,1500
4.324110984802246,85,219,32,0.00011745360582569885,1505.9,1480,1300,1500
4.375910043716431,86,217,25,0.00015318627450980392,1505.7,1480,1300,1500
4.427627086639404,87,217,32,0.0001231830500123183,1505.7,1480,1300,1500
4.479281902313232,88,215,24,0.00017006802721088434,1505.5,1480,1300,1500
4.530951976776123,89,214,25,0.00015508684863523573,1505.4,1480,1300,1500
4.5826029777526855,90,214,30,0.00012903225806451613,1505.4,1480,1300,1500
4.634283065795898,91,212,23,0.00017076502732240437,1505.2,1480,1300,1500
4.685935020446777,92,212,34,0.00011322463768115942,1505.2,1480,1300,1500
4.737576007843018,93,211,32,0.00011655011655011655,1505.1,1480,1300,1500
4.789201021194458,94,209,30,0.00012406947890818859,1504.9,1480,1300,1500
4.840882062911987,95,210,39,9.041591320072333e-05,1505.0,1480,1300,1500
4.892568111419678,96,207,41,8.267195767195767e-05,1504.7,1480,1300,1500
4.94420599937439,97,204,50,6.284565108094519e-05,1504.4,1480,1300,1500
4.995871067047119,98,203,51,6.0302719652656335e-05,1504.3,1480,1300,1500
5.047533988952637,99,200,62,4.8393341076267905e-05,1504.0,1480,1300,1500
5.099164009094238,100,201,59,5.0929462694168576e-05,1504.1,1480,1300,1500
5.150937080383301,101,198,51,5.623031938821413e-05,1503.8,1480,1300,1500
5.202728033065796,102,195,62,4.519774011299435e-05,1503.5,1480,1300,1500
5.25436806678772,103,198,64,4.455136772698922e-05,1503.8,1480,1300,1500
5.306005954742432,104,199,64,4.480889008379262e-05,1503.9,1480,1300,1500
5.3576459884643555,105,202,65,4.5985468591924955e-05,1504.2,1480,1300,1500
5.409372091293335,106,203,61,4.947555907381753e-05,1504.3,1480,1300,1500
5.461013078689575,107,208,61,5.305602716468591e-05,1504.8,1480,1300,1500
5.51269006729126,108,210,64,5.309546564723373e-05,1505.0,1480,1300,1500
5.564380884170532,109,215,62,5.835667600373483e-05,1505.5,1480,1300,1500
5.616296052932739,110,218,59,6.366182836771072e-05,1505.8,1480,1300,1500
5.668370962142944,111,222,57,6.901311249137337e-05,1506.2,1480,1300,1500
5.720082998275757,112,225,56,7.136739937196689e-05,1506.5,1480,1300,1500
5.7717390060424805,113,230,55,7.440476190476191e-05,1507.0,1480,1300,1500
5.823410987854004,114,234,56,7.499625018749062e-05,1507.4,1480,1300,1500
5.875050067901611,115,240,58,7.243227582210633e-05,1508.0,1480,1300,1500
5.926701068878174,116,242,60,7.06364342727979e-05,1508.2,1480,1300,1500
5.978355884552002,117,244,62,6.725854183481302e-05,1508.4,1480,1300,1500
6.03002405166626,118,244,65,6.308750236578134e-05,1508.4,1480,1300,1500
6.081669092178345,119,242,65,6.257039169065198e-05,1508.2,1480,1300,1500
6.133332967758179,120,238,65,6.159152500615915e-05,1507.8,1480,1300,1500
6.185019016265869,121,233,66,6.063545961678389e-05,1507.3,1480,1300,1500
6.236979007720947,122,222,64,6.152331733727083e-05,1506.2,1480,1300,1500
6.289001941680908,123,214,63,6.103515625e-05,1505.4,1480,1300,1500
6.341034889221191,124,199,62,6.400409626216078e-05,1503.9,1480,1300,1500
6.393038988113403,125,189,61,6.720430107526882e-05,1502.9,1480,1300,1500
6.445122003555298,126,171,63,7.7000077000077e-05,1501.1,1480,1300,1500
6.497071027755737,127,165,70,9.80392156862745e-05,1500.5,1480,1300,1500
6.548990964889526,128,178,93,0.0005099439061703213,1501.8,1480.0994390617032,1264.0,1500
6.601075887680054,129,167,78,0.0006127450980392157,1500.7,1481.127450980392,1294.0,1500
6.653165102005005,130,159,79,0.0009398496240601503,1499.9,1484.3984962406016,1292.0,1500
6.705250978469849,131,158,83,0.00205761316872428,1499.8,1495.5761316872429,1284.0,1500
6.757313966751099,132,166,78,0.002777777777777778,1500.6,1502.7777777777778,1294.0,1500
6.809370040893555,133,163,80,0.00046253469010175765,1500.3,1480,1290.0,1500
6.861329078674316,134,186,90,0.0006944444444444445,1502.6,1481.9444444444443,1270.0,1500
6.913408041000366,135,191,86,0.000292654375182909,1503.1,1480,1278.0,1500
6.965380907058716,136,181,63,7.305669199298655e-05,1502.1,1480,1300,1500
7.0173211097717285,137,202,59,6.561679790026247e-05,1504.2,1480,1300,1500
7.06923508644104,138,213,61,6.109481915933529e-05,1505.3,1480,1300,1500
7.121167898178101,139,233,61,6.300403225806451e-05,1507.3,1480,1300,1500
7.17309308052063,140,243,59,6.720430107526882e-05,1508.3,1480,1300,1500
7.225044012069702,141,258,60,7.124536905101169e-05,1509.8,1480,1300,1500
7.276946067810059,142,265,64,7.047216349541931e-05,1510.5,1480,1300,1500
7.328859090805054,143,271,62,8.098477486232588e-05,1511.1,1480,1300,1500
7.380872964859009,144,274,61,8.742022904100009e-05,1511.4,1480,1300,1500
7.432852029800415,145,275,63,8.680555555555556e-05,1511.5,1480,1300,1500
7.484767913818359,146,276,62,8.988764044943821e-05,1511.6,1480,1300,1500
7.536659002304077,147,274,63,8.491847826086956e-05,1511.4,1480,1300,1500
7.588576078414917,148,272,65,7.891414141414142e-05,1511.2,1480,1300,1500
7.640511989593506,149,268,65,7.284382284382284e-05,1510.8,1480,1300,1500
7.6926610469818115,150,264,68,6.587615283267457e-05,1510.4,1480,1300,1500
7.744533061981201,151,255,67,6.121824303642486e-05,1509.5,1480,1300,1500
7.796453952789307,152,245,69,5.709717939933767e-05,1508.5,1480,1300,1500
7.848390102386475,153,227,69,5.3304904051172706e-05,1506.7,1480,1300,1500
7.9003050327301025,154,215,64,5.7421762848119435e-05,1505.5,1480,1300,1500
7.952343940734863,155,191,63,5.830223880597015e-05,1503.1,1480,1300,1500
8.004250049591064,156,169,56,6.913716814159292e-05,1500.9,1480,1300,1500
8.056188106536865,157,155,69,6.454111268878275e-05,1499.5,1480,1300,1500
8.108090877532959,158,139,72,8.270614506657845e-05,1497.9,1480,1300,1500
8.160032987594604,159,155,83,0.0004166666666666667,1499.5,1480,1284.0,1500
8.212099075317383,160,155,109,0.0021929824561403508,1499.5,1496.9298245614036,1232.0,1500
8.264147996902466,161,137,77,0.0009319664492078285,1497.7,1484.3196644920783,1296.0,1500
8.3162100315094,162,125,69,0.0020833333333333333,1496.5,1495.8333333333333,1300,1500
8.368226051330566,163,131,48,0.00267379679144385,1497.1,1501.7379679144385,1300,1500
8.420506954193115,164,144,66,0.0017482517482517483,1498.4,1492.4825174825176,1300,1500
8.47262191772461,165,149,59,0.0003076923076923077,1498.9,1480,1300,1500
8.524523973464966,166,144,52,0.000158052789631737,1498.4,1480,1300,1500
8.576426029205322,167,156,55,7.79666302822392e-05,1499.6,1480,1300,1500
8.62834095954895,168,172,46,8.64902266043937e-05,1501.2,1480,1300,1500
8.680278062820435,169,181,45,8.862105636299185e-05,1502.1,1480,1300,1500
8.732287883758545,170,194,37,0.00010840108401084011,1503.4,1480,1300,1500
8.78419804573059,171,201,32,0.00012626262626262626,1504.1,1480,1300,1500
8.836128950119019,172,210,26,0.00016126431220770844,1505.0,1480,1300,1500
8.888036012649536,173,214,23,0.00018436578171091445,1505.4,1480,1300,1500
8.939972877502441,174,214,18,0.00025799793601651185,1505.4,1480,1300,1500
8.99201488494873,175,195,19,0.000423728813559322,1503.5,1480,1300,1500
9.043965101242065,176,183,18,0.002551020408163265,1502.3,1500.5102040816325,1300,1500
9.095927000045776,177,260,25,0.017857142857142856,1510.0,1520,1300,1500
9.147801876068115,178,218,36,0.01,1505.8,1520,1300,1500
9.199644088745117,179,217,40,0.01818181818181818,1505.7,1520,1300,1500
9.25154995918274,180,216,43,0.011363636363636364,1505.6,1520,1300,1500
9.303430080413818,181,262,47,0.016666666666666666,1510.2,1520,1300,1500
9.355364084243774,182,260,45,0.0022727272727272726,1510.0,1497.7272727272727,1300,1500
9.40741491317749,183,176,35,0.0007507507507507507,1501.6,1482.5075075075074,1300,1500
9.459429025650024,184,193,37,0.00021743857360295715,1503.3,1480,1300,1500
9.51138710975647,185,216,50,8.742022904100009e-05,1505.6,1480,1300,1500
9.56352710723877,186,217,55,7.476635514018692e-05,1505.7,1480,1300,1500
9.615264892578125,187,218,64,6.152331733727083e-05,1505.8,1480,1300,1500
9.667218923568726,188,219,73,5.320280910832092e-05,1505.9,1480,1300,1500
9.719208002090454,189,222,85,4.506940688660537e-05,1506.2,1480,1280.0,1500
9.771195888519287,190,226,88,4.2800890258517374e-05,1506.6,1480,1274.0,1500
9.823246002197266,191,230,94,3.862047657668096e-05,1507.0,1480,1262.0,1500
9.87521505355835,192,235,89,3.9621221126035104e-05,1507.5,1480,1272.0,1500
9.927232027053833,193,237,88,3.9786743057213336e-05,1507.7,1480,1274.0,1500
9.979196071624756,194,238,80,4.374070510016621e-05,1507.8,1480,1290.0,1500
10.031189918518066,195,237,77,4.578754578754579e-05,1507.7,1480,1296.0,1500
10.083153009414673,196,233,75,4.699248120300752e-05,1507.3,1480,1300.0,1500
10.135180950164795,197,230,80,4.3779003589878295e-05,1507.0,1480,1290.0,1500
10.187144041061401,198,220,77,4.449388209121246e-05,1506.0,1480,1296.0,1500
10.239137887954712,199,212,74,4.5045045045045046e-05,1505.2,1480,1300,1500
10.291152954101562,200,196,74,4.4446419840881815e-05,1503.6,1480,1300,1500
10.343153953552246,201,184,72,4.506128334534967e-05,1502.4,1480,1300,1500
10.395111083984375,202,164,64,5.379236148466918e-05,1500.4,1480,1300,1500
10.447096109390259,203,152,67,6.371861858034918e-05,1499.2,1480,1300,1500
10.499023914337158,204,172,86,0.0014705882352941176,1501.2,1489.7058823529412,1278.0,1500
10.551201105117798,205,151,44,0.005681818181818182,1499.1,1520,1300,1500
10.603157043457031,206,141,90,0.004545454545454545,1498.1,1520,1270.0,1500
10.655189990997314,207,137,104,0.015151515151515152,1497.7,1520,1242.0,1500
10.707200050354004,208,92,62,0.018518518518518517,1493.2,1520,1300,1500
10.759098052978516,209,139,89,0.015625,1497.9,1520,1272.0,1500
10.811053991317749,210,105,47,0.005376344086021506,1494.5,1520,1300,1500
10.862942934036255,211,188,110,0.005555555555555556,1502.8,1520,1230.0,1500
10.9148850440979,212,162,31,0.0011904761904761906,1500.2,1486.904761904762,1300,1500
10.966847896575928,213,175,66,6.63129973474801e-05,1501.5,1480,1300,1500
11.018797874450684,214,192,63,5.0152966547971315e-05,1503.2,1480,1300,1500
11.07076096534729,215,218,73,4.475474400286431e-05,1505.8,1480,1300,1500
11.122741937637329,216,235,71,4.538852578068264e-05,1507.5,1480,1300,1500
11.174657106399536,217,254,74,5.012531328320802e-05,1509.4,1480,1300,1500
11.24598503112793,218,262,72,5.904581955597544e-05,1510.2,1480,1300,1500
11.297965049743652,219,269,73,6.604583581005217e-05,1510.9,1480,1300,1500
11.349931001663208,220,269,74,6.644959797993223e-05,1510.9,1480,1300,1500
11.40192699432373,221,269,76,6.407791874919902e-05,1510.9,1480,1298.0,1500
11.453962087631226,222,269,74,6.515931452401121e-05,1510.9,1480,1300,1500
11.505887985229492,223,265,76,5.85000585000585e-05,1510.5,1480,1298.0,1500
11.557876110076904,224,262,73,5.8142915285772426e-05,1510.2,1480,1300,1500
11.609821081161499,225,255,75,5.139802631578947e-05,1509.5,1480,1300.0,1500
11.661818027496338,226,248,73,4.692192192192192e-05,1508.8,1480,1300,1500
11.713783025741577,227,233,75,4.1377027474346244e-05,1507.3,1480,1300.0,1500
11.765744924545288,228,209,74,4.1666666666666665e-05,1504.9,1480,1300,1500
11.81766390800476,229,194,69,4.413646996513219e-05,1503.4,1480,1300,1500
11.869579076766968,230,171,64,4.785146904009953e-05,1501.1,1480,1300,1500
11.92150092124939,231,159,67,5.307855626326964e-05,1499.9,1480,1300,1500
11.973443984985352,232,160,77,0.0002192982456140351,1500.0,1480,1296.0,1500
12.025413036346436,233,137,25,0.0004280821917808219,1497.7,1480,1300,1500
12.077327966690063,234,125,23,0.001984126984126984,1496.5,1494.8412698412699,1300,1500
12.129308938980103,235,138,38,0.0022522522522522522,1497.8,1497.5225225225224,1300,1500
12.18127703666687,236,117,20,0.0013736263736263737,1495.7,1488.7362637362637,1300,1500
12.233262062072754,237,123,28,0.002,1496.3,1495.0,1300,1500
12.28515911102295,238,140,32,0.0006142506142506142,1498.0,1481.1425061425061,1300,1500
12.337167978286743,239,148,32,0.00014367816091954023,1498.8,1480,1300,1500
12.38910698890686,240,160,31,0.00012025012025012025,1500.0,1480,1300,1500
12.441004991531372,241,167,26,0.00014697236919459142,1500.7,1480,1300,1500
12.492876052856445,242,181,30,0.00012312238364934746,1502.1,1480,1300,1500
12.54476809501648,243,189,31,0.00012498437695288088,1502.9,1480,1300,1500
12.59665298461914,244,194,32,0.00012732365673542143,1503.4,1480,1300,1500
12.64858889579773,245,203,38,0.00010558547143912998,1504.3,1480,1300,1500
12.700491905212402,246,208,32,0.00012521913348359628,1504.8,1480,1300,1500
12.75248908996582,247,213,36,0.00011321181931393638,1505.3,1480,1300,1500
12.804425954818726,248,216,37,0.00011019283746556474,1505.6,1480,1300,1500
12.85633111000061,249,220,46,8.813678829543451e-05,1506.0,1480,1300,1500
12.908248901367188,250,222,47,8.400537634408603e-05,1506.2,1480,1300,1500
12.960169076919556,251,225,54,7.158196134574088e-05,1506.5,1480,1300,1500
13.012233972549438,252,225,59,6.565126050420168e-05,1506.5,1480,1300,1500
13.06417202949524,253,227,67,5.56947925368978e-05,1506.7,1480,1300,1500
13.116091012954712,254,227,71,5.2186619350798456e-05,1506.7,1480,1300,1500
13.168159008026123,255,227,76,4.671587405400355e-05,1506.7,1480,1298.0,1500
13.220156908035278,256,226,73,4.7582794061667303e-05,1506.6,1480,1300,1500
13.272218942642212,257,224,78,4.2462845010615714e-05,1506.4,1480,1294.0,1500
13.324239015579224,258,224,78,4.135991397137894e-05,1506.4,1480,1294.0,1500
13.376287937164307,259,225,70,4.665920119447555e-05,1506.5,1480,1300,1500
13.42824387550354,260,226,70,4.69682025268893e-05,1506.6,1480,1300,1500
13.480149030685425,261,226,66,5.14668039114771e-05,1506.6,1480,1300,1500
13.53230595588684,262,225,63,5.463286713286713e-05,1506.5,1480,1300,1500
13.584212064743042,263,224,63,5.705808513066301e-05,1506.4,1480,1300,1500
13.636143922805786,264,224,55,6.67334000667334e-05,1506.4,1480,1300,1500
13.688163995742798,265,223,51,7.299802905321556e-05,1506.3,1480,1300,1500
13.740164041519165,266,223,47,8.202099737532808e-05,1506.3,1480,1300,1500
13.79228401184082,267,222,47,8.138020833333333e-05,1506.2,1480,1300,1500
13.844212055206299,268,224,50,7.920792079207921e-05,1506.4,1480,1300,1500
13.896184921264648,269,225,55,7.265329845975008e-05,1506.5,1480,1300,1500
13.948208093643188,270,228,61,6.451612903225807e-05,1506.8,1480,1300,1500
14.00015902519226,271,229,68,5.7930714865021436e-05,1506.9,1480,1300,1500
14.052578926086426,272,232,75,5.0999592003263974e-05,1507.2,1480,1300.0,1500
14.10460090637207,273,233,70,5.375766046661649e-05,1507.3,1480,1300,1500
14.156537055969238,274,235,72,5.070993914807302e-05,1507.5,1480,1300,1500
14.20848798751831,275,237,78,4.582321404023278e-05,1507.7,1480,1294.0,1500
14.26047396659851,276,237,67,5.328218243819267e-05,1507.7,1480,1300,1500
14.312572956085205,277,236,73,4.9319392385085815e-05,1507.6,1480,1300,1500
14.364573001861572,278,230,62,5.925925925925926e-05,1507.0,1480,1300,1500
14.416522026062012,279,222,67,5.52791597567717e-05,1506.2,1480,1300,1500
14.468422889709473,280,217,64,5.828524800373026e-05,1505.7,1480,1300,1500
14.520325899124146,281,209,60,6.209637357178341e-05,1504.9,1480,1300,1500
14.572375059127808,282,206,61,6.302388605281402e-05,1504.6,1480,1300,1500
14.62433409690857,283,198,57,6.688963210702341e-05,1503.8,1480,1300,1500
14.676269054412842,284,193,63,6.203473945409429e-05,1503.3,1480,1300,1500
14.728183031082153,285,189,66,5.6110425317023906e-05,1502.9,1480,1300,1500
14.780087947845459,286,186,64,5.6583488937927916e-05,1502.6,1480,1300,1500
14.83213996887207,287,188,60,5.699629524080935e-05,1502.8,1480,1300,1500
14.884061098098755,288,195,68,5.1030822616860586e-05,1503.5,1480,1300,1500
14.9359769821167,289,207,66,5.3304904051172706e-05,1504.7,1480,1300,1500
14.987888097763062,290,215,67,5.406574394463668e-05,1505.5,1480,1300,1500
15.039880990982056,291,231,65,5.872680291284943e-05,1507.1,1480,1300,1500
15.091801881790161,292,238,61,6.400409626216078e-05,1507.8,1480,1300,1500
15.143812894821167,293,250,65,6.260956674179814e-05,1509.0,1480,1300,1500
15.19572901725769,294,255,66,6.324310650139134e-05,1509.5,1480,1300,1500
15.247654914855957,295,261,64,6.574621959237344e-05,1510.1,1480,1300,1500
15.29957389831543,296,263,71,6.038647342995169e-05,1510.3,1480,1300,1500
15.351486921310425,297,264,75,5.86063412061185e-05,1510.4,1480,1300.0,1500
15.403531074523926,298,263,76,5.6465273856578205e-05,1510.3,1480,1298.0,1500
15.455661058425903,299,262,78,5.443954488540476e-05,1510.2,1480,1294.0,1500
15.507673978805542,300,259,76,5.401609679684546e-05,1509.9,1480,1298.0,1500
15.55967092514038,301,256,77,5.0080128205128203e-05,1509.6,1480,1296.0,1500
15.61169695854187,302,250,77,4.930966469428008e-05,1509.0,1480,1296.0,1500
15.66367793083191,303,244,69,5.576933801795773e-05,1508.4,1480,1300,1500
15.715776920318604,304,234,75,5.0553561498407566e-05,1507.4,1480,1300.0,1500
15.76801609992981,305,226,74,5.0505050505050505e-05,1506.6,1480,1300,1500
15.81994891166687,306,216,74,5.0505050505050505e-05,1505.6,1480,1300,1500
15.871869087219238,307,209,73,5.005005005005005e-05,1504.9,1480,1300,1500
15.92383098602295,308,199,71,4.996003197442046e-05,1503.9,1480,1300,1500
15.975733041763306,309,194,64,5.4978283577986696e-05,1503.4,1480,1300,1500
16.0276939868927,310,184,64,5.2328623757195185e-05,1502.4,1480,1300,1500
16.079612016677856,311,180,62,5.4421768707482996e-05,1502.0,1480,1300,1500
16.131532907485962,312,177,62,5.3265153936294876e-05,1501.7,1480,1300,1500
16.18346095085144,313,178,61,5.448997384481256e-05,1501.8,1480,1300,1500
16.235408067703247,314,183,66,5.0461724781753044e-05,1502.3,1480,1300,1500
16.28731393814087,315,193,65,5.192916861401049e-05,1503.3,1480,1300,1500
16.33926510810852,316,197,64,5.420935653493793e-05,1503.7,1480,1300,1500
16.391369104385376,317,209,57,6.44122383252818e-05,1504.9,1480,1300,1500
16.443315029144287,318,214,60,6.260956674179814e-05,1505.4,1480,1300,1500
16.495249032974243,319,223,57,6.787944610371979e-05,1506.3,1480,1300,1500
16.54718589782715,320,226,55,7.200460829493088e-05,1506.6,1480,1300,1500
16.599109888076782,321,231,53,7.652280379553107e-05,1507.1,1480,1300,1500
16.651060104370117,322,233,52,7.927699381639449e-05,1507.3,1480,1300,1500
16.70300006866455,323,233,52,7.99488327470419e-05,1507.3,1480,1300,1500
16.75489902496338,324,233,54,7.774840615767377e-05,1507.3,1480,1300,1500
16.80684804916382,325,233,56,7.24952878062926e-05,1507.3,1480,1300,1500
16.858750104904175,326,231,60,6.718624025799516e-05,1507.1,1480,1300,1500
16.911132097244263,327,230,66,6.015037593984962e-05,1507.0,1480,1300,1500
16.963068962097168,328,228,70,5.455537370430988e-05,1506.8,1480,1300,1500
17.015005111694336,329,226,72,5.073566717402334e-05,1506.6,1480,1300,1500
17.066921949386597,330,226,79,4.5246821410795895e-05,1506.6,1480,1292.0,1500
17.11893105506897,331,223,81,4.2603953646898434e-05,1506.3,1480,1288.0,1500
17.170923948287964,332,223,76,4.3580580493332174e-05,1506.3,1480,1298.0,1500
17.222954034805298,333,223,73,4.4746733488455345e-05,1506.3,1480,1300,1500
17.27486300468445,334,221,72,4.506128334534967e-05,1506.1,1480,1300,1500
17.326821088790894,335,221,75,4.35691878703381e-05,1506.1,1480,1300.0,1500
17.378828048706055,336,220,64,5.128205128205128e-05,1506.0,1480,1300,1500
17.43087601661682,337,220,64,5.202642942614848e-05,1506.0,1480,1300,1500
17.48288893699646,338,219,63,5.314625850340136e-05,1505.9,1480,1300,1500
17.53480887413025,339,218,60,5.652911249293386e-05,1505.8,1480,1300,1500
17.586711883544922,340,218,64,5.346164127238706e-05,1505.8,1480,1300,1500
17.6386399269104,341,216,59,5.917860101787194e-05,1505.6,1480,1300,1500
17.690567016601562,342,216,62,5.668934240362812e-05,1505.6,1480,1300,1500
17.742603063583374,343,216,60,5.94565669778227e-05,1505.6,1480,1300,1500
17.794562101364136,344,215,61,5.7660151069595805e-05,1505.5,1480,1300,1500
17.846510887145996,345,213,59,5.787037037037037e-05,1505.3,1480,1300,1500
17.898448944091797,346,213,61,5.4124269322364146e-05,1505.3,1480,1300,1500
17.950361967086792,347,208,57,5.574136008918618e-05,1504.8,1480,1300,1500
18.002502918243408,348,204,63,4.763719512195122e-05,1504.4,1480,1300,1500
18.054445028305054,349,202,53,5.478851632697787e-05,1504.2,1480,1300,1500
18.10635995864868,350,220,59,0.0008012820512820513,1506.0,1483.0128205128206,1300,1500
18.158376932144165,351,254,39,0.005,1509.4,1520,1300,1500
18.210275888442993,352,281,82,0.0022222222222222222,1512.1,1497.2222222222222,1286.0,1500
18.262420892715454,353,252,75,0.0044444444444444444,1509.2,1519.4444444444443,1300.0,1500
18.314518928527832,354,263,78,0.0017857142857142857,1510.3,1492.857142857143,1294.0,1500
18.366597890853882,355,173,45,0.002932551319648094,1501.3,1504.3255131964809,1300,1500
18.418624877929688,356,199,31,0.0018552875695732839,1503.9,1493.5528756957328,1300,1500
18.47062110900879,357,244,45,0.0008650519031141869,1508.4,1483.6505190311418,1300,1500
18.522701025009155,358,235,68,0.0021645021645021645,1507.5,1496.6450216450216,1300,1500
18.574685096740723,359,283,65,0.002457002457002457,1512.3,1499.5700245700245,1300,1500
18.626698970794678,360,262,66,0.0003448275862068965,1510.2,1480,1300,1500
18.678627967834473,361,217,54,9.819324430479184e-05,1505.7,1480,1300,1500
18.730560064315796,362,223,59,4.789272030651341e-05,1506.3,1480,1300,1500
18.782790899276733,363,228,56,5.709391949757351e-05,1506.8,1480,1300,1500
18.834714889526367,364,227,51,6.472491909385113e-05,1506.7,1480,1300,1500
18.88665795326233,365,230,56,6.366588145412873e-05,1507.0,1480,1300,1500
18.938551902770996,366,232,54,6.7842605156038e-05,1507.2,1480,1300,1500
18.990447998046875,367,233,54,6.887052341597796e-05,1507.3,1480,1300,1500
19.042507886886597,368,236,56,6.853070175438596e-05,1507.6,1480,1300,1500
19.094472885131836,369,237,57,6.841817186644773e-05,1507.7,1480,1300,1500
19.14642095565796,370,241,69,5.5370985603543746e-05,1508.1,1480,1300,1500
19.198343992233276,371,243,76,4.81000481000481e-05,1508.3,1480,1298.0,1500
19.250099897384644,372,248,86,4.0706667752177804e-05,1508.8,1480,1278.0,1500
19.302211046218872,373,247,91,3.722453841572365e-05,1508.7,1480,1268.0,1500
19.354192972183228,374,249,89,3.9067078173223425e-05,1508.9,1480,1272.0,1500
19.406205892562866,375,247,99,3.418452808258982e-05,1508.7,1480,1252.0,1500
19.458165884017944,376,247,98,3.4531579129113573e-05,1508.7,1480,1254.0,1500
19.510170936584473,377,247,88,3.869669530222119e-05,1508.7,1480,1274.0,1500
19.562252044677734,378,245,89,3.7037037037037037e-05,1508.5,1480,1272.0,1500
19.61427092552185,379,240,85,3.951319740793425e-05,1508.0,1480,1280.0,1500
19.666610956192017,380,232,76,4.6053237542599246e-05,1507.2,1480,1298.0,1500
19.718645095825195,381,225,71,5.141916906622789e-05,1506.5,1480,1300,1500
19.770596981048584,382,216,62,6.0606060606060605e-05,1505.6,1480,1300,1500
19.822686910629272,383,208,56,6.853070175438596e-05,1504.8,1480,1300,1500
19.874594926834106,384,206,55,7.093707881109456e-05,1504.6,1480,1300,1500
19.926528930664062,385,204,57,6.793478260869565e-05,1504.4,1480,1300,1500
19.978461027145386,386,205,62,5.9701492537313435e-05,1504.5,1480,1300,1500
20.030405044555664,387,210,70,5.06636943965954e-05,1505.0,1480,1300,1500
20.082519054412842,388,215,78,4.5495905368516835e-05,1505.5,1480,1294.0,1500
20.13451910018921,389,228,87,3.996003996003996e-05,1506.8,1480,1276.0,1500
20.186513900756836,390,235,90,3.7377588397996563e-05,1507.5,1480,1270.0,1500
20.238528966903687,391,242,90,3.564427018356799e-05,1508.2,1480,1270.0,1500
20.290497064590454,392,244,92,3.603603603603604e-05,1508.4,1480,1266.0,1500
20.342562913894653,393,245,87,3.787878787878788e-05,1508.5,1480,1276.0,1500
20.39461898803711,394,245,88,3.7415347775657576e-05,1508.5,1480,1274.0,1500
20.446610927581787,395,243,82,4.095004095004095e-05,1508.3,1480,1286.0,1500
20.498584032058716,396,240,75,4.6006624953993374e-05,1508.0,1480,1300.0,1500
20.55057406425476,397,232,63,5.8740601503759395e-05,1507.2,1480,1300,1500
20.6027090549469,398,228,57,6.793478260869565e-05,1506.8,1480,1300,1500
20.654653072357178,399,223,48,8.313934153641503e-05,1506.3,1480,1300,1500
20.706589937210083,400,220,46,8.64902266043937e-05,1506.0,1480,1300,1500
20.758480072021484,401,219,49,8.212203334154553e-05,1505.9,1480,1300,1500
20.810420036315918,402,219,55,7.030371203599551e-05,1505.9,1480,1300,1500
20.862432956695557,403,218,61,6.300403225806451e-05,1505.8,1480,1300,1500
20.91434597969055,404,220,72,5.26454330086865e-05,1506.0,1480,1300,1500
20.966248035430908,405,220,79,4.734848484848485e-05,1506.0,1480,1292.0,1500
21.01823902130127,406,223,82,4.5637093829864916e-05,1506.3,1480,1286.0,1500
21.070219039916992,407,225,79,4.734848484848485e-05,1506.5,1480,1292.0,1500
21.12229895591736,408,227,69,5.534034311012728e-05,1506.7,1480,1300,1500
21.17419695854187,409,228,62,6.299212598425197e-05,1506.8,1480,1300,1500
21.22611403465271,410,227,51,8.012820512820513e-05,1506.7,1480,1300,1500
21.27804207801819,411,226,45,9.37031484257871e-05,1506.6,1480,1300,1500
21.329983949661255,412,225,41,0.00010854227721697601,1506.5,1480,1300,1500
21.382186889648438,413,223,45,0.00011595547309833024,1506.3,1480,1300,1500
21.434128046035767,414,224,51,0.00010662117496534811,1506.4,1480,1300,1500
21.486042976379395,415,222,54,8.308408109006314e-05,1506.2,1480,1300,1500
21.53795289993286,416,222,64,6.153846153846154e-05,1506.2,1480,1300,1500
21.58986496925354,417,221,72,5.351027397260274e-05,1506.1,1480,1300,1500
21.641783952713013,418,221,82,4.5637093829864916e-05,1506.1,1480,1286.0,1500
21.693751096725464,419,221,89,4.138216428719222e-05,1506.1,1480,1272.0,1500
21.74574089050293,420,221,90,4.040077569489334e-05,1506.1,1480,1270.0,1500
21.797709941864014,421,221,90,3.952881650723377e-05,1506.1,1480,1270.0,1500
21.849726915359497,422,218,88,4.012841091492777e-05,1505.8,1480,1274.0,1500
21.901696920394897,423,210,82,4.302925989672978e-05,1505.0,1480,1286.0,1500
21.95367193222046,424,205,79,4.464285714285714e-05,1504.5,1480,1292.0,1500
22.00565195083618,425,197,73,4.792026068621813e-05,1503.7,1480,1300,1500
22.057557106018066,426,190,70,4.959333465582226e-05,1503.0,1480,1300,1500
22.109527111053467,427,180,67,5.252100840336135e-05,1502.0,1480,1300,1500
22.161407947540283,428,174,66,5.332480136511492e-05,1501.4,1480,1300,1500
22.213347911834717,429,168,67,5.329070077271516e-05,1500.8,1480,1300,1500
22.265249967575073,430,168,69,5.175715542673774e-05,1500.8,1480,1300,1500
22.317235946655273,431,174,69,5.0658561296859166e-05,1501.4,1480,1300,1500
22.369324922561646,432,184,69,4.961548002976929e-05,1502.4,1480,1300,1500
22.421322107315063,433,201,68,5.0339793606846214e-05,1504.1,1480,1300,1500
22.47358989715576,434,213,65,5.260942760942761e-05,1505.3,1480,1300,1500
22.525542974472046,435,232,67,5.486968449931413e-05,1507.2,1480,1300,1500
22.57746410369873,436,247,69,5.668934240362812e-05,1508.7,1480,1300,1500
22.629425048828125,437,255,72,5.6069526212503504e-05,1509.5,1480,1300,1500
22.681442975997925,438,260,75,5.575379125780553e-05,1510.0,1480,1300.0,1500
22.733468055725098,439,263,76,5.6465273856578205e-05,1510.3,1480,1298.0,1500
22.78547191619873,440,263,81,5.302226935312831e-05,1510.3,1480,1288.0,1500
22.837512016296387,441,262,81,5.211590577444236e-05,1510.2,1480,1288.0,1500
22.88950490951538,442,259,85,4.7655356462066336e-05,1509.9,1480,1280.0,1500
22.941484928131104,443,257,88,4.4485964678144046e-05,1509.7,1480,1274.0,1500
22.993457078933716,444,253,83,4.435573297848747e-05,1509.3,1480,1284.0,1500
23.04544711112976,445,245,89,3.990422984836392e-05,1508.5,1480,1272.0,1500
23.097418069839478,446,232,84,4.231908590774439e-05,1507.2,1480,1282.0,1500
23.149441957473755,447,221,77,4.645113340765515e-05,1506.1,1480,1296.0,1500
23.201427936553955,448,210,65,5.654509471303364e-05,1505.0,1480,1300,1500
23.253371000289917,449,205,54,7.047216349541931e-05,1504.5,1480,1300,1500
23.305301904678345,450,198,40,0.00010374520178441747,1503.8,1480,1300,1500
23.357239961624146,451,194,29,0.00014619883040935673,1503.4,1480,1300,1500
23.409173011779785,452,217,14,0.0006506180871828237,1505.7,1481.5061808718283,1300,1500
23.46118688583374,453,229,14,0.0029585798816568047,1506.9,1504.585798816568,1300,1500
23.513195991516113,454,233,25,0.008928571428571428,1507.3,1520,1300,1500
23.565088987350464,455,187,24,0.020833333333333332,1502.7,1520,1300,1500
23.616864919662476,456,,,,1500.0,1500.0,1250.0,1500
23.668456077575684,457,,,,1500.0,1500.0,1250.0,1500
23.72004008293152,458,,,,1500.0,1500.0,1250.0,1500
23.771682024002075,459,,,,1500.0,1500.0,1250.0,1500
23.823437929153442,460,253,49,0.025,1509.3,1520,1300,1500
23.875308990478516,461,257,64,0.0037593984962406013,1509.7,1512.593984962406,1300,1500
23.92733097076416,462,259,62,0.0006172839506172839,1509.9,1481.1728395061727,1300,1500
23.97931408882141,463,219,71,7.598206823189727e-05,1505.9,1480,1300,1500
24.031270027160645,464,220,73,5.1578295853105015e-05,1506.0,1480,1300,1500
24.083200931549072,465,224,89,3.9067078173223425e-05,1506.4,1480,1272.0,1500
24.135207891464233,466,229,95,3.449227373068433e-05,1506.9,1480,1260.0,1500
24.187208890914917,467,236,89,3.4940600978336826e-05,1507.6,1480,1272.0,1500
24.239232063293457,468,239,80,3.8578758535550326e-05,1507.9,1480,1290.0,1500
24.29123306274414,469,240,89,3.6310820624546116e-05,1508.0,1480,1272.0,1500
24.343223094940186,470,237,77,4.360718646432932e-05,1507.7,1480,1296.0,1500
24.3952419757843,471,232,62,6.0606060606060605e-05,1507.2,1480,1300,1500
24.447175979614258,472,230,48,8.247422680412371e-05,1507.0,1480,1300,1500
24.499088048934937,473,227,42,9.80392156862745e-05,1506.7,1480,1300,1500
24.55101203918457,474,223,37,0.00011299435028248587,1506.3,1480,1300,1500
24.602933883666992,475,220,39,0.00010775862068965517,1506.0,1480,1300,1500
24.654853105545044,476,217,42,0.00011005943209333039,1505.7,1480,1300,1500
24.706772089004517,477,216,45,8.837044892188053e-05,1505.6,1480,1300,1500
24.75870990753174,478,214,57,6.682705159048383e-05,1505.4,1480,1300,1500
24.810609102249146,479,212,67,5.52791597567717e-05,1505.2,1480,1300,1500
24.862601041793823,480,210,79,4.460502252553638e-05,1505.0,1480,1292.0,1500
24.91460108757019,481,209,84,4.10913872452334e-05,1504.9,1480,1282.0,1500
24.96658992767334,482,210,87,3.7627934978928356e-05,1505.0,1480,1276.0,1500
25.01862907409668,483,211,84,3.892868265337901e-05,1505.1,1480,1282.0,1500
25.07061195373535,484,213,79,4.139072847682119e-05,1505.3,1480,1292.0,1500
25.122687101364136,485,212,83,4.073485681697829e-05,1505.2,1480,1284.0,1500
25.17465901374817,486,210,73,4.792026068621813e-05,1505.0,1480,1300,1500
25.226577043533325,487,210,70,5.102301137813154e-05,1505.0,1480,1300,1500
25.2784481048584,488,208,66,5.4872695346795435e-05,1504.8,1480,1300,1500
25.330624103546143,489,208,66,5.6110425317023906e-05,1504.8,1480,1300,1500
25.382824897766113,490,209,68,5.488172987212557e-05,1504.9,1480,1300,1500
25.434746980667114,491,210,74,5.0461724781753044e-05,1505.0,1480,1300,1500
25.486649990081787,492,211,76,4.774637127578304e-05,1505.1,1480,1298.0,1500
25.53866195678711,493,214,86,4.0706667752177804e-05,1505.4,1480,1278.0,1500
25.59070611000061,494,217,76,4.447607187333215e-05,1505.7,1480,1298.0,1500
25.642765045166016,495,223,78,4.136675767353355e-05,1506.3,1480,1294.0,1500
25.694763898849487,496,227,78,4.0312827541723776e-05,1506.7,1480,1294.0,1500
25.746740102767944,497,228,81,3.907623773983041e-05,1506.8,1480,1288.0,1500
25.79877996444702,498,227,85,3.79737221842485e-05,1506.7,1480,1280.0,1500
25.851073026657104,499,224,90,3.663003663003663e-05,1506.4,1480,1270.0,1500
25.903116941452026,500,222,86,3.883193538365952e-05,1506.2,1480,1278.0,1500
25.95511293411255,501,218,87,3.945707070707071e-05,1505.8,1480,1276.0,1500
26.007102966308594,502,216,76,4.5075501464953795e-05,1505.6,1480,1298.0,1500
26.05912494659424,503,213,89,3.8314176245210727e-05,1505.3,1480,1272.0,1500
26.111167907714844,504,210,86,3.959141658088527e-05,1505.0,1480,1278.0,1500
26.163136959075928,505,207,77,4.449388209121246e-05,1504.7,1480,1296.0,1500
26.215107917785645,506,203,88,3.8744672607516464e-05,1504.3,1480,1274.0,1500
26.267117977142334,507,199,81,4.2052144659377626e-05,1503.9,1480,1288.0,1500
26.319132089614868,508,194,82,4.238186056367875e-05,1503.4,1480,1286.0,1500
26.371154069900513,509,189,80,4.257130693912303e-05,1502.9,1480,1290.0,1500
26.423182010650635,510,179,75,4.35691878703381e-05,1501.9,1480,1300.0,1500
26.475205898284912,511,173,76,4.1897100720630135e-05,1501.3,1480,1298.0,1500
26.527193069458008,512,163,67,4.743833017077799e-05,1500.3,1480,1300,1500
26.579073905944824,513,156,66,4.723219346306443e-05,1499.6,1480,1300,1500
26.63106894493103,514,146,66,5.478851632697787e-05,1498.6,1480,1300,1500
26.68314790725708,515,157,69,6.967670011148272e-05,1499.7,1480,1300,1500
26.735107898712158,516,162,50,0.0002881014116969173,1500.2,1480,1300,1500
26.787041902542114,517,195,87,0.001443001443001443,1503.5,1489.4300144300144,1276.0,1500
26.83910608291626,518,149,31,0.0007598784194528875,1498.9,1482.598784194529,1300,1500
26.891141891479492,519,179,34,0.000248015873015873,1501.9,1480,1300,1500
26.943021059036255,520,190,63,4.316298342541436e-05,1503.0,1480,1300,1500
26.994909048080444,521,201,69,3.952881650723377e-05,1504.1,1480,1300,1500
27.046813011169434,522,226,68,4.0709982087607885e-05,1506.6,1480,1300,1500
27.09872603416443,523,241,75,4.2452029206996094e-05,1508.1,1480,1300.0,1500
27.15081000328064,524,248,75,4.59896983075791e-05,1508.8,1480,1300.0,1500
27.20286798477173,525,252,78,4.683402023229674e-05,1509.2,1480,1294.0,1500
27.25462007522583,526,255,74,5.162622612287042e-05,1509.5,1480,1300,1500
27.306559085845947,527,256,81,4.763719512195122e-05,1509.6,1480,1288.0,1500
27.358568906784058,528,255,75,5.0999592003263974e-05,1509.5,1480,1300.0,1500
27.41060209274292,529,252,71,5.1062091503267975e-05,1509.2,1480,1300,1500
27.462630033493042,530,250,79,4.5574696928265424e-05,1509.0,1480,1292.0,1500
27.514657974243164,531,243,79,4.111842105263158e-05,1508.3,1480,1292.0,1500
27.566651105880737,532,237,75,4.191466174867969e-05,1507.7,1480,1300.0,1500
27.61862587928772,533,219,70,4.602780079167817e-05,1505.9,1480,1300,1500
27.670566082000732,534,204,72,4.337453914552158e-05,1504.4,1480,1300,1500
27.722601890563965,535,182,71,4.3981176056647754e-05,1502.2,1480,1300,1500
27.774549961090088,536,165,57,5.468963631391851e-05,1500.5,1480,1300,1500
27.826567888259888,537,166,43,0.0003465003465003465,1500.6,1480,1300,1500
27.87856101989746,538,102,71,0.002652519893899204,1494.2,1501.525198938992,1300,1500
27.930612087249756,539,87,70,0.0027548209366391185,1492.7,1502.5482093663911,1300,1500
27.98279309272766,540,112,107,0.0038461538461538464,1495.2,1513.4615384615386,1236.0,1500
28.034848928451538,541,172,98,0.009615384615384616,1501.2,1520,1254.0,1500
28.090275049209595,542,95,41,0.002777777777777778,1493.5,1502.7777777777778,1300,1500
28.142481088638306,543,150,24,0.0004578754578754579,1499.0,1480,1300,1500
28.19439196586609,544,184,67,5.597850425436632e-05,1502.4,1480,1300,1500
28.246325969696045,545,189,66,4.321147696828278e-05,1502.9,1480,1300,1500
28.298260927200317,546,212,69,4.207160587319618e-05,1505.2,1480,1300,1500
28.350234031677246,547,230,76,3.844675124951942e-05,1507.0,1480,1298.0,1500
28.402488946914673,548,245,77,4.272591326639607e-05,1508.5,1480,1296.0,1500
28.4544939994812,549,253,83,4.4420753375977256e-05,1509.3,1480,1284.0,1500
28.506503105163574,550,257,85,4.651162790697674e-05,1509.7,1480,1280.0,1500
28.558491945266724,551,261,83,5.031952900920847e-05,1510.1,1480,1284.0,1500
28.61049795150757,552,261,84,4.972403162448411e-05,1510.1,1480,1282.0,1500
28.662571907043457,553,260,84,4.861448711716091e-05,1510.0,1480,1282.0,1500
28.714565992355347,554,257,85,4.614248800295312e-05,1509.7,1480,1280.0,1500
28.766525983810425,555,254,81,4.6904315196998124e-05,1509.4,1480,1288.0,1500
28.818562030792236,556,248,74,5.128205128205128e-05,1508.8,1480,1300,1500
28.870486974716187,557,235,69,5.6205035971223025e-05,1507.5,1480,1300,1500
28.92252492904663,558,226,65,5.8271662490530857e-05,1506.6,1480,1300,1500
28.974438905715942,559,211,56,6.653802648213454e-05,1505.1,1480,1300,1500
29.026371002197266,560,201,54,7.111869710546903e-05,1504.1,1480,1300,1500
29.078294038772583,561,186,55,8.520064752492119e-05,1502.6,1480,1300,1500
29.130290985107422,562,174,58,0.000111000111000111,1501.4,1480,1300,1500
29.182363986968994,563,154,49,0.00010642826734780758,1499.4,1480,1300,1500
29.234292030334473,564,139,50,0.00012913223140495868,1497.9,1480,1300,1500
29.286235094070435,565,134,55,0.0008680555555555555,1497.4,1483.6805555555557,1300,1500
29.338265895843506,566,117,63,0.0018832391713747645,1495.7,1493.8323917137477,1300,1500
29.39034104347229,567,103,54,0.004830917874396135,1494.3,1520,1300,1500
29.44235396385193,568,116,112,0.009523809523809525,1495.6,1520,1226.0,1500
29.494329929351807,569,96,104,0.016666666666666666,1493.6,1520,1242.0,1500
29.546300888061523,570,73,96,0.037037037037037035,1491.3,1520,1258.0,1500
29.598267078399658,571,70,98,0.0125,1491.0,1520,1254.0,1500
29.65016198158264,572,103,127,0.030303030303030304,1494.3,1520,1200,1500
29.70227289199829,573,109,116,0.005681818181818182,1494.9,1520,1218.0,1500
29.754236936569214,574,156,122,0.0043859649122807015,1499.6,1518.859649122807,1206.0,1500
29.80630588531494,575,137,45,0.0125,1497.7,1520,1300,1500
29.858201026916504,576,140,45,0.041666666666666664,1498.0,1520,1300,1500
29.910106897354126,577,237,88,0.011904761904761904,1507.7,1520,1274.0,1500
29.962181091308594,578,251,73,0.003703703703703704,1509.1,1512.037037037037,1300,1500
30.0142080783844,579,261,55,0.00641025641025641,1510.1,1520,1300,1500
30.06607699394226,580,263,59,0.004464285714285714,1510.3,1519.642857142857,1300,1500
30.118058919906616,581,266,52,0.012987012987012988,1510.6,1520,1300,1500
30.169946908950806,582,273,50,0.05,1511.3,1520,1300,1500
30.221817016601562,583,233,37,0.06666666666666667,1507.3,1520,1300,1500
30.273732900619507,584,237,40,0.041666666666666664,1507.7,1520,1300,1500
30.325628995895386,585,239,45,0.02857142857142857,1507.9,1520,1300,1500
30.37740206718445,586,,,,1500.0,1500.0,1250.0,1500
30.429167985916138,587,241,49,0.0625,1508.1,1520,1300,1500
30.481056928634644,588,240,44,0.08333333333333333,1508.0,1520,1300,1500
30.532784938812256,589,,,,1500.0,1500.0,1250.0,1500
30.58435297012329,590,,,,1500.0,1500.0,1250.0,1500
30.635910987854004,591,,,,1500.0,1500.0,1250.0,1500
30.687494039535522,592,,,,1500.0,1500.0,1250.0,1500
30.73923110961914,593,239,47,0.027777777777777776,1507.9,1520,1300,1500
30.79114294052124,594,241,48,0.05,1508.1,1520,1300,1500
30.842972993850708,595,239,41,0.017857142857142856,1507.9,1520,1300,1500
30.894882917404175,596,239,41,0.03333333333333333,1507.9,1520,1300,1500
30.946769952774048,597,277,39,0.05555555555555555,1511.7,1520,1300,1500
30.998934984207153,598,278,36,0.027777777777777776,1511.8,1520,1300,1500
31.0508770942688,599,279,36,0.013888888888888888,1511.9,1520,1300,1500
31.10281801223755,600,209,52,0.05555555555555555,1504.9,1520,1300,1500
31.15470290184021,601,281,37,0.027777777777777776,1512.1,1520,1300,1500
31.206448078155518,602,,,,1500.0,1500.0,1250.0,1500
31.25821805000305,603,240,33,0.027777777777777776,1508.0,1520,1300,1500
31.30998992919922,604,,,,1500.0,1500.0,1250.0,1500
31.361636877059937,605,,,,1500.0,1500.0,1250.0,1500
31.413240909576416,606,,,,1500.0,1500.0,1250.0,1500
31.464858055114746,607,,,,1500.0,1500.0,1250.0,1500
31.51635503768921,608,,,,1500.0,1500.0,1250.0,1500
31.567681074142456,609,,,,1500.0,1500.0,1250.0,1500
31.618982076644897,610,,,,1500.0,1500.0,1250.0,1500
31.6703040599823,611,,,,1500.0,1500.0,1250.0,1500
31.72177004814148,612,,,,1500.0,1500.0,1250.0,1500
31.77306294441223,613,,,,1500.0,1500.0,1250.0,1500
31.8243510723114,614,,,,1500.0,1500.0,1250.0,1500
31.875663995742798,615,,,,1500.0,1500.0,1250.0,1500
31.926997900009155,616,,,,1500.0,1500.0,1250.0,1500
31.97829294204712,617,,,,1500.0,1500.0,1250.0,1500
32.02961707115173,618,,,,1500.0,1500.0,1250.0,1500
32.080909967422485,619,,,,1500.0,1500.0,1250.0,1500
32.13225793838501,620,,,,1500.0,1500.0,1250.0,1500
32.18371891975403,621,193,58,0.004166666666666667,1503.3,1516.6666666666667,1300,1500
32.23545289039612,622,194,37,0.00027085590465872155,1503.4,1480,1300,1500
32.28716707229614,623,213,34,0.00011234692731153803,1505.3,1480,1300,1500
32.339009046554565,624,209,35,0.00010442773600668337,1504.9,1480,1300,1500
32.390779972076416,625,198,39,8.169934640522875e-05,1503.8,1480,1300,1500
32.44251894950867,626,185,34,8.946144211844694e-05,1502.5,1480,1300,1500
32.49421691894531,627,161,52,0.00014208581983518045,1500.1,1480,1300,1500
32.54584503173828,628,171,40,0.005291005291005291,1501.1,1520,1300,1500
32.597448110580444,629,95,58,0.007936507936507936,1493.5,1520,1300,1500
32.649112939834595,630,149,83,0.004608294930875576,1498.9,1520,1284.0,1500
32.7008900642395,631,200,106,0.004166666666666667,1504.0,1516.6666666666667,1238.0,1500
32.75269889831543,632,83,85,0.03333333333333333,1492.3,1520,1280.0,1500
32.80434989929199,633,125,103,0.027777777777777776,1496.5,1520,1244.0,1500
32.856045961380005,634,188,95,0.013888888888888888,1502.8,1520,1260.0,1500
32.907732009887695,635,108,55,0.0125,1494.8,1520,1300,1500
32.959299087524414,636,163,61,0.0020833333333333333,1500.3,1495.8333333333333,1300,1500
33.01099491119385,637,153,19,0.00411522633744856,1499.3,1516.1522633744855,1300,1500
33.062700033187866,638,149,60,0.0012531328320802004,1498.9,1487.531328320802,1300,1500
33.11445093154907,639,167,29,0.0001806684733514002,1500.7,1480,1300,1500
33.16609501838684,640,187,44,7.802746566791511e-05,1502.7,1480,1300,1500
33.21771693229675,641,199,43,7.766387076731904e-05,1503.9,1480,1300,1500
33.26934194564819,642,212,44,8.35421888053467e-05,1505.2,1480,1300,1500
33.32102704048157,643,216,47,8.159934720522235e-05,1505.6,1480,1300,1500
33.3728289604187,644,189,80,0.0025,1502.9,1500.0,1290.0,1500
33.42456007003784,645,229,65,0.0043859649122807015,1506.9,1518.859649122807,1300,1500
33.47628903388977,646,234,77,0.00625,1507.4,1520,1296.0,1500
33.527950048446655,647,195,91,0.004166666666666667,1503.5,1516.6666666666667,1268.0,1500
33.57969903945923,648,217,76,0.00020755500207555002,1505.7,1480,1298.0,1500
33.6314001083374,649,239,67,7.7000077000077e-05,1507.9,1480,1300,1500
33.6830780506134,650,237,64,6.354047528275512e-05,1507.7,1480,1300,1500
33.73472809791565,651,233,68,5.574136008918618e-05,1507.3,1480,1300,1500
33.78633999824524,652,226,73,5.0020008003201284e-05,1506.6,1480,1300,1500
33.83795499801636,653,219,81,4.294057025077293e-05,1505.9,1480,1288.0,1500
33.88966393470764,654,206,85,4.280821917808219e-05,1504.6,1480,1280.0,1500
33.94135499000549,655,198,89,4.113364320677882e-05,1503.8,1480,1272.0,1500
33.993067026138306,656,185,80,4.702120656416044e-05,1502.5,1480,1290.0,1500
34.04508590698242,657,177,82,5.348737697903295e-05,1501.7,1480,1286.0,1500
34.09680199623108,658,175,82,4.794783275795934e-05,1501.5,1480,1286.0,1500
34.14851903915405,659,185,79,3.911750899702707e-05,1502.5,1480,1292.0,1500
34.2002329826355,660,191,64,4.777830864787386e-05,1503.1,1480,1300,1500
34.251965045928955,661,197,64,5.033725963958522e-05,1503.7,1480,1300,1500
34.303613901138306,662,199,58,5.844535359438925e-05,1503.9,1480,1300,1500
34.355242013931274,663,192,40,9.352787130564908e-05,1503.2,1480,1300,1500
34.40690898895264,664,186,29,0.00013550135501355014,1502.6,1480,1300,1500
34.45856690406799,665,176,32,0.00013736263736263736,1501.6,1480,1300,1500
34.51020288467407,666,172,21,0.00021734405564007825,1501.2,1480,1300,1500
34.561939001083374,667,137,27,0.0005963029218843172,1497.7,1480.963029218843,1300,1500
34.613662004470825,668,203,36,0.004166666666666667,1504.3,1516.6666666666667,1300,1500
34.66539192199707,669,190,46,0.00033068783068783067,1503.0,1480,1300,1500
34.71705389022827,670,181,53,0.00014190435646374344,1502.1,1480,1300,1500
34.7686710357666,671,174,64,6.253908692933083e-05,1501.4,1480,1300,1500
34.820292949676514,672,176,77,4.9691910157026436e-05,1501.6,1480,1296.0,1500
34.87210297584534,673,175,95,3.7470023980815345e-05,1501.5,1480,1260.0,1500
34.92384696006775,674,170,102,3.7000037000037e-05,1501.0,1480,1246.0,1500
34.97554588317871,675,160,110,3.696037847427558e-05,1500.0,1480,1230.0,1500
35.02723789215088,676,155,108,3.8221916446890644e-05,1499.5,1480,1234.0,1500
35.07897090911865,677,148,99,4.1897100720630135e-05,1498.8,1480,1252.0,1500
35.13081097602844,678,150,99,3.391670058336725e-05,1499.0,1480,1252.0,1500
35.18264698982239,679,142,75,4.415400918403391e-05,1498.2,1480,1300.0,1500
35.23439693450928,680,136,77,4.244482173174873e-05,1497.6,1480,1296.0,1500
35.28616404533386,681,121,62,6.807351940095303e-05,1496.1,1480,1300,1500
35.337831020355225,682,101,51,0.00025138260432378077,1494.1,1480,1300,1500
35.38952994346619,683,85,55,0.0003586800573888092,1492.5,1480,1300,1500
35.44116997718811,684,94,58,0.002564102564102564,1493.4,1500.6410256410256,1300,1500
35.492918968200684,685,84,74,0.0030303030303030303,1492.4,1505.3030303030303,1300,1500
35.54468393325806,686,108,89,0.0044444444444444444,1494.8,1519.4444444444443,1272.0,1500
35.5964469909668,687,100,83,0.003003003003003003,1494.0,1505.03003003003,1284.0,1500
35.64825892448425,688,92,75,0.0013227513227513227,1493.2,1488.2275132275133,1300.0,1500
35.700074911117554,689,102,54,0.0004901960784313725,1494.2,1480,1300,1500
35.75170087814331,690,132,51,6.934812760055478e-05,1497.2,1480,1300,1500
35.80334496498108,691,162,61,4.868312156175454e-05,1500.2,1480,1300,1500
35.85498404502869,692,197,71,4.018969536210915e-05,1503.7,1480,1300,1500
35.90669894218445,693,218,68,4.590735894963963e-05,1505.8,1480,1300,1500
35.95860409736633,694,243,72,4.723665564478035e-05,1508.3,1480,1300,1500
36.01042103767395,695,254,67,5.56947925368978e-05,1509.4,1480,1300,1500
36.0622079372406,696,271,63,7.953551260637875e-05,1511.1,1480,1300,1500
36.11385798454285,697,278,67,8.818342151675486e-05,1511.8,1480,1300,1500
36.165509939193726,698,285,67,0.00010356255178127589,1512.5,1480,1300,1500
36.21717405319214,699,286,67,0.00010893246187363834,1512.6,1480,1300,1500
36.26884698867798,700,287,67,0.0001105583195135434,1512.7,1480,1300,1500
36.32049798965454,701,286,67,0.00010893246187363834,1512.6,1480,1300,1500
36.37228488922119,702,285,63,0.00011160714285714285,1512.5,1480,1300,1500
36.42395806312561,703,283,71,9.324009324009324e-05,1512.3,1480,1300,1500
36.47567296028137,704,280,60,0.00010330578512396694,1512.0,1480,1300,1500
36.52752089500427,705,277,65,8.98069151324652e-05,1511.7,1480,1300,1500
36.579192876815796,706,273,57,9.37031484257871e-05,1511.3,1480,1300,1500
36.63096904754639,707,271,53,9.545628102329134e-05,1511.1,1480,1300,1500
36.68283295631409,708,267,48,0.00010107135637760258,1510.7,1480,1300,1500
36.73448204994202,709,264,46,0.0001032844453625284,1510.4,1480,1300,1500
36.78617000579834,710,260,43,0.00010926573426573427,1510.0,1480,1300,1500
36.83808898925781,711,259,44,0.00010908694229300753,1509.9,1480,1300,1500
36.8897500038147,712,255,45,0.00010064412238325282,1509.5,1480,1300,1500
36.94137692451477,713,252,48,9.110787172011662e-05,1509.2,1480,1300,1500
36.99303388595581,714,251,50,8.379420144126027e-05,1509.1,1480,1300,1500
37.044708013534546,715,247,56,7.374631268436578e-05,1508.7,1480,1300,1500
37.09641790390015,716,242,56,6.961849067112225e-05,1508.2,1480,1300,1500
37.14809203147888,717,237,58,6.574621959237344e-05,1507.7,1480,1300,1500
37.19977402687073,718,229,59,6.082725060827251e-05,1506.9,1480,1300,1500
37.25143098831177,719,221,62,5.435964340073929e-05,1506.1,1480,1300,1500
37.30311298370361,720,211,69,4.702120656416044e-05,1505.1,1480,1300,1500
37.354774951934814,721,204,66,4.845900368288428e-05,1504.4,1480,1300,1500
37.4064838886261,722,189,66,4.6700602437771445e-05,1502.9,1480,1300,1500
37.4581298828125,723,173,64,4.6418790326324094e-05,1501.3,1480,1300,1500
37.50975799560547,724,163,64,4.698144233027954e-05,1500.3,1480,1300,1500
37.56138205528259,725,144,57,5.7208237986270026e-05,1498.4,1480,1300,1500
37.61304306983948,726,140,60,6.189267809618123e-05,1498.0,1480,1300,1500
37.66472601890564,727,132,59,5.592841163310962e-05,1497.2,1480,1300,1500
37.71641802787781,728,129,46,7.964954201513341e-05,1496.9,1480,1300,1500
37.76806092262268,729,124,26,0.0001984126984126984,1496.4,1480,1300,1500
37.81967806816101,730,133,45,7.819831091648421e-05,1497.3,1480,1300,1500
37.87132906913757,731,151,57,5.864414731409805e-05,1499.1,1480,1300,1500
37.92301893234253,732,157,56,5.967299200381907e-05,1499.7,1480,1300,1500
37.974632024765015,733,170,58,5.6123021663486364e-05,1501.0,1480,1300,1500
38.02625894546509,734,178,60,5.509641873278237e-05,1501.8,1480,1300,1500
38.077929973602295,735,194,63,5.3564732979806093e-05,1503.4,1480,1300,1500
38.129600048065186,736,205,64,5.383290267011197e-05,1504.5,1480,1300,1500
38.1812539100647,737,221,63,5.918560606060606e-05,1506.1,1480,1300,1500
38.232922077178955,738,230,65,5.9175099118291023e-05,1507.0,1480,1300,1500
38.28459692001343,739,241,63,6.403688524590164e-05,1508.1,1480,1300,1500
38.33627009391785,740,247,60,6.94637399277577e-05,1508.7,1480,1300,1500
38.38798403739929,741,253,56,7.76276975624903e-05,1509.3,1480,1300,1500
38.43963003158569,742,254,52,8.658008658008658e-05,1509.4,1480,1300,1500
38.491267919540405,743,255,47,9.930486593843098e-05,1509.5,1480,1300,1500
38.54291605949402,744,254,44,0.00011697274535033338,1509.4,1480,1300,1500
38.59459710121155,745,291,56,0.0024154589371980675,1513.1,1499.1545893719806,1300,1500
38.64632296562195,746,246,51,0.03571428571428571,1508.6,1520,1300,1500
38.69781994819641,747,,,,1500.0,1500.0,1250.0,1500
38.74930810928345,748,285,51,0.047619047619047616,1512.5,1520,1300,1500
38.800841093063354,749,,,,1500.0,1500.0,1250.0,1500
38.85220503807068,750,,,,1500.0,1500.0,1250.0,1500
38.90352487564087,751,,,,1500.0,1500.0,1250.0,1500
38.95499300956726,752,278,52,0.030303030303030304,1511.8,1520,1300,1500
39.006640911102295,753,234,54,0.025,1507.4,1520,1300,1500
39.05824589729309,754,235,56,0.023809523809523808,1507.5,1520,1300,1500
39.10985207557678,755,282,65,0.017857142857142856,1512.2,1520,1300,1500
39.16145205497742,756,283,68,0.011904761904761904,1512.3,1520,1300,1500
39.213078022003174,757,284,74,0.004807692307692308,1512.4,1520,1300,1500
39.264729022979736,758,284,76,0.0029239766081871343,1512.4,1504.2397660818713,1298.0,1500
39.31655287742615,759,285,75,0.0010256410256410256,1512.5,1485.2564102564102,1300.0,1500
39.36850690841675,760,204,70,0.00045248868778280545,1504.4,1480,1300,1500
39.4202880859375,761,243,56,8.509189925119128e-05,1508.3,1480,1300,1500
39.47236490249634,762,242,56,7.76276975624903e-05,1508.2,1480,1300,1500
39.52408504486084,763,242,58,7.243227582210633e-05,1508.2,1480,1300,1500
39.57574009895325,764,242,61,6.948787436592315e-05,1508.2,1480,1300,1500
39.6273980140686,765,241,62,6.779661016949152e-05,1508.1,1480,1300,1500
39.679091930389404,766,241,62,6.669334400426837e-05,1508.1,1480,1300,1500
39.73108696937561,767,241,63,6.561679790026247e-05,1508.1,1480,1300,1500
39.782756090164185,768,240,64,6.459948320413436e-05,1508.0,1480,1300,1500
39.83440089225769,769,241,64,6.357279084551812e-05,1508.1,1480,1300,1500
39.88605308532715,770,241,66,6.112843083318051e-05,1508.1,1480,1300,1500
39.93769407272339,771,241,66,6.116956202593589e-05,1508.1,1480,1300,1500
39.98937487602234,772,241,68,5.9343659130021956e-05,1508.1,1480,1300,1500
40.04120588302612,773,241,68,5.983008256551394e-05,1508.1,1480,1300,1500
40.09287405014038,774,241,68,5.9343659130021956e-05,1508.1,1480,1300,1500
40.14452505111694,775,241,67,5.9780009564801534e-05,1508.1,1480,1300,1500
40.19616508483887,776,240,67,6.0222824450466725e-05,1508.0,1480,1300,1500
40.247803926467896,777,240,67,5.9780009564801534e-05,1508.0,1480,1300,1500
40.29949998855591,778,240,66,6.067224851352991e-05,1508.0,1480,1300,1500
40.351239919662476,779,240,66,6.116956202593589e-05,1508.0,1480,1300,1500
40.40299892425537,780,240,66,6.116956202593589e-05,1508.0,1480,1300,1500
40.454684019088745,781,240,67,6.0222824450466725e-05,1508.0,1480,1300,1500
40.506479024887085,782,240,66,6.067224851352991e-05,1508.0,1480,1300,1500
40.55815505981445,783,241,66,6.067224851352991e-05,1508.1,1480,1300,1500
40.60979604721069,784,241,67,6.0222824450466725e-05,1508.1,1480,1300,1500
40.661449909210205,785,240,67,5.973715651135006e-05,1508.0,1480,1300,1500
40.71310091018677,786,239,67,5.789717461787865e-05,1507.9,1480,1300,1500
40.76474189758301,787,238,68,5.702554744525547e-05,1507.8,1480,1300,1500
40.81640410423279,788,237,68,5.614823133071308e-05,1507.7,1480,1300,1500
40.868069887161255,789,236,68,5.531585352361987e-05,1507.6,1480,1300,1500
40.91972208023071,790,234,68,5.447216472382613e-05,1507.4,1480,1300,1500
40.97135806083679,791,234,70,5.292685508627077e-05,1507.4,1480,1300,1500
41.02301788330078,792,232,71,5.104384666428462e-05,1507.2,1480,1300,1500
41.07467198371887,793,228,69,4.996003197442046e-05,1506.8,1480,1300,1500
41.126296043395996,794,224,68,4.929508035098097e-05,1506.4,1480,1300,1500
41.1779260635376,795,219,66,4.882335709403378e-05,1505.9,1480,1300,1500
41.229564905166626,796,209,70,4.2468254979402894e-05,1504.9,1480,1300,1500
41.281259059906006,797,202,68,4.1710114702815434e-05,1504.2,1480,1300,1500
41.3329439163208,798,183,62,4.360718646432932e-05,1502.3,1480,1300,1500
41.38463497161865,799,170,77,5.515719801434087e-05,1501.0,1480,1296.0,1500
41.436320066452026,800,133,44,0.0001763668430335097,1497.3,1480,1300,1500
