time,frame,x,y,size_inv,roll,pitch,thrust,yaw
0.00017499923706054688,1,137,60,0.004629629629629629,1497.7,1490.0,1415,1500
0.021361112594604492,2,137,60,0.004629629629629629,1497.7,1490.0,1415,1500
0.04227805137634277,3,137,60,0.004629629629629629,1497.7,1490.0,1415,1500
0.06313395500183105,4,137,60,0.004629629629629629,1497.7,1490.0,1415,1500
0.08401012420654297,5,137,60,0.004629629629629629,1497.7,1490.0,1415,1500
0.10479211807250977,6,137,60,0.004629629629629629,1497.7,1490.0,1415,1500
0.12561297416687012,7,137,60,0.004629629629629629,1497.7,1490.0,1415,1500
0.14638805389404297,8,137,60,0.004629629629629629,1497.7,1490.0,1415,1500
0.16713500022888184,9,138,60,0.0043859649122807015,1497.8,1485.1267056530214,1415,1500
0.1878950595855713,10,138,60,0.005952380952380952,1497.8,1516.4550264550264,1415,1500
0.20876407623291016,11,138,60,0.0043859649122807015,1497.8,1485.1267056530214,1415,1500
0.22972917556762695,12,137,60,0.004629629629629629,1497.7,1490.0,1415,1500
0.25064802169799805,13,137,60,0.004629629629629629,1497.7,1490.0,1415,1500
0.27155208587646484,14,138,60,0.005952380952380952,1497.8,1516.4550264550264,1415,1500
0.2924771308898926,15,137,60,0.005050505050505051,1497.7,1498.4175084175085,1415,1500
0.3133890628814697,16,137,60,0.005050505050505051,1497.7,1498.4175084175085,1415,1500
0.3343040943145752,17,139,60,0.006493506493506494,1497.9,1527.2775372775372,1415,1500
0.3552060127258301,18,139,59,0.0043859649122807015,1497.9,1485.1267056530214,1415,1500
0.3761169910430908,19,138,59,0.005050505050505051,1497.8,1498.4175084175085,1415,1500
0.39701318740844727,20,140,59,0.006493506493506494,1498.0,1527.2775372775372,1415,1500
0.41791510581970215,21,141,59,0.006060606060606061,1498.1,1518.6195286195286,1415,1500
0.4389040470123291,22,141,59,0.007142857142857143,1498.1,1530,1415,1500
0.4597911834716797,23,141,60,0.005555555555555556,1498.1,1508.5185185185185,1415,1500
0.4807150363922119,24,144,60,0.005555555555555556,1498.4,1508.5185185185185,1415,1500
0.5016181468963623,25,144,60,0.005555555555555556,1498.4,1508.5185185185185,1415,1500
0.5225231647491455,26,143,59,0.006493506493506494,1498.3,1527.2775372775372,1415,1500
0.5434410572052002,27,143,58,0.007142857142857143,1498.3,1530,1415,1500
0.5643031597137451,28,143,58,0.007142857142857143,1498.3,1530,1415,1500
0.5851631164550781,29,143,59,0.006172839506172839,1498.3,1520.8641975308642,1415,1500
0.6060781478881836,30,145,60,0.005681818181818182,1498.5,1511.0437710437711,1415,1500
0.626971960067749,31,145,61,0.004629629629629629,1498.5,1490.0,1415,1500
0.6478660106658936,32,145,61,0.005050505050505051,1498.5,1498.4175084175085,1415,1500
0.6688311100006104,33,145,60,0.005050505050505051,1498.5,1498.4175084175085,1415,1500
0.6897411346435547,34,145,59,0.004329004329004329,1498.5,1483.987493987494,1415,1500
0.7106530666351318,35,146,58,0.006666666666666667,1498.6,1530,1415,1500
0.731518030166626,36,146,60,0.00625,1498.6,1522.4074074074074,1415,1500
0.7524330615997314,37,146,63,0.005555555555555556,1498.6,1508.5185185185185,1415,1500
0.7733399868011475,38,144,66,0.006493506493506494,1498.4,1527.2775372775372,1415,1500
0.7942550182342529,39,143,67,0.005050505050505051,1498.3,1498.4175084175085,1415,1500
0.8151800632476807,40,144,66,0.005952380952380952,1498.4,1516.4550264550264,1415,1500
0.8360860347747803,41,144,66,0.004545454545454545,1498.4,1488.3164983164984,1415,1500
0.8569719791412354,42,144,63,0.007142857142857143,1498.4,1530,1415,1500
0.8778390884399414,43,145,64,0.006060606060606061,1498.5,1518.6195286195286,1415,1500
0.8988080024719238,44,145,66,0.005050505050505051,1498.5,1498.4175084175085,1415,1500
0.9197211265563965,45,145,67,0.005050505050505051,1498.5,1498.4175084175085,1415,1500
0.9406299591064453,46,145,68,0.005050505050505051,1498.5,1498.4175084175085,1415,1500
0.9615271091461182,47,144,69,0.004329004329004329,1498.4,1483.987493987494,1415,1500
0.9824371337890625,48,142,67,0.005555555555555556,1498.2,1508.5185185185185,1415,1500
1.0033810138702393,49,145,68,0.005050505050505051,1498.5,1498.4175084175085,1415,1500
1.0245370864868164,50,144,70,0.005291005291005291,1498.4,1503.2275132275133,1415,1500
1.045478105545044,51,144,71,0.007142857142857143,1498.4,1530,1415,1500
1.066349983215332,52,144,73,0.006493506493506494,1498.4,1527.2775372775372,1415,1500
1.0872440338134766,53,145,73,0.005050505050505051,1498.5,1498.4175084175085,1415,1500
1.1081831455230713,54,143,73,0.005952380952380952,1498.3,1516.4550264550264,1415,1500
1.129127025604248,55,143,73,0.004329004329004329,1498.3,1483.987493987494,1415,1500
1.15004301071167,56,144,71,0.004761904761904762,1498.4,1492.6455026455026,1415,1500
1.1709511280059814,57,145,71,0.005555555555555556,1498.5,1508.5185185185185,1415,1500
1.1919209957122803,58,145,71,0.005555555555555556,1498.5,1508.5185185185185,1415,1500
1.2130391597747803,59,145,73,0.005050505050505051,1498.5,1498.4175084175085,1415,1500
1.2339839935302734,60,145,75,0.005050505050505051,1498.5,1498.4175084175085,1415,1500
1.25490403175354,61,144,77,0.005050505050505051,1498.4,1498.4175084175085,1415,1500
1.2759521007537842,62,144,77,0.004629629629629629,1498.4,1490.0,1415,1500
1.2975990772247314,63,142,78,0.004329004329004329,1498.2,1483.987493987494,1415,1500
1.3193161487579346,64,142,78,0.004329004329004329,1498.2,1483.987493987494,1415,1500
1.3409149646759033,65,142,77,0.004329004329004329,1498.2,1483.987493987494,1415,1500
1.362511157989502,66,143,78,0.005050505050505051,1498.3,1498.4175084175085,1415,1500
1.3841021060943604,67,143,79,0.004629629629629629,1498.3,1490.0,1415,1500
1.405677080154419,68,142,81,0.004629629629629629,1498.2,1490.0,1415,1500
1.4272589683532715,69,142,83,0.004629629629629629,1498.2,1490.0,1415,1500
1.4488060474395752,70,141,85,0.004629629629629629,1498.1,1490.0,1415,1500
1.470339059829712,71,140,84,0.003787878787878788,1498.0,1473.1649831649831,1415,1500
1.492009162902832,72,141,84,0.004629629629629629,1498.1,1490.0,1415,1500
1.5135879516601562,73,141,84,0.005050505050505051,1498.1,1498.4175084175085,1415,1500
1.5351850986480713,74,140,84,0.003968253968253968,1498.0,1476.7724867724867,1415,1500
1.5568180084228516,75,141,85,0.0043859649122807015,1498.1,1485.1267056530214,1415,1500
1.5784080028533936,76,140,87,0.005050505050505051,1498.0,1498.4175084175085,1415,1500
1.6000020503997803,77,138,89,0.004132231404958678,1497.8,1480.052035506581,1415,1500
1.6216089725494385,78,138,89,0.003787878787878788,1497.8,1473.1649831649831,1415,1500
1.64320707321167,79,139,90,0.004048582995951417,1497.9,1478.3790673264357,1415,1500
1.6648571491241455,80,138,90,0.004273504273504274,1497.8,1482.8774928774928,1415,1500
1.6867210865020752,81,138,90,0.004629629629629629,1497.8,1490.0,1415,1500
1.7084159851074219,82,138,91,0.005050505050505051,1497.8,1498.4175084175085,1415,1500
1.7300541400909424,83,138,91,0.005050505050505051,1497.8,1498.4175084175085,1415,1500
1.7516441345214844,84,138,92,0.0043859649122807015,1497.8,1485.1267056530214,1415,1500
1.7732281684875488,85,137,92,0.004629629629629629,1497.7,1490.0,1415,1500
1.7948391437530518,86,136,92,0.004273504273504274,1497.6,1482.8774928774928,1415,1500
1.8164710998535156,87,136,91,0.004784688995215311,1497.6,1493.1011873117136,1415,1500
1.8380680084228516,88,136,90,0.005050505050505051,1497.6,1498.4175084175085,1415,1500
1.859766960144043,89,136,90,0.004273504273504274,1497.6,1482.8774928774928,1415,1500
1.8813550472259521,90,135,90,0.003968253968253968,1497.5,1476.7724867724867,1415,1500
1.9029500484466553,91,135,91,0.0037593984962406013,1497.5,1472.5953773322194,1415,1500
1.9245731830596924,92,133,91,0.003787878787878788,1497.3,1473.1649831649831,1415,1500
1.946148157119751,93,134,92,0.004273504273504274,1497.4,1482.8774928774928,1415,1500
1.9677271842956543,94,133,91,0.004132231404958678,1497.3,1480.052035506581,1415,1500
1.9895470142364502,95,135,91,0.004784688995215311,1497.5,1493.1011873117136,1415,1500
2.011212110519409,96,133,92,0.004629629629629629,1497.3,1490.0,1415,1500
2.032809019088745,97,133,93,0.004629629629629629,1497.3,1490.0,1414.0,1500
2.054457187652588,98,133,92,0.004629629629629629,1497.3,1490.0,1415,1500
2.0855350494384766,99,133,91,0.004629629629629629,1497.3,1490.0,1415,1500
2.107253074645996,100,133,90,0.0043859649122807015,1497.3,1485.1267056530214,1415,1500
2.1288809776306152,101,131,89,0.003787878787878788,1497.1,1473.1649831649831,1415,1500
2.1504809856414795,102,132,88,0.004629629629629629,1497.2,1490.0,1415,1500
2.1720480918884277,103,132,88,0.005050505050505051,1497.2,1498.4175084175085,1415,1500
2.193660020828247,104,131,87,0.003787878787878788,1497.1,1473.1649831649831,1415,1500
2.21528697013855,105,133,88,0.004048582995951417,1497.3,1478.3790673264357,1415,1500
2.236894130706787,106,132,88,0.004048582995951417,1497.2,1478.3790673264357,1415,1500
2.258484125137329,107,131,87,0.004048582995951417,1497.1,1478.3790673264357,1415,1500
2.280071973800659,108,129,85,0.004132231404958678,1496.9,1480.052035506581,1415,1500
2.3017280101776123,109,130,84,0.0036231884057971015,1497.0,1469.8711755233494,1415,1500
2.323333978652954,110,131,85,0.004048582995951417,1497.1,1478.3790673264357,1415,1500
2.3449270725250244,111,131,86,0.004048582995951417,1497.1,1478.3790673264357,1415,1500
2.3665051460266113,112,130,87,0.004048582995951417,1497.0,1478.3790673264357,1415,1500
2.3880960941314697,113,130,87,0.004048582995951417,1497.0,1478.3790673264357,1415,1500
2.4098241329193115,114,128,86,0.003787878787878788,1496.8,1473.1649831649831,1415,1500
2.4314231872558594,115,129,86,0.004629629629629629,1496.9,1490.0,1415,1500
2.453003168106079,116,128,85,0.004132231404958678,1496.8,1480.052035506581,1415,1500
2.474593162536621,117,129,84,0.004629629629629629,1496.9,1490.0,1415,1500
2.4961681365966797,118,129,84,0.0037593984962406013,1496.9,1472.5953773322194,1415,1500
2.5177621841430664,119,128,84,0.004273504273504274,1496.8,1482.8774928774928,1415,1500
2.539492130279541,120,128,82,0.003952569169960474,1496.8,1476.458790806617,1415,1500
2.5611040592193604,121,129,81,0.005050505050505051,1496.9,1498.4175084175085,1415,1500
2.582705020904541,122,128,80,0.0034965034965034965,1496.8,1467.3374773374774,1415,1500
2.6043100357055664,123,129,79,0.0037593984962406013,1496.9,1472.5953773322194,1415,1500
2.6259140968322754,124,128,80,0.004048582995951417,1496.8,1478.3790673264357,1415,1500
2.6475090980529785,125,126,78,0.003787878787878788,1496.6,1473.1649831649831,1415,1500
2.6691150665283203,126,126,76,0.003787878787878788,1496.6,1473.1649831649831,1415,1500
2.690744161605835,127,127,75,0.003787878787878788,1496.7,1473.1649831649831,1415,1500
2.7123420238494873,128,129,75,0.004048582995951417,1496.9,1478.3790673264357,1415,1500
2.733927011489868,129,127,75,0.0036231884057971015,1496.7,1469.8711755233494,1415,1500
2.755510091781616,130,128,76,0.004629629629629629,1496.8,1490.0,1415,1500
2.7770800590515137,131,128,76,0.004629629629629629,1496.8,1490.0,1415,1500
2.798689126968384,132,129,76,0.004048582995951417,1496.9,1478.3790673264357,1415,1500
2.820302963256836,133,127,76,0.0034965034965034965,1496.7,1467.3374773374774,1415,1500
2.84189510345459,134,128,75,0.004273504273504274,1496.8,1482.8774928774928,1415,1500
2.8634870052337646,135,129,73,0.0043859649122807015,1496.9,1485.1267056530214,1415,1500
2.8850879669189453,136,127,72,0.004132231404958678,1496.7,1480.052035506581,1415,1500
2.9066879749298096,137,127,72,0.004132231404958678,1496.7,1480.052035506581,1415,1500
2.928331136703491,138,129,72,0.0043859649122807015,1496.9,1485.1267056530214,1415,1500
2.9499659538269043,139,128,73,0.0034965034965034965,1496.8,1467.3374773374774,1415,1500
2.971560001373291,140,129,74,0.004273504273504274,1496.9,1482.8774928774928,1415,1500
2.9932150840759277,141,129,73,0.004629629629629629,1496.9,1490.0,1415,1500
3.0147950649261475,142,129,72,0.004273504273504274,1496.9,1482.8774928774928,1415,1500
3.0363869667053223,143,129,72,0.0043859649122807015,1496.9,1485.1267056530214,1415,1500
3.0579841136932373,144,127,73,0.004132231404958678,1496.7,1480.052035506581,1415,1500
3.0796799659729004,145,129,73,0.004629629629629629,1496.9,1490.0,1415,1500
3.1012790203094482,146,129,74,0.0043859649122807015,1496.9,1485.1267056530214,1415,1500
3.123183012008667,147,129,75,0.004048582995951417,1496.9,1478.3790673264357,1415,1500
3.1448001861572266,148,128,76,0.004273504273504274,1496.8,1482.8774928774928,1415,1500
3.1663830280303955,149,128,76,0.0043859649122807015,1496.8,1485.1267056530214,1415,1500
3.1879711151123047,150,127,75,0.004545454545454545,1496.7,1488.3164983164984,1415,1500
3.209674119949341,151,127,76,0.004545454545454545,1496.7,1488.3164983164984,1415,1500
3.2312750816345215,152,127,77,0.003787878787878788,1496.7,1473.1649831649831,1415,1500
3.252856969833374,153,128,78,0.004048582995951417,1496.8,1478.3790673264357,1415,1500
3.274444103240967,154,127,79,0.003663003663003663,1496.7,1470.6674806674807,1415,1500
3.2960879802703857,155,128,80,0.004784688995215311,1496.8,1493.1011873117136,1415,1500
3.317697048187256,156,128,80,0.005050505050505051,1496.8,1498.4175084175085,1415,1500
3.3393821716308594,157,128,81,0.005050505050505051,1496.8,1498.4175084175085,1415,1500
3.360985040664673,158,128,83,0.004784688995215311,1496.8,1493.1011873117136,1415,1500
3.382578134536743,159,128,82,0.005050505050505051,1496.8,1498.4175084175085,1415,1500
3.404176950454712,160,129,82,0.004784688995215311,1496.9,1493.1011873117136,1415,1500
3.42576003074646,161,129,81,0.004784688995215311,1496.9,1493.1011873117136,1415,1500
3.4473490715026855,162,129,79,0.0043859649122807015,1496.9,1485.1267056530214,1415,1500
3.4689300060272217,163,128,79,0.005050505050505051,1496.8,1498.4175084175085,1415,1500
3.4905190467834473,164,129,79,0.005050505050505051,1496.9,1498.4175084175085,1415,1500
3.5121140480041504,165,129,80,0.004629629629629629,1496.9,1490.0,1415,1500
3.5336761474609375,166,129,81,0.004629629629629629,1496.9,1490.0,1415,1500
3.5552620887756348,167,129,83,0.005050505050505051,1496.9,1498.4175084175085,1415,1500
3.5768511295318604,168,129,83,0.005050505050505051,1496.9,1498.4175084175085,1415,1500
3.5984439849853516,169,129,82,0.005050505050505051,1496.9,1498.4175084175085,1415,1500
3.620033025741577,170,128,82,0.004329004329004329,1496.8,1483.987493987494,1415,1500
3.641623020172119,171,129,81,0.005555555555555556,1496.9,1508.5185185185185,1415,1500
3.663203001022339,172,128,81,0.004132231404958678,1496.8,1480.052035506581,1415,1500
3.6847779750823975,173,130,81,0.005555555555555556,1497.0,1508.5185185185185,1415,1500
3.706382989883423,174,130,82,0.005050505050505051,1497.0,1498.4175084175085,1415,1500
3.7279551029205322,175,129,82,0.005050505050505051,1496.9,1498.4175084175085,1415,1500
3.749662160873413,176,130,82,0.005050505050505051,1497.0,1498.4175084175085,1415,1500
3.771252155303955,177,129,82,0.004329004329004329,1496.9,1483.987493987494,1415,1500
3.792860984802246,178,131,81,0.005050505050505051,1497.1,1498.4175084175085,1415,1500
3.814484119415283,179,131,80,0.0043859649122807015,1497.1,1485.1267056530214,1415,1500
3.8360869884490967,180,130,80,0.004629629629629629,1497.0,1490.0,1415,1500
3.857652187347412,181,130,80,0.005555555555555556,1497.0,1508.5185185185185,1415,1500
3.879348039627075,182,130,81,0.004329004329004329,1497.0,1483.987493987494,1415,1500
3.9009530544281006,183,132,81,0.004629629629629629,1497.2,1490.0,1415,1500
3.9225270748138428,184,131,82,0.004629629629629629,1497.1,1490.0,1415,1500
3.9441030025482178,185,130,82,0.007142857142857143,1497.0,1530,1415,1500
3.965610980987549,186,130,81,0.005555555555555556,1497.0,1508.5185185185185,1415,1500
3.987213134765625,187,131,81,0.007142857142857143,1497.1,1530,1415,1500
4.008774042129517,188,131,81,0.005050505050505051,1497.1,1498.4175084175085,1415,1500
4.030364036560059,189,132,80,0.006493506493506494,1497.2,1527.2775372775372,1415,1500
4.051964044570923,190,131,78,0.005050505050505051,1497.1,1498.4175084175085,1415,1500
4.073560953140259,191,133,77,0.006060606060606061,1497.3,1518.6195286195286,1415,1500
4.095158100128174,192,132,76,0.006493506493506494,1497.2,1527.2775372775372,1415,1500
4.11673903465271,193,133,75,0.006493506493506494,1497.3,1527.2775372775372,1415,1500
4.138360023498535,194,132,74,0.005555555555555556,1497.2,1508.5185185185185,1415,1500
4.1602959632873535,195,134,73,0.007142857142857143,1497.4,1530,1415,1500
4.1818530559539795,196,134,72,0.007142857142857143,1497.4,1530,1415,1500
4.203413963317871,197,134,71,0.007142857142857143,1497.4,1530,1415,1500
4.224935054779053,198,135,70,0.006060606060606061,1497.5,1518.6195286195286,1415,1500
4.246531009674072,199,135,68,0.006666666666666667,1497.5,1530,1415,1500
4.268047094345093,200,135,66,0.007142857142857143,1497.5,1530,1415,1500
4.289811134338379,201,135,65,0.006493506493506494,1497.5,1527.2775372775372,1415,1500
4.311421155929565,202,135,63,0.007142857142857143,1497.5,1530,1415,1500
4.332934141159058,203,136,62,0.007142857142857143,1497.6,1530,1415,1500
4.3544371128082275,204,137,60,0.006666666666666667,1497.7,1530,1415,1500
4.37595796585083,205,135,58,0.005555555555555556,1497.5,1508.5185185185185,1415,1500
4.3975629806518555,206,137,57,0.007936507936507936,1497.7,1530,1415,1500
4.41907811164856,207,137,55,0.007142857142857143,1497.7,1530,1415,1500
4.440590143203735,208,136,54,0.005050505050505051,1497.6,1498.4175084175085,1415,1500
4.462169170379639,209,137,54,0.006493506493506494,1497.7,1527.2775372775372,1415,1500
4.4837610721588135,210,137,54,0.006060606060606061,1497.7,1518.6195286195286,1415,1500
4.5053551197052,211,137,54,0.006493506493506494,1497.7,1527.2775372775372,1415,1500
4.526944160461426,212,136,53,0.005050505050505051,1497.6,1498.4175084175085,1415,1500
4.548537015914917,213,137,52,0.007142857142857143,1497.7,1530,1415,1500
4.570064067840576,214,137,51,0.005555555555555556,1497.7,1508.5185185185185,1415,1500
4.591679096221924,215,138,50,0.005555555555555556,1497.8,1508.5185185185185,1415,1500
4.613270044326782,216,139,50,0.005681818181818182,1497.9,1511.0437710437711,1415,1500
4.634855031967163,217,139,49,0.006060606060606061,1497.9,1518.6195286195286,1415,1500
4.6564249992370605,218,139,48,0.006060606060606061,1497.9,1518.6195286195286,1415,1500
4.677999973297119,219,138,48,0.006493506493506494,1497.8,1527.2775372775372,1415,1500
4.699716091156006,220,139,48,0.006060606060606061,1497.9,1518.6195286195286,1415,1500
4.721311092376709,221,139,47,0.006060606060606061,1497.9,1518.6195286195286,1415,1500
4.742897987365723,222,138,47,0.006493506493506494,1497.8,1527.2775372775372,1415,1500
4.764469146728516,223,138,46,0.006172839506172839,1497.8,1520.8641975308642,1415,1500
4.786056995391846,224,140,43,0.007407407407407408,1498.0,1530,1415,1500
4.807621955871582,225,140,41,0.007142857142857143,1498.0,1530,1415,1500
4.829143047332764,226,139,40,0.005555555555555556,1497.9,1508.5185185185185,1415,1500
4.850746154785156,227,141,39,0.00625,1498.1,1522.4074074074074,1415,1500
4.872323036193848,228,140,38,0.005050505050505051,1498.0,1498.4175084175085,1415,1500
4.89391016960144,229,141,37,0.005681818181818182,1498.1,1511.0437710437711,1415,1500
4.91547703742981,230,141,35,0.007407407407407408,1498.1,1530,1415,1500
4.936922073364258,231,140,34,0.006172839506172839,1498.0,1520.8641975308642,1415,1500
4.958438158035278,232,141,34,0.005555555555555556,1498.1,1508.5185185185185,1415,1500
4.9798901081085205,233,141,34,0.005555555555555556,1498.1,1508.5185185185185,1415,1500
5.001321077346802,234,142,34,0.005555555555555556,1498.2,1508.5185185185185,1415,1500
5.022716999053955,235,144,33,0.007407407407407408,1498.4,1530,1415,1500
5.044100046157837,236,142,32,0.006172839506172839,1498.2,1520.8641975308642,1415,1500
5.065747976303101,237,143,31,0.005555555555555556,1498.3,1508.5185185185185,1415,1500
5.08733606338501,238,143,31,0.005555555555555556,1498.3,1508.5185185185185,1415,1500
5.108934164047241,239,144,31,0.005263157894736842,1498.4,1502.6705653021443,1415,1500
5.130531072616577,240,144,31,0.007142857142857143,1498.4,1530,1415,1500
5.152039051055908,241,145,30,0.004761904761904762,1498.5,1492.6455026455026,1415,1500
5.173630952835083,242,146,29,0.005555555555555556,1498.6,1508.5185185185185,1415,1500
5.195230960845947,243,145,29,0.007142857142857143,1498.5,1530,1415,1500
5.21677303314209,244,147,28,0.005555555555555556,1498.7,1508.5185185185185,1415,1500
5.238672971725464,245,147,30,0.005050505050505051,1498.7,1498.4175084175085,1415,1500
5.260290145874023,246,146,30,0.003968253968253968,1498.6,1476.7724867724867,1415,1500
5.281882047653198,247,148,30,0.005263157894736842,1498.8,1502.6705653021443,1415,1500
5.3035149574279785,248,148,30,0.005050505050505051,1498.8,1498.4175084175085,1415,1500
5.325098991394043,249,148,30,0.005263157894736842,1498.8,1502.6705653021443,1415,1500
5.346678972244263,250,147,31,0.004329004329004329,1498.7,1483.987493987494,1415,1500
5.368355989456177,251,147,32,0.004329004329004329,1498.7,1483.987493987494,1415,1500
5.3900861740112305,252,148,34,0.005050505050505051,1498.8,1498.4175084175085,1415,1500
5.4116740226745605,253,148,35,0.005050505050505051,1498.8,1498.4175084175085,1415,1500
5.433259963989258,254,148,36,0.005050505050505051,1498.8,1498.4175084175085,1415,1500
5.454833984375,255,148,38,0.004784688995215311,1498.8,1493.1011873117136,1415,1500
5.4764039516448975,256,146,39,0.003787878787878788,1498.6,1473.1649831649831,1415,1500
5.4980080127716064,257,146,39,0.003787878787878788,1498.6,1473.1649831649831,1415,1500
5.519688129425049,258,146,40,0.004629629629629629,1498.6,1490.0,1415,1500
5.541260004043579,259,145,40,0.004132231404958678,1498.5,1480.052035506581,1415,1500
5.56283712387085,260,146,40,0.003787878787878788,1498.6,1473.1649831649831,1415,1500
5.584416151046753,261,148,42,0.004784688995215311,1498.8,1493.1011873117136,1415,1500
5.606017112731934,262,148,43,0.004166666666666667,1498.8,1480.7407407407406,1415,1500
5.627597093582153,263,147,45,0.0043859649122807015,1498.7,1485.1267056530214,1415,1500
5.649242162704468,264,146,48,0.0034965034965034965,1498.6,1467.3374773374774,1415,1500
5.670860052108765,265,147,49,0.0033444816053511705,1498.7,1464.2970395144307,1415,1500
5.692464113235474,266,146,49,0.003787878787878788,1498.6,1473.1649831649831,1415,1500
5.714044094085693,267,147,51,0.0043859649122807015,1498.7,1485.1267056530214,1415,1500
5.7356250286102295,268,146,52,0.004629629629629629,1498.6,1490.0,1415,1500
5.757192134857178,269,147,55,0.003787878787878788,1498.7,1473.1649831649831,1415,1500
5.778779983520508,270,145,57,0.003968253968253968,1498.5,1476.7724867724867,1415,1500
5.800384044647217,271,145,58,0.003205128205128205,1498.5,1461.5099715099716,1415,1500
5.82199501991272,272,146,58,0.0034965034965034965,1498.6,1467.3374773374774,1415,1500
5.843580961227417,273,146,57,0.003246753246753247,1498.6,1462.3424723424723,1415,1500
5.8651721477508545,274,145,56,0.003076923076923077,1498.5,1458.945868945869,1415,1500
5.886758089065552,275,146,57,0.0033444816053511705,1498.6,1464.2970395144307,1415,1500
5.908406019210815,276,144,59,0.0027472527472527475,1498.4,1452.3524623524625,1415,1500
5.930016040802002,277,145,62,0.003787878787878788,1498.5,1473.1649831649831,1415,1500
5.951606035232544,278,143,66,0.002564102564102564,1498.3,1450,1415,1500
5.973129034042358,279,145,68,0.002898550724637681,1498.5,1455.3784219001611,1415,1500
5.9947850704193115,280,143,68,0.002564102564102564,1498.3,1450,1415,1500
6.016309022903442,281,144,69,0.0030303030303030303,1498.4,1458.0134680134681,1415,1500
6.03789210319519,282,144,69,0.003246753246753247,1498.4,1462.3424723424723,1415,1500
6.059581995010376,283,143,70,0.0027472527472527475,1498.3,1452.3524623524625,1415,1500
6.0811920166015625,284,145,75,0.002898550724637681,1498.5,1455.3784219001611,1415,1500
6.102804183959961,285,144,76,0.0030303030303030303,1498.4,1458.0134680134681,1415,1500
6.124403953552246,286,144,77,0.0030303030303030303,1498.4,1458.0134680134681,1415,1500
6.146006107330322,287,144,77,0.002840909090909091,1498.4,1454.2255892255891,1415,1500
6.1676270961761475,288,144,77,0.0026041666666666665,1498.4,1450,1415,1500
6.189152002334595,289,145,78,0.002403846153846154,1498.5,1450,1415,1500
6.210724115371704,290,142,80,0.0022624434389140274,1498.2,1450,1415,1500
6.232241153717041,291,143,81,0.00267379679144385,1498.3,1450.8833432362844,1415,1500
6.253832101821899,292,143,82,0.002028397565922921,1498.3,1450,1415,1500
6.27567195892334,293,144,83,0.002403846153846154,1498.4,1450,1415,1500
6.297263145446777,294,143,85,0.00196078431372549,1498.3,1450,1415,1500
6.318788051605225,295,144,85,0.002403846153846154,1498.4,1450,1415,1500
6.3403050899505615,296,143,86,0.0020833333333333333,1498.3,1450,1415,1500
6.361814975738525,297,145,86,0.002403846153846154,1498.5,1450,1415,1500
6.3833301067352295,298,145,87,0.0022624434389140274,1498.5,1450,1415,1500
6.404869079589844,299,145,88,0.002178649237472767,1498.5,1450,1415,1500
6.426392078399658,300,145,88,0.00205761316872428,1498.5,1450,1415,1500
6.447911024093628,301,144,89,0.002136752136752137,1498.4,1450,1415,1500
6.469552993774414,302,143,90,0.0017543859649122807,1498.3,1450,1415,1500
6.4910571575164795,303,145,89,0.00205761316872428,1498.5,1450,1415,1500
6.512631177902222,304,144,91,0.002178649237472767,1498.4,1450,1415,1500
6.534162998199463,305,144,91,0.0022624434389140274,1498.4,1450,1415,1500
6.555710077285767,306,143,90,0.00196078431372549,1498.3,1450,1415,1500
6.577236175537109,307,145,90,0.00205761316872428,1498.5,1450,1415,1500
6.598759174346924,308,144,90,0.002136752136752137,1498.4,1450,1415,1500
6.6202850341796875,309,144,90,0.002136752136752137,1498.4,1450,1415,1500
6.641810178756714,310,145,90,0.001851851851851852,1498.5,1450,1415,1500
6.663331031799316,311,145,91,0.001851851851851852,1498.5,1450,1415,1500
6.684856176376343,312,142,91,0.001851851851851852,1498.2,1450,1415,1500
6.706398963928223,313,145,92,0.0017543859649122807,1498.5,1450,1415,1500
6.727920055389404,314,144,93,0.001594896331738437,1498.4,1450,1414.0,1500
6.749629020690918,315,145,92,0.0016835016835016834,1498.5,1450,1415,1500
6.7711710929870605,316,146,91,0.001851851851851852,1498.6,1450,1415,1500
6.79273796081543,317,146,91,0.001851851851851852,1498.6,1450,1415,1500
6.814303159713745,318,147,91,0.0017543859649122807,1498.7,1450,1415,1500
6.835850954055786,319,146,91,0.0015151515151515152,1498.6,1450,1415,1500
6.857387065887451,320,147,91,0.001851851851851852,1498.7,1450,1415,1500
6.878896951675415,321,146,91,0.0016835016835016834,1498.6,1450,1415,1500
6.900439977645874,322,148,91,0.001851851851851852,1498.8,1450,1415,1500
6.921961069107056,323,148,92,0.0017543859649122807,1498.8,1450,1415,1500
6.943493127822876,324,148,92,0.0017543859649122807,1498.8,1450,1415,1500
6.9650280475616455,325,148,91,0.0017301038062283738,1498.8,1450,1415,1500
6.986566066741943,326,150,91,0.001851851851851852,1499.0,1450,1415,1500
7.00818395614624,327,150,91,0.0016666666666666668,1499.0,1450,1415,1500
7.029772996902466,328,150,92,0.0017543859649122807,1499.0,1450,1415,1500
7.0512871742248535,329,151,92,0.0017543859649122807,1499.1,1450,1415,1500
7.072821140289307,330,151,92,0.0017543859649122807,1499.1,1450,1415,1500
7.094352960586548,331,151,92,0.001949317738791423,1499.1,1450,1415,1500
7.11588716506958,332,149,92,0.001851851851851852,1498.9,1450,1415,1500
7.137412071228027,333,151,92,0.0016835016835016834,1499.1,1450,1415,1500
7.158920049667358,334,151,92,0.0022624434389140274,1499.1,1450,1415,1500
7.180423974990845,335,151,92,0.0022624434389140274,1499.1,1450,1415,1500
7.2020111083984375,336,150,91,0.0020833333333333333,1499.0,1450,1415,1500
7.223730087280273,337,152,91,0.0022624434389140274,1499.2,1450,1415,1500
7.24529504776001,338,151,91,0.00196078431372549,1499.1,1450,1415,1500
7.266831159591675,339,151,91,0.00196078431372549,1499.1,1450,1415,1500
7.28840708732605,340,153,91,0.0022624434389140274,1499.3,1450,1415,1500
7.310009956359863,341,155,92,0.002178649237472767,1499.5,1450,1415,1500
7.3315510749816895,342,154,94,0.0022624434389140274,1499.4,1450,1412.0,1500
7.353125095367432,343,153,95,0.00196078431372549,1499.3,1450,1410.0,1500
7.37470006942749,344,154,96,0.002136752136752137,1499.4,1450,1408.0,1500
7.396286964416504,345,153,99,0.0020833333333333333,1499.3,1450,1402.0,1500
7.417865991592407,346,153,101,0.0022222222222222222,1499.3,1450,1398.0,1500
7.43954610824585,347,153,103,0.0022222222222222222,1499.3,1450,1394.0,1500
7.461132049560547,348,154,103,0.0020833333333333333,1499.4,1450,1394.0,1500
7.4830310344696045,349,156,105,0.002564102564102564,1499.6,1450,1390.0,1500
7.504634141921997,350,156,107,0.002564102564102564,1499.6,1450,1386.0,1500
7.526190996170044,351,156,108,0.002564102564102564,1499.6,1450,1385,1500
7.547724008560181,352,155,109,0.002717391304347826,1499.5,1451.755233494364,1385,1500
7.569427967071533,353,154,111,0.002840909090909091,1499.4,1454.2255892255891,1385,1500
7.591030120849609,354,154,113,0.002717391304347826,1499.4,1451.755233494364,1385,1500
7.612603187561035,355,154,114,0.002717391304347826,1499.4,1451.755233494364,1385,1500
7.634180068969727,356,154,116,0.002898550724637681,1499.4,1455.3784219001611,1385,1500
7.655750036239624,357,154,117,0.0030303030303030303,1499.4,1458.0134680134681,1385,1500
7.677340030670166,358,153,116,0.0027472527472527475,1499.3,1452.3524623524625,1385,1500
7.6989359855651855,359,153,116,0.0027472527472527475,1499.3,1452.3524623524625,1385,1500
7.720510005950928,360,154,116,0.0027472527472527475,1499.4,1452.3524623524625,1385,1500
7.7420430183410645,361,154,116,0.0027472527472527475,1499.4,1452.3524623524625,1385,1500
7.763681173324585,362,156,116,0.003246753246753247,1499.6,1462.3424723424723,1385,1500
7.785259008407593,363,155,117,0.002857142857142857,1499.5,1454.5502645502645,1385,1500
7.806916952133179,364,155,118,0.002857142857142857,1499.5,1454.5502645502645,1385,1500
7.828541994094849,365,154,120,0.003968253968253968,1499.4,1476.7724867724867,1385,1500
7.8501410484313965,366,155,120,0.003076923076923077,1499.5,1458.945868945869,1385,1500
7.871732950210571,367,155,119,0.004629629629629629,1499.5,1490.0,1385,1500
7.893306016921997,368,154,118,0.003787878787878788,1499.4,1473.1649831649831,1385,1500
7.914899110794067,369,156,118,0.004048582995951417,1499.6,1478.3790673264357,1385,1500
7.936486005783081,370,155,117,0.004273504273504274,1499.5,1482.8774928774928,1385,1500
7.958065986633301,371,155,116,0.004273504273504274,1499.5,1482.8774928774928,1385,1500
7.979801177978516,372,155,115,0.004629629629629629,1499.5,1490.0,1385,1500
8.001425981521606,373,156,113,0.004629629629629629,1499.6,1490.0,1385,1500
8.022989988327026,374,155,112,0.004132231404958678,1499.5,1480.052035506581,1385,1500
8.044589042663574,375,155,110,0.004545454545454545,1499.5,1488.3164983164984,1385,1500
8.066202163696289,376,156,109,0.005050505050505051,1499.6,1498.4175084175085,1385,1500
8.08779001235962,377,157,107,0.004784688995215311,1499.7,1493.1011873117136,1386.0,1500
8.109536170959473,378,157,105,0.005050505050505051,1499.7,1498.4175084175085,1390.0,1500
8.131178140640259,379,157,103,0.005050505050505051,1499.7,1498.4175084175085,1394.0,1500
8.15280795097351,380,157,99,0.006944444444444444,1499.7,1530,1402.0,1500
8.174378156661987,381,156,97,0.007936507936507936,1499.6,1530,1406.0,1500
8.195978164672852,382,155,94,0.005555555555555556,1499.5,1508.5185185185185,1412.0,1500
8.21763300895691,383,157,92,0.007142857142857143,1499.7,1530,1415,1500
8.239200115203857,384,157,92,0.006666666666666667,1499.7,1530,1415,1500
8.260746955871582,385,157,90,0.006666666666666667,1499.7,1530,1415,1500
8.282279014587402,386,158,88,0.007407407407407408,1499.8,1530,1415,1500
8.303835153579712,387,158,86,0.008333333333333333,1499.8,1530,1415,1500
8.325345993041992,388,158,84,0.006666666666666667,1499.8,1530,1415,1500
8.346873998641968,389,156,84,0.006172839506172839,1499.6,1520.8641975308642,1415,1500
8.368458986282349,390,157,81,0.006944444444444444,1499.7,1530,1415,1500
8.389984130859375,391,158,81,0.006535947712418301,1499.8,1528.1263616557735,1415,1500
8.411586999893188,392,159,80,0.007936507936507936,1499.9,1530,1415,1500
8.433091163635254,393,159,79,0.006666666666666667,1499.9,1530,1415,1500
8.454600095748901,394,158,78,0.006535947712418301,1499.8,1528.1263616557735,1415,1500
8.47618317604065,395,158,77,0.006535947712418301,1499.8,1528.1263616557735,1415,1500
8.497780084609985,396,158,75,0.008403361344537815,1499.8,1530,1415,1500
8.519397974014282,397,160,73,0.01020408163265306,1500.0,1530,1415,1500
8.541206121444702,398,158,72,0.0125,1499.8,1530,1415,1500
8.562739133834839,399,159,71,0.008928571428571428,1499.9,1530,1415,1500
8.584270000457764,400,159,69,0.01020408163265306,1499.9,1530,1415,1500
8.60581111907959,401,158,68,0.014285714285714285,1499.8,1530,1415,1500
8.627326965332031,402,158,68,0.014285714285714285,1499.8,1530,1415,1500
8.648831129074097,403,158,68,0.014285714285714285,1499.8,1530,1415,1500
8.67041015625,404,158,68,0.014285714285714285,1499.8,1530,1415,1500
8.69202995300293,405,158,68,0.014285714285714285,1499.8,1530,1415,1500
8.713597059249878,406,158,68,0.014285714285714285,1499.8,1530,1415,1500
8.735190153121948,407,158,68,0.014285714285714285,1499.8,1530,1415,1500
8.756755113601685,408,158,68,0.014285714285714285,1499.8,1530,1415,1500
8.778666973114014,409,158,68,0.014285714285714285,1499.8,1530,1415,1500
8.801416158676147,410,158,68,0.014285714285714285,1499.8,1530,1415,1500
8.823300123214722,411,158,68,0.014285714285714285,1499.8,1530,1415,1500
8.844884157180786,412,158,68,0.014285714285714285,1499.8,1530,1415,1500
8.866436004638672,413,158,68,0.014285714285714285,1499.8,1530,1415,1500
8.887941122055054,414,158,68,0.014285714285714285,1499.8,1530,1415,1500
8.909974098205566,415,158,68,0.014285714285714285,1499.8,1530,1415,1500
8.93173098564148,416,158,68,0.014285714285714285,1499.8,1530,1415,1500
8.953490018844604,417,158,68,0.014285714285714285,1499.8,1530,1415,1500
8.975244998931885,418,158,68,0.014285714285714285,1499.8,1530,1415,1500
8.997105121612549,419,158,68,0.014285714285714285,1499.8,1530,1415,1500
9.018954992294312,420,158,68,0.014285714285714285,1499.8,1530,1415,1500
9.041006088256836,421,158,68,0.014285714285714285,1499.8,1530,1415,1500
9.062814950942993,422,158,68,0.014285714285714285,1499.8,1530,1415,1500
9.08459210395813,423,158,68,0.014285714285714285,1499.8,1530,1415,1500
9.106335163116455,424,158,68,0.014285714285714285,1499.8,1530,1415,1500
9.128460168838501,425,158,68,0.014285714285714285,1499.8,1530,1415,1500
9.151064157485962,426,158,68,0.014285714285714285,1499.8,1530,1415,1500
9.17333197593689,427,158,68,0.014285714285714285,1499.8,1530,1415,1500
9.195214986801147,428,158,68,0.014285714285714285,1499.8,1530,1415,1500
9.21682596206665,429,158,68,0.014285714285714285,1499.8,1530,1415,1500
9.238396167755127,430,158,68,0.014285714285714285,1499.8,1530,1415,1500
9.259953022003174,431,158,68,0.014285714285714285,1499.8,1530,1415,1500
9.281437158584595,432,158,68,0.014285714285714285,1499.8,1530,1415,1500
9.302945137023926,433,158,68,0.014285714285714285,1499.8,1530,1415,1500
9.3243989944458,434,158,68,0.014285714285714285,1499.8,1530,1415,1500
9.345864057540894,435,158,68,0.014285714285714285,1499.8,1530,1415,1500
9.367300987243652,436,158,68,0.014285714285714285,1499.8,1530,1415,1500
9.388761043548584,437,158,68,0.014285714285714285,1499.8,1530,1415,1500
9.410223960876465,438,158,68,0.014285714285714285,1499.8,1530,1415,1500
9.431684970855713,439,158,68,0.014285714285714285,1499.8,1530,1415,1500
9.453128099441528,440,158,68,0.014285714285714285,1499.8,1530,1415,1500
9.474583148956299,441,158,68,0.014285714285714285,1499.8,1530,1415,1500
9.496057987213135,442,158,68,0.014285714285714285,1499.8,1530,1415,1500
9.517513036727905,443,158,68,0.014285714285714285,1499.8,1530,1415,1500
9.539034128189087,444,158,68,0.014285714285714285,1499.8,1530,1415,1500
9.560816049575806,445,158,68,0.014285714285714285,1499.8,1530,1415,1500
9.582340955734253,446,158,68,0.014285714285714285,1499.8,1530,1415,1500
9.603821039199829,447,158,68,0.014285714285714285,1499.8,1530,1415,1500
9.625267028808594,448,158,68,0.014285714285714285,1499.8,1530,1415,1500
9.64672303199768,449,158,68,0.014285714285714285,1499.8,1530,1415,1500
9.668261051177979,450,158,68,0.014285714285714285,1499.8,1530,1415,1500
9.689850091934204,451,158,68,0.014285714285714285,1499.8,1530,1415,1500
9.711300134658813,452,158,68,0.014285714285714285,1499.8,1530,1415,1500
9.732748985290527,453,158,68,0.014285714285714285,1499.8,1530,1415,1500
9.754191160202026,454,158,68,0.014285714285714285,1499.8,1530,1415,1500
9.775936126708984,455,158,68,0.014285714285714285,1499.8,1530,1415,1500
9.797460079193115,456,158,68,0.014285714285714285,1499.8,1530,1415,1500
9.81895399093628,457,158,68,0.014285714285714285,1499.8,1530,1415,1500
9.840419054031372,458,158,68,0.014285714285714285,1499.8,1530,1415,1500
9.861879110336304,459,158,68,0.014285714285714285,1499.8,1530,1415,1500
9.883334159851074,460,158,68,0.014285714285714285,1499.8,1530,1415,1500
9.904808044433594,461,158,68,0.014285714285714285,1499.8,1530,1415,1500
9.92625904083252,462,158,68,0.014285714285714285,1499.8,1530,1415,1500
9.94770097732544,463,158,68,0.014285714285714285,1499.8,1530,1415,1500
9.969248056411743,464,158,68,0.014285714285714285,1499.8,1530,1415,1500
9.991003036499023,465,158,68,0.014285714285714285,1499.8,1530,1415,1500
10.01250696182251,466,158,68,0.014285714285714285,1499.8,1530,1415,1500
10.033967018127441,467,158,68,0.014285714285714285,1499.8,1530,1415,1500
10.055433988571167,468,158,68,0.014285714285714285,1499.8,1530,1415,1500
10.076902151107788,469,158,68,0.014285714285714285,1499.8,1530,1415,1500
10.09839415550232,470,158,68,0.014285714285714285,1499.8,1530,1415,1500
10.119860172271729,471,158,68,0.014285714285714285,1499.8,1530,1415,1500
10.14130711555481,472,158,68,0.014285714285714285,1499.8,1530,1415,1500
10.162877082824707,473,158,68,0.014285714285714285,1499.8,1530,1415,1500
10.18477201461792,474,158,68,0.014285714285714285,1499.8,1530,1415,1500
10.206402063369751,475,158,68,0.014285714285714285,1499.8,1530,1415,1500
10.22795295715332,476,158,68,0.014285714285714285,1499.8,1530,1415,1500
10.249560117721558,477,158,68,0.014285714285714285,1499.8,1530,1415,1500
10.27108097076416,478,158,68,0.014285714285714285,1499.8,1530,1415,1500
10.292595148086548,479,158,68,0.014285714285714285,1499.8,1530,1415,1500
10.314057111740112,480,158,68,0.014285714285714285,1499.8,1530,1415,1500
10.335499048233032,481,158,68,0.014285714285714285,1499.8,1530,1415,1500
10.356940031051636,482,158,68,0.014285714285714285,1499.8,1530,1415,1500
10.378391027450562,483,158,68,0.014285714285714285,1499.8,1530,1415,1500
10.399863004684448,484,158,68,0.014285714285714285,1499.8,1530,1415,1500
10.421303987503052,485,158,68,0.014285714285714285,1499.8,1530,1415,1500
10.442748069763184,486,158,68,0.014285714285714285,1499.8,1530,1415,1500
10.46419095993042,487,158,68,0.014285714285714285,1499.8,1530,1415,1500
10.485627174377441,488,158,68,0.014285714285714285,1499.8,1530,1415,1500
10.507083177566528,489,158,68,0.014285714285714285,1499.8,1530,1415,1500
10.52851414680481,490,158,68,0.014285714285714285,1499.8,1530,1415,1500
10.54997205734253,491,158,68,0.014285714285714285,1499.8,1530,1415,1500
10.571424961090088,492,158,68,0.014285714285714285,1499.8,1530,1415,1500
10.59287405014038,493,158,68,0.014285714285714285,1499.8,1530,1415,1500
10.614331007003784,494,158,68,0.014285714285714285,1499.8,1530,1415,1500
10.635776996612549,495,158,68,0.014285714285714285,1499.8,1530,1415,1500
10.657230138778687,496,158,68,0.014285714285714285,1499.8,1530,1415,1500
10.678670167922974,497,158,68,0.014285714285714285,1499.8,1530,1415,1500
10.700145959854126,498,158,68,0.014285714285714285,1499.8,1530,1415,1500
10.721588134765625,499,158,68,0.014285714285714285,1499.8,1530,1415,1500
10.743030071258545,500,158,68,0.014285714285714285,1499.8,1530,1415,1500
10.764469146728516,501,158,68,0.014285714285714285,1499.8,1530,1415,1500
10.78591799736023,502,158,68,0.014285714285714285,1499.8,1530,1415,1500
10.807409048080444,503,158,68,0.014285714285714285,1499.8,1530,1415,1500
10.828883171081543,504,158,68,0.014285714285714285,1499.8,1530,1415,1500
