time,frame,x,y,size_inv,roll,pitch,thrust,yaw
0.00029087066650390625,1,,,,1500.0,1490.0,1400.0,1500
0.02214503288269043,2,,,,1500.0,1490.0,1400.0,1500
0.04354596138000488,3,,,,1500.0,1490.0,1400.0,1500
0.06472992897033691,4,,,,1500.0,1490.0,1400.0,1500
0.0859370231628418,5,,,,1500.0,1490.0,1400.0,1500
0.10714387893676758,6,,,,1500.0,1490.0,1400.0,1500
0.12841010093688965,7,,,,1500.0,1490.0,1400.0,1500
0.14956307411193848,8,,,,1500.0,1490.0,1400.0,1500
0.17081689834594727,9,,,,1500.0,1490.0,1400.0,1500
0.1919569969177246,10,,,,1500.0,1490.0,1400.0,1500
0.21332788467407227,11,,,,1500.0,1490.0,1400.0,1500
0.23475098609924316,12,,,,1500.0,1490.0,1400.0,1500
0.25621795654296875,13,,,,1500.0,1490.0,1400.0,1500
0.2776820659637451,14,,,,1500.0,1490.0,1400.0,1500
0.2991220951080322,15,,,,1500.0,1490.0,1400.0,1500
0.3205139636993408,16,,,,1500.0,1490.0,1400.0,1500
0.34194087982177734,17,,,,1500.0,1490.0,1400.0,1500
0.36339497566223145,18,,,,1500.0,1490.0,1400.0,1500
0.38481807708740234,19,,,,1500.0,1490.0,1400.0,1500
0.40621304512023926,20,,,,1500.0,1490.0,1400.0,1500
0.42769789695739746,21,,,,1500.0,1490.0,1400.0,1500
0.4490840435028076,22,,,,1500.0,1490.0,1400.0,1500
0.4705650806427002,23,,,,1500.0,1490.0,1400.0,1500
0.49199509620666504,24,,,,1500.0,1490.0,1400.0,1500
0.5134830474853516,25,,,,1500.0,1490.0,1400.0,1500
0.5349080562591553,26,,,,1500.0,1490.0,1400.0,1500
0.5563859939575195,27,,,,1500.0,1490.0,1400.0,1500
0.5778319835662842,28,,,,1500.0,1490.0,1400.0,1500
0.5993869304656982,29,,,,1500.0,1490.0,1400.0,1500
0.6208019256591797,30,,,,1500.0,1490.0,1400.0,1500
0.6422519683837891,31,,,,1500.0,1490.0,1400.0,1500
0.6636900901794434,32,,,,1500.0,1490.0,1400.0,1500
0.685107946395874,33,,,,1500.0,1490.0,1400.0,1500
0.7065088748931885,34,,,,1500.0,1490.0,1400.0,1500
0.7279388904571533,35,,,,1500.0,1490.0,1400.0,1500
0.7494180202484131,36,,,,1500.0,1490.0,1400.0,1500
0.7711899280548096,37,,,,1500.0,1490.0,1400.0,1500
0.7926900386810303,38,,,,1500.0,1490.0,1400.0,1500
0.8141710758209229,39,,,,1500.0,1490.0,1400.0,1500
0.8356480598449707,40,,,,1500.0,1490.0,1400.0,1500
0.8571178913116455,41,,,,1500.0,1490.0,1400.0,1500
0.8785459995269775,42,,,,1500.0,1490.0,1400.0,1500
0.9000399112701416,43,,,,1500.0,1490.0,1400.0,1500
0.9215118885040283,44,,,,1500.0,1490.0,1400.0,1500
0.9429969787597656,45,,,,1500.0,1490.0,1400.0,1500
0.9644010066986084,46,,,,1500.0,1490.0,1400.0,1500
0.9858379364013672,47,,,,1500.0,1490.0,1400.0,1500
1.0072779655456543,48,,,,1500.0,1490.0,1400.0,1500
1.028757095336914,49,,,,1500.0,1490.0,1400.0,1500
1.0502948760986328,50,,,,1500.0,1490.0,1400.0,1500
1.0717918872833252,51,,,,1500.0,1490.0,1400.0,1500
1.0932319164276123,52,,,,1500.0,1490.0,1400.0,1500
1.1147129535675049,53,,,,1500.0,1490.0,1400.0,1500
1.1363039016723633,54,61,161,0.047619047619047616,1490.0999999999999,1530,1385,1500
1.1579968929290771,55,68,163,0.041666666666666664,1490.8,1530,1385,1500
1.1795330047607422,56,70,160,0.008333333333333333,1491.0,1450,1385,1500
1.2013139724731445,57,74,160,0.005555555555555556,1491.4000000000001,1450,1385,1500
1.2229499816894531,58,79,160,0.004048582995951417,1491.9000000000001,1450,1385,1500
1.244616985321045,59,89,158,0.001984126984126984,1492.9000000000001,1450,1385,1500
1.2662029266357422,60,96,155,0.0011904761904761906,1493.5999999999999,1450,1385,1500
1.2877700328826904,61,103,157,0.0011655011655011655,1494.3,1450,1385,1500
1.309333086013794,62,106,149,0.00042087542087542086,1494.5999999999999,1450,1385,1500
1.330915927886963,63,106,148,0.00025406504065040653,1494.5999999999999,1450,1385,1500
1.3525428771972656,64,115,149,0.00021258503401360543,1495.5,1450,1385,1500
1.374121904373169,65,125,139,0.0001246416552411816,1496.5,1450,1385,1500
1.395711898803711,66,136,146,0.0001303780964797914,1497.5999999999999,1450,1385,1500
1.4172329902648926,67,149,130,7.558578987150416e-05,1498.9000000000001,1450,1385.0,1500
1.4388868808746338,68,155,126,6.757669955399378e-05,1499.5,1450,1387.0,1500
1.4605140686035156,69,160,148,0.0001226391954868776,1500.0,1450,1385,1500
1.4823579788208008,70,158,146,0.00012371644191513053,1499.8,1450,1385,1500
1.5039260387420654,71,169,135,8.064516129032258e-05,1500.9000000000001,1450,1385,1500
1.5254950523376465,72,172,74,0.00018518518518518518,1501.2,1450,1413.0,1500
1.5471220016479492,73,181,71,0.00015255530129672007,1502.0999999999999,1450,1414.5,1500
1.5688440799713135,74,190,75,0.0001004419445560466,1503.0,1450,1412.5,1500
1.590446949005127,75,191,70,9.764671418806757e-05,1503.0999999999999,1450,1415.0,1500
1.6120929718017578,76,190,77,7.693491306354824e-05,1503.0,1450,1411.5,1500
1.6337289810180664,77,189,77,6.974473427256242e-05,1502.9000000000001,1450,1411.5,1500
1.6554579734802246,78,188,54,0.00010288065843621399,1502.8,1450,1415,1500
1.677056074142456,79,187,60,8.355614973262032e-05,1502.7,1450,1415,1500
1.69874906539917,80,185,55,9.191176470588235e-05,1502.5,1450,1415,1500
1.7203099727630615,81,185,57,8.23045267489712e-05,1502.5,1450,1415,1500
1.74190092086792,82,184,55,8.389965601141036e-05,1502.4000000000001,1450,1415,1500
1.7635340690612793,83,180,52,8.285004142502072e-05,1502.0,1450,1415,1500
1.7851130962371826,84,181,50,8.425309630128907e-05,1502.0999999999999,1450,1415,1500
1.8067069053649902,85,180,48,8.484642796538266e-05,1502.0,1450,1415,1500
1.8283090591430664,86,181,46,9.057971014492754e-05,1502.0999999999999,1450,1415,1500
1.8500149250030518,87,181,45,8.946144211844694e-05,1502.0999999999999,1450,1415,1500
1.8717808723449707,88,180,43,8.802816901408451e-05,1502.0,1450,1415,1500
1.8933920860290527,89,180,42,9.057971014492754e-05,1502.0,1450,1415,1500
1.9149229526519775,90,180,43,9.106638739641199e-05,1502.0,1450,1415,1500
1.9364910125732422,91,179,42,9.057971014492754e-05,1501.9000000000001,1450,1415,1500
1.9580318927764893,92,178,43,8.928571428571429e-05,1501.8,1450,1415,1500
1.9796600341796875,93,178,43,8.64902266043937e-05,1501.8,1450,1415,1500
2.0013420581817627,94,179,44,9.106638739641199e-05,1501.9000000000001,1450,1415,1500
2.022984027862549,95,178,44,9.057971014492754e-05,1501.8,1450,1415,1500
2.044569969177246,96,178,44,8.946144211844694e-05,1501.8,1450,1415,1500
2.0661160945892334,97,178,44,8.992805755395684e-05,1501.8,1450,1415,1500
2.0877060890197754,98,178,45,8.881783462119193e-05,1501.8,1450,1415,1500
2.1097259521484375,99,178,45,8.881783462119193e-05,1501.8,1450,1415,1500
2.1331140995025635,100,178,45,8.710801393728223e-05,1501.8,1450,1415,1500
2.1560559272766113,101,178,45,8.64902266043937e-05,1501.8,1450,1415,1500
2.1789989471435547,102,178,45,8.710801393728223e-05,1501.8,1450,1415,1500
2.2018630504608154,103,178,44,9.157509157509158e-05,1501.8,1450,1415,1500
2.224916934967041,104,178,46,8.667764583513912e-05,1501.8,1450,1415,1500
2.2479310035705566,105,178,46,8.710801393728223e-05,1501.8,1450,1415,1500
2.271001100540161,106,177,47,8.69414014953921e-05,1501.7,1450,1415,1500
2.294003963470459,107,178,46,8.818342151675486e-05,1501.8,1450,1415,1500
2.3171870708465576,108,178,45,8.773469029654326e-05,1501.8,1450,1415,1500
2.3404009342193604,109,178,45,8.773469029654326e-05,1501.8,1450,1415,1500
2.363668918609619,110,178,46,8.818342151675486e-05,1501.8,1450,1415,1500
2.3865580558776855,111,176,46,8.64902266043937e-05,1501.5999999999999,1450,1415,1500
2.409395933151245,112,178,46,8.773469029654326e-05,1501.8,1450,1415,1500
2.432760000228882,113,178,46,8.773469029654326e-05,1501.8,1450,1415,1500
2.4556429386138916,114,177,47,8.710801393728223e-05,1501.7,1450,1415,1500
2.4785959720611572,115,178,47,8.818342151675486e-05,1501.8,1450,1415,1500
2.501520872116089,116,177,46,8.64902266043937e-05,1501.7,1450,1415,1500
2.5244030952453613,117,176,46,8.588114050154586e-05,1501.5999999999999,1450,1415,1500
2.5473110675811768,118,176,46,8.588114050154586e-05,1501.5999999999999,1450,1415,1500
2.5703539848327637,119,176,46,8.802816901408451e-05,1501.5999999999999,1450,1415,1500
2.5934629440307617,120,177,46,8.928571428571429e-05,1501.7,1450,1415,1500
2.616328001022339,121,177,45,8.773469029654326e-05,1501.7,1450,1415,1500
2.6393918991088867,122,177,45,8.773469029654326e-05,1501.7,1450,1415,1500
2.6630969047546387,123,175,46,8.818342151675486e-05,1501.5,1450,1415,1500
2.686152935028076,124,177,46,8.818342151675486e-05,1501.7,1450,1415,1500
2.7091660499572754,125,176,46,9.057971014492754e-05,1501.5999999999999,1450,1415,1500
2.732266902923584,126,176,46,9.057971014492754e-05,1501.5999999999999,1450,1415,1500
2.7553560733795166,127,176,45,9.057971014492754e-05,1501.5999999999999,1450,1415,1500
2.7784578800201416,128,177,45,8.881783462119193e-05,1501.7,1450,1415,1500
2.8015499114990234,129,176,45,8.773469029654326e-05,1501.5999999999999,1450,1415,1500
2.824420928955078,130,176,45,8.710801393728223e-05,1501.5999999999999,1450,1415,1500
2.8474690914154053,131,176,45,8.710801393728223e-05,1501.5999999999999,1450,1415,1500
2.8704988956451416,132,177,46,8.773469029654326e-05,1501.7,1450,1415,1500
2.8937289714813232,133,175,46,8.69414014953921e-05,1501.5,1450,1415,1500
2.916598081588745,134,177,46,8.881783462119193e-05,1501.7,1450,1415,1500
2.9395411014556885,135,176,45,8.710801393728223e-05,1501.5999999999999,1450,1415,1500
2.9624710083007812,136,176,45,8.881783462119193e-05,1501.5999999999999,1450,1415,1500
2.985564947128296,137,174,45,8.69414014953921e-05,1501.4000000000001,1450,1415,1500
3.0085649490356445,138,175,45,8.818342151675486e-05,1501.5,1450,1415,1500
3.031554937362671,139,175,45,8.755800717975659e-05,1501.5,1450,1415,1500
3.054439067840576,140,175,45,8.755800717975659e-05,1501.5,1450,1415,1500
3.077362060546875,141,175,44,8.588114050154586e-05,1501.5,1450,1415,1500
3.100400924682617,142,176,44,8.928571428571429e-05,1501.5999999999999,1450,1415,1500
3.123621940612793,143,176,44,8.865248226950355e-05,1501.5999999999999,1450,1415,1500
3.146483898162842,144,176,44,8.818342151675486e-05,1501.5999999999999,1450,1415,1500
3.1694419384002686,145,176,45,8.69414014953921e-05,1501.5999999999999,1450,1415,1500
3.1927249431610107,146,177,44,8.64902266043937e-05,1501.7,1450,1415,1500
3.2156848907470703,147,176,44,8.818342151675486e-05,1501.5999999999999,1450,1415,1500
3.2385458946228027,148,177,44,8.977466558937069e-05,1501.7,1450,1415,1500
3.261584997177124,149,176,44,8.992805755395684e-05,1501.5999999999999,1450,1415,1500
3.284451961517334,150,174,45,8.69414014953921e-05,1501.4000000000001,1450,1415,1500
3.307399034500122,151,176,44,8.773469029654326e-05,1501.5999999999999,1450,1415,1500
3.330504894256592,152,176,44,8.928571428571429e-05,1501.5999999999999,1450,1415,1500
3.3537259101867676,153,176,44,8.881783462119193e-05,1501.5999999999999,1450,1415,1500
3.376784086227417,154,175,44,8.928571428571429e-05,1501.5,1450,1415,1500
3.3996989727020264,155,175,44,8.818342151675486e-05,1501.5,1450,1415,1500
3.423037052154541,156,174,44,8.588114050154586e-05,1501.4000000000001,1450,1415,1500
3.4460229873657227,157,175,44,8.928571428571429e-05,1501.5,1450,1415,1500
3.4692559242248535,158,175,44,8.818342151675486e-05,1501.5,1450,1415,1500
3.49236798286438,159,176,44,8.64902266043937e-05,1501.5999999999999,1450,1415,1500
3.5152900218963623,160,176,45,8.881783462119193e-05,1501.5999999999999,1450,1415,1500
3.538182020187378,161,176,44,8.755800717975659e-05,1501.5999999999999,1450,1415,1500
3.561116933822632,162,176,44,8.865248226950355e-05,1501.5999999999999,1450,1415,1500
3.584075927734375,163,176,43,8.755800717975659e-05,1501.5999999999999,1450,1415,1500
3.60699200630188,164,176,43,8.865248226950355e-05,1501.5999999999999,1450,1415,1500
3.630397081375122,165,175,44,8.425309630128907e-05,1501.5,1450,1415,1500
3.653486967086792,166,175,43,8.865248226950355e-05,1501.5,1450,1415,1500
3.676603078842163,167,175,44,8.802816901408451e-05,1501.5,1450,1415,1500
3.699568033218384,168,175,43,8.755800717975659e-05,1501.5,1450,1415,1500
3.7227320671081543,169,174,42,8.69414014953921e-05,1501.4000000000001,1450,1415,1500
3.7457809448242188,170,176,43,8.425309630128907e-05,1501.5999999999999,1450,1415,1500
3.7686970233917236,171,175,39,8.790436005625879e-05,1501.5,1450,1415,1500
3.791661024093628,172,175,36,9.579461634256155e-05,1501.5,1450,1415,1500
3.8146770000457764,173,174,35,9.645061728395061e-05,1501.4000000000001,1450,1415,1500
3.8381428718566895,174,174,35,9.780907668231612e-05,1501.4000000000001,1450,1415,1500
3.8612120151519775,175,174,36,9.44733112895607e-05,1501.4000000000001,1450,1415,1500
3.8842508792877197,176,174,39,8.790436005625879e-05,1501.4000000000001,1450,1415,1500
3.9072439670562744,177,174,39,8.790436005625879e-05,1501.4000000000001,1450,1415,1500
3.930290937423706,178,174,34,0.00010064412238325282,1501.4000000000001,1450,1415,1500
3.9534809589385986,179,174,37,9.259259259259259e-05,1501.4000000000001,1450,1415,1500
3.9763829708099365,180,174,38,8.903133903133904e-05,1501.4000000000001,1450,1415,1500
3.9994421005249023,181,174,37,9.259259259259259e-05,1501.4000000000001,1450,1415,1500
4.022902965545654,182,175,38,8.841732979664014e-05,1501.5,1450,1415,1500
4.045759916305542,183,174,36,9.384384384384384e-05,1501.4000000000001,1450,1415,1500
4.06872296333313,184,174,35,9.712509712509713e-05,1501.4000000000001,1450,1415,1500
4.091608047485352,185,173,35,9.918666931164451e-05,1501.3,1450,1415,1500
4.114508867263794,186,174,39,8.851907586084801e-05,1501.4000000000001,1450,1415,1500
4.137479066848755,187,173,37,9.137426900584795e-05,1501.3,1450,1415,1500
4.160443067550659,188,173,39,8.802816901408451e-05,1501.3,1450,1415,1500
4.1835949420928955,189,173,37,9.266123054114158e-05,1501.3,1450,1415,1500
4.206593036651611,190,173,38,8.903133903133904e-05,1501.3,1450,1415,1500
4.229520082473755,191,173,37,9.266123054114158e-05,1501.3,1450,1415,1500
4.2528510093688965,192,172,40,8.468834688346883e-05,1501.2,1450,1415,1500
4.27583909034729,193,173,39,8.680555555555556e-05,1501.3,1450,1415,1500
4.298768997192383,194,173,40,8.6333419666753e-05,1501.3,1450,1415,1500
4.321636915206909,195,174,39,8.851907586084801e-05,1501.4000000000001,1450,1415,1500
4.344537019729614,196,173,39,8.965393580778196e-05,1501.3,1450,1415,1500
4.367527008056641,197,173,40,8.741258741258741e-05,1501.3,1450,1415,1500
4.390608072280884,198,173,39,8.965393580778196e-05,1501.3,1450,1415,1500
4.413528919219971,199,172,39,8.903133903133904e-05,1501.2,1450,1415,1500
4.436408042907715,200,172,42,8.309098462816784e-05,1501.2,1450,1415,1500
4.459311008453369,201,172,41,8.325008325008325e-05,1501.2,1450,1415,1500
4.482583999633789,202,173,41,8.425309630128907e-05,1501.3,1450,1415,1500
4.505699872970581,203,172,40,8.680555555555556e-05,1501.2,1450,1415,1500
4.52878999710083,204,172,39,8.965393580778196e-05,1501.2,1450,1415,1500
4.551871061325073,205,172,41,8.573388203017832e-05,1501.2,1450,1415,1500
4.574951887130737,206,170,43,8.267195767195767e-05,1501.0,1450,1415,1500
4.597800970077515,207,170,42,8.309098462816784e-05,1501.0,1450,1415,1500
4.62066388130188,208,170,41,8.680555555555556e-05,1501.0,1450,1415,1500
4.64356803894043,209,170,43,8.098477486232588e-05,1501.0,1450,1415,1500
4.666420936584473,210,170,42,8.573388203017832e-05,1501.0,1450,1415,1500
4.6893229484558105,211,170,42,8.573388203017832e-05,1501.0,1450,1415,1500
4.7124950885772705,212,170,43,8.573388203017832e-05,1501.0,1450,1415,1500
4.735507965087891,213,170,42,8.468834688346883e-05,1501.0,1450,1415,1500
4.758473873138428,214,169,44,8.296001327360213e-05,1500.9000000000001,1450,1415,1500
4.781688928604126,215,168,44,8.35282325425994e-05,1500.8,1450,1415,1500
4.80460786819458,216,168,44,8.410428931875525e-05,1500.8,1450,1415,1500
4.8275229930877686,217,170,43,8.588114050154586e-05,1501.0,1450,1415,1500
4.850523948669434,218,169,43,8.588114050154586e-05,1500.9000000000001,1450,1415,1500
4.8734660148620605,219,169,43,8.69414014953921e-05,1500.9000000000001,1450,1415,1500
4.89635705947876,220,169,44,8.410428931875525e-05,1500.9000000000001,1450,1415,1500
4.919306993484497,221,171,44,8.6333419666753e-05,1501.0999999999999,1450,1415,1500
4.942363023757935,222,171,44,8.6333419666753e-05,1501.0999999999999,1450,1415,1500
4.965398073196411,223,172,43,8.6333419666753e-05,1501.2,1450,1415,1500
4.988292932510376,224,171,43,8.573388203017832e-05,1501.0999999999999,1450,1415,1500
5.011292934417725,225,172,43,8.6333419666753e-05,1501.2,1450,1415,1500
5.0345470905303955,226,172,43,8.6333419666753e-05,1501.2,1450,1415,1500
5.057605981826782,227,170,43,8.153946510110893e-05,1501.0,1450,1415,1500
5.0805439949035645,228,172,42,8.528057308545113e-05,1501.2,1450,1415,1500
5.103621006011963,229,171,43,8.741258741258741e-05,1501.0999999999999,1450,1415,1500
5.12656307220459,230,171,43,8.573388203017832e-05,1501.0999999999999,1450,1415,1500
5.149631023406982,231,171,43,8.528057308545113e-05,1501.0999999999999,1450,1415,1500
5.172746896743774,232,171,43,8.528057308545113e-05,1501.0999999999999,1450,1415,1500
5.19566798210144,233,171,43,8.741258741258741e-05,1501.0999999999999,1450,1415,1500
5.218528985977173,234,171,43,8.210180623973728e-05,1501.0999999999999,1450,1415,1500
5.241438865661621,235,171,42,8.468834688346883e-05,1501.0999999999999,1450,1415,1500
5.264405965805054,236,171,40,8.680555555555556e-05,1501.0999999999999,1450,1415,1500
5.287385940551758,237,171,42,8.267195767195767e-05,1501.0999999999999,1450,1415,1500
5.310343980789185,238,172,40,8.851907586084801e-05,1501.2,1450,1415,1500
5.333389043807983,239,172,40,8.620689655172413e-05,1501.2,1450,1415,1500
5.35644793510437,240,172,40,8.573388203017832e-05,1501.2,1450,1415,1500
5.37950587272644,241,172,40,8.6333419666753e-05,1501.2,1450,1415,1500
5.402620077133179,242,171,40,8.573388203017832e-05,1501.0999999999999,1450,1415,1500
5.4255900382995605,243,172,41,8.6333419666753e-05,1501.2,1450,1415,1500
5.448467969894409,244,172,41,8.680555555555556e-05,1501.2,1450,1415,1500
5.471483945846558,245,172,41,8.620689655172413e-05,1501.2,1450,1415,1500
5.494404077529907,246,172,42,8.573388203017832e-05,1501.2,1450,1415,1500
5.5173180103302,247,171,43,8.309098462816784e-05,1501.0999999999999,1450,1415,1500
5.54029393196106,248,170,42,8.153946510110893e-05,1501.0,1450,1415,1500
5.563263893127441,249,172,42,8.6333419666753e-05,1501.2,1450,1415,1500
5.58616304397583,250,172,41,8.528057308545113e-05,1501.2,1450,1415,1500
5.6091389656066895,251,171,42,8.210180623973728e-05,1501.0999999999999,1450,1415,1500
5.632175922393799,252,171,43,8.252186829509821e-05,1501.0999999999999,1450,1415,1500
5.655102014541626,253,171,43,8.410428931875525e-05,1501.0999999999999,1450,1415,1500
5.678138017654419,254,172,42,8.6333419666753e-05,1501.2,1450,1415,1500
5.701215028762817,255,172,42,8.6333419666753e-05,1501.2,1450,1415,1500
5.724063873291016,256,172,42,8.680555555555556e-05,1501.2,1450,1415,1500
5.747068881988525,257,172,42,8.6333419666753e-05,1501.2,1450,1415,1500
5.770020008087158,258,171,43,8.267195767195767e-05,1501.0999999999999,1450,1415,1500
5.793148994445801,259,172,42,8.514261387824607e-05,1501.2,1450,1415,1500
5.816065073013306,260,172,42,8.741258741258741e-05,1501.2,1450,1415,1500
5.838958978652954,261,172,42,8.588114050154586e-05,1501.2,1450,1415,1500
5.861818075180054,262,172,42,8.741258741258741e-05,1501.2,1450,1415,1500
5.884675979614258,263,172,42,8.741258741258741e-05,1501.2,1450,1415,1500
5.907604932785034,264,173,42,8.528057308545113e-05,1501.3,1450,1415,1500
5.930638074874878,265,172,42,8.680555555555556e-05,1501.2,1450,1415,1500
5.953633069992065,266,172,43,8.573388203017832e-05,1501.2,1450,1415,1500
5.976499080657959,267,171,44,8.252186829509821e-05,1501.0999999999999,1450,1415,1500
5.999393939971924,268,172,43,8.425309630128907e-05,1501.2,1450,1415,1500
6.022707939147949,269,171,44,8.153946510110893e-05,1501.0999999999999,1450,1415,1500
6.045623064041138,270,172,43,8.573388203017832e-05,1501.2,1450,1415,1500
6.0684778690338135,271,172,42,8.528057308545113e-05,1501.2,1450,1415,1500
6.0914270877838135,272,171,44,8.35282325425994e-05,1501.0999999999999,1450,1415,1500
6.114413022994995,273,171,43,8.573388203017832e-05,1501.0999999999999,1450,1415,1500
6.13746190071106,274,170,44,8.153946510110893e-05,1501.0,1450,1415,1500
6.160506010055542,275,171,43,8.573388203017832e-05,1501.0999999999999,1450,1415,1500
6.183692932128906,276,171,43,8.573388203017832e-05,1501.0999999999999,1450,1415,1500
6.20660400390625,277,172,42,8.528057308545113e-05,1501.2,1450,1415,1500
6.229912042617798,278,171,43,8.366800535475234e-05,1501.0999999999999,1450,1415,1500
6.25292706489563,279,171,43,8.153946510110893e-05,1501.0999999999999,1450,1415,1500
6.275970935821533,280,171,44,8.153946510110893e-05,1501.0999999999999,1450,1415,1500
6.298894882202148,281,171,43,8.573388203017832e-05,1501.0999999999999,1450,1415,1500
6.321824073791504,282,171,44,8.309098462816784e-05,1501.0999999999999,1450,1415,1500
6.344779968261719,283,172,43,8.6333419666753e-05,1501.2,1450,1415,1500
6.3677818775177,284,170,44,8.366800535475234e-05,1501.0,1450,1415,1500
6.39087700843811,285,172,43,8.573388203017832e-05,1501.2,1450,1415,1500
6.413779020309448,286,171,43,8.210180623973728e-05,1501.0999999999999,1450,1415,1500
6.4366350173950195,287,171,44,8.309098462816784e-05,1501.0999999999999,1450,1415,1500
6.459529876708984,288,171,43,8.210180623973728e-05,1501.0999999999999,1450,1415,1500
6.482681035995483,289,172,43,8.6333419666753e-05,1501.2,1450,1415,1500
6.50566291809082,290,171,44,8.309098462816784e-05,1501.0999999999999,1450,1415,1500
6.528589963912964,291,171,43,8.210180623973728e-05,1501.0999999999999,1450,1415,1500
6.551543951034546,292,172,43,8.802816901408451e-05,1501.2,1450,1415,1500
6.57450008392334,293,172,43,8.69414014953921e-05,1501.2,1450,1415,1500
6.597510099411011,294,171,43,8.573388203017832e-05,1501.0999999999999,1450,1415,1500
6.6205480098724365,295,172,43,8.865248226950355e-05,1501.2,1450,1415,1500
6.643596887588501,296,172,43,8.928571428571429e-05,1501.2,1450,1415,1500
6.6664628982543945,297,172,44,9.041591320072333e-05,1501.2,1450,1415,1500
6.689348936080933,298,172,44,9.106638739641199e-05,1501.2,1450,1415,1500
6.712486982345581,299,172,43,8.992805755395684e-05,1501.2,1450,1415,1500
6.735374927520752,300,172,44,9.42684766214178e-05,1501.2,1450,1415,1500
6.758282899856567,301,173,44,9.376465072667604e-05,1501.3,1450,1415,1500
6.781389951705933,302,173,44,9.49667616334283e-05,1501.3,1450,1415,1500
6.804373025894165,303,174,44,9.49667616334283e-05,1501.4000000000001,1450,1415,1500
6.827239036560059,304,174,43,0.00010025062656641604,1501.4000000000001,1450,1415,1500
6.850207090377808,305,174,45,9.63948332369385e-05,1501.4000000000001,1450,1415,1500
6.873260021209717,306,174,46,9.764671418806757e-05,1501.4000000000001,1450,1415,1500
6.896215915679932,307,174,47,9.99000999000999e-05,1501.4000000000001,1450,1415,1500
6.919104099273682,308,173,49,0.00010279605263157894,1501.3,1450,1415,1500
6.94213604927063,309,173,51,0.00010225994477962981,1501.3,1450,1415,1500
6.965044021606445,310,172,52,0.00010307153164296021,1501.2,1450,1415,1500
6.988054990768433,311,173,53,0.00010645092612305727,1501.3,1450,1415,1500
7.010868072509766,312,174,54,0.00010733068584308254,1501.4000000000001,1450,1415,1500
7.033869028091431,313,172,55,0.00010785159620362382,1501.2,1450,1415,1500
7.056689977645874,314,174,55,0.00010964912280701755,1501.4000000000001,1450,1415,1500
7.07980489730835,315,173,56,0.00010785159620362382,1501.3,1450,1415,1500
7.102787971496582,316,175,55,0.0001238696890870804,1501.5,1450,1415,1500
7.12587308883667,317,173,59,0.00011111111111111112,1501.3,1450,1415,1500
7.149082899093628,318,175,60,0.00011911852293031566,1501.5,1450,1415,1500
7.172031879425049,319,173,59,0.00011452130096197893,1501.3,1450,1415,1500
7.194873094558716,320,173,60,0.00011973180076628352,1501.3,1450,1415,1500
7.217828035354614,321,173,60,0.0001201634222542658,1501.3,1450,1415,1500
7.240712881088257,322,173,60,0.00012642225031605562,1501.3,1450,1415,1500
7.2637341022491455,323,173,60,0.00012642225031605562,1501.3,1450,1415,1500
7.28662896156311,324,173,61,0.0001305653479566523,1501.3,1450,1415,1500
7.309701919555664,325,173,61,0.00013491635186184566,1501.3,1450,1415,1500
7.332738876342773,326,174,61,0.00013873473917869035,1501.4000000000001,1450,1415,1500
7.355711936950684,327,173,62,0.00013743815283122595,1501.3,1450,1415,1500
7.378758907318115,328,174,63,0.0001414027149321267,1501.4000000000001,1450,1415,1500
7.401747941970825,329,172,64,0.000140805406927626,1501.2,1450,1415,1500
7.424906015396118,330,173,64,0.0001443001443001443,1501.3,1450,1415,1500
7.448049068450928,331,174,66,0.00015082956259426848,1501.4000000000001,1450,1415,1500
7.470881938934326,332,175,66,0.0001523229246001523,1501.5,1450,1415,1500
7.493869066238403,333,173,67,0.00015318627450980392,1501.3,1450,1415,1500
7.516716003417969,334,175,63,0.00018705574261129816,1501.5,1450,1415,1500
7.53984808921814,335,174,68,0.00016458196181698485,1501.4000000000001,1450,1415,1500
7.563003063201904,336,175,57,0.0002577319587628866,1501.5,1450,1415,1500
7.585901975631714,337,175,60,0.0002454590083456063,1501.5,1450,1415,1500
7.608784914016724,338,175,66,0.00019091256204658267,1501.5,1450,1415,1500
7.631745100021362,339,175,70,0.00017543859649122806,1501.5,1450,1415.0,1500
7.654798984527588,340,174,63,0.00024177949709864604,1501.4000000000001,1450,1415,1500
7.678014039993286,341,174,58,0.00033967391304347825,1501.4000000000001,1450,1415,1500
7.701107025146484,342,175,72,0.00018625442354255913,1501.5,1450,1414.0,1500
7.724211931228638,343,175,72,0.00018946570670708602,1501.5,1450,1414.0,1500
7.747355937957764,344,174,65,0.00026752273943285177,1501.4000000000001,1450,1415,1500
7.770370960235596,345,173,64,0.0002840909090909091,1501.3,1450,1415,1500
7.793662071228027,346,174,61,0.00033422459893048126,1501.4000000000001,1450,1415,1500
7.816526889801025,347,174,73,0.00020661157024793388,1501.4000000000001,1450,1413.5,1500
7.839566946029663,348,173,73,0.0002153316106804479,1501.3,1450,1413.5,1500
7.8628668785095215,349,174,73,0.0002089864158829676,1501.4000000000001,1450,1413.5,1500
7.885951995849609,350,173,71,0.00024295432458697764,1501.3,1450,1414.5,1500
7.90890097618103,351,173,62,0.000392156862745098,1501.3,1450,1415,1500
7.9319329261779785,352,173,74,0.00022461814914645105,1501.3,1450,1413.0,1500
7.95497989654541,353,173,71,0.000251004016064257,1501.3,1450,1414.5,1500
7.978142023086548,354,172,74,0.00023452157598499062,1501.2,1450,1413.0,1500
8.001158952713013,355,172,68,0.00031655587211142766,1501.2,1450,1415,1500
8.024264097213745,356,172,66,0.0003741114852225963,1501.2,1450,1415,1500
8.047168970108032,357,171,69,0.000297441998810232,1501.0999999999999,1450,1415,1500
8.070312023162842,358,170,75,0.00025138260432378077,1501.0,1450,1412.5,1500
8.093530893325806,359,170,75,0.00025316455696202533,1501.0,1450,1412.5,1500
8.116584062576294,360,170,66,0.00041893590280687055,1501.0,1450,1415,1500
8.139600038528442,361,169,76,0.00026504108136761196,1500.9000000000001,1450,1412.0,1500
8.163198947906494,362,169,76,0.00026504108136761196,1500.9000000000001,1450,1412.0,1500
8.186248064041138,363,169,71,0.0003417634996582365,1500.9000000000001,1450,1414.5,1500
8.209208011627197,364,167,70,0.00035561877667140827,1500.7,1450,1415.0,1500
8.232515096664429,365,167,75,0.0003059975520195838,1500.7,1450,1412.5,1500
8.25548505783081,366,165,77,0.0002799552071668533,1500.5,1450,1411.5,1500
8.278533935546875,367,165,77,0.00029239766081871346,1500.5,1450,1411.5,1500
8.301465034484863,368,165,68,0.00048262548262548264,1500.5,1450,1415,1500
8.324447870254517,369,164,71,0.00043591979075850045,1500.4000000000001,1450,1414.5,1500
8.34750509262085,370,164,74,0.0003604902667627974,1500.4000000000001,1450,1413.0,1500
8.370728015899658,371,163,79,0.00030864197530864197,1500.3,1450,1410.5,1500
8.393779039382935,372,163,70,0.0004789272030651341,1500.3,1450,1415.0,1500
8.417025089263916,373,162,79,0.0003156565656565657,1500.2,1450,1410.5,1500
8.440304040908813,374,161,78,0.0003246753246753247,1500.0999999999999,1450,1411.0,1500
8.463536977767944,375,161,78,0.00032754667540124465,1500.0999999999999,1450,1411.0,1500
8.486541986465454,376,161,78,0.0003401360544217687,1500.0999999999999,1450,1411.0,1500
8.509625911712646,377,161,78,0.0003401360544217687,1500.0999999999999,1450,1411.0,1500
8.532896995544434,378,160,77,0.00036114120621162876,1500.0,1450,1411.5,1500
8.556113958358765,379,160,71,0.0005291005291005291,1500.0,1450,1414.5,1500
8.579221963882446,380,160,78,0.00035014005602240897,1500.0,1450,1411.0,1500
8.602490901947021,381,160,77,0.00038138825324180017,1500.0,1450,1411.5,1500
8.62619400024414,382,160,79,0.0003534817956875221,1500.0,1450,1410.5,1500
8.649420022964478,383,160,78,0.0003676470588235294,1500.0,1450,1411.0,1500
8.672672033309937,384,160,84,0.0005330490405117271,1500.0,1450,1408.0,1500
8.695666074752808,385,160,78,0.00036403349108117945,1500.0,1450,1411.0,1500
8.718667030334473,386,160,78,0.00036403349108117945,1500.0,1450,1411.0,1500
8.741712093353271,387,160,78,0.0003695491500369549,1500.0,1450,1411.0,1500
8.764721870422363,388,160,78,0.0003787878787878788,1500.0,1450,1411.0,1500
8.788094997406006,389,161,78,0.0003846153846153846,1500.0999999999999,1450,1411.0,1500
8.811065912246704,390,160,78,0.00040064102564102563,1500.0,1450,1411.0,1500
8.834320068359375,391,161,78,0.0003846153846153846,1500.0999999999999,1450,1411.0,1500
8.857621908187866,392,161,74,0.00048828125,1500.0999999999999,1450,1413.0,1500
8.880742073059082,393,161,78,0.00040064102564102563,1500.0999999999999,1450,1411.0,1500
8.90388798713684,394,161,78,0.00040064102564102563,1500.0999999999999,1450,1411.0,1500
8.926898956298828,395,162,74,0.0005120327700972862,1500.2,1450,1413.0,1500
8.950162887573242,396,162,78,0.0004177109440267335,1500.2,1450,1411.0,1500
8.973341941833496,397,163,77,0.000429000429000429,1500.3,1450,1411.5,1500
8.996370077133179,398,163,78,0.00042444821731748726,1500.3,1450,1411.0,1500
9.019553899765015,399,163,78,0.00041118421052631577,1500.3,1450,1411.0,1500
9.04311203956604,400,164,78,0.0004314063848144953,1500.4000000000001,1450,1411.0,1500
9.066251993179321,401,163,79,0.00041356492969396195,1500.3,1450,1410.5,1500
9.089365005493164,402,164,79,0.0004314063848144953,1500.4000000000001,1450,1410.5,1500
9.11272406578064,403,164,79,0.00042444821731748726,1500.4000000000001,1450,1410.5,1500
9.136009931564331,404,164,80,0.00043591979075850045,1500.4000000000001,1450,1410.0,1500
9.159185886383057,405,165,81,0.00043591979075850045,1500.5,1450,1409.5,1500
9.182499885559082,406,166,73,0.0007704160246533128,1500.5999999999999,1450,1413.5,1500
9.205528020858765,407,165,81,0.00045045045045045046,1500.5,1450,1409.5,1500
9.228484869003296,408,165,75,0.000651890482398957,1500.5,1450,1412.5,1500
9.251682996749878,409,165,81,0.00047080979284369113,1500.5,1450,1409.5,1500
9.274695873260498,410,165,81,0.000462962962962963,1500.5,1450,1409.5,1500
9.297745943069458,411,165,81,0.0004789272030651341,1500.5,1450,1409.5,1500
9.320775032043457,412,165,82,0.0005012531328320802,1500.5,1450,1409.0,1500
9.3438138961792,413,165,82,0.0004926108374384236,1500.5,1450,1409.0,1500
9.36691689491272,414,166,81,0.00047080979284369113,1500.5999999999999,1450,1409.5,1500
9.390124082565308,415,166,81,0.0005070993914807302,1500.5999999999999,1450,1409.5,1500
9.413147926330566,416,166,79,0.0006049606775559589,1500.5999999999999,1450,1410.5,1500
9.436363935470581,417,166,81,0.0005070993914807302,1500.5999999999999,1450,1409.5,1500
9.459459066390991,418,166,81,0.0004926108374384236,1500.5999999999999,1450,1409.5,1500
9.482918977737427,419,166,80,0.0005070993914807302,1500.5999999999999,1450,1410.0,1500
9.505939960479736,420,166,77,0.0006157635467980296,1500.5999999999999,1450,1411.5,1500
9.529031038284302,421,166,80,0.0005102040816326531,1500.5999999999999,1450,1410.0,1500
9.552226066589355,422,166,80,0.0005159958720330237,1500.5999999999999,1450,1410.0,1500
9.575370073318481,423,165,81,0.0005411255411255411,1500.5,1450,1409.5,1500
9.598381042480469,424,166,80,0.0005012531328320802,1500.5999999999999,1450,1410.0,1500
9.621402025222778,425,166,77,0.0006385696040868455,1500.5999999999999,1450,1411.5,1500
9.64438509941101,426,166,80,0.0005102040816326531,1500.5999999999999,1450,1410.0,1500
9.66745400428772,427,166,81,0.000531632110579479,1500.5999999999999,1450,1409.5,1500
9.690629005432129,428,165,81,0.0005411255411255411,1500.5,1450,1409.5,1500
9.71375298500061,429,165,80,0.0005580357142857143,1500.5,1450,1410.0,1500
9.736792087554932,430,165,80,0.0005787037037037037,1500.5,1450,1410.0,1500
9.75997805595398,431,164,80,0.0005611672278338945,1500.4000000000001,1450,1410.0,1500
9.783537864685059,432,164,79,0.0005446623093681918,1500.4000000000001,1450,1410.5,1500
9.806554079055786,433,164,80,0.0005611672278338945,1500.4000000000001,1450,1410.0,1500
9.829546928405762,434,164,80,0.0005681818181818182,1500.4000000000001,1450,1410.0,1500
9.853036880493164,435,164,80,0.0005787037037037037,1500.4000000000001,1450,1410.0,1500
9.876112937927246,436,164,75,0.0008984725965858042,1500.4000000000001,1450,1412.5,1500
9.89923095703125,437,162,80,0.0005787037037037037,1500.2,1450,1410.0,1500
9.922410011291504,438,163,80,0.0006086427267194157,1500.3,1450,1410.0,1500
9.94546389579773,439,163,80,0.0005717552887364208,1500.3,1450,1410.0,1500
9.968427896499634,440,162,80,0.0005787037037037037,1500.2,1450,1410.0,1500
9.991410970687866,441,162,80,0.0005717552887364208,1500.2,1450,1410.0,1500
10.01442289352417,442,161,80,0.0006009615384615385,1500.0999999999999,1450,1410.0,1500
10.037438869476318,443,161,80,0.0005827505827505828,1500.0999999999999,1450,1410.0,1500
10.060597896575928,444,161,80,0.0005787037037037037,1500.0999999999999,1450,1410.0,1500
10.083990097045898,445,160,80,0.0006203473945409429,1500.0,1450,1410.0,1500
10.106925964355469,446,161,80,0.0006086427267194157,1500.0999999999999,1450,1410.0,1500
10.130264043807983,447,161,80,0.0006086427267194157,1500.0999999999999,1450,1410.0,1500
10.15343689918518,448,160,80,0.0006203473945409429,1500.0,1450,1410.0,1500
10.176476955413818,449,160,80,0.0006325110689437065,1500.0,1450,1410.0,1500
10.199404954910278,450,160,79,0.00065359477124183,1500.0,1450,1410.5,1500
10.22281789779663,451,160,80,0.0006203473945409429,1500.0,1450,1410.0,1500
10.24589991569519,452,160,80,0.0006203473945409429,1500.0,1450,1410.0,1500
10.269001960754395,453,159,80,0.0006203473945409429,1499.9000000000001,1450,1410.0,1500
10.291992902755737,454,159,80,0.0006203473945409429,1499.9000000000001,1450,1410.0,1500
10.31512999534607,455,160,75,0.00089126559714795,1500.0,1450,1412.5,1500
10.338109970092773,456,160,80,0.0006325110689437065,1500.0,1450,1410.0,1500
10.361098051071167,457,159,77,0.0007692307692307692,1499.9000000000001,1450,1411.5,1500
10.384196996688843,458,160,74,0.000980392156862745,1500.0,1450,1413.0,1500
10.407315969467163,459,160,80,0.0006666666666666666,1500.0,1450,1410.0,1500
10.43049693107605,460,160,80,0.0006451612903225806,1500.0,1450,1410.0,1500
10.453613042831421,461,161,80,0.00065359477124183,1500.0999999999999,1450,1410.0,1500
10.476712942123413,462,161,80,0.00065359477124183,1500.0999999999999,1450,1410.0,1500
10.499933004379272,463,161,80,0.0006325110689437065,1500.0999999999999,1450,1410.0,1500
10.523024082183838,464,160,79,0.0007558578987150416,1500.0,1450,1410.5,1500
10.546128034591675,465,161,80,0.00065359477124183,1500.0999999999999,1450,1410.0,1500
10.569124937057495,466,161,80,0.0006802721088435374,1500.0999999999999,1450,1410.0,1500
10.592418909072876,467,161,80,0.0006802721088435374,1500.0999999999999,1450,1410.0,1500
10.615556001663208,468,161,80,0.0006451612903225806,1500.0999999999999,1450,1410.0,1500
10.638686895370483,469,161,78,0.0007849293563579278,1500.0999999999999,1450,1411.0,1500
10.661808013916016,470,161,77,0.0008873114463176575,1500.0999999999999,1450,1411.5,1500
10.684818983078003,471,162,80,0.0006802721088435374,1500.2,1450,1410.0,1500
10.707765102386475,472,162,80,0.0006666666666666666,1500.2,1450,1410.0,1500
10.730822086334229,473,162,80,0.0006666666666666666,1500.2,1450,1410.0,1500
10.753895044326782,474,162,81,0.000689655172413793,1500.2,1450,1409.5,1500
10.777055025100708,475,161,81,0.000689655172413793,1500.0999999999999,1450,1409.5,1500
10.800369024276733,476,162,81,0.000676132521974307,1500.2,1450,1409.5,1500
10.823700904846191,477,162,75,0.001,1500.2,1450,1412.5,1500
10.846736907958984,478,162,80,0.0006666666666666666,1500.2,1450,1410.0,1500
10.869800090789795,479,162,81,0.0007037297677691766,1500.2,1450,1409.5,1500
10.892898082733154,480,162,80,0.0006944444444444445,1500.2,1450,1410.0,1500
10.915940046310425,481,162,77,0.000992063492063492,1500.2,1450,1411.5,1500
10.939141035079956,482,162,74,0.0013020833333333333,1500.2,1450,1413.0,1500
10.96251106262207,483,163,81,0.0007037297677691766,1500.3,1450,1409.5,1500
10.985460996627808,484,163,81,0.0007037297677691766,1500.3,1450,1409.5,1500
11.008711099624634,485,163,86,0.0011574074074074073,1500.3,1450,1407.0,1500
11.031715869903564,486,163,80,0.0006944444444444445,1500.3,1450,1410.0,1500
11.054698944091797,487,163,81,0.0007183908045977011,1500.3,1450,1409.5,1500
11.07767391204834,488,163,81,0.0007183908045977011,1500.3,1450,1409.5,1500
11.100727081298828,489,163,76,0.000992063492063492,1500.3,1450,1412.0,1500
11.123730897903442,490,164,77,0.0008503401360544217,1500.4000000000001,1450,1411.5,1500
11.14675498008728,491,164,80,0.0007037297677691766,1500.4000000000001,1450,1410.0,1500
11.16993498802185,492,164,80,0.0007037297677691766,1500.4000000000001,1450,1410.0,1500
11.193136930465698,493,163,80,0.0007183908045977011,1500.3,1450,1410.0,1500
11.216228008270264,494,164,76,0.0009671179883945841,1500.4000000000001,1450,1412.0,1500
11.239234924316406,495,163,74,0.0011574074074074073,1500.3,1450,1413.0,1500
11.26243805885315,496,163,80,0.0007183908045977011,1500.3,1450,1410.0,1500
11.285485982894897,497,163,74,0.0012515644555694619,1500.3,1450,1413.0,1500
11.308494091033936,498,163,80,0.0007183908045977011,1500.3,1450,1410.0,1500
11.331494092941284,499,163,80,0.0007183908045977011,1500.3,1450,1410.0,1500
11.35456395149231,500,163,78,0.0008183306055646482,1500.3,1450,1411.0,1500
11.377670049667358,501,163,80,0.0007336757153338225,1500.3,1450,1410.0,1500
11.400863885879517,502,163,80,0.000744047619047619,1500.3,1450,1410.0,1500
11.423901081085205,503,163,75,0.0011198208286674132,1500.3,1450,1412.5,1500
11.446845054626465,504,163,77,0.0009057971014492754,1500.3,1450,1411.5,1500
11.470118999481201,505,163,80,0.0007336757153338225,1500.3,1450,1410.0,1500
11.493277072906494,506,163,75,0.0010638297872340426,1500.3,1450,1412.5,1500
11.516404867172241,507,164,75,0.0014184397163120568,1500.4000000000001,1450,1412.5,1500
11.539431095123291,508,163,76,0.0009671179883945841,1500.3,1450,1412.0,1500
11.562609910964966,509,161,74,0.0015873015873015873,1500.0999999999999,1450,1413.0,1500
11.58565092086792,510,163,80,0.0007763975155279503,1500.3,1450,1410.0,1500
11.608651876449585,511,162,79,0.0008695652173913044,1500.2,1450,1410.5,1500
11.631578922271729,512,162,80,0.0008051529790660225,1500.2,1450,1410.0,1500
11.654691934585571,513,162,80,0.0007763975155279503,1500.2,1450,1410.0,1500
11.677951097488403,514,162,80,0.0007496251874062968,1500.2,1450,1410.0,1500
11.70102310180664,515,162,80,0.0007763975155279503,1500.2,1450,1410.0,1500
11.724102020263672,516,162,80,0.0007662835249042146,1500.2,1450,1410.0,1500
11.747137069702148,517,162,80,0.0007496251874062968,1500.2,1450,1410.0,1500
11.770389080047607,518,162,74,0.0014814814814814814,1500.2,1450,1413.0,1500
11.793597936630249,519,162,80,0.0007763975155279503,1500.2,1450,1410.0,1500
11.816724061965942,520,163,80,0.0007936507936507937,1500.3,1450,1410.0,1500
11.839853048324585,521,162,76,0.0010869565217391304,1500.2,1450,1412.0,1500
11.862848997116089,522,163,81,0.0008230452674897119,1500.3,1450,1409.5,1500
11.886060953140259,523,161,76,0.0012531328320802004,1500.0999999999999,1450,1412.0,1500
11.90908694267273,524,163,77,0.0010582010582010583,1500.3,1450,1411.5,1500
11.932413101196289,525,162,74,0.0015151515151515152,1500.2,1450,1413.0,1500
11.955466985702515,526,163,78,0.0011111111111111111,1500.3,1450,1411.0,1500
11.978573083877563,527,163,80,0.0007936507936507937,1500.3,1450,1410.0,1500
12.001549005508423,528,162,75,0.0012626262626262627,1500.2,1450,1412.5,1500
12.02462387084961,529,163,81,0.0008230452674897119,1500.3,1450,1409.5,1500
12.047544956207275,530,163,80,0.0008116883116883117,1500.3,1450,1410.0,1500
12.07066798210144,531,163,74,0.0014534883720930232,1500.3,1450,1413.0,1500
12.09368109703064,532,162,76,0.0013227513227513227,1500.2,1450,1412.0,1500
12.116721868515015,533,164,76,0.0011627906976744186,1500.4000000000001,1450,1412.0,1500
12.140336036682129,534,163,80,0.0008116883116883117,1500.3,1450,1410.0,1500
12.163403987884521,535,163,75,0.001336898395721925,1500.3,1450,1412.5,1500
12.18645191192627,536,163,76,0.0011961722488038277,1500.3,1450,1412.0,1500
12.209475040435791,537,164,84,0.0012239902080783353,1500.4000000000001,1450,1408.0,1500
12.232677936553955,538,163,80,0.0008818342151675485,1500.3,1450,1410.0,1500
12.255750894546509,539,164,75,0.0013679890560875513,1500.4000000000001,1450,1412.5,1500
12.278790950775146,540,164,79,0.0008547008547008547,1500.4000000000001,1450,1410.5,1500
12.302023887634277,541,164,80,0.0008944543828264759,1500.4000000000001,1450,1410.0,1500
12.325068950653076,542,163,79,0.0008944543828264759,1500.3,1450,1410.5,1500
12.34821105003357,543,164,79,0.0008944543828264759,1500.4000000000001,1450,1410.5,1500
12.371290922164917,544,163,74,0.0014204545454545455,1500.3,1450,1413.0,1500
12.394495010375977,545,164,80,0.0008613264427217916,1500.4000000000001,1450,1410.0,1500
12.417448997497559,546,164,80,0.0008944543828264759,1500.4000000000001,1450,1410.0,1500
12.440639972686768,547,164,80,0.0008613264427217916,1500.4000000000001,1450,1410.0,1500
12.463679075241089,548,164,74,0.0016666666666666668,1500.4000000000001,1450,1413.0,1500
12.486788988113403,549,164,80,0.0009302325581395349,1500.4000000000001,1450,1410.0,1500
12.510072946548462,550,163,80,0.0008613264427217916,1500.3,1450,1410.0,1500
12.533314943313599,551,162,75,0.0015873015873015873,1500.2,1450,1412.5,1500
12.556386947631836,552,162,81,0.001,1500.2,1450,1409.5,1500
12.57944393157959,553,163,80,0.0009380863039399625,1500.3,1450,1410.0,1500
12.602626085281372,554,163,74,0.001876172607879925,1500.3,1450,1413.0,1500
12.625633001327515,555,162,84,0.0013157894736842105,1500.2,1450,1408.0,1500
12.648678064346313,556,163,81,0.000975609756097561,1500.3,1450,1409.5,1500
12.671902894973755,557,163,81,0.000975609756097561,1500.3,1450,1409.5,1500
12.694895029067993,558,163,81,0.000975609756097561,1500.3,1450,1409.5,1500
12.717900037765503,559,162,81,0.001,1500.2,1450,1409.5,1500
12.74097490310669,560,162,78,0.00125,1500.2,1450,1411.0,1500
12.764162063598633,561,163,81,0.000975609756097561,1500.3,1450,1409.5,1500
12.78721308708191,562,162,75,0.0018315018315018315,1500.2,1450,1412.5,1500
12.810520887374878,563,163,77,0.0013550135501355014,1500.3,1450,1411.5,1500
12.833770036697388,564,163,81,0.000975609756097561,1500.3,1450,1409.5,1500
12.856827020645142,565,163,81,0.000975609756097561,1500.3,1450,1409.5,1500
12.880044937133789,566,162,77,0.00125,1500.2,1450,1411.5,1500
12.903295040130615,567,162,81,0.001,1500.2,1450,1409.5,1500
12.926302909851074,568,163,81,0.000975609756097561,1500.3,1450,1409.5,1500
12.949335098266602,569,163,81,0.000975609756097561,1500.3,1450,1409.5,1500
12.972517013549805,570,162,85,0.001488095238095238,1500.2,1450,1407.5,1500
12.995471000671387,571,163,81,0.000975609756097561,1500.3,1450,1409.5,1500
13.01863408088684,572,163,78,0.0012836970474967907,1500.3,1450,1411.0,1500
13.04175090789795,573,162,81,0.000975609756097561,1500.2,1450,1409.5,1500
13.064822912216187,574,163,81,0.000975609756097561,1500.3,1450,1409.5,1500
13.087838888168335,575,162,81,0.000975609756097561,1500.2,1450,1409.5,1500
13.11080002784729,576,162,81,0.0009523809523809524,1500.2,1450,1409.5,1500
13.133975982666016,577,163,81,0.000975609756097561,1500.3,1450,1409.5,1500
13.157286882400513,578,162,81,0.001,1500.2,1450,1409.5,1500
13.180439949035645,579,163,81,0.000975609756097561,1500.3,1450,1409.5,1500
13.203588962554932,580,163,81,0.000975609756097561,1500.3,1450,1409.5,1500
13.226660966873169,581,163,81,0.000975609756097561,1500.3,1450,1409.5,1500
13.249958992004395,582,162,77,0.0013550135501355014,1500.2,1450,1411.5,1500
13.273067951202393,583,163,81,0.000975609756097561,1500.3,1450,1409.5,1500
13.296058893203735,584,162,81,0.0009523809523809524,1500.2,1450,1409.5,1500
13.31909990310669,585,163,80,0.0009380863039399625,1500.3,1450,1410.0,1500
13.342348098754883,586,162,81,0.0010256410256410256,1500.2,1450,1409.5,1500
13.365889072418213,587,162,78,0.001349527665317139,1500.2,1450,1411.0,1500
13.38890790939331,588,162,81,0.000975609756097561,1500.2,1450,1409.5,1500
13.41214108467102,589,161,81,0.001,1500.0999999999999,1450,1409.5,1500
13.435081958770752,590,162,81,0.000975609756097561,1500.2,1450,1409.5,1500
13.458177089691162,591,162,81,0.001,1500.2,1450,1409.5,1500
13.481157064437866,592,161,81,0.001,1500.0999999999999,1450,1409.5,1500
13.504142999649048,593,162,81,0.001,1500.2,1450,1409.5,1500
13.527167081832886,594,162,81,0.0010256410256410256,1500.2,1450,1409.5,1500
13.550379991531372,595,161,81,0.000975609756097561,1500.0999999999999,1450,1409.5,1500
13.573457956314087,596,162,81,0.0010256410256410256,1500.2,1450,1409.5,1500
13.596544027328491,597,161,80,0.0009615384615384616,1500.0999999999999,1450,1410.0,1500
13.619816064834595,598,162,81,0.001,1500.2,1450,1409.5,1500
13.643078088760376,599,162,81,0.001,1500.2,1450,1409.5,1500
13.66631007194519,600,162,81,0.000975609756097561,1500.2,1450,1409.5,1500
13.689282894134521,601,162,81,0.0010256410256410256,1500.2,1450,1409.5,1500
13.712516069412231,602,162,81,0.001,1500.2,1450,1409.5,1500
13.735599994659424,603,162,81,0.001,1500.2,1450,1409.5,1500
13.758722066879272,604,161,80,0.0009380863039399625,1500.0999999999999,1450,1410.0,1500
13.781929969787598,605,161,81,0.001,1500.0999999999999,1450,1409.5,1500
13.80511999130249,606,162,81,0.000975609756097561,1500.2,1450,1409.5,1500
13.828227996826172,607,162,81,0.000975609756097561,1500.2,1450,1409.5,1500
13.85116696357727,608,161,81,0.001,1500.0999999999999,1450,1409.5,1500
13.874239921569824,609,162,79,0.0011655011655011655,1500.2,1450,1410.5,1500
13.89729905128479,610,161,81,0.001,1500.0999999999999,1450,1409.5,1500
13.920473098754883,611,161,81,0.001,1500.0999999999999,1450,1409.5,1500
13.943528890609741,612,162,80,0.0009615384615384616,1500.2,1450,1410.0,1500
13.966651916503906,613,162,81,0.000975609756097561,1500.2,1450,1409.5,1500
13.98996090888977,614,162,81,0.0010416666666666667,1500.2,1450,1409.5,1500
14.013423919677734,615,161,81,0.001,1500.0999999999999,1450,1409.5,1500
14.0364670753479,616,161,81,0.0009523809523809524,1500.0999999999999,1450,1409.5,1500
14.05952000617981,617,162,81,0.0010256410256410256,1500.2,1450,1409.5,1500
14.082705974578857,618,162,81,0.001,1500.2,1450,1409.5,1500
14.105715036392212,619,162,81,0.000975609756097561,1500.2,1450,1409.5,1500
14.128911018371582,620,162,80,0.0010869565217391304,1500.2,1450,1410.0,1500
14.152143001556396,621,162,81,0.000975609756097561,1500.2,1450,1409.5,1500
14.175381898880005,622,161,81,0.001,1500.0999999999999,1450,1409.5,1500
14.198410034179688,623,161,81,0.001,1500.0999999999999,1450,1409.5,1500
14.221456050872803,624,162,81,0.0010256410256410256,1500.2,1450,1409.5,1500
14.24466609954834,625,162,78,0.0011086474501108647,1500.2,1450,1411.0,1500
14.267980098724365,626,161,81,0.001,1500.0999999999999,1450,1409.5,1500
14.291034936904907,627,162,81,0.0010256410256410256,1500.2,1450,1409.5,1500
14.31400203704834,628,162,81,0.0010256410256410256,1500.2,1450,1409.5,1500
14.337219953536987,629,162,81,0.0010256410256410256,1500.2,1450,1409.5,1500
14.360431909561157,630,162,81,0.000975609756097561,1500.2,1450,1409.5,1500
14.383622884750366,631,162,81,0.0010256410256410256,1500.2,1450,1409.5,1500
14.406651020050049,632,161,80,0.0009615384615384616,1500.0999999999999,1450,1410.0,1500
14.429622888565063,633,162,81,0.001,1500.2,1450,1409.5,1500
14.452845096588135,634,162,77,0.0017094017094017094,1500.2,1450,1411.5,1500
14.475982904434204,635,162,81,0.0010256410256410256,1500.2,1450,1409.5,1500
14.499125003814697,636,161,81,0.001,1500.0999999999999,1450,1409.5,1500
14.522572040557861,637,161,81,0.001,1500.0999999999999,1450,1409.5,1500
14.545600891113281,638,162,81,0.0010256410256410256,1500.2,1450,1409.5,1500
14.568724870681763,639,162,81,0.0010256410256410256,1500.2,1450,1409.5,1500
14.59166693687439,640,161,81,0.0010256410256410256,1500.0999999999999,1450,1409.5,1500
14.614717960357666,641,161,81,0.0010256410256410256,1500.0999999999999,1450,1409.5,1500
14.638077020645142,642,161,78,0.0013157894736842105,1500.0999999999999,1450,1411.0,1500
14.661242961883545,643,160,81,0.001,1500.0,1450,1409.5,1500
14.684244871139526,644,160,80,0.000925925925925926,1500.0,1450,1410.0,1500
14.707237005233765,645,160,80,0.001,1500.0,1450,1410.0,1500
14.730318069458008,646,161,79,0.0009157509157509158,1500.0999999999999,1450,1410.5,1500
14.753657102584839,647,161,76,0.0012836970474967907,1500.0999999999999,1450,1412.0,1500
14.777062892913818,648,161,79,0.0008944543828264759,1500.0999999999999,1450,1410.5,1500
14.800265073776245,649,161,77,0.0010111223458038423,1500.0999999999999,1450,1411.5,1500
14.823544979095459,650,160,79,0.0008613264427217916,1500.0,1450,1410.5,1500
14.84660792350769,651,159,77,0.000946969696969697,1499.9000000000001,1450,1411.5,1500
14.86954402923584,652,159,78,0.0008116883116883117,1499.9000000000001,1450,1411.0,1500
14.892838954925537,653,158,78,0.0007763975155279503,1499.8,1450,1411.0,1500
14.915798902511597,654,158,78,0.0007763975155279503,1499.8,1450,1411.0,1500
14.93884801864624,655,158,78,0.0007336757153338225,1499.8,1450,1411.0,1500
14.961807012557983,656,158,78,0.0007336757153338225,1499.8,1450,1411.0,1500
14.984890937805176,657,157,78,0.0007183908045977011,1499.7,1450,1411.0,1500
15.007802963256836,658,156,78,0.0007183908045977011,1499.5999999999999,1450,1411.0,1500
15.03089690208435,659,156,78,0.0007183908045977011,1499.5999999999999,1450,1411.0,1500
15.053948879241943,660,156,78,0.0007037297677691766,1499.5999999999999,1450,1411.0,1500
15.077034950256348,661,156,78,0.0007288629737609329,1499.5999999999999,1450,1411.0,1500
15.100377082824707,662,155,78,0.0006802721088435374,1499.5,1450,1411.0,1500
15.123533010482788,663,154,78,0.0006802721088435374,1499.4000000000001,1450,1411.0,1500
15.146606922149658,664,154,78,0.0006802721088435374,1499.4000000000001,1450,1411.0,1500
15.169638872146606,665,154,78,0.00065359477124183,1499.4000000000001,1450,1411.0,1500
15.192841053009033,666,153,78,0.00065359477124183,1499.3,1450,1411.0,1500
15.215883016586304,667,154,78,0.0006325110689437065,1499.4000000000001,1450,1411.0,1500
15.238940954208374,668,152,78,0.0006451612903225806,1499.2,1450,1411.0,1500
15.262013912200928,669,153,78,0.0006325110689437065,1499.3,1450,1411.0,1500
15.285124063491821,670,151,78,0.0006203473945409429,1499.0999999999999,1450,1411.0,1500
15.30809998512268,671,151,78,0.0006203473945409429,1499.0999999999999,1450,1411.0,1500
15.331085920333862,672,151,78,0.0005973715651135006,1499.0999999999999,1450,1411.0,1500
15.354130983352661,673,151,77,0.0005896226415094339,1499.0999999999999,1450,1411.5,1500
15.377140045166016,674,151,72,0.0008576329331046312,1499.0999999999999,1450,1414.0,1500
15.40027904510498,675,150,77,0.0005446623093681918,1499.0,1450,1411.5,1500
15.423458099365234,676,150,73,0.0008525149190110827,1499.0,1450,1413.5,1500
15.446516036987305,677,150,77,0.0005347593582887701,1499.0,1450,1411.5,1500
15.469661951065063,678,150,77,0.0005347593582887701,1499.0,1450,1411.5,1500
15.492857933044434,679,149,76,0.0004926108374384236,1498.9000000000001,1450,1412.0,1500
15.515898942947388,680,149,76,0.0005159958720330237,1498.9000000000001,1450,1412.0,1500
15.539100885391235,681,149,75,0.0004873294346978557,1498.9000000000001,1450,1412.5,1500
15.562015056610107,682,148,75,0.0004926108374384236,1498.8,1450,1412.5,1500
15.585077047348022,683,148,75,0.00048426150121065375,1498.8,1450,1412.5,1500
15.608232975006104,684,148,74,0.00045045045045045046,1498.8,1450,1413.0,1500
15.631349086761475,685,148,74,0.00048426150121065375,1498.8,1450,1413.0,1500
15.654582977294922,686,147,72,0.00044306601683650863,1498.7,1450,1414.0,1500
15.677565097808838,687,147,72,0.00044306601683650863,1498.7,1450,1414.0,1500
15.700643062591553,688,146,70,0.00042444821731748726,1498.5999999999999,1450,1415.0,1500
15.723844051361084,689,146,69,0.0004177109440267335,1498.5999999999999,1450,1415,1500
15.746753931045532,690,145,69,0.00042444821731748726,1498.5,1450,1415,1500
15.769629955291748,691,145,68,0.00041356492969396195,1498.5,1450,1415,1500
15.793011903762817,692,145,67,0.0003846153846153846,1498.5,1450,1415,1500
15.815918922424316,693,145,67,0.0003846153846153846,1498.5,1450,1415,1500
15.83897590637207,694,143,66,0.0003695491500369549,1498.3,1450,1415,1500
15.862117052078247,695,143,65,0.0003695491500369549,1498.3,1450,1415,1500
15.885020017623901,696,143,64,0.00036403349108117945,1498.3,1450,1415,1500
15.908024072647095,697,143,63,0.00035536602700781805,1498.3,1450,1415,1500
15.931079864501953,698,142,63,0.0003419972640218878,1498.2,1450,1415,1500
15.954107999801636,699,142,63,0.0003370407819346141,1498.2,1450,1415,1500
15.977015018463135,700,142,62,0.00032938076416337287,1498.2,1450,1415,1500
16.000253915786743,701,141,62,0.0003322259136212625,1498.0999999999999,1450,1415,1500
16.023334980010986,702,140,61,0.00031298904538341156,1498.0,1450,1415,1500
16.046256065368652,703,139,60,0.0003003003003003003,1497.9000000000001,1450,1415,1500
16.069135904312134,704,139,59,0.0002977963073257892,1497.9000000000001,1450,1415,1500
16.09232187271118,705,138,59,0.0002875215641173088,1497.8,1450,1415,1500
16.115171909332275,706,138,58,0.0002777777777777778,1497.8,1450,1415,1500
16.138242959976196,707,137,58,0.0002685284640171858,1497.7,1450,1415,1500
16.161168098449707,708,137,58,0.00026504108136761196,1497.7,1450,1415,1500
16.184053897857666,709,136,57,0.00025138260432378077,1497.5999999999999,1450,1415,1500
16.20695996284485,710,136,56,0.00025138260432378077,1497.5999999999999,1450,1415,1500
16.23011589050293,711,135,55,0.00023293733985557886,1497.5,1450,1415,1500
16.253175020217896,712,134,54,0.00023741690408357076,1497.4000000000001,1450,1415,1500
16.276052951812744,713,133,53,0.00022311468094600624,1497.3,1450,1415,1500
16.29904294013977,714,132,53,0.00021645021645021645,1497.2,1450,1415,1500
16.32215690612793,715,132,52,0.00021786492374727668,1497.2,1450,1415,1500
16.34509301185608,716,131,51,0.00020525451559934318,1497.0999999999999,1450,1415,1500
16.368022918701172,717,130,51,0.00020292207792207794,1497.0,1450,1415,1500
16.39098596572876,718,130,50,0.00020064205457463884,1497.0,1450,1415,1500
16.413896083831787,719,128,49,0.00019157088122605365,1496.8,1450,1415,1500
16.43683409690857,720,128,48,0.0001853911753800519,1496.8,1450,1415,1500
16.45968008041382,721,127,48,0.00018031013342949875,1496.7,1450,1415,1500
16.482835054397583,722,127,47,0.00017543859649122806,1496.7,1450,1415,1500
16.505742073059082,723,126,47,0.00017076502732240437,1496.5999999999999,1450,1415,1500
16.528656005859375,724,126,46,0.0001690045631232043,1496.5999999999999,1450,1415,1500
16.551573991775513,725,125,45,0.00016458196181698485,1496.5,1450,1415,1500
16.57443904876709,726,125,45,0.00015873015873015873,1496.5,1450,1415,1500
16.597349882125854,727,125,44,0.0001523229246001523,1496.5,1450,1415,1500
16.620337963104248,728,124,43,0.00014652014652014652,1496.4000000000001,1450,1415,1500
16.64334487915039,729,124,42,0.0001443001443001443,1496.4000000000001,1450,1415,1500
16.666167974472046,730,124,41,0.00013743815283122595,1496.4000000000001,1450,1415,1500
16.689162969589233,731,124,41,0.00013491635186184566,1496.4000000000001,1450,1415,1500
16.711994886398315,732,123,40,0.00012987012987012987,1496.3,1450,1415,1500
16.735069036483765,733,124,40,0.00012825445684237527,1496.4000000000001,1450,1415,1500
16.758033990859985,734,124,39,0.0001224739742804654,1496.4000000000001,1450,1415,1500
16.78120493888855,735,124,39,0.00012038040207054291,1496.4000000000001,1450,1415,1500
16.804213047027588,736,124,38,0.00011770244821092278,1496.4000000000001,1450,1415,1500
16.82727599143982,737,125,37,0.00011321181931393638,1496.5,1450,1415,1500
16.850183963775635,738,125,36,0.00010897994768962511,1496.5,1450,1415,1500
16.873204946517944,739,126,36,0.00010810810810810811,1496.5999999999999,1450,1415,1500
16.89605689048767,740,126,36,0.00010640561821664184,1496.5999999999999,1450,1415,1500
16.919041872024536,741,127,36,0.00010619093129446746,1496.7,1450,1415,1500
16.941899061203003,742,127,36,0.00010456969570218551,1496.7,1450,1415,1500
16.96524405479431,743,128,36,0.00010299721907508497,1496.8,1450,1415,1500
16.9881329536438,744,128,36,0.0001007252215954875,1496.8,1450,1415,1500
17.011209964752197,745,129,36,9.784735812133073e-05,1496.9000000000001,1450,1415,1500
17.034111976623535,746,131,36,9.45000945000945e-05,1497.0999999999999,1450,1415,1500
17.057173013687134,747,130,36,9.255831173639393e-05,1497.0,1450,1415,1500
17.080108880996704,748,131,36,9.130752373995617e-05,1497.0999999999999,1450,1415,1500
17.103163957595825,749,132,36,8.890469416785207e-05,1497.2,1450,1415,1500
17.126034021377563,750,133,36,8.775008775008775e-05,1497.3,1450,1415,1500
17.149137020111084,751,134,36,8.552856654122477e-05,1497.4000000000001,1450,1415,1500
17.172237873077393,752,136,36,8.499065102838688e-05,1497.5999999999999,1450,1415,1500
17.19523000717163,753,138,36,8.140670791273201e-05,1497.8,1450,1415,1500
17.218118906021118,754,139,36,8.043758043758043e-05,1497.9000000000001,1450,1415,1500
17.24118399620056,755,140,37,7.889546351084812e-05,1498.0,1450,1415,1500
17.26403307914734,756,141,37,7.707129094412332e-05,1498.0999999999999,1450,1415,1500
17.286974906921387,757,142,37,7.49063670411985e-05,1498.2,1450,1415,1500
17.310118913650513,758,142,36,7.507507507507507e-05,1498.2,1450,1415,1500
17.33320903778076,759,144,36,7.344300822561692e-05,1498.4000000000001,1450,1415,1500
17.35607409477234,760,145,36,7.32547066149e-05,1498.5,1450,1415,1500
17.37923502922058,761,145,36,7.134703196347032e-05,1498.5,1450,1415,1500
17.402393102645874,762,146,36,6.756756756756757e-05,1498.5999999999999,1450,1415,1500
17.425381898880005,763,148,37,6.504065040650406e-05,1498.8,1450,1415,1500
17.448389053344727,764,148,37,6.265664160401002e-05,1498.8,1450,1415,1500
17.471343994140625,765,149,38,6.068697657482704e-05,1498.9000000000001,1450,1415,1500
17.49416708946228,766,150,38,5.8809691837214774e-05,1499.0,1450,1415,1500
17.517126083374023,767,151,38,5.749108888122341e-05,1499.0999999999999,1450,1415,1500
17.54027509689331,768,153,40,5.3253807647246777e-05,1499.3,1450,1415,1500
17.563304901123047,769,153,42,5.0276520864756156e-05,1499.3,1450,1415,1500
17.586250066757202,770,154,43,4.676393565282454e-05,1499.4000000000001,1450,1415,1500
17.60927391052246,771,155,47,4.210526315789474e-05,1499.5,1450,1415,1500
17.632431030273438,772,155,44,4.4587123238808635e-05,1499.5,1450,1415,1500
17.655373096466064,773,157,49,3.861003861003861e-05,1499.7,1450,1415,1500
17.678217887878418,774,158,51,3.6636746656896867e-05,1499.8,1450,1415,1500
17.701335906982422,775,158,51,3.5744924220760655e-05,1499.8,1450,1415,1500
