time,frame,x,y,size_inv,roll,pitch,thrust,yaw
0,1,213,70,0.000552791597567717,1505.3,1480.5279159756772,1250,1500
0.05,2,189,97,0.00016326530612244898,1502.9,1480,1206.0,1500
0.1,3,183,82,0.00012025012025012025,1502.3,1480,1236.0,1500
0.15000000000000002,4,184,89,0.00016592002654720425,1502.4,1480,1222.0,1500
0.2,5,165,86,0.00011655011655011655,1500.5,1480,1228.0,1500
0.25,6,158,84,0.00010642826734780758,1499.8,1480,1232.0,1500
0.3,7,153,78,8.059316569954868e-05,1499.3,1480,1244.0,1500
0.35,8,158,82,8.512087163772556e-05,1499.8,1480,1236.0,1500
0.39999999999999997,9,166,83,9.307520476545048e-05,1500.6,1480,1234.0,1500
0.44999999999999996,10,158,91,7.919537499010058e-05,1499.8,1480,1218.0,1500
0.49999999999999994,11,169,95,0.00010310341272296113,1500.9,1480,1210.0,1500
0.5499999999999999,12,155,84,5.1813471502590674e-05,1499.5,1480,1232.0,1500
0.6,13,163,107,0.0001072041166380789,1500.3,1480,1186.0,1500
0.65,14,152,87,5.08130081300813e-05,1499.2,1480,1226.0,1500
0.7000000000000001,15,157,105,7.425558773297691e-05,1499.7,1480,1190.0,1500
0.7500000000000001,16,159,83,4.3554006968641115e-05,1499.9,1480,1234.0,1500
0.8000000000000002,17,157,90,4.936808846761453e-05,1499.7,1480,1220.0,1500
0.8500000000000002,18,161,87,4.308487720809996e-05,1500.1,1480,1226.0,1500
0.9000000000000002,19,161,91,4.513653802753329e-05,1500.1,1480,1218.0,1500
0.9500000000000003,20,160,89,4.2277935145647484e-05,1500.0,1480,1222.0,1500
1.0000000000000002,21,161,86,3.963849690819724e-05,1500.1,1480,1228.0,1500
1.0500000000000003,22,165,91,4.2789901583226356e-05,1500.5,1480,1218.0,1500
1.1000000000000003,23,160,93,4.1353072533289225e-05,1500.0,1480,1214.0,1500
1.1500000000000004,24,159,97,4.211590296495957e-05,1499.9,1480,1206.0,1500
1.2000000000000004,25,159,100,4.2789901583226356e-05,1499.9,1480,1200.0,1500
1.2500000000000004,26,158,93,3.595699543346158e-05,1499.8,1480,1214.0,1500
1.3000000000000005,27,159,109,4.338583018786064e-05,1499.9,1480,1182.0,1500
1.3500000000000005,28,163,110,4.8430840759395585e-05,1500.3,1480,1180.0,1500
1.4000000000000006,29,163,111,5.163422316311251e-05,1500.3,1480,1178.0,1500
1.4500000000000006,30,157,113,4.734848484848485e-05,1499.7,1480,1174.0,1500
1.5000000000000007,31,158,108,4.359197907585005e-05,1499.8,1480,1184.0,1500
1.5500000000000007,32,161,112,4.940711462450593e-05,1500.1,1480,1176.0,1500
1.6000000000000008,33,163,117,5.689576695493855e-05,1500.3,1480,1166.0,1500
1.6500000000000008,34,174,88,0.00012683916793505834,1501.4,1480,1224.0,1500
1.7000000000000008,35,164,121,6.362537379907107e-05,1500.4,1480,1158.0,1500
1.7500000000000009,36,166,101,7.817385866166354e-05,1500.6,1480,1198.0,1500
1.800000000000001,37,168,117,6.027727546714889e-05,1500.8,1480,1166.0,1500
1.850000000000001,38,159,92,0.00011299435028248587,1499.9,1480,1216.0,1500
1.900000000000001,39,169,113,7.077140835102619e-05,1500.9,1480,1174.0,1500
1.950000000000001,40,164,113,6.370238246910434e-05,1500.4,1480,1174.0,1500
2.000000000000001,41,163,103,7.918283316177053e-05,1500.3,1480,1194.0,1500
2.0500000000000007,42,177,96,0.00018477457501847746,1501.7,1480,1208.0,1500
2.1000000000000005,43,160,110,6.384065372829418e-05,1500.0,1480,1180.0,1500
2.1500000000000004,44,167,103,8.484642796538266e-05,1500.7,1480,1194.0,1500
2.2,45,167,110,6.538084341288002e-05,1500.7,1480,1180.0,1500
2.25,46,164,91,0.0001063264221158958,1500.4,1480,1218.0,1500
2.3,47,157,109,7.122507122507122e-05,1499.7,1480,1182.0,1500
2.3499999999999996,48,166,97,0.00011033873993158998,1500.6,1480,1206.0,1500
2.3999999999999995,49,155,100,8.036001285760205e-05,1499.5,1480,1200.0,1500
2.4499999999999993,50,165,114,6.10016470444702e-05,1500.5,1480,1172.0,1500
2.499999999999999,51,169,94,0.00011230907457322552,1500.9,1480,1212.0,1500
2.549999999999999,52,204,100,0.00035919540229885057,1504.4,1480,1200.0,1500
2.5999999999999988,53,192,100,0.0002774694783573807,1503.2,1480,1200.0,1500
2.6499999999999986,54,177,102,9.081827263645445e-05,1501.7,1480,1196.0,1500
2.6999999999999984,55,171,96,0.00011299435028248587,1501.1,1480,1208.0,1500
2.7499999999999982,56,159,113,6.005284650492433e-05,1499.9,1480,1174.0,1500
2.799999999999998,57,174,109,7.216569242981887e-05,1501.4,1480,1182.0,1500
2.849999999999998,58,174,94,0.00011068068622025456,1501.4,1480,1212.0,1500
2.8999999999999977,59,168,98,0.00010708931248661383,1500.8,1480,1204.0,1500
2.9499999999999975,60,173,110,8.389261744966443e-05,1501.3,1480,1180.0,1500
2.9999999999999973,61,166,102,9.884353069091628e-05,1500.6,1480,1196.0,1500
3.049999999999997,62,166,100,0.00017901897601145723,1500.6,1480,1200.0,1500
3.099999999999997,63,165,135,0.00024366471734892786,1500.5,1480,1150,1500
3.149999999999997,64,164,136,0.00021258503401360543,1500.4,1480,1150,1500
3.1999999999999966,65,172,92,0.000248015873015873,1501.2,1480,1216.0,1500
3.2499999999999964,66,174,134,0.00021748586341887777,1501.4,1480,1150,1500
3.2999999999999963,67,153,119,6.799945600435197e-05,1499.3,1480,1162.0,1500
3.349999999999996,68,162,114,6.45827951433738e-05,1500.2,1480,1172.0,1500
3.399999999999996,69,155,111,5.1153511688577424e-05,1499.5,1480,1178.0,1500
3.4499999999999957,70,161,110,5.594092638174088e-05,1500.1,1480,1180.0,1500
3.4999999999999956,71,161,98,7.440476190476191e-05,1500.1,1480,1204.0,1500
3.5499999999999954,72,184,86,0.0001554001554001554,1502.4,1480,1228.0,1500
3.599999999999995,73,195,85,0.0002469135802469136,1503.5,1480,1230.0,1500
3.649999999999995,74,189,89,0.00016835016835016836,1502.9,1480,1222.0,1500
3.699999999999995,75,164,101,9.645061728395061e-05,1500.4,1480,1198.0,1500
3.7499999999999947,76,198,88,0.00018867924528301886,1503.8,1480,1224.0,1500
3.7999999999999945,77,184,82,0.00018456995201181247,1502.4,1480,1236.0,1500
3.8499999999999943,78,148,133,0.00013574046423238766,1498.8,1480,1150,1500
3.899999999999994,79,170,131,9.797198001371608e-05,1501.0,1480,1150,1500
3.949999999999994,80,172,106,5.1153511688577424e-05,1501.2,1480,1188.0,1500
3.999999999999994,81,173,107,5.664117813650524e-05,1501.3,1480,1186.0,1500
4.049999999999994,82,160,128,9.92063492063492e-05,1500.0,1480,1150,1500
4.099999999999993,83,165,111,7.8125e-05,1500.5,1480,1178.0,1500
4.149999999999993,84,169,102,8.721437292865864e-05,1500.9,1480,1196.0,1500
4.199999999999993,85,170,107,8.851907586084801e-05,1501.0,1480,1186.0,1500
4.249999999999993,86,155,100,6.211180124223603e-05,1499.5,1480,1200.0,1500
4.299999999999993,87,176,101,0.00012054001928640309,1501.6,1480,1198.0,1500
4.3499999999999925,88,169,82,0.00012183235867446393,1500.9,1480,1236.0,1500
4.399999999999992,89,160,100,5.299417064122947e-05,1500.0,1480,1200.0,1500
4.449999999999992,90,173,102,5.497526113249038e-05,1501.3,1480,1196.0,1500
4.499999999999992,91,162,103,4.532269760696157e-05,1500.2,1480,1194.0,1500
4.549999999999992,92,196,127,0.000127000254000508,1503.6,1480,1150,1500
4.599999999999992,93,172,126,0.00010324179227751394,1501.2,1480,1150,1500
4.6499999999999915,94,161,110,6.109481915933529e-05,1500.1,1480,1180.0,1500
4.699999999999991,95,156,101,5.427702996092054e-05,1499.6,1480,1198.0,1500
4.749999999999991,96,163,100,6.49772579597141e-05,1500.3,1480,1200.0,1500
4.799999999999991,97,161,99,6.568144499178982e-05,1500.1,1480,1202.0,1500
4.849999999999991,98,169,100,8.662508662508663e-05,1500.9,1480,1200.0,1500
4.899999999999991,99,204,121,0.0004478280340349306,1504.4,1480,1158.0,1500
4.94999999999999,100,165,97,8.564576909900651e-05,1500.5,1480,1206.0,1500
4.99999999999999,101,166,98,6.760411032990806e-05,1500.6,1480,1204.0,1500
5.04999999999999,102,187,95,9.893153937475267e-05,1502.7,1480,1210.0,1500
5.09999999999999,103,181,82,0.00015151515151515152,1502.1,1480,1236.0,1500
5.14999999999999,104,160,126,0.00011019283746556474,1500.0,1480,1150,1500
5.1999999999999895,105,160,102,4.4161808867691223e-05,1500.0,1480,1196.0,1500
5.249999999999989,106,173,106,5.531279384921732e-05,1501.3,1480,1188.0,1500
5.299999999999989,107,162,105,5.343307507347048e-05,1500.2,1480,1190.0,1500
5.349999999999989,108,158,102,5.0505050505050505e-05,1499.8,1480,1196.0,1500
5.399999999999989,109,164,100,6.38895987733197e-05,1500.4,1480,1200.0,1500
5.449999999999989,110,172,97,6.596741209842338e-05,1501.2,1480,1206.0,1500
5.4999999999999885,111,163,100,7.102272727272727e-05,1500.3,1480,1200.0,1500
5.549999999999988,112,168,95,6.845564074479737e-05,1500.8,1480,1210.0,1500
5.599999999999988,113,166,98,6.897027381198704e-05,1500.6,1480,1204.0,1500
5.649999999999988,114,166,114,0.00010743446497636442,1500.6,1480,1172.0,1500
5.699999999999988,115,167,98,5.4945054945054945e-05,1500.7,1480,1204.0,1500
5.749999999999988,116,161,98,4.5271402055321653e-05,1500.1,1480,1204.0,1500
5.799999999999987,117,159,106,4.71342383107089e-05,1499.9,1480,1188.0,1500
5.849999999999987,118,166,105,4.545041359876375e-05,1500.6,1480,1190.0,1500
5.899999999999987,119,169,107,5.0720227226617976e-05,1500.9,1480,1186.0,1500
5.949999999999987,120,163,107,5.233683990160674e-05,1500.3,1480,1186.0,1500
5.999999999999987,121,162,96,5.159958720330237e-05,1500.2,1480,1208.0,1500
6.0499999999999865,122,165,99,6.173601679219657e-05,1500.5,1480,1202.0,1500
6.099999999999986,123,173,93,7.481669908723627e-05,1501.3,1480,1214.0,1500
6.149999999999986,124,197,108,0.0002206531332744925,1503.7,1480,1184.0,1500
6.199999999999986,125,213,119,0.0018181818181818182,1505.3,1493.1818181818182,1162.0,1500
6.249999999999986,126,208,123,0.00202020202020202,1504.8,1495.20202020202,1154.0,1500
6.299999999999986,127,171,113,0.0012315270935960591,1501.1,1487.3152709359606,1174.0,1500
6.349999999999985,128,201,123,0.00038095238095238096,1504.1,1480,1154.0,1500
6.399999999999985,129,193,72,0.0003924646781789639,1503.3,1480,1250,1500
6.449999999999985,130,175,125,0.00013290802764486976,1501.5,1480,1150.0,1500
6.499999999999985,131,168,101,4.99151442547669e-05,1500.8,1480,1198.0,1500
6.549999999999985,132,157,123,7.326007326007326e-05,1499.7,1480,1154.0,1500
6.5999999999999845,133,161,100,4.878762745767673e-05,1500.1,1480,1200.0,1500
6.649999999999984,134,161,99,5.0020008003201284e-05,1500.1,1480,1202.0,1500
6.699999999999984,135,158,98,5.102040816326531e-05,1499.8,1480,1204.0,1500
6.749999999999984,136,158,97,5.511160099200882e-05,1499.8,1480,1206.0,1500
6.799999999999984,137,161,99,6.730833950326445e-05,1500.1,1480,1202.0,1500
6.849999999999984,138,170,113,0.0001310272536687631,1501.0,1480,1174.0,1500
6.8999999999999835,139,174,103,0.00010364842454394693,1501.4,1480,1194.0,1500
6.949999999999983,140,188,118,0.00026737967914438503,1502.8,1480,1164.0,1500
6.999999999999983,141,166,95,6.645401382243488e-05,1500.6,1480,1210.0,1500
7.049999999999983,142,206,127,0.0003546099290780142,1504.6,1480,1150,1500
7.099999999999983,143,179,101,6.0379181258302136e-05,1501.9,1480,1198.0,1500
7.149999999999983,144,167,122,8.229098090849243e-05,1500.7,1480,1156.0,1500
7.199999999999982,145,162,123,7.267441860465116e-05,1500.2,1480,1154.0,1500
7.249999999999982,146,158,103,4.538852578068264e-05,1499.8,1480,1194.0,1500
7.299999999999982,147,158,119,7.326007326007326e-05,1499.8,1480,1162.0,1500
7.349999999999982,148,155,94,4.901480247034604e-05,1499.5,1480,1212.0,1500
7.399999999999982,149,158,97,5.845218611176058e-05,1499.8,1480,1206.0,1500
7.4499999999999815,150,161,92,6.385696040868455e-05,1500.1,1480,1216.0,1500
7.499999999999981,151,162,95,8.012820512820513e-05,1500.2,1480,1210.0,1500
7.549999999999981,152,179,115,0.00033692722371967657,1501.9,1480,1170.0,1500
7.599999999999981,153,160,102,0.0006060606060606061,1500.0,1481.060606060606,1196.0,1500
7.649999999999981,154,135,108,0.00023255813953488373,1497.5,1480,1184.0,1500
7.699999999999981,155,159,106,0.000333000333000333,1499.9,1480,1188.0,1500
7.7499999999999805,156,200,122,0.00022799817601459188,1504.0,1480,1156.0,1500
7.79999999999998,157,182,120,0.00012099213551119177,1502.2,1480,1160.0,1500
7.84999999999998,158,147,97,3.885003885003885e-05,1498.7,1480,1206.0,1500
7.89999999999998,159,156,103,4.541738577527478e-05,1499.6,1480,1194.0,1500
7.94999999999998,160,155,123,7.035317292809905e-05,1499.5,1480,1154.0,1500
7.99999999999998,161,155,100,4.434589800443459e-05,1499.5,1480,1200.0,1500
8.04999999999998,162,158,98,4.7888133320563166e-05,1499.8,1480,1204.0,1500
8.09999999999998,163,156,99,5.6892530010809584e-05,1499.6,1480,1202.0,1500
8.14999999999998,164,159,92,5.759373380176237e-05,1499.9,1480,1216.0,1500
8.199999999999982,165,166,93,7.313149041977475e-05,1500.6,1480,1214.0,1500
8.249999999999982,166,188,113,0.00018828845791752966,1502.8,1480,1174.0,1500
8.299999999999983,167,193,104,0.00024348672997321646,1503.3,1480,1192.0,1500
8.349999999999984,168,171,90,6.390593047034765e-05,1501.1,1480,1220.0,1500
8.399999999999984,169,185,115,0.00017768301350390902,1502.5,1480,1170.0,1500
8.449999999999985,170,203,122,0.00017352073572791948,1504.3,1480,1156.0,1500
8.499999999999986,171,166,96,4.443654461429079e-05,1500.6,1480,1208.0,1500
8.549999999999986,172,165,121,7.432181345224824e-05,1500.5,1480,1158.0,1500
8.599999999999987,173,158,105,4.624491305956345e-05,1499.8,1480,1190.0,1500
8.649999999999988,174,158,120,7.215007215007215e-05,1499.8,1480,1160.0,1500
8.699999999999989,175,153,97,4.782629489693433e-05,1499.3,1480,1206.0,1500
8.74999999999999,176,157,95,5.398984990821726e-05,1499.7,1480,1210.0,1500
8.79999999999999,177,162,88,5.8241118229470004e-05,1500.2,1480,1224.0,1500
8.84999999999999,178,160,95,7.13165026387106e-05,1500.0,1480,1210.0,1500
8.899999999999991,179,179,115,0.0001984126984126984,1501.9,1480,1170.0,1500
8.949999999999992,180,212,73,0.00051440329218107,1505.2,1480.1440329218108,1250,1500
8.999999999999993,181,191,114,0.00014880952380952382,1503.1,1480,1172.0,1500
9.049999999999994,182,184,93,6.568144499178982e-05,1502.4,1480,1214.0,1500
9.099999999999994,183,163,95,4.383081306158229e-05,1500.3,1480,1210.0,1500
9.149999999999995,184,163,120,6.41025641025641e-05,1500.3,1480,1160.0,1500
9.199999999999996,185,160,97,3.6565745209887376e-05,1500.0,1480,1206.0,1500
9.249999999999996,186,170,108,5.0276520864756156e-05,1501.0,1480,1184.0,1500
9.299999999999997,187,161,96,3.6743092298647854e-05,1500.1,1480,1208.0,1500
9.349999999999998,188,163,92,4.065040650406504e-05,1500.3,1480,1216.0,1500
9.399999999999999,189,158,98,4.670278348589576e-05,1499.8,1480,1204.0,1500
9.45,190,164,91,5.030434126465114e-05,1500.4,1480,1218.0,1500
9.5,191,165,91,5.812263876780006e-05,1500.5,1480,1218.0,1500
9.55,192,174,88,6.971556051310653e-05,1501.4,1480,1224.0,1500
9.600000000000001,193,192,85,0.00012077294685990338,1503.2,1480,1230.0,1500
9.650000000000002,194,186,113,0.0010683760683760685,1502.6,1485.6837606837607,1174.0,1500
9.700000000000003,195,146,76,0.002136752136752137,1498.6,1496.3675213675215,1248.0,1500
9.750000000000004,196,185,114,0.0008305647840531562,1502.5,1483.3056478405315,1172.0,1500
9.800000000000004,197,219,103,0.0010893246187363835,1505.9,1485.8932461873637,1194.0,1500
9.850000000000005,198,225,77,0.0017482517482517483,1506.5,1492.4825174825176,1246.0,1500
9.900000000000006,199,191,108,0.001148105625717566,1503.1,1486.4810562571756,1184.0,1500
9.950000000000006,200,213,123,0.00028555111364934324,1505.3,1480,1154.0,1500
10.000000000000007,201,166,94,5.025378159706518e-05,1500.6,1480,1212.0,1500
10.050000000000008,202,170,109,9.44822373393802e-05,1501.0,1480,1182.0,1500
10.100000000000009,203,163,85,4.9135220125786166e-05,1500.3,1480,1230.0,1500
10.15000000000001,204,170,87,7.072135785007072e-05,1501.0,1480,1226.0,1500
10.20000000000001,205,172,83,8.130081300813008e-05,1501.2,1480,1234.0,1500
10.25000000000001,206,177,75,8.84016973125884e-05,1501.7,1480,1250.0,1500
10.300000000000011,207,143,68,0.00019584802193497845,1498.3,1480,1250,1500
10.350000000000012,208,144,54,0.0003787878787878788,1498.4,1480,1250,1500
10.400000000000013,209,155,58,0.003861003861003861,1499.5,1513.6100386100386,1250,1500
10.450000000000014,210,183,45,0.0014577259475218659,1502.3,1489.5772594752186,1250,1500
10.500000000000014,211,169,37,0.009523809523809525,1500.9,1520,1250,1500
10.550000000000015,212,154,25,0.004545454545454545,1499.4,1520,1250,1500
10.600000000000016,212,,,,1500.0,1500.0,1200.0,1500
10.650000000000016,212,,,,1500.0,1500.0,1200.0,1500
10.700000000000017,212,,,,1500.0,1500.0,1200.0,1500
10.750000000000018,212,,,,1500.0,1500.0,1200.0,1500
10.800000000000018,212,,,,1500.0,1500.0,1200.0,1500
10.85000000000002,212,,,,1500.0,1500.0,1200.0,1500
10.90000000000002,212,,,,1500.0,1500.0,1200.0,1500
10.95000000000002,212,,,,1500.0,1500.0,1200.0,1500
11.000000000000021,212,,,,1500.0,1500.0,1200.0,1500
11.050000000000022,212,,,,1500.0,1500.0,1200.0,1500
11.100000000000023,212,,,,1500.0,1500.0,1200.0,1500
11.150000000000023,212,,,,1500.0,1500.0,1200.0,1500
11.200000000000024,212,,,,1500.0,1500.0,1200.0,1500
11.250000000000025,212,,,,1500.0,1500.0,1200.0,1500
11.300000000000026,212,,,,1500.0,1500.0,1200.0,1500
11.350000000000026,212,,,,1500.0,1500.0,1200.0,1500
11.400000000000027,212,,,,1500.0,1500.0,1200.0,1500
11.450000000000028,212,,,,1500.0,1500.0,1200.0,1500
11.500000000000028,212,,,,1500.0,1500.0,1200.0,1500
11.55000000000003,212,,,,1500.0,1500.0,1200.0,1500
11.60000000000003,212,,,,1500.0,1500.0,1200.0,1500
11.65000000000003,212,,,,1500.0,1500.0,1200.0,1500
11.700000000000031,212,,,,1500.0,1500.0,1200.0,1500
11.750000000000032,212,,,,1500.0,1500.0,1200.0,1500
11.800000000000033,212,,,,1500.0,1500.0,1200.0,1500
11.850000000000033,212,,,,1500.0,1500.0,1200.0,1500
11.900000000000034,212,,,,1500.0,1500.0,1200.0,1500
11.950000000000035,212,,,,1500.0,1500.0,1200.0,1500
12.000000000000036,212,,,,1500.0,1500.0,1200.0,1500
12.050000000000036,212,,,,1500.0,1500.0,1200.0,1500
12.100000000000037,212,,,,1500.0,1500.0,1200.0,1500
12.150000000000038,212,,,,1500.0,1500.0,1200.0,1500
12.200000000000038,212,,,,1500.0,1500.0,1200.0,1500
12.250000000000039,212,,,,1500.0,1500.0,1200.0,1500
12.30000000000004,212,,,,1500.0,1500.0,1200.0,1500
12.35000000000004,212,,,,1500.0,1500.0,1200.0,1500
12.400000000000041,212,,,,1500.0,1500.0,1200.0,1500
12.450000000000042,213,167,30,0.047619047619047616,1500.7,1520,1250,1500
12.500000000000043,214,200,58,0.015625,1504.0,1520,1250,1500
12.550000000000043,215,116,46,0.01098901098901099,1495.6,1520,1250,1500
12.600000000000044,216,189,72,0.0038461538461538464,1502.9,1513.4615384615386,1250,1500
12.650000000000045,217,140,74,0.0026954177897574125,1498.0,1501.954177897574,1250,1500
12.700000000000045,218,187,88,0.0003595828838547285,1502.7,1480,1224.0,1500
12.750000000000046,219,150,88,0.0008223684210526315,1499.0,1483.2236842105262,1224.0,1500
12.800000000000047,220,118,76,0.0005580357142857143,1495.8,1480.580357142857,1248.0,1500
12.850000000000048,221,197,95,0.0007407407407407407,1503.7,1482.4074074074074,1210.0,1500
12.900000000000048,222,161,83,9.74089226573154e-05,1500.1,1480,1234.0,1500
12.950000000000049,223,167,84,0.00011091393078970719,1500.7,1480,1232.0,1500
13.00000000000005,224,162,82,0.00011098779134295228,1500.2,1480,1236.0,1500
13.05000000000005,225,208,87,0.0002840909090909091,1504.8,1480,1226.0,1500
13.100000000000051,226,164,85,0.00013815971262779773,1500.4,1480,1230.0,1500
13.150000000000052,227,192,85,0.00038402457757296467,1503.2,1480,1230.0,1500
13.200000000000053,228,214,68,0.0008305647840531562,1505.4,1483.3056478405315,1250,1500
13.250000000000053,229,166,88,0.00018315018315018315,1500.6,1480,1224.0,1500
13.300000000000054,230,195,92,0.0015873015873015873,1503.5,1490.873015873016,1216.0,1500
13.350000000000055,231,166,97,0.00020008003201280514,1500.6,1480,1206.0,1500
13.400000000000055,232,195,108,0.001893939393939394,1503.5,1493.939393939394,1184.0,1500
13.450000000000056,233,155,104,0.00010871928680147858,1499.5,1480,1192.0,1500
13.500000000000057,234,154,112,0.00010893246187363834,1499.4,1480,1176.0,1500
13.550000000000058,235,146,115,0.00010149193139145438,1498.6,1480,1170.0,1500
13.600000000000058,236,146,106,7.562008469449486e-05,1498.6,1480,1188.0,1500
13.650000000000059,237,164,110,0.0001168907071887785,1500.4,1480,1180.0,1500
13.70000000000006,238,156,101,9.392317084624777e-05,1499.6,1480,1198.0,1500
13.75000000000006,239,170,85,9.578544061302682e-05,1501.0,1480,1230.0,1500
13.800000000000061,240,158,95,0.0002145002145002145,1499.8,1480,1210.0,1500
13.850000000000062,241,160,87,0.0006784260515603799,1500.0,1481.7842605156038,1226.0,1500
13.900000000000063,242,204,70,0.001893939393939394,1504.4,1493.939393939394,1250,1500
13.950000000000063,243,192,59,0.0002955082742316785,1503.2,1480,1250,1500
14.000000000000064,244,187,95,0.000744047619047619,1502.7,1482.4404761904761,1210.0,1500
14.050000000000065,245,194,102,0.0002801905295601009,1503.4,1480,1196.0,1500
14.100000000000065,246,157,108,0.00012017786323759164,1499.7,1480,1184.0,1500
14.150000000000066,247,164,112,0.00014688601645123384,1500.4,1480,1176.0,1500
14.200000000000067,248,148,110,6.591957811470006e-05,1498.8,1480,1180.0,1500
14.250000000000068,249,148,108,6.592827004219409e-05,1498.8,1480,1184.0,1500
14.300000000000068,250,148,106,6.043026347594876e-05,1498.8,1480,1188.0,1500
14.350000000000069,251,156,101,6.627344423089668e-05,1499.6,1480,1198.0,1500
14.40000000000007,252,148,99,7.002801120448179e-05,1498.8,1480,1202.0,1500
14.45000000000007,253,164,80,6.207324643078833e-05,1500.4,1480,1240.0,1500
14.500000000000071,254,164,74,6.044487427466151e-05,1500.4,1480,1250,1500
14.550000000000072,255,166,91,0.00011116051578479324,1500.6,1480,1218.0,1500
14.600000000000072,256,174,90,0.00012406947890818859,1501.4,1480,1220.0,1500
14.650000000000073,257,205,105,0.00051440329218107,1504.5,1480.1440329218108,1190.0,1500
14.700000000000074,258,174,98,0.00019290123456790122,1501.4,1480,1204.0,1500
14.750000000000075,259,143,105,0.0001414027149321267,1498.3,1480,1190.0,1500
14.800000000000075,260,144,64,0.00041425020712510354,1498.4,1480,1250,1500
14.850000000000076,261,123,70,0.00024177949709864604,1496.3,1480,1250,1500
14.900000000000077,262,106,70,0.0007575757575757576,1494.6,1482.5757575757575,1250,1500
14.950000000000077,263,94,86,0.003289473684210526,1493.4,1507.8947368421052,1228.0,1500
15.000000000000078,264,105,63,0.0006377551020408163,1494.5,1481.3775510204082,1250,1500
15.050000000000079,265,104,100,0.0008620689655172414,1494.4,1483.6206896551723,1200.0,1500
15.10000000000008,266,125,95,0.0004522840343735866,1496.5,1480,1210.0,1500
15.15000000000008,267,152,99,0.00033046926635822867,1499.2,1480,1202.0,1500
15.200000000000081,268,164,96,0.0018867924528301887,1500.4,1493.867924528302,1208.0,1500
15.250000000000082,269,166,94,8.025682182985554e-05,1500.6,1480,1212.0,1500
15.300000000000082,270,182,91,6.901311249137337e-05,1502.2,1480,1218.0,1500
15.350000000000083,271,190,90,9.473285335354301e-05,1503.0,1480,1220.0,1500
15.400000000000084,272,181,95,0.0005580357142857143,1502.1,1480.580357142857,1210.0,1500
15.450000000000085,273,221,83,0.000108038029386344,1506.1,1480,1234.0,1500
15.500000000000085,274,213,81,9.911785112498761e-05,1505.3,1480,1238.0,1500
15.550000000000086,275,204,82,9.75800156128025e-05,1504.4,1480,1236.0,1500
15.600000000000087,276,184,84,7.849293563579278e-05,1502.4,1480,1232.0,1500
15.650000000000087,277,167,89,7.627765064836003e-05,1500.7,1480,1222.0,1500
15.700000000000088,278,148,99,8.236553825879252e-05,1498.8,1480,1202.0,1500
15.750000000000089,279,144,96,8.246742536698004e-05,1498.4,1480,1208.0,1500
15.80000000000009,280,120,110,9.902951079421667e-05,1496.0,1480,1180.0,1500
15.85000000000009,281,113,115,9.012256669069935e-05,1495.3,1480,1170.0,1500
15.900000000000091,282,122,118,0.0001050420168067227,1496.2,1480,1164.0,1500
15.950000000000092,283,129,112,8.382932349735938e-05,1496.9,1480,1176.0,1500
16.000000000000092,284,153,102,0.0001004419445560466,1499.3,1480,1196.0,1500
16.050000000000093,285,169,107,0.00011793843613633684,1500.9,1480,1186.0,1500
16.100000000000094,286,187,105,0.0001607200257152041,1502.7,1480,1190.0,1500
16.150000000000095,287,180,100,9.164222873900293e-05,1502.0,1480,1200.0,1500
16.200000000000095,288,184,99,0.00010508617065994115,1502.4,1480,1202.0,1500
16.250000000000096,289,182,78,5.250997689561016e-05,1502.2,1480,1244.0,1500
16.300000000000097,290,185,84,6.528267397832615e-05,1502.5,1480,1232.0,1500
16.350000000000097,291,184,89,7.141326858530314e-05,1502.4,1480,1222.0,1500
16.400000000000098,292,181,87,6.868603612885501e-05,1502.1,1480,1226.0,1500
16.4500000000001,293,166,82,5.159160088737554e-05,1500.6,1480,1236.0,1500
16.5000000000001,294,149,82,4.541738577527478e-05,1498.9,1480,1236.0,1500
16.5500000000001,295,138,81,4.304407713498623e-05,1497.8,1480,1238.0,1500
16.6000000000001,296,133,96,5.9417706476530004e-05,1497.3,1480,1208.0,1500
16.6500000000001,297,119,108,7.819831091648421e-05,1495.9,1480,1184.0,1500
16.700000000000102,298,119,120,0.00010510826150935464,1495.9,1480,1160.0,1500
16.750000000000103,299,117,120,0.00010751532093323298,1495.7,1480,1160.0,1500
16.800000000000104,300,134,109,7.993605115907275e-05,1497.4,1480,1182.0,1500
16.850000000000104,301,162,101,7.496251874062968e-05,1500.2,1480,1198.0,1500
16.900000000000105,302,162,95,6.464124111182935e-05,1500.2,1480,1210.0,1500
16.950000000000106,303,176,90,7.463800567248842e-05,1501.6,1480,1220.0,1500
17.000000000000107,304,188,72,5.1695616211745244e-05,1502.8,1480,1250,1500
17.050000000000107,305,229,82,0.00013190871916633689,1506.9,1480,1236.0,1500
17.100000000000108,306,207,80,0.00010424267695194412,1504.7,1480,1240.0,1500
17.15000000000011,307,223,73,0.00012312238364934746,1506.3,1480,1250,1500
17.20000000000011,308,211,85,0.0002525252525252525,1505.1,1480,1230.0,1500
17.25000000000011,309,216,88,0.0012315270935960591,1505.6,1487.3152709359606,1224.0,1500
17.30000000000011,310,205,44,0.0038461538461538464,1504.5,1513.4615384615386,1250,1500
17.35000000000011,311,203,54,0.005,1504.3,1520,1250,1500
17.400000000000112,312,204,83,0.011363636363636364,1504.4,1520,1234.0,1500
17.450000000000113,313,177,78,0.002857142857142857,1501.7,1503.5714285714287,1244.0,1500
17.500000000000114,314,191,76,0.006944444444444444,1503.1,1520,1248.0,1500
17.550000000000114,315,174,82,0.007407407407407408,1501.4,1520,1236.0,1500
17.600000000000115,316,162,73,0.007692307692307693,1500.2,1520,1250,1500
17.650000000000116,317,166,49,0.0015873015873015873,1500.6,1490.873015873016,1250,1500
17.700000000000117,318,188,96,0.002777777777777778,1502.8,1502.7777777777778,1208.0,1500
17.750000000000117,319,162,85,0.002857142857142857,1500.2,1503.5714285714287,1230.0,1500
17.800000000000118,320,240,100,0.0007575757575757576,1508.0,1482.5757575757575,1200.0,1500
17.85000000000012,321,144,75,0.000552791597567717,1498.4,1480.5279159756772,1250.0,1500
17.90000000000012,322,201,84,9.009009009009009e-05,1504.1,1480,1232.0,1500
17.95000000000012,323,183,74,5.5023660173874766e-05,1502.3,1480,1250,1500
18.00000000000012,324,183,67,4.879000780640125e-05,1502.3,1480,1250,1500
18.05000000000012,325,179,79,6.053268765133172e-05,1501.9,1480,1242.0,1500
18.100000000000122,326,196,80,0.0002733734281027884,1503.6,1480,1240.0,1500
18.150000000000123,327,168,68,8.19672131147541e-05,1500.8,1480,1250,1500
18.200000000000124,328,191,60,0.00011870845204178538,1503.1,1480,1250,1500
18.250000000000124,329,145,45,0.0002315886984715146,1498.5,1480,1250,1500
18.300000000000125,330,173,17,0.006172839506172839,1501.3,1520,1250,1500
18.350000000000126,330,,,,1500.0,1500.0,1200.0,1500
18.400000000000126,330,,,,1500.0,1500.0,1200.0,1500
18.450000000000127,330,,,,1500.0,1500.0,1200.0,1500
18.500000000000128,330,,,,1500.0,1500.0,1200.0,1500
18.55000000000013,330,,,,1500.0,1500.0,1200.0,1500
18.60000000000013,330,,,,1500.0,1500.0,1200.0,1500
18.65000000000013,330,,,,1500.0,1500.0,1200.0,1500
18.70000000000013,330,,,,1500.0,1500.0,1200.0,1500
18.75000000000013,330,,,,1500.0,1500.0,1200.0,1500
18.800000000000132,330,,,,1500.0,1500.0,1200.0,1500
18.850000000000133,330,,,,1500.0,1500.0,1200.0,1500
18.900000000000134,330,,,,1500.0,1500.0,1200.0,1500
18.950000000000134,330,,,,1500.0,1500.0,1200.0,1500
19.000000000000135,330,,,,1500.0,1500.0,1200.0,1500
19.050000000000136,330,,,,1500.0,1500.0,1200.0,1500
19.100000000000136,330,,,,1500.0,1500.0,1200.0,1500
19.150000000000137,330,,,,1500.0,1500.0,1200.0,1500
19.200000000000138,330,,,,1500.0,1500.0,1200.0,1500
19.25000000000014,330,,,,1500.0,1500.0,1200.0,1500
19.30000000000014,330,,,,1500.0,1500.0,1200.0,1500
19.35000000000014,330,,,,1500.0,1500.0,1200.0,1500
19.40000000000014,330,,,,1500.0,1500.0,1200.0,1500
19.45000000000014,330,,,,1500.0,1500.0,1200.0,1500
19.500000000000142,330,,,,1500.0,1500.0,1200.0,1500
19.550000000000143,330,,,,1500.0,1500.0,1200.0,1500
19.600000000000144,330,,,,1500.0,1500.0,1200.0,1500
19.650000000000144,330,,,,1500.0,1500.0,1200.0,1500
19.700000000000145,330,,,,1500.0,1500.0,1200.0,1500
19.750000000000146,330,,,,1500.0,1500.0,1200.0,1500
19.800000000000146,330,,,,1500.0,1500.0,1200.0,1500
19.850000000000147,330,,,,1500.0,1500.0,1200.0,1500
19.900000000000148,330,,,,1500.0,1500.0,1200.0,1500
19.95000000000015,330,,,,1500.0,1500.0,1200.0,1500
20.00000000000015,330,,,,1500.0,1500.0,1200.0,1500
20.05000000000015,330,,,,1500.0,1500.0,1200.0,1500
20.10000000000015,330,,,,1500.0,1500.0,1200.0,1500
20.15000000000015,330,,,,1500.0,1500.0,1200.0,1500
20.200000000000152,330,,,,1500.0,1500.0,1200.0,1500
20.250000000000153,330,,,,1500.0,1500.0,1200.0,1500
20.300000000000153,330,,,,1500.0,1500.0,1200.0,1500
20.350000000000154,330,,,,1500.0,1500.0,1200.0,1500
20.400000000000155,330,,,,1500.0,1500.0,1200.0,1500
20.450000000000156,330,,,,1500.0,1500.0,1200.0,1500
20.500000000000156,330,,,,1500.0,1500.0,1200.0,1500
20.550000000000157,330,,,,1500.0,1500.0,1200.0,1500
20.600000000000158,330,,,,1500.0,1500.0,1200.0,1500
20.65000000000016,330,,,,1500.0,1500.0,1200.0,1500
20.70000000000016,330,,,,1500.0,1500.0,1200.0,1500
20.75000000000016,330,,,,1500.0,1500.0,1200.0,1500
20.80000000000016,330,,,,1500.0,1500.0,1200.0,1500
20.85000000000016,330,,,,1500.0,1500.0,1200.0,1500
20.900000000000162,330,,,,1500.0,1500.0,1200.0,1500
20.950000000000163,330,,,,1500.0,1500.0,1200.0,1500
21.000000000000163,330,,,,1500.0,1500.0,1200.0,1500
21.050000000000164,330,,,,1500.0,1500.0,1200.0,1500
21.100000000000165,330,,,,1500.0,1500.0,1200.0,1500
21.150000000000166,330,,,,1500.0,1500.0,1200.0,1500
21.200000000000166,330,,,,1500.0,1500.0,1200.0,1500
21.250000000000167,330,,,,1500.0,1500.0,1200.0,1500
21.300000000000168,330,,,,1500.0,1500.0,1200.0,1500
21.35000000000017,330,,,,1500.0,1500.0,1200.0,1500
21.40000000000017,330,,,,1500.0,1500.0,1200.0,1500
21.45000000000017,331,128,1,0.022727272727272728,1496.8,1520,1250,1500
21.50000000000017,332,189,21,0.027777777777777776,1502.9,1520,1250,1500
21.55000000000017,333,189,44,0.0021645021645021645,1502.9,1496.6450216450216,1250,1500
21.600000000000172,334,194,65,0.00019654088050314466,1503.4,1480,1250,1500
21.650000000000173,335,157,61,0.0006839945280437756,1499.7,1481.8399452804379,1250,1500
21.700000000000173,336,188,48,0.0026041666666666665,1502.8,1501.0416666666667,1250,1500
21.750000000000174,337,181,43,0.016666666666666666,1502.1,1520,1250,1500
21.800000000000175,338,190,33,0.003484320557491289,1503.0,1509.8432055749129,1250,1500
21.850000000000176,339,164,25,0.013888888888888888,1500.4,1520,1250,1500
21.900000000000176,340,151,31,0.010416666666666666,1499.1,1520,1250,1500
21.950000000000177,341,235,48,0.009259259259259259,1507.5,1520,1250,1500
22.000000000000178,342,219,64,0.002331002331002331,1505.9,1498.3100233100233,1250,1500
22.05000000000018,343,220,60,0.0014204545454545455,1506.0,1489.2045454545455,1250,1500
22.10000000000018,344,196,70,0.00023860653781913624,1503.6,1480,1250,1500
22.15000000000018,345,171,67,0.00010822510822510823,1501.1,1480,1250,1500
22.20000000000018,346,168,66,0.0005350454788657035,1500.8,1480.350454788657,1250,1500
22.25000000000018,347,203,62,0.00022675736961451248,1504.3,1480,1250,1500
22.300000000000182,348,182,36,0.0015723270440251573,1502.2,1490.7232704402516,1250,1500
22.350000000000183,349,211,66,0.000663129973474801,1505.1,1481.631299734748,1250,1500
22.400000000000183,350,157,56,0.00010157440325038091,1499.7,1480,1250,1500
22.450000000000184,351,159,66,6.0240963855421684e-05,1499.9,1480,1250,1500
22.500000000000185,352,165,70,6.331117442228554e-05,1500.5,1480,1250,1500
22.550000000000185,353,166,83,7.15922107674685e-05,1500.6,1480,1234.0,1500
22.600000000000186,354,169,70,6.0879094119079505e-05,1500.9,1480,1250,1500
22.650000000000187,355,168,73,6.23558022073954e-05,1500.8,1480,1250,1500
22.700000000000188,356,185,69,7.684623069238454e-05,1502.5,1480,1250,1500
22.75000000000019,357,161,69,6.228201295465869e-05,1500.1,1480,1250,1500
22.80000000000019,358,161,67,5.511463844797178e-05,1500.1,1480,1250,1500
22.85000000000019,359,170,74,6.742179072276159e-05,1501.0,1480,1250,1500
22.90000000000019,360,192,75,0.0001303780964797914,1503.2,1480,1250.0,1500
22.95000000000019,361,183,71,8.640801866413204e-05,1502.3,1480,1250,1500
23.000000000000192,362,171,65,0.00011795234725171031,1501.1,1480,1250,1500
23.050000000000193,363,217,46,0.007936507936507936,1505.7,1520,1250,1500
23.100000000000193,363,,,,1500.0,1500.0,1200.0,1500
23.150000000000194,363,,,,1500.0,1500.0,1200.0,1500
23.200000000000195,363,,,,1500.0,1500.0,1200.0,1500
23.250000000000195,363,,,,1500.0,1500.0,1200.0,1500
23.300000000000196,363,,,,1500.0,1500.0,1200.0,1500
23.350000000000197,363,,,,1500.0,1500.0,1200.0,1500
23.400000000000198,363,,,,1500.0,1500.0,1200.0,1500
23.4500000000002,363,,,,1500.0,1500.0,1200.0,1500
23.5000000000002,363,,,,1500.0,1500.0,1200.0,1500
23.5500000000002,363,,,,1500.0,1500.0,1200.0,1500
23.6000000000002,363,,,,1500.0,1500.0,1200.0,1500
23.6500000000002,363,,,,1500.0,1500.0,1200.0,1500
23.700000000000202,363,,,,1500.0,1500.0,1200.0,1500
23.750000000000203,363,,,,1500.0,1500.0,1200.0,1500
23.800000000000203,363,,,,1500.0,1500.0,1200.0,1500
23.850000000000204,363,,,,1500.0,1500.0,1200.0,1500
23.900000000000205,363,,,,1500.0,1500.0,1200.0,1500
23.950000000000205,363,,,,1500.0,1500.0,1200.0,1500
24.000000000000206,363,,,,1500.0,1500.0,1200.0,1500
24.050000000000207,363,,,,1500.0,1500.0,1200.0,1500
24.100000000000207,363,,,,1500.0,1500.0,1200.0,1500
24.150000000000208,364,97,18,0.03333333333333333,1493.7,1520,1250,1500
24.20000000000021,365,202,66,0.006944444444444444,1504.2,1520,1250,1500
24.25000000000021,366,127,61,0.0023148148148148147,1496.7,1498.148148148148,1250,1500
24.30000000000021,367,192,72,0.0009578544061302681,1503.2,1484.5785440613026,1250,1500
24.35000000000021,368,192,81,0.0007547169811320754,1503.2,1482.5471698113208,1238.0,1500
24.40000000000021,369,192,59,0.0012106537530266344,1503.2,1487.1065375302665,1250,1500
24.450000000000212,370,181,79,0.0001729804532087874,1502.1,1480,1242.0,1500
24.500000000000213,371,185,75,0.0001168770453482936,1502.5,1480,1250.0,1500
24.550000000000214,372,188,67,0.0005417118093174431,1502.8,1480.4171180931744,1250,1500
24.600000000000215,373,172,68,7.452120128176467e-05,1501.2,1480,1250,1500
24.650000000000215,374,170,72,0.0001263902932254803,1501.0,1480,1250,1500
24.700000000000216,375,163,72,7.855459544383346e-05,1500.3,1480,1250,1500
24.750000000000217,376,168,88,0.00010157440325038091,1500.8,1480,1224.0,1500
24.800000000000217,377,149,94,5.4347826086956524e-05,1498.9,1480,1212.0,1500
24.850000000000218,378,137,100,4.065040650406504e-05,1497.7,1480,1200.0,1500
24.90000000000022,379,141,103,4.169098640873843e-05,1498.1,1480,1194.0,1500
24.95000000000022,380,125,126,5.733944954128441e-05,1496.5,1480,1150,1500
25.00000000000022,381,137,109,4.4489923032433154e-05,1497.7,1480,1182.0,1500
25.05000000000022,382,140,104,4.809542131589073e-05,1498.0,1480,1192.0,1500
25.10000000000022,383,148,93,5.0517807527153325e-05,1498.8,1480,1214.0,1500
25.150000000000222,384,174,85,8.35421888053467e-05,1501.4,1480,1230.0,1500
25.200000000000223,385,175,78,8.059316569954868e-05,1501.5,1480,1244.0,1500
25.250000000000224,386,167,72,8.012820512820513e-05,1500.7,1480,1250,1500
25.300000000000225,387,180,78,0.00010743446497636442,1502.0,1480,1244.0,1500
25.350000000000225,388,184,79,0.0001330671989354624,1502.4,1480,1242.0,1500
25.400000000000226,389,186,90,0.00015220700152207003,1502.6,1480,1220.0,1500
25.450000000000227,390,158,94,9.074410163339382e-05,1499.8,1480,1212.0,1500
25.500000000000227,391,139,105,6.83526999316473e-05,1497.9,1480,1190.0,1500
25.550000000000228,392,134,99,5.555555555555556e-05,1497.4,1480,1202.0,1500
25.60000000000023,393,121,106,6.827336655970506e-05,1496.1,1480,1188.0,1500
25.65000000000023,394,114,146,0.0001221001221001221,1495.4,1480,1150,1500
25.70000000000023,395,126,150,0.00014999250037498125,1496.6,1480,1150,1500
25.75000000000023,396,121,146,0.00013440860215053763,1496.1,1480,1150,1500
25.80000000000023,397,138,92,0.00015124016938898973,1497.8,1480,1216.0,1500
25.850000000000232,398,130,90,0.00013517166801838335,1497.0,1480,1220.0,1500
25.900000000000233,399,124,148,0.00011200716845878136,1496.4,1480,1150,1500
25.950000000000234,400,122,147,9.819324430479184e-05,1496.2,1480,1150,1500
26.000000000000234,401,119,145,0.00010735373054213633,1495.9,1480,1150,1500
26.050000000000235,402,129,144,0.00011870845204178538,1496.9,1480,1150,1500
26.100000000000236,403,113,144,0.00013338668800853674,1495.3,1480,1150,1500
26.150000000000237,404,125,146,0.00011614401858304297,1496.5,1480,1150,1500
26.200000000000237,405,114,150,9.646922631680494e-05,1495.4,1480,1150,1500
26.250000000000238,406,122,136,0.0002085070892410342,1496.2,1480,1150,1500
26.30000000000024,407,121,140,0.00015320974413972729,1496.1,1480,1150,1500
26.35000000000024,408,126,152,0.0002147766323024055,1496.6,1480,1150,1500
26.40000000000024,409,118,96,0.0030303030303030303,1495.8,1505.3030303030303,1208.0,1500
26.45000000000024,410,150,131,0.0024509803921568627,1499.0,1499.5098039215686,1150,1500
26.50000000000024,411,151,134,0.0013227513227513227,1499.1,1488.2275132275133,1150,1500
26.550000000000242,412,123,124,6.357279084551812e-05,1496.3,1480,1152.0,1500
26.600000000000243,413,136,151,0.00267379679144385,1497.6,1501.7379679144385,1150,1500
26.650000000000244,414,147,98,5.0968399592252805e-05,1498.7,1480,1204.0,1500
26.700000000000244,415,176,91,5.835667600373483e-05,1501.6,1480,1218.0,1500
26.750000000000245,416,180,110,9.157509157509158e-05,1502.0,1480,1180.0,1500
26.800000000000246,417,252,93,0.0002403846153846154,1509.2,1480,1214.0,1500
26.850000000000247,418,237,99,0.00012406947890818859,1507.7,1480,1202.0,1500
26.900000000000247,419,236,97,0.00011580775911986103,1507.6,1480,1206.0,1500
26.950000000000248,420,230,99,0.00017018379850238256,1507.0,1480,1202.0,1500
27.00000000000025,421,237,103,0.00017152658662092623,1507.7,1480,1194.0,1500
27.05000000000025,422,221,118,0.0006775067750677507,1506.1,1481.7750677506774,1164.0,1500
27.10000000000025,423,221,110,0.0002787068004459309,1506.1,1480,1180.0,1500
27.15000000000025,424,204,119,0.0023148148148148147,1504.4,1498.148148148148,1162.0,1500
27.20000000000025,425,239,106,0.00014094432699083862,1507.9,1480,1188.0,1500
27.250000000000252,426,242,117,0.00042517006802721087,1508.2,1480,1166.0,1500
27.300000000000253,427,202,102,0.00011947431302270011,1504.2,1480,1196.0,1500
27.350000000000254,428,170,87,0.004310344827586207,1501.0,1518.103448275862,1226.0,1500
27.400000000000254,429,129,110,0.0017857142857142857,1496.9,1492.857142857143,1180.0,1500
27.450000000000255,430,105,71,0.0029411764705882353,1494.5,1504.4117647058824,1250,1500
27.500000000000256,431,96,103,0.041666666666666664,1493.6,1520,1194.0,1500
27.550000000000257,431,,,,1500.0,1500.0,1200.0,1500
27.600000000000257,431,,,,1500.0,1500.0,1200.0,1500
27.650000000000258,431,,,,1500.0,1500.0,1200.0,1500
27.70000000000026,431,,,,1500.0,1500.0,1200.0,1500
27.75000000000026,431,,,,1500.0,1500.0,1200.0,1500
27.80000000000026,431,,,,1500.0,1500.0,1200.0,1500
27.85000000000026,431,,,,1500.0,1500.0,1200.0,1500
27.90000000000026,431,,,,1500.0,1500.0,1200.0,1500
27.950000000000262,431,,,,1500.0,1500.0,1200.0,1500
28.000000000000263,431,,,,1500.0,1500.0,1200.0,1500
28.050000000000264,431,,,,1500.0,1500.0,1200.0,1500
28.100000000000264,431,,,,1500.0,1500.0,1200.0,1500
28.150000000000265,431,,,,1500.0,1500.0,1200.0,1500
28.200000000000266,431,,,,1500.0,1500.0,1200.0,1500
28.250000000000266,431,,,,1500.0,1500.0,1200.0,1500
28.300000000000267,431,,,,1500.0,1500.0,1200.0,1500
28.350000000000268,432,94,95,0.037037037037037035,1493.4,1520,1210.0,1500
28.40000000000027,433,130,63,0.005494505494505495,1497.0,1520,1250,1500
28.45000000000027,434,155,109,0.0016611295681063123,1499.5,1491.6112956810632,1182.0,1500
28.50000000000027,435,171,112,0.001053740779768177,1501.1,1485.5374077976817,1176.0,1500
28.55000000000027,436,170,113,0.000966183574879227,1501.0,1484.6618357487923,1174.0,1500
28.60000000000027,437,208,117,0.0008984725965858042,1504.8,1483.984725965858,1166.0,1500
28.650000000000272,438,166,105,0.00034722222222222224,1500.6,1480,1190.0,1500
28.700000000000273,439,180,103,7.857928650007858e-05,1502.0,1480,1194.0,1500
28.750000000000274,440,178,84,5.31632110579479e-05,1501.8,1480,1232.0,1500
28.800000000000274,441,207,116,0.00021800741225201656,1504.7,1480,1168.0,1500
28.850000000000275,442,193,91,5.130046683424819e-05,1503.3,1480,1218.0,1500
28.900000000000276,443,213,99,0.00011396011396011396,1505.3,1480,1202.0,1500
28.950000000000276,444,177,93,4.5142650776453595e-05,1501.7,1480,1214.0,1500
29.000000000000277,445,184,112,7.113387395077535e-05,1502.4,1480,1176.0,1500
29.050000000000278,446,176,92,4.5142650776453595e-05,1501.6,1480,1216.0,1500
29.10000000000028,447,172,90,4.114549045424621e-05,1501.2,1480,1220.0,1500
29.15000000000028,448,178,92,4.579593332112108e-05,1501.8,1480,1216.0,1500
29.20000000000028,449,176,88,4.211590296495957e-05,1501.6,1480,1224.0,1500
29.25000000000028,450,172,93,4.7023417661995674e-05,1501.2,1480,1214.0,1500
29.30000000000028,451,175,98,5.2164840897235264e-05,1501.5,1480,1204.0,1500
29.350000000000282,452,182,89,4.928293332019122e-05,1502.2,1480,1222.0,1500
29.400000000000283,453,176,94,5.151452709664125e-05,1501.6,1480,1212.0,1500
29.450000000000284,454,179,90,4.830917874396135e-05,1501.9,1480,1220.0,1500
29.500000000000284,455,176,90,4.579593332112108e-05,1501.6,1480,1220.0,1500
29.550000000000285,456,178,89,4.4752741105392706e-05,1501.8,1480,1222.0,1500
29.600000000000286,457,175,92,4.6904315196998124e-05,1501.5,1480,1216.0,1500
29.650000000000286,458,170,93,4.473072105922347e-05,1501.0,1480,1214.0,1500
29.700000000000287,459,172,96,5.05663430420712e-05,1501.2,1480,1208.0,1500
29.750000000000288,460,161,97,4.5589240939138365e-05,1500.1,1480,1206.0,1500
29.80000000000029,461,159,93,4.402764936380047e-05,1499.9,1480,1214.0,1500
29.85000000000029,462,154,95,4.854133294500267e-05,1499.4,1480,1210.0,1500
29.90000000000029,463,153,100,6.362537379907107e-05,1499.3,1480,1200.0,1500
29.95000000000029,464,145,99,8.809020436927414e-05,1498.5,1480,1202.0,1500
30.00000000000029,465,124,118,0.00014697236919459142,1496.4,1480,1164.0,1500
30.050000000000292,466,109,118,0.00041893590280687055,1494.9,1480,1164.0,1500
30.100000000000293,467,94,63,0.0005387931034482759,1493.4,1480.3879310344828,1250,1500
30.150000000000293,468,100,52,0.022727272727272728,1494.0,1520,1250,1500
30.200000000000294,468,,,,1500.0,1500.0,1200.0,1500
30.250000000000295,468,,,,1500.0,1500.0,1200.0,1500
30.300000000000296,468,,,,1500.0,1500.0,1200.0,1500
30.350000000000296,468,,,,1500.0,1500.0,1200.0,1500
30.400000000000297,468,,,,1500.0,1500.0,1200.0,1500
30.450000000000298,468,,,,1500.0,1500.0,1200.0,1500
30.5000000000003,468,,,,1500.0,1500.0,1200.0,1500
30.5500000000003,468,,,,1500.0,1500.0,1200.0,1500
30.6000000000003,468,,,,1500.0,1500.0,1200.0,1500
30.6500000000003,468,,,,1500.0,1500.0,1200.0,1500
30.7000000000003,468,,,,1500.0,1500.0,1200.0,1500
30.750000000000302,468,,,,1500.0,1500.0,1200.0,1500
30.800000000000303,468,,,,1500.0,1500.0,1200.0,1500
30.850000000000303,468,,,,1500.0,1500.0,1200.0,1500
30.900000000000304,468,,,,1500.0,1500.0,1200.0,1500
30.950000000000305,468,,,,1500.0,1500.0,1200.0,1500
31.000000000000306,468,,,,1500.0,1500.0,1200.0,1500
31.050000000000306,468,,,,1500.0,1500.0,1200.0,1500
31.100000000000307,468,,,,1500.0,1500.0,1200.0,1500
31.150000000000308,468,,,,1500.0,1500.0,1200.0,1500
31.20000000000031,468,,,,1500.0,1500.0,1200.0,1500
31.25000000000031,469,100,62,0.002688172043010753,1494.0,1501.8817204301076,1250,1500
31.30000000000031,470,121,71,0.0020833333333333333,1496.1,1495.8333333333333,1250,1500
31.35000000000031,471,192,115,0.0023923444976076554,1503.2,1498.9234449760766,1170.0,1500
31.40000000000031,472,176,126,0.0002897710808461316,1501.6,1480,1150,1500
31.450000000000312,473,178,109,0.00018907165815844205,1501.8,1480,1182.0,1500
31.500000000000313,474,202,121,0.00041425020712510354,1504.2,1480,1158.0,1500
31.550000000000313,475,209,116,0.0003071253071253071,1504.9,1480,1168.0,1500
31.600000000000314,476,196,113,0.00016728002676480428,1503.6,1480,1174.0,1500
31.650000000000315,477,182,106,7.639419404125286e-05,1502.2,1480,1188.0,1500
31.700000000000315,478,223,112,0.0007122507122507123,1506.3,1482.1225071225072,1176.0,1500
31.750000000000316,479,165,122,0.00010727311735679038,1500.5,1480,1156.0,1500
31.800000000000317,480,178,76,0.00016196954972465177,1501.8,1480,1248.0,1500
31.850000000000318,481,171,120,0.00011574074074074075,1501.1,1480,1160.0,1500
31.90000000000032,482,154,97,5.1921079958463136e-05,1499.4,1480,1206.0,1500
31.95000000000032,483,153,93,4.859086491739553e-05,1499.3,1480,1214.0,1500
32.00000000000032,484,156,92,4.81000481000481e-05,1499.6,1480,1216.0,1500
32.05000000000032,485,169,86,4.880905896134323e-05,1500.9,1480,1228.0,1500
32.100000000000314,486,182,81,5.482456140350877e-05,1502.2,1480,1238.0,1500
32.15000000000031,487,199,79,6.968641114982578e-05,1503.9,1480,1242.0,1500
32.20000000000031,488,225,92,0.00013166556945358788,1506.5,1480,1216.0,1500
32.250000000000306,489,226,97,0.000257201646090535,1506.6,1480,1206.0,1500
32.3000000000003,490,241,86,0.0006993006993006993,1508.1,1481.993006993007,1228.0,1500
32.3500000000003,491,267,81,0.0036231884057971015,1510.7,1511.231884057971,1238.0,1500
32.4000000000003,492,278,44,0.007142857142857143,1511.8,1520,1250,1500
32.450000000000294,493,277,85,0.008,1511.7,1520,1230.0,1500
32.50000000000029,494,287,70,0.011764705882352941,1512.7,1520,1250,1500
32.55000000000029,495,279,94,0.016666666666666666,1511.9,1520,1212.0,1500
32.600000000000286,496,263,95,0.01818181818181818,1510.3,1520,1210.0,1500
32.65000000000028,497,249,101,0.014285714285714285,1508.9,1520,1198.0,1500
32.70000000000028,498,244,83,0.004464285714285714,1508.4,1519.642857142857,1234.0,1500
32.75000000000028,499,226,97,0.0015527950310559005,1506.6,1490.527950310559,1206.0,1500
32.800000000000274,500,213,101,0.003472222222222222,1505.3,1509.7222222222222,1198.0,1500
32.85000000000027,501,198,84,0.0011160714285714285,1503.8,1486.1607142857142,1232.0,1500
32.90000000000027,502,189,81,0.0006038647342995169,1502.9,1481.038647342995,1238.0,1500
32.950000000000266,503,238,99,0.00033003300330033004,1507.8,1480,1202.0,1500
33.00000000000026,504,200,98,0.0013477088948787063,1504.0,1488.477088948787,1204.0,1500
33.05000000000026,505,251,109,0.001388888888888889,1509.1,1488.888888888889,1182.0,1500
33.10000000000026,506,200,92,9.018759018759019e-05,1504.0,1480,1216.0,1500
33.150000000000254,507,240,91,0.0002777777777777778,1508.0,1480,1218.0,1500
33.20000000000025,508,216,67,0.0015723270440251573,1505.6,1490.7232704402516,1250,1500
33.25000000000025,509,168,26,0.013888888888888888,1500.8,1520,1250,1500
33.300000000000246,509,,,,1500.0,1500.0,1200.0,1500
33.35000000000024,509,,,,1500.0,1500.0,1200.0,1500
33.40000000000024,509,,,,1500.0,1500.0,1200.0,1500
33.45000000000024,509,,,,1500.0,1500.0,1200.0,1500
33.500000000000234,509,,,,1500.0,1500.0,1200.0,1500
33.55000000000023,509,,,,1500.0,1500.0,1200.0,1500
33.60000000000023,509,,,,1500.0,1500.0,1200.0,1500
33.650000000000226,509,,,,1500.0,1500.0,1200.0,1500
33.70000000000022,509,,,,1500.0,1500.0,1200.0,1500
33.75000000000022,509,,,,1500.0,1500.0,1200.0,1500
33.80000000000022,509,,,,1500.0,1500.0,1200.0,1500
33.850000000000215,510,235,37,0.027777777777777776,1507.5,1520,1250,1500
33.90000000000021,510,,,,1500.0,1500.0,1200.0,1500
33.95000000000021,511,240,48,0.037037037037037035,1508.0,1520,1250,1500
34.000000000000206,512,180,38,0.022222222222222223,1502.0,1520,1250,1500
34.0500000000002,513,198,51,0.011111111111111112,1503.8,1520,1250,1500
34.1000000000002,514,163,16,0.017543859649122806,1500.3,1520,1250,1500
34.1500000000002,515,114,68,0.017857142857142856,1495.4,1520,1250,1500
34.200000000000195,516,112,81,0.047619047619047616,1495.2,1520,1238.0,1500
34.25000000000019,516,,,,1500.0,1500.0,1200.0,1500
34.30000000000019,516,,,,1500.0,1500.0,1200.0,1500
34.350000000000186,516,,,,1500.0,1500.0,1200.0,1500
34.40000000000018,516,,,,1500.0,1500.0,1200.0,1500
34.45000000000018,516,,,,1500.0,1500.0,1200.0,1500
34.50000000000018,516,,,,1500.0,1500.0,1200.0,1500
34.550000000000175,516,,,,1500.0,1500.0,1200.0,1500
34.60000000000017,516,,,,1500.0,1500.0,1200.0,1500
34.65000000000017,516,,,,1500.0,1500.0,1200.0,1500
34.700000000000166,516,,,,1500.0,1500.0,1200.0,1500
34.75000000000016,516,,,,1500.0,1500.0,1200.0,1500
34.80000000000016,516,,,,1500.0,1500.0,1200.0,1500
34.85000000000016,516,,,,1500.0,1500.0,1200.0,1500
34.900000000000155,516,,,,1500.0,1500.0,1200.0,1500
34.95000000000015,516,,,,1500.0,1500.0,1200.0,1500
35.00000000000015,516,,,,1500.0,1500.0,1200.0,1500
35.050000000000146,516,,,,1500.0,1500.0,1200.0,1500
35.10000000000014,516,,,,1500.0,1500.0,1200.0,1500
35.15000000000014,516,,,,1500.0,1500.0,1200.0,1500
35.20000000000014,516,,,,1500.0,1500.0,1200.0,1500
35.250000000000135,516,,,,1500.0,1500.0,1200.0,1500
35.30000000000013,516,,,,1500.0,1500.0,1200.0,1500
35.35000000000013,516,,,,1500.0,1500.0,1200.0,1500
35.40000000000013,516,,,,1500.0,1500.0,1200.0,1500
35.450000000000124,516,,,,1500.0,1500.0,1200.0,1500
35.50000000000012,516,,,,1500.0,1500.0,1200.0,1500
35.55000000000012,516,,,,1500.0,1500.0,1200.0,1500
35.600000000000115,516,,,,1500.0,1500.0,1200.0,1500
35.65000000000011,516,,,,1500.0,1500.0,1200.0,1500
35.70000000000011,516,,,,1500.0,1500.0,1200.0,1500
35.75000000000011,516,,,,1500.0,1500.0,1200.0,1500
35.800000000000104,516,,,,1500.0,1500.0,1200.0,1500
35.8500000000001,516,,,,1500.0,1500.0,1200.0,1500
35.9000000000001,516,,,,1500.0,1500.0,1200.0,1500
35.950000000000095,516,,,,1500.0,1500.0,1200.0,1500
36.00000000000009,516,,,,1500.0,1500.0,1200.0,1500
36.05000000000009,516,,,,1500.0,1500.0,1200.0,1500
36.10000000000009,516,,,,1500.0,1500.0,1200.0,1500
36.150000000000084,516,,,,1500.0,1500.0,1200.0,1500
36.20000000000008,516,,,,1500.0,1500.0,1200.0,1500
36.25000000000008,516,,,,1500.0,1500.0,1200.0,1500
36.300000000000075,516,,,,1500.0,1500.0,1200.0,1500
36.35000000000007,516,,,,1500.0,1500.0,1200.0,1500
36.40000000000007,516,,,,1500.0,1500.0,1200.0,1500
36.45000000000007,516,,,,1500.0,1500.0,1200.0,1500
36.500000000000064,516,,,,1500.0,1500.0,1200.0,1500
36.55000000000006,516,,,,1500.0,1500.0,1200.0,1500
36.60000000000006,516,,,,1500.0,1500.0,1200.0,1500
36.650000000000055,516,,,,1500.0,1500.0,1200.0,1500
36.70000000000005,516,,,,1500.0,1500.0,1200.0,1500
36.75000000000005,516,,,,1500.0,1500.0,1200.0,1500
36.80000000000005,516,,,,1500.0,1500.0,1200.0,1500
36.850000000000044,516,,,,1500.0,1500.0,1200.0,1500
36.90000000000004,516,,,,1500.0,1500.0,1200.0,1500
36.95000000000004,516,,,,1500.0,1500.0,1200.0,1500
37.000000000000036,516,,,,1500.0,1500.0,1200.0,1500
37.05000000000003,516,,,,1500.0,1500.0,1200.0,1500
37.10000000000003,516,,,,1500.0,1500.0,1200.0,1500
37.15000000000003,516,,,,1500.0,1500.0,1200.0,1500
37.200000000000024,516,,,,1500.0,1500.0,1200.0,1500
37.25000000000002,516,,,,1500.0,1500.0,1200.0,1500
37.30000000000002,516,,,,1500.0,1500.0,1200.0,1500
37.350000000000016,516,,,,1500.0,1500.0,1200.0,1500
37.40000000000001,516,,,,1500.0,1500.0,1200.0,1500
37.45000000000001,516,,,,1500.0,1500.0,1200.0,1500
37.50000000000001,516,,,,1500.0,1500.0,1200.0,1500
37.550000000000004,516,,,,1500.0,1500.0,1200.0,1500
37.6,516,,,,1500.0,1500.0,1200.0,1500
37.65,516,,,,1500.0,1500.0,1200.0,1500
37.699999999999996,516,,,,1500.0,1500.0,1200.0,1500
37.74999999999999,516,,,,1500.0,1500.0,1200.0,1500
37.79999999999999,516,,,,1500.0,1500.0,1200.0,1500
37.84999999999999,516,,,,1500.0,1500.0,1200.0,1500
37.899999999999984,517,72,134,0.03125,1491.2,1520,1150,1500
37.94999999999998,518,89,130,0.027777777777777776,1492.9,1520,1150,1500
37.99999999999998,519,125,88,0.004464285714285714,1496.5,1519.642857142857,1224.0,1500
38.049999999999976,520,149,134,0.0006489292667099286,1498.9,1481.4892926670993,1150,1500
38.09999999999997,521,197,132,0.0012345679012345679,1503.7,1487.3456790123457,1150,1500
38.14999999999997,522,162,80,0.00036443148688046647,1500.2,1480,1240.0,1500
38.19999999999997,523,183,120,0.00016801075268817206,1502.3,1480,1160.0,1500
38.249999999999964,524,125,85,0.0003633720930232558,1496.5,1480,1230.0,1500
38.29999999999996,525,161,124,0.0008944543828264759,1500.1,1483.9445438282648,1152.0,1500
38.34999999999996,526,180,107,5.5991041433370664e-05,1502.0,1480,1186.0,1500
38.399999999999956,527,194,113,7.913896802785692e-05,1503.4,1480,1174.0,1500
38.44999999999995,528,231,98,0.0002836074872376631,1507.1,1480,1204.0,1500
38.49999999999995,529,216,92,0.0006451612903225806,1505.6,1481.4516129032259,1216.0,1500
38.54999999999995,530,185,88,0.0001377410468319559,1502.5,1480,1224.0,1500
38.599999999999945,531,180,112,5.579734404642339e-05,1502.0,1480,1176.0,1500
38.64999999999994,532,177,112,5.634437683119225e-05,1501.7,1480,1176.0,1500
38.69999999999994,533,167,113,4.905808477237049e-05,1500.7,1480,1174.0,1500
38.749999999999936,534,174,115,5.643022402798939e-05,1501.4,1480,1170.0,1500
38.79999999999993,535,174,111,5.7006042640519895e-05,1501.4,1480,1178.0,1500
38.84999999999993,536,178,111,5.558025789239662e-05,1501.8,1480,1178.0,1500
38.89999999999993,537,182,115,6.17283950617284e-05,1502.2,1480,1170.0,1500
38.949999999999925,538,185,88,0.00012410027302060066,1502.5,1480,1224.0,1500
38.99999999999992,539,172,115,5.611672278338945e-05,1501.2,1480,1170.0,1500
39.04999999999992,540,182,113,5.899008966493629e-05,1502.2,1480,1174.0,1500
39.099999999999916,541,179,91,0.00010262725779967159,1501.9,1480,1218.0,1500
39.14999999999991,542,177,114,5.699954400364797e-05,1501.7,1480,1172.0,1500
39.19999999999991,543,170,112,4.978096375945838e-05,1501.0,1480,1176.0,1500
39.24999999999991,544,186,111,6.125949522175937e-05,1502.6,1480,1178.0,1500
39.299999999999905,545,174,118,6.0845756008518406e-05,1501.4,1480,1164.0,1500
39.3499999999999,546,190,110,6.644959797993223e-05,1503.0,1480,1180.0,1500
39.3999999999999,547,171,111,5.7550644567219155e-05,1501.1,1480,1178.0,1500
39.449999999999896,548,173,108,6.349206349206349e-05,1501.3,1480,1184.0,1500
39.49999999999989,549,184,102,7.476076555023923e-05,1502.4,1480,1196.0,1500
39.54999999999989,550,190,101,9.584052137243626e-05,1503.0,1480,1198.0,1500
39.59999999999989,551,204,75,0.0006184291898577613,1504.4,1481.1842918985776,1250.0,1500
39.649999999999885,552,212,110,0.0005656108597285068,1505.2,1480.656108597285,1180.0,1500
39.69999999999988,553,238,94,0.0020833333333333333,1507.8,1495.8333333333333,1212.0,1500
39.74999999999988,554,216,100,0.001893939393939394,1505.6,1493.939393939394,1200.0,1500
39.799999999999876,555,231,82,0.005681818181818182,1507.1,1520,1236.0,1500
39.84999999999987,555,,,,1500.0,1500.0,1200.0,1500
39.89999999999987,556,235,65,0.030303030303030304,1507.5,1520,1250,1500
39.94999999999987,557,213,86,0.002583979328165375,1505.3,1500.8397932816538,1228.0,1500
39.999999999999865,558,181,87,0.0025974025974025974,1502.1,1500.974025974026,1226.0,1500
40.04999999999986,559,207,127,0.0005333333333333334,1504.7,1480.3333333333333,1150,1500
40.09999999999986,560,177,108,8.130081300813008e-05,1501.7,1480,1184.0,1500
40.14999999999986,561,178,127,0.00012025012025012025,1501.8,1480,1150,1500
40.199999999999854,562,165,96,4.037956793862306e-05,1500.5,1480,1208.0,1500
