time,frame,x,y,size_inv,roll,pitch,thrust,yaw
0.0002849102020263672,1,183,44,0.0038461538461538464,1502.3,1506.7307692307693,1450,1500
0.022035837173461914,2,181,44,0.0034965034965034965,1502.1,1504.9825174825176,1450,1500
0.04354596138000488,3,181,43,0.003246753246753247,1502.1,1503.7337662337663,1450,1500
0.06453299522399902,4,181,44,0.0034965034965034965,1502.1,1504.9825174825176,1450,1500
0.08551597595214844,5,182,44,0.004273504273504274,1502.2,1508.8675213675215,1450,1500
0.10665082931518555,6,182,44,0.004273504273504274,1502.2,1508.8675213675215,1450,1500
0.12769079208374023,7,183,44,0.004048582995951417,1502.3,1507.7429149797572,1450,1500
0.14874482154846191,8,182,43,0.003105590062111801,1502.2,1503.027950310559,1450,1500
0.16974687576293945,9,181,44,0.0034965034965034965,1502.1,1504.9825174825176,1450,1500
0.19090700149536133,10,183,44,0.004048582995951417,1502.3,1507.7429149797572,1450,1500
0.21193385124206543,11,183,44,0.004048582995951417,1502.3,1507.7429149797572,1450,1500
0.23293280601501465,12,183,44,0.004048582995951417,1502.3,1507.7429149797572,1450,1500
0.25395894050598145,13,181,43,0.003246753246753247,1502.1,1503.7337662337663,1450,1500
0.27501487731933594,14,182,44,0.004273504273504274,1502.2,1508.8675213675215,1450,1500
0.2960658073425293,15,181,44,0.0034965034965034965,1502.1,1504.9825174825176,1450,1500
0.3170797824859619,16,183,43,0.0037593984962406013,1502.3,1506.296992481203,1450,1500
0.33814096450805664,17,183,43,0.0037593984962406013,1502.3,1506.296992481203,1450,1500
0.359177827835083,18,181,44,0.0034965034965034965,1502.1,1504.9825174825176,1450,1500
0.380295991897583,19,183,44,0.004048582995951417,1502.3,1507.7429149797572,1450,1500
0.40145397186279297,20,183,43,0.0037593984962406013,1502.3,1506.296992481203,1450,1500
0.4224708080291748,21,183,44,0.004048582995951417,1502.3,1507.7429149797572,1450,1500
0.44351983070373535,22,181,44,0.0034965034965034965,1502.1,1504.9825174825176,1450,1500
0.4645199775695801,23,181,44,0.0034965034965034965,1502.1,1504.9825174825176,1450,1500
0.48558783531188965,24,183,44,0.004048582995951417,1502.3,1507.7429149797572,1450,1500
0.5066509246826172,25,181,43,0.003246753246753247,1502.1,1503.7337662337663,1450,1500
0.527728796005249,26,181,44,0.0034965034965034965,1502.1,1504.9825174825176,1450,1500
0.5487329959869385,27,181,44,0.0034965034965034965,1502.1,1504.9825174825176,1450,1500
0.5697779655456543,28,181,43,0.003246753246753247,1502.1,1503.7337662337663,1450,1500
0.5909578800201416,29,181,44,0.0034965034965034965,1502.1,1504.9825174825176,1450,1500
0.6119968891143799,30,181,44,0.0034965034965034965,1502.1,1504.9825174825176,1450,1500
0.6329967975616455,31,182,44,0.0034965034965034965,1502.2,1504.9825174825176,1450,1500
0.6539947986602783,32,181,44,0.0034965034965034965,1502.1,1504.9825174825176,1450,1500
0.675048828125,33,182,44,0.004273504273504274,1502.2,1508.8675213675215,1450,1500
0.6960599422454834,34,182,43,0.004629629629629629,1502.2,1510.648148148148,1450,1500
0.7170817852020264,35,183,43,0.0037593984962406013,1502.3,1506.296992481203,1450,1500
0.7381298542022705,36,182,43,0.003968253968253968,1502.2,1507.3412698412699,1450,1500
0.7591538429260254,37,183,43,0.0037593984962406013,1502.3,1506.296992481203,1450,1500
0.7802698612213135,38,183,43,0.0035714285714285713,1502.3,1505.357142857143,1450,1500
0.8013858795166016,39,183,43,0.0037593984962406013,1502.3,1506.296992481203,1450,1500
0.8224129676818848,40,183,44,0.004048582995951417,1502.3,1507.7429149797572,1450,1500
0.8434479236602783,41,182,43,0.003968253968253968,1502.2,1507.3412698412699,1450,1500
0.8644459247589111,42,183,44,0.0038461538461538464,1502.3,1506.7307692307693,1450,1500
0.8854649066925049,43,183,44,0.004048582995951417,1502.3,1507.7429149797572,1450,1500
0.9064979553222656,44,181,43,0.003246753246753247,1502.1,1503.7337662337663,1450,1500
0.9275357723236084,45,182,43,0.003968253968253968,1502.2,1507.3412698412699,1450,1500
0.9485599994659424,46,181,43,0.003401360544217687,1502.1,1504.5068027210884,1450,1500
0.9695918560028076,47,182,43,0.003105590062111801,1502.2,1503.027950310559,1450,1500
0.9909420013427734,48,182,43,0.003968253968253968,1502.2,1507.3412698412699,1450,1500
1.0120298862457275,49,183,43,0.0037593984962406013,1502.3,1506.296992481203,1450,1500
1.0330288410186768,50,181,44,0.0034965034965034965,1502.1,1504.9825174825176,1450,1500
1.054027795791626,51,183,43,0.0043859649122807015,1502.3,1509.4298245614036,1450,1500
1.0750617980957031,52,183,43,0.0037593984962406013,1502.3,1506.296992481203,1450,1500
1.096066951751709,53,181,43,0.003246753246753247,1502.1,1503.7337662337663,1450,1500
1.1170928478240967,54,183,43,0.0037593984962406013,1502.3,1506.296992481203,1450,1500
1.1380839347839355,55,183,44,0.004048582995951417,1502.3,1507.7429149797572,1450,1500
1.159118890762329,56,183,44,0.004048582995951417,1502.3,1507.7429149797572,1450,1500
1.1802058219909668,57,181,44,0.0034965034965034965,1502.1,1504.9825174825176,1450,1500
1.2013468742370605,58,183,43,0.0035714285714285713,1502.3,1505.357142857143,1450,1500
1.2223758697509766,59,181,44,0.0034965034965034965,1502.1,1504.9825174825176,1450,1500
1.24348783493042,60,181,43,0.003246753246753247,1502.1,1503.7337662337663,1450,1500
1.2650229930877686,61,183,43,0.0037593984962406013,1502.3,1506.296992481203,1450,1500
1.2866108417510986,62,181,43,0.003246753246753247,1502.1,1503.7337662337663,1450,1500
1.3081607818603516,63,182,43,0.003968253968253968,1502.2,1507.3412698412699,1450,1500
1.329892873764038,64,183,43,0.0035714285714285713,1502.3,1505.357142857143,1450,1500
1.351449966430664,65,183,44,0.004048582995951417,1502.3,1507.7429149797572,1450,1500
1.3729889392852783,66,182,44,0.004273504273504274,1502.2,1508.8675213675215,1450,1500
1.394554853439331,67,181,44,0.0034965034965034965,1502.1,1504.9825174825176,1450,1500
1.416139841079712,68,183,43,0.0037593984962406013,1502.3,1506.296992481203,1450,1500
1.4376959800720215,69,182,44,0.004273504273504274,1502.2,1508.8675213675215,1450,1500
1.4594359397888184,70,182,43,0.003968253968253968,1502.2,1507.3412698412699,1450,1500
1.481003999710083,71,181,44,0.0034965034965034965,1502.1,1504.9825174825176,1450,1500
1.502525806427002,72,183,43,0.0037593984962406013,1502.3,1506.296992481203,1450,1500
1.5240638256072998,73,182,43,0.003105590062111801,1502.2,1503.027950310559,1450,1500
1.5455958843231201,74,181,43,0.003246753246753247,1502.1,1503.7337662337663,1450,1500
1.5673038959503174,75,183,44,0.004048582995951417,1502.3,1507.7429149797572,1450,1500
1.588798999786377,76,183,44,0.004048582995951417,1502.3,1507.7429149797572,1450,1500
1.6104729175567627,77,182,43,0.003968253968253968,1502.2,1507.3412698412699,1450,1500
1.6318418979644775,78,181,43,0.003246753246753247,1502.1,1503.7337662337663,1450,1500
1.653134822845459,79,182,44,0.004273504273504274,1502.2,1508.8675213675215,1450,1500
1.674421787261963,80,183,43,0.0037593984962406013,1502.3,1506.296992481203,1450,1500
1.695746898651123,81,182,44,0.004273504273504274,1502.2,1508.8675213675215,1450,1500
1.7170438766479492,82,183,43,0.0037593984962406013,1502.3,1506.296992481203,1450,1500
1.73836088180542,83,181,44,0.0034965034965034965,1502.1,1504.9825174825176,1450,1500
1.7597148418426514,84,183,44,0.004048582995951417,1502.3,1507.7429149797572,1450,1500
1.781113862991333,85,181,44,0.0034965034965034965,1502.1,1504.9825174825176,1450,1500
1.8024258613586426,86,181,43,0.003246753246753247,1502.1,1503.7337662337663,1450,1500
1.8237659931182861,87,183,43,0.0037593984962406013,1502.3,1506.296992481203,1450,1500
1.8450939655303955,88,181,44,0.0034965034965034965,1502.1,1504.9825174825176,1450,1500
1.866419792175293,89,183,44,0.004048582995951417,1502.3,1507.7429149797572,1450,1500
1.8877818584442139,90,183,44,0.004048582995951417,1502.3,1507.7429149797572,1450,1500
1.909106969833374,91,181,44,0.0034965034965034965,1502.1,1504.9825174825176,1450,1500
1.9304828643798828,92,182,44,0.004273504273504274,1502.2,1508.8675213675215,1450,1500
1.9518439769744873,93,181,43,0.003246753246753247,1502.1,1503.7337662337663,1450,1500
1.9731957912445068,94,183,44,0.0038461538461538464,1502.3,1506.7307692307693,1450,1500
1.9947199821472168,95,182,44,0.004273504273504274,1502.2,1508.8675213675215,1450,1500
2.016103982925415,96,182,44,0.004273504273504274,1502.2,1508.8675213675215,1450,1500
2.0374279022216797,97,180,44,0.0034965034965034965,1502.0,1504.9825174825176,1450,1500
2.0587799549102783,98,181,43,0.003246753246753247,1502.1,1503.7337662337663,1450,1500
2.0801539421081543,99,181,44,0.0034965034965034965,1502.1,1504.9825174825176,1450,1500
2.1015589237213135,100,181,44,0.0034965034965034965,1502.1,1504.9825174825176,1450,1500
2.122896909713745,101,183,44,0.004048582995951417,1502.3,1507.7429149797572,1450,1500
2.1442439556121826,102,181,44,0.0034965034965034965,1502.1,1504.9825174825176,1450,1500
2.1655869483947754,103,183,44,0.004048582995951417,1502.3,1507.7429149797572,1450,1500
2.1870639324188232,104,182,44,0.004273504273504274,1502.2,1508.8675213675215,1450,1500
2.209462881088257,105,182,43,0.003968253968253968,1502.2,1507.3412698412699,1450,1500
2.231879949569702,106,181,44,0.0034965034965034965,1502.1,1504.9825174825176,1450,1500
2.254210948944092,107,183,43,0.0037593984962406013,1502.3,1506.296992481203,1450,1500
2.276770830154419,108,183,44,0.004048582995951417,1502.3,1507.7429149797572,1450,1500
2.2991747856140137,109,181,44,0.0034965034965034965,1502.1,1504.9825174825176,1450,1500
2.3215548992156982,110,183,44,0.004048582995951417,1502.3,1507.7429149797572,1450,1500
2.343855857849121,111,181,44,0.0034965034965034965,1502.1,1504.9825174825176,1450,1500
2.3662118911743164,112,182,44,0.004273504273504274,1502.2,1508.8675213675215,1450,1500
2.388596773147583,113,181,44,0.0034965034965034965,1502.1,1504.9825174825176,1450,1500
2.4110758304595947,114,182,44,0.004273504273504274,1502.2,1508.8675213675215,1450,1500
2.4333908557891846,115,183,43,0.0037593984962406013,1502.3,1506.296992481203,1450,1500
2.455744981765747,116,181,43,0.003246753246753247,1502.1,1503.7337662337663,1450,1500
2.478050947189331,117,183,44,0.004048582995951417,1502.3,1507.7429149797572,1450,1500
2.5004639625549316,118,181,43,0.003246753246753247,1502.1,1503.7337662337663,1450,1500
2.522939920425415,119,181,43,0.003246753246753247,1502.1,1503.7337662337663,1450,1500
2.5452818870544434,120,183,44,0.004048582995951417,1502.3,1507.7429149797572,1450,1500
2.567591905593872,121,181,43,0.003246753246753247,1502.1,1503.7337662337663,1450,1500
2.5899078845977783,122,182,44,0.004273504273504274,1502.2,1508.8675213675215,1450,1500
2.612348794937134,123,182,44,0.0034965034965034965,1502.2,1504.9825174825176,1450,1500
2.63472580909729,124,182,44,0.004273504273504274,1502.2,1508.8675213675215,1450,1500
2.6571037769317627,125,182,44,0.0033444816053511705,1502.2,1504.2224080267558,1450,1500
2.6794397830963135,126,183,44,0.004048582995951417,1502.3,1507.7429149797572,1450,1500
2.7019879817962646,127,183,44,0.0038461538461538464,1502.3,1506.7307692307693,1450,1500
2.7243268489837646,128,183,44,0.004048582995951417,1502.3,1507.7429149797572,1450,1500
2.746706962585449,129,181,43,0.003246753246753247,1502.1,1503.7337662337663,1450,1500
2.7690839767456055,130,181,44,0.0034965034965034965,1502.1,1504.9825174825176,1450,1500
2.791440963745117,131,182,44,0.004273504273504274,1502.2,1508.8675213675215,1450,1500
2.8138198852539062,132,182,44,0.004273504273504274,1502.2,1508.8675213675215,1450,1500
2.836298942565918,133,181,43,0.002976190476190476,1502.1,1502.3809523809523,1450,1500
2.858776807785034,134,183,44,0.004048582995951417,1502.3,1507.7429149797572,1450,1500
2.881150960922241,135,182,43,0.003968253968253968,1502.2,1507.3412698412699,1450,1500
2.9034388065338135,136,181,43,0.003246753246753247,1502.1,1503.7337662337663,1450,1500
2.9258668422698975,137,182,43,0.003968253968253968,1502.2,1507.3412698412699,1450,1500
2.9481828212738037,138,181,44,0.0034965034965034965,1502.1,1504.9825174825176,1450,1500
2.9705159664154053,139,183,44,0.004048582995951417,1502.3,1507.7429149797572,1450,1500
2.9928438663482666,140,182,43,0.003968253968253968,1502.2,1507.3412698412699,1450,1500
3.0153229236602783,141,183,44,0.004048582995951417,1502.3,1507.7429149797572,1450,1500
3.0381109714508057,142,182,44,0.004273504273504274,1502.2,1508.8675213675215,1450,1500
3.060532808303833,143,182,44,0.0033444816053511705,1502.2,1504.2224080267558,1450,1500
3.082868814468384,144,181,44,0.0034965034965034965,1502.1,1504.9825174825176,1450,1500
3.1052727699279785,145,182,44,0.004273504273504274,1502.2,1508.8675213675215,1450,1500
3.127617835998535,146,182,43,0.003968253968253968,1502.2,1507.3412698412699,1450,1500
3.1498827934265137,147,181,43,0.003246753246753247,1502.1,1503.7337662337663,1450,1500
3.1725058555603027,148,181,43,0.003246753246753247,1502.1,1503.7337662337663,1450,1500
3.194863796234131,149,180,44,0.0034965034965034965,1502.0,1504.9825174825176,1450,1500
3.2172768115997314,150,183,44,0.004048582995951417,1502.3,1507.7429149797572,1450,1500
3.239630937576294,151,183,44,0.004048582995951417,1502.3,1507.7429149797572,1450,1500
3.262173891067505,152,180,43,0.003246753246753247,1502.0,1503.7337662337663,1450,1500
3.2845449447631836,153,182,43,0.003105590062111801,1502.2,1503.027950310559,1450,1500
3.3069357872009277,154,180,43,0.003246753246753247,1502.0,1503.7337662337663,1450,1500
3.3293099403381348,155,181,43,0.0037593984962406013,1502.1,1506.296992481203,1450,1500
3.351740837097168,156,179,44,0.0034965034965034965,1501.9,1504.9825174825176,1450,1500
3.374074935913086,157,180,43,0.002976190476190476,1502.0,1502.3809523809523,1450,1500
3.3963658809661865,158,179,43,0.003246753246753247,1501.9,1503.7337662337663,1450,1500
3.4188718795776367,159,178,43,0.003246753246753247,1501.8,1503.7337662337663,1450,1500
3.4413487911224365,160,179,43,0.003105590062111801,1501.9,1503.027950310559,1450,1500
3.46364688873291,161,179,43,0.003105590062111801,1501.9,1503.027950310559,1450,1500
3.4861319065093994,162,179,44,0.0033444816053511705,1501.9,1504.2224080267558,1450,1500
3.508462905883789,163,178,43,0.003246753246753247,1501.8,1503.7337662337663,1450,1500
3.5308258533477783,164,181,43,0.0037593984962406013,1502.1,1506.296992481203,1450,1500
3.553179979324341,165,179,44,0.0033444816053511705,1501.9,1504.2224080267558,1450,1500
3.5756027698516846,166,179,43,0.003105590062111801,1501.9,1503.027950310559,1450,1500
3.597946882247925,167,179,43,0.003246753246753247,1501.9,1503.7337662337663,1450,1500
3.6204299926757812,168,181,43,0.0037593984962406013,1502.1,1506.296992481203,1450,1500
3.642974853515625,169,179,43,0.003105590062111801,1501.9,1503.027950310559,1450,1500
3.6653339862823486,170,179,44,0.0034965034965034965,1501.9,1504.9825174825176,1450,1500
3.6876468658447266,171,178,43,0.0034965034965034965,1501.8,1504.9825174825176,1450,1500
3.710035800933838,172,180,43,0.0037593984962406013,1502.0,1506.296992481203,1450,1500
3.7325439453125,173,180,43,0.0037593984962406013,1502.0,1506.296992481203,1450,1500
3.7550859451293945,174,181,43,0.0037593984962406013,1502.1,1506.296992481203,1450,1500
3.7775959968566895,175,178,43,0.003246753246753247,1501.8,1503.7337662337663,1450,1500
3.7999439239501953,176,179,44,0.0033444816053511705,1501.9,1504.2224080267558,1450,1500
3.8225557804107666,177,179,43,0.003246753246753247,1501.9,1503.7337662337663,1450,1500
3.844980001449585,178,180,44,0.004273504273504274,1502.0,1508.8675213675215,1450,1500
3.8673598766326904,179,181,43,0.0037593984962406013,1502.1,1506.296992481203,1450,1500
3.8897159099578857,180,181,43,0.0037593984962406013,1502.1,1506.296992481203,1450,1500
3.912181854248047,181,180,43,0.0035714285714285713,1502.0,1505.357142857143,1450,1500
3.9344468116760254,182,179,44,0.0033444816053511705,1501.9,1504.2224080267558,1450,1500
3.956833839416504,183,181,43,0.0035714285714285713,1502.1,1505.357142857143,1450,1500
3.979306936264038,184,179,43,0.003105590062111801,1501.9,1503.027950310559,1450,1500
4.001835823059082,185,180,44,0.0038461538461538464,1502.0,1506.7307692307693,1450,1500
4.024305820465088,186,181,43,0.0035714285714285713,1502.1,1505.357142857143,1450,1500
4.046651840209961,187,179,43,0.002976190476190476,1501.9,1502.3809523809523,1450,1500
4.069040775299072,188,178,43,0.003246753246753247,1501.8,1503.7337662337663,1450,1500
4.096649885177612,189,180,43,0.0037593984962406013,1502.0,1506.296992481203,1450,1500
4.119339942932129,190,178,44,0.0033444816053511705,1501.8,1504.2224080267558,1450,1500
4.141761779785156,191,177,43,0.003246753246753247,1501.7,1503.7337662337663,1450,1500
4.164078950881958,192,179,43,0.004048582995951417,1501.9,1507.7429149797572,1450,1500
4.186375856399536,193,179,43,0.0037593984962406013,1501.9,1506.296992481203,1450,1500
4.2088048458099365,194,178,43,0.003246753246753247,1501.8,1503.7337662337663,1450,1500
4.23115086555481,195,178,43,0.003968253968253968,1501.8,1507.3412698412699,1450,1500
4.253590822219849,196,178,43,0.003968253968253968,1501.8,1507.3412698412699,1450,1500
4.276073932647705,197,178,43,0.003105590062111801,1501.8,1503.027950310559,1450,1500
4.298353910446167,198,178,43,0.003105590062111801,1501.8,1503.027950310559,1450,1500
4.3207848072052,199,179,43,0.0037593984962406013,1501.9,1506.296992481203,1450,1500
4.343148946762085,200,179,44,0.004048582995951417,1501.9,1507.7429149797572,1450,1500
4.365575790405273,201,179,44,0.0038461538461538464,1501.9,1506.7307692307693,1450,1500
4.387889862060547,202,178,43,0.003105590062111801,1501.8,1503.027950310559,1450,1500
4.410306930541992,203,179,43,0.0037593984962406013,1501.9,1506.296992481203,1450,1500
4.432727813720703,204,177,43,0.003246753246753247,1501.7,1503.7337662337663,1450,1500
4.455080986022949,205,179,43,0.0037593984962406013,1501.9,1506.296992481203,1450,1500
4.477437973022461,206,177,43,0.003246753246753247,1501.7,1503.7337662337663,1450,1500
4.499768972396851,207,179,43,0.0035714285714285713,1501.9,1505.357142857143,1450,1500
4.522211790084839,208,178,43,0.003105590062111801,1501.8,1503.027950310559,1450,1500
4.544573783874512,209,178,43,0.003968253968253968,1501.8,1507.3412698412699,1450,1500
4.566935777664185,210,177,43,0.003246753246753247,1501.7,1503.7337662337663,1450,1500
4.5893309116363525,211,179,43,0.0037593984962406013,1501.9,1506.296992481203,1450,1500
4.611795902252197,212,179,43,0.0035714285714285713,1501.9,1505.357142857143,1450,1500
4.6342198848724365,213,179,43,0.0037593984962406013,1501.9,1506.296992481203,1450,1500
4.6565399169921875,214,177,43,0.003246753246753247,1501.7,1503.7337662337663,1450,1500
4.678893804550171,215,178,43,0.003968253968253968,1501.8,1507.3412698412699,1450,1500
4.701480865478516,216,179,44,0.004048582995951417,1501.9,1507.7429149797572,1450,1500
4.7238099575042725,217,179,44,0.004048582995951417,1501.9,1507.7429149797572,1450,1500
4.74624490737915,218,177,43,0.003246753246753247,1501.7,1503.7337662337663,1450,1500
4.768571853637695,219,177,43,0.003246753246753247,1501.7,1503.7337662337663,1450,1500
4.79103684425354,220,178,44,0.004048582995951417,1501.8,1507.7429149797572,1450,1500
4.813504934310913,221,177,43,0.003246753246753247,1501.7,1503.7337662337663,1450,1500
4.83577299118042,222,179,43,0.0037593984962406013,1501.9,1506.296992481203,1450,1500
4.858086824417114,223,177,43,0.003246753246753247,1501.7,1503.7337662337663,1450,1500
4.88041877746582,224,178,43,0.003968253968253968,1501.8,1507.3412698412699,1450,1500
4.902756929397583,225,178,44,0.0033444816053511705,1501.8,1504.2224080267558,1450,1500
4.925118923187256,226,177,43,0.003246753246753247,1501.7,1503.7337662337663,1450,1500
4.9474639892578125,227,178,43,0.003968253968253968,1501.8,1507.3412698412699,1450,1500
4.969818830490112,228,179,43,0.0037593984962406013,1501.9,1506.296992481203,1450,1500
4.992357969284058,229,179,43,0.0037593984962406013,1501.9,1506.296992481203,1450,1500
5.014802932739258,230,178,43,0.004273504273504274,1501.8,1508.8675213675215,1450,1500
5.037140846252441,231,176,43,0.0034965034965034965,1501.6,1504.9825174825176,1450,1500
5.059497833251953,232,176,43,0.0034965034965034965,1501.6,1504.9825174825176,1450,1500
5.081931829452515,233,176,43,0.0034965034965034965,1501.6,1504.9825174825176,1450,1500
5.104230880737305,234,178,43,0.0037593984962406013,1501.8,1506.296992481203,1450,1500
5.126609802246094,235,176,43,0.002976190476190476,1501.6,1502.3809523809523,1450,1500
5.149324893951416,236,177,43,0.0035714285714285713,1501.7,1505.357142857143,1450,1500
5.171869993209839,237,177,43,0.004048582995951417,1501.7,1507.7429149797572,1450,1500
5.194130897521973,238,175,43,0.0034965034965034965,1501.5,1504.9825174825176,1450,1500
5.216466903686523,239,176,43,0.0033444816053511705,1501.6,1504.2224080267558,1450,1500
5.238887786865234,240,177,43,0.004048582995951417,1501.7,1507.7429149797572,1450,1500
5.261378765106201,241,176,43,0.0033444816053511705,1501.6,1504.2224080267558,1450,1500
5.283879995346069,242,176,43,0.002976190476190476,1501.6,1502.3809523809523,1450,1500
5.306254863739014,243,175,43,0.0034965034965034965,1501.5,1504.9825174825176,1450,1500
5.328530788421631,244,175,43,0.0034965034965034965,1501.5,1504.9825174825176,1450,1500
5.350919961929321,245,176,43,0.003105590062111801,1501.6,1503.027950310559,1450,1500
5.373279809951782,246,176,44,0.0033444816053511705,1501.6,1504.2224080267558,1450,1500
5.395688772201538,247,176,43,0.002976190476190476,1501.6,1502.3809523809523,1450,1500
5.418091773986816,248,176,43,0.003105590062111801,1501.6,1503.027950310559,1450,1500
5.440399885177612,249,176,44,0.0033444816053511705,1501.6,1504.2224080267558,1450,1500
5.462887763977051,250,176,43,0.003105590062111801,1501.6,1503.027950310559,1450,1500
5.48536491394043,251,177,43,0.0037593984962406013,1501.7,1506.296992481203,1450,1500
5.5079169273376465,252,175,43,0.003246753246753247,1501.5,1503.7337662337663,1450,1500
5.530366897583008,253,177,43,0.003105590062111801,1501.7,1503.027950310559,1450,1500
5.552813768386841,254,177,43,0.0035714285714285713,1501.7,1505.357142857143,1450,1500
5.575174808502197,255,177,44,0.0038461538461538464,1501.7,1506.7307692307693,1450,1500
5.597559928894043,256,176,43,0.003105590062111801,1501.6,1503.027950310559,1450,1500
5.619893789291382,257,176,43,0.003105590062111801,1501.6,1503.027950310559,1450,1500
5.642359972000122,258,176,44,0.0034965034965034965,1501.6,1504.9825174825176,1450,1500
5.664695978164673,259,175,43,0.003246753246753247,1501.5,1503.7337662337663,1450,1500
5.687079906463623,260,176,43,0.0034965034965034965,1501.6,1504.9825174825176,1450,1500
5.709533929824829,261,175,43,0.0034965034965034965,1501.5,1504.9825174825176,1450,1500
5.731985807418823,262,176,43,0.003246753246753247,1501.6,1503.7337662337663,1450,1500
5.754338979721069,263,176,43,0.003105590062111801,1501.6,1503.027950310559,1450,1500
5.7766478061676025,264,176,43,0.002976190476190476,1501.6,1502.3809523809523,1450,1500
5.7989959716796875,265,176,43,0.003105590062111801,1501.6,1503.027950310559,1450,1500
5.821392774581909,266,176,43,0.003663003663003663,1501.6,1505.8150183150183,1450,1500
5.843718767166138,267,176,43,0.003105590062111801,1501.6,1503.027950310559,1450,1500
5.866026878356934,268,176,43,0.003105590062111801,1501.6,1503.027950310559,1450,1500
5.888357877731323,269,176,43,0.003105590062111801,1501.6,1503.027950310559,1450,1500
5.910703897476196,270,175,43,0.0034965034965034965,1501.5,1504.9825174825176,1450,1500
5.933106899261475,271,175,43,0.0034965034965034965,1501.5,1504.9825174825176,1450,1500
5.955513954162598,272,176,43,0.003105590062111801,1501.6,1503.027950310559,1450,1500
5.977865934371948,273,176,43,0.003105590062111801,1501.6,1503.027950310559,1450,1500
6.00036096572876,274,177,43,0.0035714285714285713,1501.7,1505.357142857143,1450,1500
6.022685766220093,275,176,43,0.003105590062111801,1501.6,1503.027950310559,1450,1500
6.04517388343811,276,178,43,0.003663003663003663,1501.8,1505.8150183150183,1450,1500
6.067527770996094,277,177,44,0.004273504273504274,1501.7,1508.8675213675215,1450,1500
6.089866876602173,278,176,43,0.003105590062111801,1501.6,1503.027950310559,1450,1500
6.11230993270874,279,176,43,0.003105590062111801,1501.6,1503.027950310559,1450,1500
6.134609937667847,280,176,44,0.0033444816053511705,1501.6,1504.2224080267558,1450,1500
6.156988859176636,281,176,43,0.0033444816053511705,1501.6,1504.2224080267558,1450,1500
6.179366827011108,282,176,43,0.003105590062111801,1501.6,1503.027950310559,1450,1500
6.202289819717407,283,177,43,0.004048582995951417,1501.7,1507.7429149797572,1450,1500
6.224682807922363,284,176,43,0.002976190476190476,1501.6,1502.3809523809523,1450,1500
6.2472898960113525,285,177,44,0.0033444816053511705,1501.7,1504.2224080267558,1450,1500
6.269951820373535,286,176,43,0.003105590062111801,1501.6,1503.027950310559,1450,1500
6.292446851730347,287,176,43,0.002976190476190476,1501.6,1502.3809523809523,1450,1500
6.314781904220581,288,176,43,0.003105590062111801,1501.6,1503.027950310559,1450,1500
6.337238788604736,289,176,43,0.003105590062111801,1501.6,1503.027950310559,1450,1500
6.359586000442505,290,176,43,0.003105590062111801,1501.6,1503.027950310559,1450,1500
6.382085800170898,291,176,43,0.003246753246753247,1501.6,1503.7337662337663,1450,1500
6.404425859451294,292,177,43,0.0035714285714285713,1501.7,1505.357142857143,1450,1500
6.4267518520355225,293,176,43,0.003246753246753247,1501.6,1503.7337662337663,1450,1500
6.449108839035034,294,176,44,0.0033444816053511705,1501.6,1504.2224080267558,1450,1500
6.471445798873901,295,175,43,0.003246753246753247,1501.5,1503.7337662337663,1450,1500
6.493788957595825,296,176,43,0.003105590062111801,1501.6,1503.027950310559,1450,1500
6.5162317752838135,297,176,43,0.003105590062111801,1501.6,1503.027950310559,1450,1500
6.538557767868042,298,175,43,0.003246753246753247,1501.5,1503.7337662337663,1450,1500
6.560994863510132,299,176,43,0.003105590062111801,1501.6,1503.027950310559,1450,1500
6.583323001861572,300,176,43,0.0034965034965034965,1501.6,1504.9825174825176,1450,1500
6.6057047843933105,301,176,43,0.0034965034965034965,1501.6,1504.9825174825176,1450,1500
6.628016948699951,302,176,43,0.003246753246753247,1501.6,1503.7337662337663,1450,1500
6.650404930114746,303,176,43,0.003105590062111801,1501.6,1503.027950310559,1450,1500
6.672753810882568,304,176,43,0.003105590062111801,1501.6,1503.027950310559,1450,1500
6.695120811462402,305,176,43,0.003105590062111801,1501.6,1503.027950310559,1450,1500
6.717568874359131,306,176,43,0.003105590062111801,1501.6,1503.027950310559,1450,1500
6.740016937255859,307,177,43,0.0037593984962406013,1501.7,1506.296992481203,1450,1500
6.762598991394043,308,175,43,0.003246753246753247,1501.5,1503.7337662337663,1450,1500
6.784981966018677,309,177,44,0.0038461538461538464,1501.7,1506.7307692307693,1450,1500
6.8073859214782715,310,175,43,0.003246753246753247,1501.5,1503.7337662337663,1450,1500
6.8297529220581055,311,176,43,0.003246753246753247,1501.6,1503.7337662337663,1450,1500
6.852186918258667,312,176,43,0.003105590062111801,1501.6,1503.027950310559,1450,1500
6.874539852142334,313,177,44,0.0038461538461538464,1501.7,1506.7307692307693,1450,1500
6.896857976913452,314,177,43,0.0035714285714285713,1501.7,1505.357142857143,1450,1500
6.919240951538086,315,175,43,0.003246753246753247,1501.5,1503.7337662337663,1450,1500
6.9417829513549805,316,176,43,0.003401360544217687,1501.6,1504.5068027210884,1450,1500
6.964107990264893,317,176,43,0.003105590062111801,1501.6,1503.027950310559,1450,1500
6.986470937728882,318,176,44,0.0033444816053511705,1501.6,1504.2224080267558,1450,1500
7.008946895599365,319,177,44,0.004048582995951417,1501.7,1507.7429149797572,1450,1500
7.031422853469849,320,177,43,0.0035714285714285713,1501.7,1505.357142857143,1450,1500
7.053816795349121,321,176,43,0.003246753246753247,1501.6,1503.7337662337663,1450,1500
7.0760719776153564,322,175,44,0.0034965034965034965,1501.5,1504.9825174825176,1450,1500
7.0983898639678955,323,176,43,0.0033444816053511705,1501.6,1504.2224080267558,1450,1500
7.120701789855957,324,176,43,0.003105590062111801,1501.6,1503.027950310559,1450,1500
7.143026828765869,325,175,44,0.0034965034965034965,1501.5,1504.9825174825176,1450,1500
7.1653759479522705,326,176,44,0.0034965034965034965,1501.6,1504.9825174825176,1450,1500
7.18784499168396,327,176,44,0.0034965034965034965,1501.6,1504.9825174825176,1450,1500
7.210334777832031,328,178,43,0.003401360544217687,1501.8,1504.5068027210884,1450,1500
7.232717990875244,329,176,43,0.003105590062111801,1501.6,1503.027950310559,1450,1500
7.255537986755371,330,176,44,0.0033444816053511705,1501.6,1504.2224080267558,1450,1500
7.277984857559204,331,176,43,0.003105590062111801,1501.6,1503.027950310559,1450,1500
7.300363779067993,332,176,43,0.003105590062111801,1501.6,1503.027950310559,1450,1500
7.322730779647827,333,175,43,0.0034965034965034965,1501.5,1504.9825174825176,1450,1500
7.345061779022217,334,176,43,0.003105590062111801,1501.6,1503.027950310559,1450,1500
7.367396831512451,335,176,43,0.003105590062111801,1501.6,1503.027950310559,1450,1500
7.389801979064941,336,176,43,0.0034965034965034965,1501.6,1504.9825174825176,1450,1500
7.412469863891602,337,176,43,0.003105590062111801,1501.6,1503.027950310559,1450,1500
7.434841871261597,338,177,43,0.0037593984962406013,1501.7,1506.296992481203,1450,1500
7.4572107791900635,339,176,44,0.0033444816053511705,1501.6,1504.2224080267558,1450,1500
7.479614973068237,340,177,43,0.0037593984962406013,1501.7,1506.296992481203,1450,1500
7.502219915390015,341,177,43,0.0035714285714285713,1501.7,1505.357142857143,1450,1500
7.5245349407196045,342,177,44,0.0038461538461538464,1501.7,1506.7307692307693,1450,1500
7.546978950500488,343,176,43,0.003246753246753247,1501.6,1503.7337662337663,1450,1500
7.569350957870483,344,176,43,0.003105590062111801,1501.6,1503.027950310559,1450,1500
7.591829776763916,345,176,43,0.002976190476190476,1501.6,1502.3809523809523,1450,1500
7.6141839027404785,346,175,43,0.0034965034965034965,1501.5,1504.9825174825176,1450,1500
7.636613845825195,347,177,43,0.004048582995951417,1501.7,1507.7429149797572,1450,1500
7.6589319705963135,348,177,43,0.0037593984962406013,1501.7,1506.296992481203,1450,1500
7.6812989711761475,349,176,43,0.003105590062111801,1501.6,1503.027950310559,1450,1500
7.703871965408325,350,175,43,0.003246753246753247,1501.5,1503.7337662337663,1450,1500
7.726222991943359,351,176,43,0.0034965034965034965,1501.6,1504.9825174825176,1450,1500
7.748633861541748,352,176,43,0.003105590062111801,1501.6,1503.027950310559,1450,1500
7.7709338665008545,353,177,43,0.0035714285714285713,1501.7,1505.357142857143,1450,1500
7.7934019565582275,354,176,43,0.003246753246753247,1501.6,1503.7337662337663,1450,1500
7.815918922424316,355,176,43,0.003105590062111801,1501.6,1503.027950310559,1450,1500
7.8382508754730225,356,177,44,0.0038461538461538464,1501.7,1506.7307692307693,1450,1500
7.860636949539185,357,176,43,0.003105590062111801,1501.6,1503.027950310559,1450,1500
7.882929801940918,358,176,43,0.003105590062111801,1501.6,1503.027950310559,1450,1500
7.905443906784058,359,176,44,0.0033444816053511705,1501.6,1504.2224080267558,1450,1500
7.92795991897583,360,176,43,0.003105590062111801,1501.6,1503.027950310559,1450,1500
7.95045280456543,361,176,43,0.003105590062111801,1501.6,1503.027950310559,1450,1500
7.972757816314697,362,177,44,0.004048582995951417,1501.7,1507.7429149797572,1450,1500
7.995149850845337,363,176,43,0.003105590062111801,1501.6,1503.027950310559,1450,1500
8.017488956451416,364,175,43,0.003246753246753247,1501.5,1503.7337662337663,1450,1500
8.039868831634521,365,177,43,0.0037593984962406013,1501.7,1506.296992481203,1450,1500
8.062530994415283,366,176,43,0.003105590062111801,1501.6,1503.027950310559,1450,1500
8.084857940673828,367,176,43,0.003246753246753247,1501.6,1503.7337662337663,1450,1500
8.107147932052612,368,176,43,0.0033444816053511705,1501.6,1504.2224080267558,1450,1500
8.12948489189148,369,175,43,0.003246753246753247,1501.5,1503.7337662337663,1450,1500
8.151933908462524,370,176,43,0.003246753246753247,1501.6,1503.7337662337663,1450,1500
8.174254894256592,371,177,43,0.004048582995951417,1501.7,1507.7429149797572,1450,1500
8.196639776229858,372,177,43,0.0037593984962406013,1501.7,1506.296992481203,1450,1500
8.219090938568115,373,176,43,0.003246753246753247,1501.6,1503.7337662337663,1450,1500
8.241659879684448,374,176,43,0.003246753246753247,1501.6,1503.7337662337663,1450,1500
8.264095783233643,375,176,43,0.003105590062111801,1501.6,1503.027950310559,1450,1500
8.286446809768677,376,176,43,0.0033444816053511705,1501.6,1504.2224080267558,1450,1500
8.309017896652222,377,175,43,0.003246753246753247,1501.5,1503.7337662337663,1450,1500
8.331437826156616,378,176,43,0.003105590062111801,1501.6,1503.027950310559,1450,1500
8.35384488105774,379,176,43,0.002976190476190476,1501.6,1502.3809523809523,1450,1500
8.376150846481323,380,177,43,0.0035714285714285713,1501.7,1505.357142857143,1450,1500
8.398518800735474,381,176,43,0.003105590062111801,1501.6,1503.027950310559,1450,1500
8.42098879814148,382,176,43,0.003105590062111801,1501.6,1503.027950310559,1450,1500
8.443408966064453,383,177,43,0.0037593984962406013,1501.7,1506.296992481203,1450,1500
8.465840816497803,384,176,43,0.003105590062111801,1501.6,1503.027950310559,1450,1500
8.488228797912598,385,176,44,0.003205128205128205,1501.6,1503.525641025641,1450,1500
8.5105299949646,386,175,43,0.0034965034965034965,1501.5,1504.9825174825176,1450,1500
8.53288984298706,387,176,43,0.003105590062111801,1501.6,1503.027950310559,1450,1500
8.555287837982178,388,176,43,0.003105590062111801,1501.6,1503.027950310559,1450,1500
8.577730894088745,389,176,43,0.003105590062111801,1501.6,1503.027950310559,1450,1500
8.60008692741394,390,176,44,0.0034965034965034965,1501.6,1504.9825174825176,1450,1500
8.622581958770752,391,176,43,0.003663003663003663,1501.6,1505.8150183150183,1450,1500
8.644892930984497,392,176,44,0.0033444816053511705,1501.6,1504.2224080267558,1450,1500
8.667301893234253,393,176,43,0.003105590062111801,1501.6,1503.027950310559,1450,1500
8.689823865890503,394,176,44,0.0033444816053511705,1501.6,1504.2224080267558,1450,1500
8.712357997894287,395,176,43,0.003246753246753247,1501.6,1503.7337662337663,1450,1500
8.73475193977356,396,176,43,0.002976190476190476,1501.6,1502.3809523809523,1450,1500
8.757031917572021,397,176,43,0.003105590062111801,1501.6,1503.027950310559,1450,1500
8.77951979637146,398,176,43,0.003105590062111801,1501.6,1503.027950310559,1450,1500
8.802074909210205,399,177,43,0.003105590062111801,1501.7,1503.027950310559,1450,1500
8.824502944946289,400,176,43,0.0034965034965034965,1501.6,1504.9825174825176,1450,1500
8.846831798553467,401,176,44,0.0033444816053511705,1501.6,1504.2224080267558,1450,1500
8.869112968444824,402,176,43,0.003105590062111801,1501.6,1503.027950310559,1450,1500
8.891465902328491,403,178,44,0.004048582995951417,1501.8,1507.7429149797572,1450,1500
8.91395878791809,404,175,43,0.003246753246753247,1501.5,1503.7337662337663,1450,1500
8.936299800872803,405,175,44,0.0034965034965034965,1501.5,1504.9825174825176,1450,1500
8.95866084098816,406,176,43,0.003105590062111801,1501.6,1503.027950310559,1450,1500
8.981037855148315,407,177,43,0.003968253968253968,1501.7,1507.3412698412699,1450,1500
9.003538846969604,408,176,43,0.003246753246753247,1501.6,1503.7337662337663,1450,1500
9.025906801223755,409,176,43,0.002976190476190476,1501.6,1502.3809523809523,1450,1500
9.048228979110718,410,175,43,0.003246753246753247,1501.5,1503.7337662337663,1450,1500
9.07067084312439,411,176,43,0.002976190476190476,1501.6,1502.3809523809523,1450,1500
9.092999935150146,412,176,43,0.003105590062111801,1501.6,1503.027950310559,1450,1500
9.115380764007568,413,176,43,0.002976190476190476,1501.6,1502.3809523809523,1450,1500
9.137743949890137,414,176,43,0.002976190476190476,1501.6,1502.3809523809523,1450,1500
9.160293817520142,415,176,44,0.0034965034965034965,1501.6,1504.9825174825176,1450,1500
9.18270993232727,416,175,43,0.003246753246753247,1501.5,1503.7337662337663,1450,1500
9.205130815505981,417,175,43,0.003246753246753247,1501.5,1503.7337662337663,1450,1500
9.227961778640747,418,177,43,0.0035714285714285713,1501.7,1505.357142857143,1450,1500
9.250415802001953,419,176,43,0.003105590062111801,1501.6,1503.027950310559,1450,1500
9.272825956344604,420,176,43,0.002976190476190476,1501.6,1502.3809523809523,1450,1500
9.295194864273071,421,176,43,0.003105590062111801,1501.6,1503.027950310559,1450,1500
9.317564964294434,422,175,43,0.003246753246753247,1501.5,1503.7337662337663,1450,1500
9.339900970458984,423,175,43,0.003246753246753247,1501.5,1503.7337662337663,1450,1500
9.362691879272461,424,176,43,0.003246753246753247,1501.6,1503.7337662337663,1450,1500
9.385007858276367,425,176,43,0.003105590062111801,1501.6,1503.027950310559,1450,1500
9.407331943511963,426,176,43,0.003246753246753247,1501.6,1503.7337662337663,1450,1500
9.42969298362732,427,177,44,0.0038461538461538464,1501.7,1506.7307692307693,1450,1500
9.452128887176514,428,176,43,0.002976190476190476,1501.6,1502.3809523809523,1450,1500
9.474527835845947,429,177,43,0.003105590062111801,1501.7,1503.027950310559,1450,1500
9.496878862380981,430,176,43,0.003105590062111801,1501.6,1503.027950310559,1450,1500
9.519173860549927,431,175,43,0.003246753246753247,1501.5,1503.7337662337663,1450,1500
9.541635990142822,432,176,43,0.003105590062111801,1501.6,1503.027950310559,1450,1500
9.563981771469116,433,177,43,0.0035714285714285713,1501.7,1505.357142857143,1450,1500
9.58627200126648,434,175,43,0.003246753246753247,1501.5,1503.7337662337663,1450,1500
9.60859489440918,435,175,43,0.003246753246753247,1501.5,1503.7337662337663,1450,1500
9.63097095489502,436,176,44,0.0033444816053511705,1501.6,1504.2224080267558,1450,1500
9.653372764587402,437,176,43,0.003105590062111801,1501.6,1503.027950310559,1450,1500
9.675694942474365,438,176,43,0.003246753246753247,1501.6,1503.7337662337663,1450,1500
9.698078870773315,439,175,43,0.003246753246753247,1501.5,1503.7337662337663,1450,1500
9.720470905303955,440,176,43,0.003105590062111801,1501.6,1503.027950310559,1450,1500
9.742705821990967,441,176,43,0.003105590062111801,1501.6,1503.027950310559,1450,1500
9.765032768249512,442,176,43,0.003105590062111801,1501.6,1503.027950310559,1450,1500
9.787315845489502,443,177,43,0.0035714285714285713,1501.7,1505.357142857143,1450,1500
9.809684991836548,444,176,43,0.003246753246753247,1501.6,1503.7337662337663,1450,1500
9.832251787185669,445,176,43,0.003787878787878788,1501.6,1506.439393939394,1450,1500
9.854619979858398,446,176,43,0.003105590062111801,1501.6,1503.027950310559,1450,1500
9.876986980438232,447,176,43,0.003105590062111801,1501.6,1503.027950310559,1450,1500
9.899372816085815,448,177,43,0.0037593984962406013,1501.7,1506.296992481203,1450,1500
9.922008991241455,449,176,44,0.0033444816053511705,1501.6,1504.2224080267558,1450,1500
9.944371938705444,450,176,43,0.003105590062111801,1501.6,1503.027950310559,1450,1500
9.966827869415283,451,176,43,0.003246753246753247,1501.6,1503.7337662337663,1450,1500
9.989099979400635,452,176,43,0.003105590062111801,1501.6,1503.027950310559,1450,1500
10.011533975601196,453,177,43,0.0035714285714285713,1501.7,1505.357142857143,1450,1500
10.033854961395264,454,176,44,0.0033444816053511705,1501.6,1504.2224080267558,1450,1500
10.056289911270142,455,176,43,0.003246753246753247,1501.6,1503.7337662337663,1450,1500
10.078678846359253,456,176,44,0.003205128205128205,1501.6,1503.525641025641,1450,1500
10.100923776626587,457,177,43,0.0037593984962406013,1501.7,1506.296992481203,1450,1500
10.123185873031616,458,176,43,0.003246753246753247,1501.6,1503.7337662337663,1450,1500
10.145505905151367,459,176,43,0.003105590062111801,1501.6,1503.027950310559,1450,1500
10.168002843856812,460,176,43,0.003105590062111801,1501.6,1503.027950310559,1450,1500
10.190329790115356,461,176,44,0.0033444816053511705,1501.6,1504.2224080267558,1450,1500
10.21268081665039,462,176,43,0.002976190476190476,1501.6,1502.3809523809523,1450,1500
10.235071897506714,463,176,44,0.0033444816053511705,1501.6,1504.2224080267558,1450,1500
10.257414817810059,464,176,43,0.003246753246753247,1501.6,1503.7337662337663,1450,1500
10.279815912246704,465,176,43,0.003105590062111801,1501.6,1503.027950310559,1450,1500
10.302480936050415,466,175,44,0.0034965034965034965,1501.5,1504.9825174825176,1450,1500
10.324750900268555,467,176,44,0.003205128205128205,1501.6,1503.525641025641,1450,1500
10.347003936767578,468,176,43,0.003105590062111801,1501.6,1503.027950310559,1450,1500
10.369290828704834,469,176,43,0.003105590062111801,1501.6,1503.027950310559,1450,1500
10.391832828521729,470,177,43,0.0037593984962406013,1501.7,1506.296992481203,1450,1500
10.414509773254395,471,176,44,0.0033444816053511705,1501.6,1504.2224080267558,1450,1500
10.436834812164307,472,176,43,0.003105590062111801,1501.6,1503.027950310559,1450,1500
10.45921778678894,473,176,43,0.003105590062111801,1501.6,1503.027950310559,1450,1500
10.481859922409058,474,176,43,0.003105590062111801,1501.6,1503.027950310559,1450,1500
10.50421690940857,475,176,43,0.003105590062111801,1501.6,1503.027950310559,1450,1500
10.526512861251831,476,177,44,0.0038461538461538464,1501.7,1506.7307692307693,1450,1500
10.548800945281982,477,175,43,0.003246753246753247,1501.5,1503.7337662337663,1450,1500
10.57103681564331,478,175,43,0.003246753246753247,1501.5,1503.7337662337663,1450,1500
10.593305826187134,479,176,43,0.003105590062111801,1501.6,1503.027950310559,1450,1500
10.615749835968018,480,176,44,0.0033444816053511705,1501.6,1504.2224080267558,1450,1500
10.638126850128174,481,175,43,0.003246753246753247,1501.5,1503.7337662337663,1450,1500
10.660507917404175,482,176,43,0.003105590062111801,1501.6,1503.027950310559,1450,1500
10.682806968688965,483,177,43,0.0037593984962406013,1501.7,1506.296992481203,1450,1500
10.705158948898315,484,176,43,0.003246753246753247,1501.6,1503.7337662337663,1450,1500
10.727495908737183,485,176,43,0.003246753246753247,1501.6,1503.7337662337663,1450,1500
10.749843835830688,486,177,44,0.0038461538461538464,1501.7,1506.7307692307693,1450,1500
10.772352933883667,487,175,43,0.003246753246753247,1501.5,1503.7337662337663,1450,1500
10.794757843017578,488,177,43,0.0037593984962406013,1501.7,1506.296992481203,1450,1500
10.817068815231323,489,175,43,0.003246753246753247,1501.5,1503.7337662337663,1450,1500
10.839369773864746,490,176,43,0.003105590062111801,1501.6,1503.027950310559,1450,1500
10.86185097694397,491,176,44,0.003205128205128205,1501.6,1503.525641025641,1450,1500
10.884291887283325,492,176,43,0.003246753246753247,1501.6,1503.7337662337663,1450,1500
10.906576871871948,493,177,43,0.0035714285714285713,1501.7,1505.357142857143,1450,1500
10.928863763809204,494,176,43,0.003105590062111801,1501.6,1503.027950310559,1450,1500
10.95121693611145,495,176,43,0.003105590062111801,1501.6,1503.027950310559,1450,1500
10.973505973815918,496,177,43,0.0035714285714285713,1501.7,1505.357142857143,1450,1500
10.99589991569519,497,177,43,0.0035714285714285713,1501.7,1505.357142857143,1450,1500
11.018239974975586,498,175,44,0.0034965034965034965,1501.5,1504.9825174825176,1450,1500
11.040674924850464,499,177,43,0.0037593984962406013,1501.7,1506.296992481203,1450,1500
11.06294298171997,500,176,43,0.003105590062111801,1501.6,1503.027950310559,1450,1500
11.085188865661621,501,176,43,0.003105590062111801,1501.6,1503.027950310559,1450,1500
11.1074857711792,502,176,43,0.002976190476190476,1501.6,1502.3809523809523,1450,1500
11.129854917526245,503,175,43,0.0034965034965034965,1501.5,1504.9825174825176,1450,1500
11.152410984039307,504,176,44,0.0034965034965034965,1501.6,1504.9825174825176,1450,1500
11.17463994026184,505,176,44,0.0033444816053511705,1501.6,1504.2224080267558,1450,1500
11.196921825408936,506,176,43,0.002976190476190476,1501.6,1502.3809523809523,1450,1500
11.21924376487732,507,175,43,0.0034965034965034965,1501.5,1504.9825174825176,1450,1500
11.241783857345581,508,176,43,0.003105590062111801,1501.6,1503.027950310559,1450,1500
11.264181852340698,509,176,43,0.0033444816053511705,1501.6,1504.2224080267558,1450,1500
11.286606788635254,510,176,43,0.003105590062111801,1501.6,1503.027950310559,1450,1500
11.308880805969238,511,176,43,0.003105590062111801,1501.6,1503.027950310559,1450,1500
11.331159830093384,512,177,43,0.0037593984962406013,1501.7,1506.296992481203,1450,1500
11.353508949279785,513,176,43,0.003105590062111801,1501.6,1503.027950310559,1450,1500
11.375808000564575,514,176,43,0.002976190476190476,1501.6,1502.3809523809523,1450,1500
11.398197889328003,515,176,43,0.002976190476190476,1501.6,1502.3809523809523,1450,1500
11.420520782470703,516,176,44,0.0033444816053511705,1501.6,1504.2224080267558,1450,1500
11.442847967147827,517,176,43,0.003105590062111801,1501.6,1503.027950310559,1450,1500
11.465435981750488,518,176,43,0.003105590062111801,1501.6,1503.027950310559,1450,1500
11.487960815429688,519,176,43,0.003105590062111801,1501.6,1503.027950310559,1450,1500
11.510424852371216,520,176,43,0.0034965034965034965,1501.6,1504.9825174825176,1450,1500
11.53275990486145,521,176,43,0.003105590062111801,1501.6,1503.027950310559,1450,1500
11.55505084991455,522,175,43,0.003246753246753247,1501.5,1503.7337662337663,1450,1500
11.577443838119507,523,176,43,0.003105590062111801,1501.6,1503.027950310559,1450,1500
11.599856853485107,524,177,44,0.0038461538461538464,1501.7,1506.7307692307693,1450,1500
11.622527837753296,525,175,44,0.0034965034965034965,1501.5,1504.9825174825176,1450,1500
11.644762992858887,526,176,43,0.003246753246753247,1501.6,1503.7337662337663,1450,1500
11.667061805725098,527,177,43,0.0038461538461538464,1501.7,1506.7307692307693,1450,1500
11.689356803894043,528,175,43,0.003246753246753247,1501.5,1503.7337662337663,1450,1500
11.711843967437744,529,177,43,0.0035714285714285713,1501.7,1505.357142857143,1450,1500
11.73438286781311,530,176,43,0.003105590062111801,1501.6,1503.027950310559,1450,1500
11.756746768951416,531,176,43,0.003105590062111801,1501.6,1503.027950310559,1450,1500
11.779120922088623,532,176,43,0.003105590062111801,1501.6,1503.027950310559,1450,1500
11.801407814025879,533,176,43,0.002976190476190476,1501.6,1502.3809523809523,1450,1500
11.82380485534668,534,176,43,0.003105590062111801,1501.6,1503.027950310559,1450,1500
11.846431970596313,535,175,43,0.003246753246753247,1501.5,1503.7337662337663,1450,1500
11.868765830993652,536,176,43,0.0033444816053511705,1501.6,1504.2224080267558,1450,1500
11.891060829162598,537,177,43,0.0035714285714285713,1501.7,1505.357142857143,1450,1500
11.91335391998291,538,177,43,0.0035714285714285713,1501.7,1505.357142857143,1450,1500
11.935685873031616,539,175,43,0.003246753246753247,1501.5,1503.7337662337663,1450,1500
11.958375930786133,540,177,43,0.0037593984962406013,1501.7,1506.296992481203,1450,1500
11.980759859085083,541,176,43,0.003105590062111801,1501.6,1503.027950310559,1450,1500
12.003173828125,542,176,44,0.0033444816053511705,1501.6,1504.2224080267558,1450,1500
12.025461912155151,543,176,43,0.003246753246753247,1501.6,1503.7337662337663,1450,1500
12.047922849655151,544,176,43,0.003105590062111801,1501.6,1503.027950310559,1450,1500
12.070473909378052,545,176,43,0.003105590062111801,1501.6,1503.027950310559,1450,1500
12.092926979064941,546,176,43,0.003105590062111801,1501.6,1503.027950310559,1450,1500
12.115240812301636,547,176,43,0.003246753246753247,1501.6,1503.7337662337663,1450,1500
12.13748288154602,548,178,43,0.0037593984962406013,1501.8,1506.296992481203,1450,1500
12.15995478630066,549,176,43,0.003246753246753247,1501.6,1503.7337662337663,1450,1500
12.182061910629272,550,178,44,0.003663003663003663,1501.8,1505.8150183150183,1450,1500
12.203897953033447,551,175,44,0.0034965034965034965,1501.5,1504.9825174825176,1450,1500
12.225811958312988,552,176,43,0.003105590062111801,1501.6,1503.027950310559,1450,1500
12.24764895439148,553,175,43,0.003246753246753247,1501.5,1503.7337662337663,1450,1500
12.269884824752808,554,176,43,0.003246753246753247,1501.6,1503.7337662337663,1450,1500
12.291825771331787,555,176,43,0.003246753246753247,1501.6,1503.7337662337663,1450,1500
12.313670873641968,556,176,43,0.003105590062111801,1501.6,1503.027950310559,1450,1500
12.33552598953247,557,177,43,0.0037593984962406013,1501.7,1506.296992481203,1450,1500
12.357220888137817,558,177,43,0.0035714285714285713,1501.7,1505.357142857143,1450,1500
12.379028797149658,559,176,43,0.002976190476190476,1501.6,1502.3809523809523,1450,1500
12.400952816009521,560,176,43,0.003105590062111801,1501.6,1503.027950310559,1450,1500
12.42279577255249,561,177,43,0.0035714285714285713,1501.7,1505.357142857143,1450,1500
12.444758892059326,562,175,43,0.0034965034965034965,1501.5,1504.9825174825176,1450,1500
12.466518878936768,563,176,43,0.002976190476190476,1501.6,1502.3809523809523,1450,1500
12.488311767578125,564,176,43,0.003105590062111801,1501.6,1503.027950310559,1450,1500
12.510528802871704,565,175,43,0.0034965034965034965,1501.5,1504.9825174825176,1450,1500
12.532354831695557,566,177,43,0.004048582995951417,1501.7,1507.7429149797572,1450,1500
12.554236888885498,567,176,43,0.003105590062111801,1501.6,1503.027950310559,1450,1500
12.576024770736694,568,176,43,0.003105590062111801,1501.6,1503.027950310559,1450,1500
12.598089933395386,569,176,43,0.003105590062111801,1501.6,1503.027950310559,1450,1500
12.619908809661865,570,176,44,0.0034965034965034965,1501.6,1504.9825174825176,1450,1500
12.642177820205688,571,176,43,0.003246753246753247,1501.6,1503.7337662337663,1450,1500
12.663949966430664,572,177,43,0.0035714285714285713,1501.7,1505.357142857143,1450,1500
12.685815811157227,573,176,43,0.003105590062111801,1501.6,1503.027950310559,1450,1500
12.707679986953735,574,176,43,0.003105590062111801,1501.6,1503.027950310559,1450,1500
12.729456901550293,575,177,43,0.0035714285714285713,1501.7,1505.357142857143,1450,1500
12.751268863677979,576,176,44,0.0034965034965034965,1501.6,1504.9825174825176,1450,1500
12.773072957992554,577,176,43,0.003105590062111801,1501.6,1503.027950310559,1450,1500
12.7947678565979,578,176,43,0.003105590062111801,1501.6,1503.027950310559,1450,1500
12.816542863845825,579,176,43,0.003246753246753247,1501.6,1503.7337662337663,1450,1500
12.83838176727295,580,176,43,0.003105590062111801,1501.6,1503.027950310559,1450,1500
12.860474824905396,581,176,43,0.003105590062111801,1501.6,1503.027950310559,1450,1500
12.882519960403442,582,176,43,0.003246753246753247,1501.6,1503.7337662337663,1450,1500
12.904432773590088,583,177,43,0.0035714285714285713,1501.7,1505.357142857143,1450,1500
12.926440000534058,584,176,44,0.0033444816053511705,1501.6,1504.2224080267558,1450,1500
12.948291778564453,585,177,43,0.0037593984962406013,1501.7,1506.296992481203,1450,1500
12.970316886901855,586,175,44,0.0034965034965034965,1501.5,1504.9825174825176,1450,1500
12.992291927337646,587,177,43,0.004048582995951417,1501.7,1507.7429149797572,1450,1500
13.01415491104126,588,177,43,0.0035714285714285713,1501.7,1505.357142857143,1450,1500
13.035958766937256,589,176,44,0.0034965034965034965,1501.6,1504.9825174825176,1450,1500
13.057707786560059,590,176,43,0.002976190476190476,1501.6,1502.3809523809523,1450,1500
13.07954478263855,591,177,43,0.0035714285714285713,1501.7,1505.357142857143,1450,1500
13.101677894592285,592,176,43,0.003105590062111801,1501.6,1503.027950310559,1450,1500
13.123535871505737,593,177,43,0.0037593984962406013,1501.7,1506.296992481203,1450,1500
13.145427942276001,594,176,43,0.003105590062111801,1501.6,1503.027950310559,1450,1500
13.167250871658325,595,177,43,0.004048582995951417,1501.7,1507.7429149797572,1450,1500
13.189214944839478,596,176,43,0.0033444816053511705,1501.6,1504.2224080267558,1450,1500
13.210999965667725,597,175,43,0.003246753246753247,1501.5,1503.7337662337663,1450,1500
13.232769966125488,598,177,44,0.0038461538461538464,1501.7,1506.7307692307693,1450,1500
13.25460696220398,599,177,44,0.0038461538461538464,1501.7,1506.7307692307693,1450,1500
13.276411771774292,600,176,44,0.003205128205128205,1501.6,1503.525641025641,1450,1500
13.298419952392578,601,176,43,0.003105590062111801,1501.6,1503.027950310559,1450,1500
13.320520877838135,602,176,43,0.0036231884057971015,1501.6,1505.6159420289855,1450,1500
13.34264588356018,603,176,43,0.003246753246753247,1501.6,1503.7337662337663,1450,1500
13.364356994628906,604,176,43,0.002976190476190476,1501.6,1502.3809523809523,1450,1500
13.386143922805786,605,176,43,0.003105590062111801,1501.6,1503.027950310559,1450,1500
13.408101797103882,606,176,43,0.003246753246753247,1501.6,1503.7337662337663,1450,1500
13.429900884628296,607,177,44,0.0038461538461538464,1501.7,1506.7307692307693,1450,1500
13.452073812484741,608,176,43,0.003105590062111801,1501.6,1503.027950310559,1450,1500
13.473851919174194,609,177,44,0.0038461538461538464,1501.7,1506.7307692307693,1450,1500
13.495685815811157,610,176,43,0.003105590062111801,1501.6,1503.027950310559,1450,1500
13.517841815948486,611,177,43,0.0033444816053511705,1501.7,1504.2224080267558,1450,1500
13.539744853973389,612,177,43,0.0035714285714285713,1501.7,1505.357142857143,1450,1500
13.561647891998291,613,176,43,0.003105590062111801,1501.6,1503.027950310559,1450,1500
13.583374977111816,614,177,43,0.0038461538461538464,1501.7,1506.7307692307693,1450,1500
13.605223894119263,615,176,43,0.003246753246753247,1501.6,1503.7337662337663,1450,1500
13.62701678276062,616,175,43,0.003787878787878788,1501.5,1506.439393939394,1450,1500
13.648768901824951,617,176,43,0.003105590062111801,1501.6,1503.027950310559,1450,1500
13.67060899734497,618,176,43,0.003105590062111801,1501.6,1503.027950310559,1450,1500
13.692449808120728,619,176,43,0.003246753246753247,1501.6,1503.7337662337663,1450,1500
13.71420693397522,620,177,43,0.0035714285714285713,1501.7,1505.357142857143,1450,1500
13.736067771911621,621,176,44,0.003205128205128205,1501.6,1503.525641025641,1450,1500
13.757924795150757,622,176,43,0.002976190476190476,1501.6,1502.3809523809523,1450,1500
13.779733896255493,623,176,43,0.003105590062111801,1501.6,1503.027950310559,1450,1500
13.801835775375366,624,175,43,0.0034965034965034965,1501.5,1504.9825174825176,1450,1500
13.823588848114014,625,176,44,0.0033444816053511705,1501.6,1504.2224080267558,1450,1500
13.845515966415405,626,176,43,0.003105590062111801,1501.6,1503.027950310559,1450,1500
13.867368936538696,627,176,43,0.003105590062111801,1501.6,1503.027950310559,1450,1500
13.889234781265259,628,176,43,0.003105590062111801,1501.6,1503.027950310559,1450,1500
13.910999774932861,629,176,44,0.0033444816053511705,1501.6,1504.2224080267558,1450,1500
13.932714939117432,630,176,43,0.003105590062111801,1501.6,1503.027950310559,1450,1500
13.954548835754395,631,176,43,0.002976190476190476,1501.6,1502.3809523809523,1450,1500
13.976399898529053,632,176,43,0.003246753246753247,1501.6,1503.7337662337663,1450,1500
13.998267889022827,633,176,43,0.003105590062111801,1501.6,1503.027950310559,1450,1500
14.020218849182129,634,176,43,0.003401360544217687,1501.6,1504.5068027210884,1450,1500
14.042086839675903,635,176,43,0.003105590062111801,1501.6,1503.027950310559,1450,1500
14.063873767852783,636,177,43,0.0035714285714285713,1501.7,1505.357142857143,1450,1500
14.085758924484253,637,176,43,0.002976190476190476,1501.6,1502.3809523809523,1450,1500
14.107465982437134,638,176,43,0.003105590062111801,1501.6,1503.027950310559,1450,1500
14.129263877868652,639,175,43,0.0034965034965034965,1501.5,1504.9825174825176,1450,1500
14.151166915893555,640,177,43,0.0035714285714285713,1501.7,1505.357142857143,1450,1500
14.172996997833252,641,176,44,0.0033444816053511705,1501.6,1504.2224080267558,1450,1500
14.194969892501831,642,176,43,0.003105590062111801,1501.6,1503.027950310559,1450,1500
14.216792821884155,643,176,44,0.0033444816053511705,1501.6,1504.2224080267558,1450,1500
14.238702774047852,644,176,43,0.003105590062111801,1501.6,1503.027950310559,1450,1500
14.260623931884766,645,176,43,0.003105590062111801,1501.6,1503.027950310559,1450,1500
14.282434940338135,646,177,44,0.0038461538461538464,1501.7,1506.7307692307693,1450,1500
14.304334878921509,647,177,43,0.0038461538461538464,1501.7,1506.7307692307693,1450,1500
14.326157808303833,648,177,43,0.0037593984962406013,1501.7,1506.296992481203,1450,1500
14.348099946975708,649,175,43,0.0034965034965034965,1501.5,1504.9825174825176,1450,1500
14.369964838027954,650,176,43,0.003105590062111801,1501.6,1503.027950310559,1450,1500
14.391833782196045,651,176,43,0.0034965034965034965,1501.6,1504.9825174825176,1450,1500
14.413742780685425,652,177,43,0.003105590062111801,1501.7,1503.027950310559,1450,1500
14.435478925704956,653,177,43,0.0037593984962406013,1501.7,1506.296992481203,1450,1500
14.45731496810913,654,176,43,0.003105590062111801,1501.6,1503.027950310559,1450,1500
14.47916293144226,655,175,43,0.003246753246753247,1501.5,1503.7337662337663,1450,1500
14.50119686126709,656,176,43,0.003105590062111801,1501.6,1503.027950310559,1450,1500
14.52305793762207,657,176,43,0.003246753246753247,1501.6,1503.7337662337663,1450,1500
14.54905080795288,658,176,43,0.003105590062111801,1501.6,1503.027950310559,1450,1500
14.570786952972412,659,175,43,0.003246753246753247,1501.5,1503.7337662337663,1450,1500
14.592490911483765,660,176,43,0.003246753246753247,1501.6,1503.7337662337663,1450,1500
14.614158868789673,661,175,43,0.003246753246753247,1501.5,1503.7337662337663,1450,1500
14.635798931121826,662,177,43,0.0035714285714285713,1501.7,1505.357142857143,1450,1500
14.657432794570923,663,176,43,0.003105590062111801,1501.6,1503.027950310559,1450,1500
14.679048776626587,664,176,43,0.003105590062111801,1501.6,1503.027950310559,1450,1500
14.700668811798096,665,176,43,0.003246753246753247,1501.6,1503.7337662337663,1450,1500
14.722311973571777,666,175,43,0.003246753246753247,1501.5,1503.7337662337663,1450,1500
14.743942975997925,667,176,43,0.003105590062111801,1501.6,1503.027950310559,1450,1500
14.765565872192383,668,176,43,0.003246753246753247,1501.6,1503.7337662337663,1450,1500
14.78718876838684,669,177,43,0.0035714285714285713,1501.7,1505.357142857143,1450,1500
14.808839797973633,670,176,44,0.0033444816053511705,1501.6,1504.2224080267558,1450,1500
14.830474853515625,671,176,44,0.0033444816053511705,1501.6,1504.2224080267558,1450,1500
14.852112770080566,672,177,43,0.0035714285714285713,1501.7,1505.357142857143,1450,1500
14.873743772506714,673,176,43,0.003105590062111801,1501.6,1503.027950310559,1450,1500
14.895569801330566,674,177,43,0.0035714285714285713,1501.7,1505.357142857143,1450,1500
14.917231798171997,675,176,43,0.002976190476190476,1501.6,1502.3809523809523,1450,1500
14.938875913619995,676,175,43,0.003246753246753247,1501.5,1503.7337662337663,1450,1500
14.960514783859253,677,175,44,0.0034965034965034965,1501.5,1504.9825174825176,1450,1500
14.982210874557495,678,176,43,0.003105590062111801,1501.6,1503.027950310559,1450,1500
15.003930807113647,679,176,43,0.003105590062111801,1501.6,1503.027950310559,1450,1500
15.025561809539795,680,176,43,0.003246753246753247,1501.6,1503.7337662337663,1450,1500
15.04719090461731,681,175,43,0.003246753246753247,1501.5,1503.7337662337663,1450,1500
15.068821907043457,682,175,43,0.0034965034965034965,1501.5,1504.9825174825176,1450,1500
15.090446949005127,683,176,44,0.0033444816053511705,1501.6,1504.2224080267558,1450,1500
15.112079858779907,684,176,43,0.003105590062111801,1501.6,1503.027950310559,1450,1500
15.133685827255249,685,177,43,0.0038461538461538464,1501.7,1506.7307692307693,1450,1500
15.15530776977539,686,176,43,0.003105590062111801,1501.6,1503.027950310559,1450,1500
