time,frame,x,y,size_inv,roll,pitch,thrust,yaw
0.0005190372467041016,1,156,70,0.0014005602240896359,1499.5,1490.0,1357.5,1500
0.023579120635986328,2,155,70,0.0015360983102918587,1499.2750000000001,1491.4909189482244,1357.5,1500
0.046061038970947266,3,155,70,0.0015360983102918587,1499.1500000000001,1491.6264570344267,1357.5,1500
0.06839704513549805,4,156,70,0.0014005602240896359,1499.1500000000001,1490.2710761724045,1357.5,1500
0.09069204330444336,5,156,70,0.0014005602240896359,1499.05,1490.2710761724045,1357.5,1500
0.11286807060241699,6,156,70,0.0014705882352941176,1498.95,1491.0413842956536,1357.5,1500
0.13500404357910156,7,156,70,0.0014005602240896359,1498.8499999999999,1490.3411041836089,1357.5,1500
0.15717315673828125,8,157,70,0.0013605442176870747,1498.875,1489.9009281131807,1357.5,1500
0.17954397201538086,9,156,70,0.001443001443001443,1498.675,1490.7679415852363,1357.5,1500
0.2022390365600586,10,156,70,0.0014005602240896359,1498.575,1490.3435293961181,1357.5,1500
0.22505998611450195,11,156,70,0.0014005602240896359,1498.4849999999999,1490.3435293961181,1357.5,1500
0.24796795845031738,12,156,70,0.0014005602240896359,1498.54,1490.207991309916,1357.5,1500
0.2708101272583008,13,156,70,0.0014005602240896359,1498.655,1490.0724532237136,1357.5,1500
0.29366517066955566,14,156,70,0.001443001443001443,1498.655,1490.5393066317436,1357.5,1500
0.31650304794311523,15,156,70,0.0014005602240896359,1498.655,1490.1148944426254,1357.5,1500
0.3393731117248535,16,156,70,0.0014005602240896359,1498.655,1490.044866431421,1357.5,1500
0.3623530864715576,17,156,70,0.0014005602240896359,1498.655,1490.044866431421,1357.5,1500
0.38538408279418945,18,156,70,0.0014005602240896359,1498.5999999999999,1490.0848824378236,1357.5,1500
0.4082350730895996,19,156,70,0.0014005602240896359,1498.5999999999999,1490.0424412189118,1357.5,1500
0.4311389923095703,20,156,70,0.0014005602240896359,1498.5999999999999,1490.0424412189118,1357.5,1500
0.45397400856018066,21,156,70,0.0014005602240896359,1498.5999999999999,1490.0424412189118,1357.5,1500
0.47686314582824707,22,156,70,0.0014005602240896359,1498.5999999999999,1490.0424412189118,1357.5,1500
0.49971795082092285,23,155,70,0.001488095238095238,1498.5050000000001,1491.0053263729735,1357.5,1500
0.5227019786834717,24,156,70,0.0014005602240896359,1498.605,1490.0875350140057,1357.5,1500
0.545626163482666,25,156,70,0.001443001443001443,1498.605,1490.5543884220356,1357.5,1500
0.5684890747070312,26,156,70,0.0014005602240896359,1498.605,1490.1299762329174,1357.5,1500
0.5913369655609131,27,155,70,0.001488095238095238,1498.51,1491.0928613869789,1357.5,1500
0.6144061088562012,28,156,70,0.0014005602240896359,1498.55,1490.2175112469231,1357.5,1500
0.6372671127319336,29,155,70,0.0015360983102918587,1498.4549999999999,1491.7084301951475,1357.5,1500
0.660146951675415,30,155,70,0.001488095238095238,1498.46,1491.315934487187,1357.5,1500
0.682981014251709,31,155,70,0.001488095238095238,1498.4649999999999,1491.4034695011924,1357.5,1500
0.7058491706848145,32,156,70,0.001443001443001443,1498.5050000000001,1490.9949727691662,1357.5,1500
0.7286691665649414,33,155,70,0.001488095238095238,1498.4649999999999,1491.4459107201042,1357.5,1500
0.7515180110931396,34,156,70,0.0015151515151515152,1498.5050000000001,1491.8310647817289,1357.5,1500
0.7745571136474609,35,156,70,0.0014005602240896359,1498.4449999999999,1490.6427106521983,1357.5,1500
0.7974481582641602,36,155,70,0.001488095238095238,1498.29,1491.60559580626,1357.5,1500
0.8203170299530029,37,155,70,0.001488095238095238,1498.3499999999999,1491.60559580626,1357.5,1500
0.8431971073150635,38,156,70,0.0014005602240896359,1498.3900000000001,1490.7302456662039,1357.5,1500
0.8660211563110352,39,156,70,0.0014005602240896359,1498.4449999999999,1490.5947075800018,1357.5,1500
0.8889470100402832,40,155,70,0.0015360983102918587,1498.405,1491.9980915142205,1357.5,1500
0.9120571613311768,41,155,70,0.001488095238095238,1498.405,1491.5180607922543,1357.5,1500
0.9352869987487793,42,155,70,0.0015360983102918587,1498.3499999999999,1492.0911883815111,1357.5,1500
0.9582469463348389,43,155,70,0.001488095238095238,1498.4100000000001,1491.6111576595447,1357.5,1500
0.9816911220550537,44,156,70,0.0014005602240896359,1498.51,1490.6212162284269,1357.5,1500
1.005234956741333,45,156,70,0.001443001443001443,1498.45,1491.0880696364568,1357.5,1500
1.0283541679382324,46,156,70,0.001443001443001443,1498.4449999999999,1491.0429758413629,1357.5,1500
1.051682949066162,47,155,70,0.001488095238095238,1498.345,1491.4939137923009,1357.5,1500
1.0751941204071045,48,156,70,0.0014005602240896359,1498.385,1490.6185636522448,1357.5,1500
1.0983359813690186,49,157,70,0.0013605442176870747,1498.48,1490.1783875818167,1357.5,1500
1.1215131282806396,50,156,70,0.0014005602240896359,1498.4349999999999,1490.4430095596401,1357.5,1500
1.1447041034698486,51,156,70,0.0014005602240896359,1498.49,1490.3554745456345,1357.5,1500
1.167855978012085,52,155,70,0.0015360983102918587,1498.3900000000001,1491.7108554076567,1357.5,1500
1.1909940242767334,53,155,70,0.0015360983102918587,1498.45,1491.7588584798534,1357.5,1500
1.2140991687774658,54,155,70,0.0015360983102918587,1498.5150000000001,1491.8943965660555,1357.5,1500
1.23728609085083,55,155,70,0.001488095238095238,1498.52,1491.4594596391833,1357.5,1500
1.2604119777679443,56,155,70,0.001488095238095238,1498.5250000000001,1491.5045534342769,1357.5,1500
1.2836120128631592,57,156,70,0.001443001443001443,1498.6199999999999,1491.0085216882451,1357.5,1500
1.3066999912261963,58,155,70,0.001488095238095238,1498.4649999999999,1491.5469946531887,1357.5,1500
1.3298251628875732,59,155,70,0.0015360983102918587,1498.355,1492.2025794677597,1357.5,1500
1.3534440994262695,60,155,70,0.001488095238095238,1498.3,1491.8100837597992,1357.5,1500
1.3768119812011719,61,156,70,0.0014005602240896359,1498.3399999999999,1490.9347336197432,1357.5,1500
1.3998961448669434,62,156,70,0.0014005602240896359,1498.395,1490.7991955335408,1357.5,1500
1.4230549335479736,63,156,70,0.0014005602240896359,1498.3900000000001,1490.6636574473387,1357.5,1500
1.446146011352539,64,155,70,0.001488095238095238,1498.29,1491.491004515198,1357.5,1500
1.4692649841308594,65,156,70,0.0014005602240896359,1498.385,1490.5281193611365,1357.5,1500
1.4925060272216797,66,156,70,0.0014005602240896359,1498.4400000000001,1490.4405843471309,1357.5,1500
1.515834093093872,67,156,69,0.0014705882352941176,1498.4400000000001,1491.1684512514682,1357.75,1500
1.538923978805542,68,156,70,0.0014005602240896359,1498.4949999999999,1490.3806361254178,1357.5,1500
1.5622079372406006,69,156,70,0.0014005602240896359,1498.49,1490.2450980392157,1357.5,1500
1.585442066192627,70,155,70,0.001488095238095238,1498.45,1491.1204481792718,1357.5,1500
1.6086080074310303,71,156,70,0.0014005602240896359,1498.55,1490.2450980392157,1357.5,1500
1.6317100524902344,72,155,70,0.0015360983102918587,1498.4549999999999,1491.7360169874401,1357.5,1500
1.6551339626312256,73,155,70,0.0015360983102918587,1498.46,1491.8715550736424,1357.5,1500
1.6782219409942627,74,156,70,0.0014005602240896359,1498.615,1490.4286391976145,1357.5,1500
1.70135498046875,75,156,70,0.0014705882352941176,1498.5550000000001,1491.1989473208639,1357.5,1500
1.7245550155639648,76,156,70,0.0014005602240896359,1498.5550000000001,1490.4986672088189,1357.5,1500
1.7477149963378906,77,156,70,0.0014005602240896359,1498.4949999999999,1490.4286391976145,1357.5,1500
1.7708041667938232,78,156,70,0.0014005602240896359,1498.4349999999999,1490.4286391976145,1357.5,1500
1.7940120697021484,79,156,70,0.0014005602240896359,1498.4349999999999,1490.4286391976145,1357.5,1500
1.8171091079711914,80,156,70,0.001443001443001443,1498.49,1490.8079575916388,1357.5,1500
1.840224027633667,81,155,70,0.001488095238095238,1498.395,1491.3464305565824,1357.5,1500
1.863326072692871,82,156,70,0.0014005602240896359,1498.55,1490.3355423303242,1357.5,1500
1.8864469528198242,83,156,70,0.0014005602240896359,1498.605,1490.2000042441218,1357.5,1500
1.9095571041107178,84,155,70,0.0015360983102918587,1498.51,1491.6909231923464,1357.5,1500
1.9328210353851318,85,155,70,0.001488095238095238,1498.5150000000001,1491.2283994731813,1357.5,1500
1.9562220573425293,86,156,70,0.001443001443001443,1498.5550000000001,1490.8199027411551,1357.5,1500
1.9791450500488281,87,155,70,0.001488095238095238,1498.46,1491.3583757060987,1357.5,1500
2.002138137817383,88,156,70,0.0014005602240896359,1498.5599999999999,1490.4830255660427,1357.5,1500
2.02521014213562,89,156,70,0.0014005602240896359,1498.5,1490.4830255660427,1357.5,1500
2.048035144805908,90,156,70,0.001443001443001443,1498.4400000000001,1490.9074377551608,1357.5,1500
2.0708980560302734,91,155,70,0.0015360983102918587,1498.4000000000001,1491.8864095002614,1357.5,1500
2.0937230587005615,92,156,70,0.0014005602240896359,1498.4400000000001,1490.5310286382394,1357.5,1500
2.1166069507598877,93,156,70,0.0014005602240896359,1498.4400000000001,1490.5310286382394,1357.5,1500
2.139436960220337,94,155,70,0.001488095238095238,1498.4000000000001,1491.3583757060987,1357.5,1500
2.1624579429626465,95,156,70,0.0014005602240896359,1498.5550000000001,1490.395490552037,1357.5,1500
2.18546199798584,96,156,70,0.001443001443001443,1498.4949999999999,1490.8199027411551,1357.5,1500
2.208348035812378,97,156,70,0.001443001443001443,1498.55,1490.7748089460613,1357.5,1500
2.231166124343872,98,156,70,0.001443001443001443,1498.55,1490.8172501649731,1357.5,1500
2.254024028778076,99,156,70,0.0014005602240896359,1498.49,1490.3928379758549,1357.5,1500
2.2768571376800537,100,156,70,0.0014005602240896359,1498.49,1490.3503967569432,1357.5,1500
2.2996959686279297,101,156,70,0.001443001443001443,1498.5450000000001,1490.6817120787709,1357.5,1500
2.322690010070801,102,156,70,0.0014005602240896359,1498.5450000000001,1490.2572998896528,1357.5,1500
2.3457319736480713,103,155,70,0.0015625,1498.45,1492.0386374246668,1357.5,1500
2.3685450553894043,104,156,70,0.001443001443001443,1498.605,1490.7985580595875,1357.5,1500
2.3913979530334473,105,156,70,0.0014005602240896359,1498.605,1490.3741458704694,1357.5,1500
2.414443016052246,106,156,70,0.0014005602240896359,1498.605,1490.3317046515576,1357.5,1500
2.43733811378479,107,155,70,0.0015360983102918587,1498.51,1491.7801823808702,1357.5,1500
2.4601731300354004,108,156,70,0.0014005602240896359,1498.55,1490.3823602999362,1357.5,1500
2.4830551147460938,109,155,70,0.001488095238095238,1498.4549999999999,1491.3452454539979,1357.5,1500
2.5059010982513428,110,155,70,0.001488095238095238,1498.46,1491.4327804680033,1357.5,1500
2.5287599563598633,111,156,70,0.0014005602240896359,1498.5599999999999,1490.5149891090357,1357.5,1500
2.551593065261841,112,155,70,0.0016129032258064516,1498.405,1492.8507621279205,1357.5,1500
2.5746541023254395,113,155,70,0.001488095238095238,1498.4649999999999,1491.5282774889038,1357.5,1500
2.5975210666656494,114,155,70,0.001488095238095238,1498.4100000000001,1491.5733712839974,1357.5,1500
2.62044095993042,115,155,70,0.001488095238095238,1498.355,1491.6609062980031,1357.5,1500
2.6432700157165527,116,155,70,0.001488095238095238,1498.3599999999999,1491.7484413120087,1357.5,1500
2.6661269664764404,117,156,70,0.0014005602240896359,1498.4549999999999,1490.7375530857505,1357.5,1500
2.688965082168579,118,156,70,0.0014005602240896359,1498.395,1490.7375530857505,1357.5,1500
2.7118330001831055,119,155,70,0.0015360983102918587,1498.2950000000001,1492.1409370199692,1357.5,1500
2.73500394821167,120,156,70,0.0014005602240896359,1498.3900000000001,1490.6980211439416,1357.5,1500
2.757939100265503,121,155,70,0.001488095238095238,1498.2349999999999,1491.6609062980031,1357.5,1500
2.780764102935791,122,156,70,0.001443001443001443,1498.3900000000001,1491.0400665642601,1357.5,1500
2.8036389350891113,123,155,70,0.001488095238095238,1498.3499999999999,1491.491004515198,1357.5,1500
2.826470136642456,124,155,70,0.0015360983102918587,1498.3499999999999,1492.0190383093609,1357.5,1500
2.8493330478668213,125,156,70,0.0014005602240896359,1498.5050000000001,1490.576122433333,1357.5,1500
2.8723270893096924,126,156,70,0.0014005602240896359,1498.5,1490.4885874193274,1357.5,1500
2.8955819606781006,127,156,70,0.0014005602240896359,1498.5,1490.4885874193274,1357.5,1500
2.918668031692505,128,156,70,0.0014005602240896359,1498.4400000000001,1490.4885874193274,1357.5,1500
2.942168951034546,129,156,70,0.001443001443001443,1498.4349999999999,1490.8199027411551,1357.5,1500
2.96528697013855,130,156,70,0.0014005602240896359,1498.4349999999999,1490.395490552037,1357.5,1500
2.9881420135498047,131,155,70,0.0015360983102918587,1498.395,1491.798874486256,1357.5,1500
3.0110461711883545,132,156,70,0.0014005602240896359,1498.4949999999999,1490.4010524053219,1357.5,1500
3.033890962600708,133,157,70,0.0013605442176870747,1498.645,1489.8733413208881,1357.5,1500
3.0567519664764404,134,156,70,0.0014005602240896359,1498.5999999999999,1490.1379632987114,1357.5,1500
3.0796010494232178,135,157,70,0.0013605442176870747,1498.6949999999999,1489.6977872282832,1357.5,1500
3.102555990219116,136,156,70,0.001443001443001443,1498.5350000000001,1490.5648007003388,1357.5,1500
3.1254830360412598,137,155,70,0.001488095238095238,1498.4400000000001,1491.1032736652824,1357.5,1500
3.1483709812164307,138,156,70,0.0014005602240896359,1498.5999999999999,1490.2279235252263,1357.5,1500
3.1712400913238525,139,155,70,0.0015360983102918587,1498.5050000000001,1491.6764012545389,1357.5,1500
3.1941261291503906,140,155,70,0.001488095238095238,1498.5699999999999,1491.2839055465784,1357.5,1500
3.217046022415161,141,155,70,0.0015360983102918587,1498.6300000000001,1491.7639362685445,1357.5,1500
3.239917039871216,142,156,70,0.0014005602240896359,1498.6700000000001,1490.4085554065223,1357.5,1500
3.262737989425659,143,156,70,0.0014005602240896359,1498.615,1490.4485714129248,1357.5,1500
3.2856709957122803,144,156,70,0.0014005602240896359,1498.5550000000001,1490.4485714129248,1357.5,1500
3.308711051940918,145,156,70,0.0014005602240896359,1498.4400000000001,1490.4885874193274,1357.5,1500
3.3316171169281006,146,156,70,0.001443001443001443,1498.3800000000001,1490.9129996084455,1357.5,1500
3.3545989990234375,147,156,70,0.0014005602240896359,1498.4349999999999,1490.4010524053219,1357.5,1500
3.3774771690368652,148,156,70,0.0014005602240896359,1498.4349999999999,1490.4010524053219,1357.5,1500
3.400308132171631,149,156,70,0.0014005602240896359,1498.49,1490.2655143191196,1357.5,1500
3.4231960773468018,150,156,70,0.0014005602240896359,1498.5450000000001,1490.1779793051139,1357.5,1500
3.446010112762451,151,155,70,0.001488095238095238,1498.5050000000001,1491.0053263729735,1357.5,1500
3.468837022781372,152,155,70,0.001488095238095238,1498.51,1491.0928613869789,1357.5,1500
3.491680145263672,153,156,70,0.0014005602240896359,1498.6099999999999,1490.2175112469231,1357.5,1500
3.5147440433502197,154,156,70,0.0014005602240896359,1498.6099999999999,1490.2175112469231,1357.5,1500
3.5375919342041016,155,156,70,0.001443001443001443,1498.6099999999999,1490.6843646549528,1357.5,1500
3.560460090637207,156,155,70,0.001488095238095238,1498.4549999999999,1491.1803964009846,1357.5,1500
3.583280086517334,157,155,70,0.0015360983102918587,1498.4000000000001,1491.7959652091531,1357.5,1500
3.6064159870147705,158,155,70,0.001488095238095238,1498.405,1491.4034695011924,1357.5,1500
3.629289150238037,159,156,70,0.001443001443001443,1498.5050000000001,1490.9949727691662,1357.5,1500
3.652224063873291,160,156,70,0.0014005602240896359,1498.5050000000001,1490.5705605800483,1357.5,1500
3.6751210689544678,161,155,70,0.001488095238095238,1498.405,1491.4459107201042,1357.5,1500
3.697983980178833,162,156,70,0.0014005602240896359,1498.5,1490.4830255660427,1357.5,1500
3.7208149433135986,163,155,70,0.001488095238095238,1498.345,1491.4459107201042,1357.5,1500
3.7437970638275146,164,155,70,0.001488095238095238,1498.3499999999999,1491.5334457341098,1357.5,1500
3.766677141189575,165,156,70,0.0014005602240896359,1498.45,1490.615654375142,1357.5,1500
3.789541006088257,166,155,70,0.0015360983102918587,1498.3499999999999,1492.0190383093609,1357.5,1500
3.812437057495117,167,156,70,0.0014005602240896359,1498.5050000000001,1490.5281193611365,1357.5,1500
3.835374116897583,168,156,70,0.0014005602240896359,1498.5,1490.4405843471309,1357.5,1500
3.8581910133361816,169,156,70,0.0014005602240896359,1498.4400000000001,1490.3981431282191,1357.5,1500
3.8813371658325195,170,156,70,0.0014005602240896359,1498.4400000000001,1490.3981431282191,1357.5,1500
3.9044189453125,171,155,70,0.001488095238095238,1498.3399999999999,1491.2734932682752,1357.5,1500
3.9273271560668945,172,156,70,0.0014005602240896359,1498.4400000000001,1490.3981431282191,1357.5,1500
3.950155019760132,173,156,70,0.0014005602240896359,1498.4949999999999,1490.3106081142134,1357.5,1500
3.973021984100342,174,156,70,0.0014705882352941176,1498.55,1490.9933812234572,1357.5,1500
3.9958550930023193,175,155,70,0.001488095238095238,1498.4549999999999,1491.2559862654739,1357.5,1500
4.018733978271484,176,156,70,0.0014005602240896359,1498.55,1490.2450980392157,1357.5,1500
4.041574001312256,177,156,70,0.0014005602240896359,1498.55,1490.2450980392157,1357.5,1500
4.0645911693573,178,156,70,0.0014005602240896359,1498.55,1490.2450980392157,1357.5,1500
4.08742094039917,179,156,70,0.0014005602240896359,1498.55,1490.2450980392157,1357.5,1500
4.1103010177612305,180,156,70,0.0014005602240896359,1498.49,1490.2450980392157,1357.5,1500
4.133121967315674,181,156,70,0.001443001443001443,1498.5450000000001,1490.62441643324,1357.5,1500
4.15599799156189,182,155,70,0.0015360983102918587,1498.45,1491.6909231923464,1357.5,1500
4.178810119628906,183,155,70,0.0015360983102918587,1498.4549999999999,1491.8264612785485,1357.5,1500
4.201662063598633,184,155,70,0.0015360983102918587,1498.46,1491.8919713535463,1357.5,1500
4.22462797164917,185,155,70,0.001488095238095238,1498.52,1491.4119406315801,1357.5,1500
4.247511148452759,186,155,70,0.001488095238095238,1498.5250000000001,1491.4994756455858,1357.5,1500
4.270352125167847,187,155,70,0.0015360983102918587,1498.47,1492.1150444537541,1357.5,1500
4.293230056762695,188,156,70,0.0014005602240896359,1498.51,1490.7596635917319,1357.5,1500
4.3160810470581055,189,155,70,0.0015360983102918587,1498.355,1492.2505825399564,1357.5,1500
4.338927984237671,190,155,70,0.001488095238095238,1498.3,1491.8580868319957,1357.5,1500
4.36177396774292,191,156,70,0.0014005602240896359,1498.3399999999999,1490.9402954730278,1357.5,1500
4.384793043136597,192,156,70,0.0014005602240896359,1498.335,1490.8047573868257,1357.5,1500
4.407684087753296,193,156,70,0.0014005602240896359,1498.3900000000001,1490.6692193006236,1357.5,1500
4.430701017379761,194,156,70,0.0014005602240896359,1498.385,1490.5336812144212,1357.5,1500
4.453686952590942,195,155,70,0.001488095238095238,1498.2850000000001,1491.4090313544773,1357.5,1500
4.47662615776062,196,155,70,0.001488095238095238,1498.345,1491.4090313544773,1357.5,1500
4.499464988708496,197,156,70,0.0014005602240896359,1498.5,1490.3981431282191,1357.5,1500
4.522410154342651,198,157,70,0.0013605442176870747,1498.595,1489.9579670577909,1357.5,1500
4.545303106307983,199,155,70,0.001488095238095238,1498.4549999999999,1491.1854741896759,1357.5,1500
4.568180084228516,200,155,70,0.001488095238095238,1498.4549999999999,1491.1854741896759,1357.5,1500
4.591036081314087,201,156,70,0.0014005602240896359,1498.4949999999999,1490.3101240496198,1357.5,1500
4.613947153091431,202,156,70,0.0014005602240896359,1498.4949999999999,1490.3101240496198,1357.5,1500
4.636764049530029,203,156,70,0.0014005602240896359,1498.5550000000001,1490.3101240496198,1357.5,1500
4.659615993499756,204,155,70,0.0015360983102918587,1498.4000000000001,1491.8010429978442,1357.5,1500
4.682544946670532,205,155,70,0.0015360983102918587,1498.4000000000001,1491.8490460700409,1357.5,1500
4.705533027648926,206,156,70,0.0015151515151515152,1498.5550000000001,1491.6666343956938,1357.5,1500
4.728363990783691,207,156,70,0.0014005602240896359,1498.5550000000001,1490.520721485075,1357.5,1500
4.7512290477752686,208,155,70,0.001488095238095238,1498.405,1491.5236226455393,1357.5,1500
4.774059057235718,209,155,70,0.0015360983102918587,1498.405,1492.0516564397019,1357.5,1500
4.796934127807617,210,156,70,0.001443001443001443,1498.5,1491.0755939717039,1357.5,1500
4.81975793838501,211,155,70,0.0015360983102918587,1498.405,1492.1421007308104,1357.5,1500
4.842668056488037,212,155,70,0.001488095238095238,1498.4100000000001,1491.7496050228499,1357.5,1500
4.865873098373413,213,155,70,0.0015360983102918587,1498.355,1492.3651738310182,1357.5,1500
4.888859987258911,214,157,70,0.0013605442176870747,1498.5450000000001,1490.4340788123657,1357.5,1500
4.912032127380371,215,155,70,0.001488095238095238,1498.405,1491.6615859442506,1357.5,1500
4.935122013092041,216,156,70,0.001443001443001443,1498.4449999999999,1491.1384979211625,1357.5,1500
4.958024978637695,217,155,70,0.001488095238095238,1498.29,1491.6769708861061,1357.5,1500
4.980862140655518,218,156,70,0.0014005602240896359,1498.385,1490.7140857320446,1357.5,1500
5.003746032714844,219,156,70,0.0014005602240896359,1498.5,1490.5785476458423,1357.5,1500
5.02659010887146,220,156,70,0.0014005602240896359,1498.4400000000001,1490.5361064269305,1357.5,1500
5.049445152282715,221,156,70,0.0014005602240896359,1498.4949999999999,1490.4005683407283,1357.5,1500
5.072330951690674,222,156,70,0.0014005602240896359,1498.49,1490.3130333267227,1357.5,1500
5.095273017883301,223,156,70,0.0014005602240896359,1498.5450000000001,1490.1774952405206,1357.5,1500
5.1180970668792725,224,155,70,0.001488095238095238,1498.395,1491.1803964009846,1357.5,1500
5.140977144241333,225,156,70,0.0014005602240896359,1498.55,1490.2175112469231,1357.5,1500
5.163851976394653,226,155,70,0.0015360983102918587,1498.4549999999999,1491.6659889762357,1357.5,1500
5.1867029666900635,227,155,70,0.001488095238095238,1498.5150000000001,1491.1859582542695,1357.5,1500
5.20953106880188,228,155,70,0.001488095238095238,1498.52,1491.2734932682752,1357.5,1500
5.232440948486328,229,156,70,0.0014005602240896359,1498.5599999999999,1490.3981431282191,1357.5,1500
5.255367994308472,230,155,70,0.001488095238095238,1498.4649999999999,1491.3610282822806,1357.5,1500
5.278262138366699,231,155,70,0.001488095238095238,1498.4100000000001,1491.4485632962862,1357.5,1500
5.301140069961548,232,155,70,0.001488095238095238,1498.355,1491.5360983102919,1357.5,1500
5.324006080627441,233,155,70,0.001488095238095238,1498.3,1491.6236333242975,1357.5,1500
5.346827983856201,234,155,70,0.001488095238095238,1498.3599999999999,1491.6236333242975,1357.5,1500
5.369706153869629,235,156,70,0.001443001443001443,1498.4000000000001,1491.2151365922714,1357.5,1500
5.392632961273193,236,155,69,0.0015625,1498.3,1492.4365238519649,1357.75,1500
5.415603160858154,237,156,70,0.0014005602240896359,1498.395,1490.7295910788557,1357.5,1500
5.438451051712036,238,155,70,0.001488095238095238,1498.2950000000001,1491.6049412189118,1357.5,1500
5.46134614944458,239,156,70,0.0014005602240896359,1498.335,1490.7295910788557,1357.5,1500
5.484344005584717,240,155,70,0.001488095238095238,1498.2950000000001,1491.6049412189118,1357.5,1500
5.507217168807983,241,156,70,0.0014005602240896359,1498.3900000000001,1490.6420560648503,1357.5,1500
5.53009295463562,242,155,70,0.0015360983102918587,1498.3499999999999,1492.045439999069,1357.5,1500
5.552932024002075,243,156,70,0.0014005602240896359,1498.4449999999999,1490.6025241230411,1357.5,1500
5.575808048248291,244,156,70,0.0014005602240896359,1498.5,1490.5149891090357,1357.5,1500
5.598711013793945,245,156,70,0.0014005602240896359,1498.4400000000001,1490.4725478901237,1357.5,1500
5.621767044067383,246,156,70,0.0014005602240896359,1498.4949999999999,1490.3106081142134,1357.5,1500
5.64477014541626,247,155,70,0.001488095238095238,1498.3399999999999,1491.2734932682752,1357.5,1500
5.667646169662476,248,155,70,0.001488095238095238,1498.4000000000001,1491.2734932682752,1357.5,1500
5.690469026565552,249,155,70,0.001488095238095238,1498.405,1491.3610282822806,1357.5,1500
5.713351011276245,250,156,70,0.0014005602240896359,1498.5599999999999,1490.3981431282191,1357.5,1500
5.7361860275268555,251,156,70,0.0014005602240896359,1498.5599999999999,1490.3981431282191,1357.5,1500
5.7590601444244385,252,155,70,0.001488095238095238,1498.46,1491.2254901960785,1357.5,1500
5.78187894821167,253,156,70,0.001443001443001443,1498.5,1490.8169934640523,1357.5,1500
5.804952144622803,254,156,70,0.0014005602240896359,1498.4400000000001,1490.3925812749342,1357.5,1500
5.828099966049194,255,156,70,0.0014005602240896359,1498.4400000000001,1490.3925812749342,1357.5,1500
5.850980997085571,256,155,70,0.0015360983102918587,1498.345,1491.8835002231588,1357.5,1500
5.873824119567871,257,156,70,0.0014005602240896359,1498.4400000000001,1490.4405843471309,1357.5,1500
5.896751165390015,258,156,70,0.0014005602240896359,1498.4949999999999,1490.3530493331252,1357.5,1500
5.919676065444946,259,155,70,0.0015360983102918587,1498.4549999999999,1491.7564332673442,1357.5,1500
5.942634105682373,260,156,70,0.0014005602240896359,1498.5550000000001,1490.4010524053219,1357.5,1500
5.965553045272827,261,156,70,0.001443001443001443,1498.4949999999999,1490.8679058133516,1357.5,1500
5.988425016403198,262,155,70,0.001488095238095238,1498.4549999999999,1491.3188437642898,1357.5,1500
6.0112810134887695,263,156,70,0.0014005602240896359,1498.5550000000001,1490.4010524053219,1357.5,1500
6.034224033355713,264,156,70,0.001443001443001443,1498.4949999999999,1490.8679058133516,1357.5,1500
6.0570549964904785,265,156,70,0.001443001443001443,1498.4949999999999,1490.9103470322636,1357.5,1500
6.079921007156372,266,156,70,0.001443001443001443,1498.55,1490.8172501649731,1357.5,1500
6.102769136428833,267,155,70,0.0015360983102918587,1498.395,1491.8837569240795,1357.5,1500
6.1256420612335205,268,155,70,0.001488095238095238,1498.4000000000001,1491.4912612161188,1357.5,1500
6.148467063903809,269,156,70,0.0014005602240896359,1498.5550000000001,1490.4803729898606,1357.5,1500
6.171327114105225,270,156,70,0.0014005602240896359,1498.5550000000001,1490.4803729898606,1357.5,1500
6.194304943084717,271,155,70,0.001488095238095238,1498.46,1491.4008169250105,1357.5,1500
6.217187166213989,272,156,70,0.0014005602240896359,1498.5550000000001,1490.4379317709488,1357.5,1500
6.240010976791382,273,155,70,0.001488095238095238,1498.4000000000001,1491.4008169250105,1357.5,1500
6.26288914680481,274,156,70,0.0014005602240896359,1498.5,1490.4830255660427,1357.5,1500
6.285722017288208,275,156,71,0.0014005602240896359,1498.5,1490.4405843471309,1357.25,1500
6.308614015579224,276,156,70,0.001336898395721925,1498.4400000000001,1489.6978630161743,1357.5,1500
6.331444025039673,277,156,70,0.001336898395721925,1498.4949999999999,1489.4986631016043,1357.5,1500
6.35444712638855,278,156,70,0.001336898395721925,1498.49,1489.3474662592309,1357.5,1500
6.377279043197632,279,157,71,0.0014005602240896359,1498.585,1489.984084542908,1357.25,1500
6.400130033493042,280,158,71,0.001443001443001443,1498.675,1490.4509379509379,1357.25,1500
6.42297101020813,281,158,71,0.0015151515151515152,1498.72,1491.1994949494949,1357.25,1500
6.445843935012817,282,159,72,0.0014005602240896359,1498.8050000000001,1490.0535820388761,1357.0,1500
6.468672037124634,283,159,74,0.0014005602240896359,1498.845,1489.9660470248705,1356.5,1500
6.49153208732605,284,159,75,0.0014005602240896359,1498.8900000000001,1489.9660470248705,1356.25,1500
6.514547109603882,285,160,77,0.0013605442176870747,1499.0899999999999,1489.5258709544423,1355.75,1500
6.537440061569214,286,158,79,0.0014005602240896359,1499.0,1489.9896928468356,1355.25,1500
6.560276985168457,287,155,83,0.0014705882352941176,1498.885,1490.8236627984527,1354.25,1500
6.58313512802124,288,154,85,0.001336898395721925,1498.9749999999999,1489.4867644027308,1353.75,1500
6.605971097946167,289,153,88,0.0014005602240896359,1499.0150000000001,1490.1233826864079,1353.0,1500
6.628906011581421,290,151,89,0.0014005602240896359,1498.97,1490.0809414674961,1352.75,1500
6.651726961135864,291,150,90,0.0013605442176870747,1498.9100000000001,1489.526174106006,1352.5,1500
6.674731969833374,292,149,91,0.0014005602240896359,1498.6199999999999,1489.9263341700316,1352.25,1500
6.697587966918945,293,148,91,0.0014005602240896359,1498.2750000000001,1489.9263341700316,1352.25,1500
6.720461130142212,294,148,91,0.0012626262626262627,1497.97,1488.4090605939346,1352.25,1500
6.743277072906494,295,147,91,0.0014005602240896359,1497.395,1489.8284162149707,1352.25,1500
6.766145944595337,296,149,89,0.0012987012987012987,1497.1600000000001,1488.7079680356992,1352.75,1500
6.78928804397583,297,148,89,0.001336898395721925,1496.7349999999999,1488.9562491663332,1352.75,1500
6.812240123748779,298,150,88,0.001336898395721925,1496.595,1488.9562491663332,1353.0,1500
6.835132122039795,299,151,88,0.0012626262626262627,1496.405,1488.0755938739132,1353.0,1500
6.857994079589844,300,153,88,0.0012987012987012987,1496.355,1488.3344853092751,1353.0,1500
6.880901098251343,301,155,88,0.0012626262626262627,1496.47,1487.875816993464,1353.0,1500
6.903995037078857,302,157,89,0.0012626262626262627,1496.5699999999999,1487.7378830320006,1352.75,1500
6.9269700050354,303,160,90,0.0012422360248447205,1496.9300000000001,1487.3756564549403,1352.5,1500
6.9499900341033936,304,164,94,0.0013605442176870747,1497.4300000000001,1488.6566563384247,1351.5,1500
6.972886085510254,305,166,96,0.0012626262626262627,1497.895,1487.5395428263532,1351.0,1500
6.99573016166687,306,169,96,0.0019047619047619048,1498.4549999999999,1494.5669598537702,1351.0,1500
7.01861310005188,307,172,103,0.0012987012987012987,1499.175,1488.4681566961435,1349.25,1500
7.041423082351685,308,174,107,0.0012987012987012987,1499.855,1488.4299595991229,1348.25,1500
7.064455986022949,309,176,111,0.001336898395721925,1500.71,1488.886202702425,1347.25,1500
7.087276935577393,310,179,116,0.0012422360248447205,1501.6600000000001,1487.8831137197963,1346.0,1500
7.110145092010498,311,183,116,0.002150537634408602,1502.76,1497.8540411872173,1346.0,1500
7.132951021194458,312,184,123,0.0012422360248447205,1503.625,1488.750634853797,1344.25,1500
7.155799150466919,313,189,126,0.0012987012987012987,1504.8199999999999,1489.3717528662194,1343.5,1500
7.178624153137207,314,190,127,0.0014005602240896359,1505.51,1490.4303581265053,1343.25,1500
7.201478004455566,315,193,125,0.0019047619047619048,1506.4549999999999,1496.1145105753637,1343.75,1500
7.224437952041626,316,195,127,0.0012422360248447205,1507.365,1488.8267258962746,1343.25,1500
7.2472851276397705,317,196,126,0.0012626262626262627,1508.0650000000001,1488.994553238015,1343.5,1500
7.270112991333008,318,197,126,0.0012077294685990338,1508.95,1488.3546134676405,1343.5,1500
7.292979001998901,319,199,125,0.0012422360248447205,1509.875,1488.6050166592202,1343.75,1500
7.315794944763184,320,200,125,0.0012077294685990338,1510.71,1488.2254445405176,1343.75,1500
7.3386499881744385,321,201,124,0.0013227513227513227,1511.4400000000001,1488.5478767703833,1344.0,1500
7.361478090286255,322,205,124,0.0012422360248447205,1512.4549999999999,1487.7427237913171,1344.0,1500
7.384506940841675,323,206,125,0.0012077294685990338,1512.95,1487.3066863987581,1343.75,1500
7.407339096069336,324,208,125,0.0012422360248447205,1513.5999999999999,1487.49342776197,1343.75,1500
7.430256128311157,325,209,125,0.0012987012987012987,1514.04,1487.4520198944751,1343.75,1500
7.453087091445923,326,210,126,0.0012987012987012987,1514.425,1487.5084851683316,1343.5,1500
7.475954055786133,327,211,127,0.0012422360248447205,1514.99,1486.9234421919843,1343.25,1500
7.4987921714782715,328,211,128,0.0012626262626262627,1515.46,1487.182241363827,1343.0,1500
7.52170205116272,329,212,129,0.0012626262626262627,1516.0350000000001,1487.2026316016086,1342.75,1500
7.544682025909424,330,211,130,0.0012987012987012987,1516.4200000000001,1487.6543537924613,1342.5,1500
7.56758713722229,331,210,132,0.0012077294685990338,1516.8150000000001,1486.6296136372862,1342.0,1500
7.590415954589844,332,209,138,0.0025974025974025974,1517.0550000000001,1500,1340.5,1500
7.613242149353027,333,209,132,0.0012987012987012987,1517.3399999999999,1488.985470340969,1342.0,1500
7.636091947555542,334,208,132,0.0012987012987012987,1517.48,1489.0419356148257,1342.0,1500
7.658945083618164,335,208,132,0.0012422360248447205,1517.605,1488.4208176024033,1342.0,1500
7.681766033172607,336,208,131,0.0012285012285012285,1517.615,1488.2132695687683,1342.25,1500
7.704905986785889,337,207,130,0.0012987012987012987,1517.415,1488.9717355446255,1342.5,1500
7.72775411605835,338,206,129,0.0012626262626262627,1517.22,1488.6109851838753,1342.75,1500
7.7509050369262695,339,206,128,0.0012987012987012987,1517.01,1489.0078105807006,1343.0,1500
7.7737791538238525,340,204,125,0.0012626262626262627,1516.665,1488.6109851838753,1343.75,1500
7.796648979187012,341,203,124,0.0013227513227513227,1516.48,1489.3272576392781,1344.0,1500
7.8194899559021,342,203,120,0.0016806722689075631,1516.3900000000001,1491.9897367723454,1345.0,1500
7.842412948608398,343,202,121,0.0012987012987012987,1516.145,1488.1700270702829,1344.75,1500
7.865317106246948,344,200,120,0.0012422360248447205,1515.865,1487.5489090578606,1345.0,1500
7.8881919384002686,345,200,114,0.0019047619047619048,1515.665,1494.8366937369494,1346.5,1500
7.911060094833374,346,198,115,0.0012987012987012987,1515.2149999999999,1488.8462877465436,1346.25,1500
7.933948993682861,347,197,114,0.0012422360248447205,1514.925,1488.2251697341212,1346.5,1500
7.956784009933472,348,193,106,0.002197802197802198,1514.3499999999999,1498.7160073988719,1348.5,1500
7.979676008224487,349,191,108,0.0012422360248447205,1513.865,1489.1038803954405,1348.0,1500
8.002583026885986,350,188,107,0.0012422360248447205,1513.405,1489.0834901576588,1348.25,1500
8.025550127029419,351,186,105,0.0012626262626262627,1512.99,1489.2272674753492,1348.75,1500
8.048376083374023,352,185,105,0.001594896331738437,1512.6199999999999,1492.4641922293019,1348.75,1500
8.071248054504395,353,181,98,0.002232142857142857,1511.7850000000001,1499.7700990417877,1350.5,1500
8.094048976898193,354,178,95,0.0027548209366391185,1511.0550000000001,1500,1351.25,1500
8.116825103759766,355,173,107,0.0022624434389140274,1509.97,1500,1348.25,1500
8.13955807685852,356,172,100,0.00125,1509.28,1491.7702356176044,1350.0,1500
8.162467002868652,357,165,98,0.0011111111111111111,1508.02,1490.2502218149818,1350.5,1500
8.185379981994629,358,164,91,0.002232142857142857,1507.345,1500,1352.25,1500
8.208161115646362,359,161,96,0.0011111111111111111,1506.415,1490.1534375605888,1351.0,1500
8.230998992919922,360,159,96,0.0011111111111111111,1505.46,1490.0223126468552,1351.0,1500
8.25387716293335,361,158,92,0.0014619883040935672,1504.6600000000001,1493.7304466181472,1352.0,1500
8.276742935180664,362,157,96,0.0011111111111111111,1503.5,1489.7378894676954,1351.0,1500
8.29966402053833,363,157,96,0.0011111111111111111,1502.5999999999999,1488.6168577216636,1351.0,1500
8.322771072387695,364,158,96,0.0010395010395010396,1501.78,1486.1854371084248,1351.0,1500
8.345695972442627,365,156,96,0.0010395010395010396,1500.825,1484.9624947090117,1351.0,1500
8.36853814125061,366,157,96,0.0010395010395010396,1500.1600000000001,1484.7519957485129,1351.0,1500
8.391407012939453,367,157,94,0.0011750881316098707,1499.72,1486.1718436900999,1351.5,1500
8.414472103118896,368,158,94,0.0010395010395010396,1499.4300000000001,1483.6233309513698,1351.5,1500
8.437374114990234,369,160,92,0.001142857142857143,1499.4549999999999,1484.6886380166768,1352.0,1500
8.460224151611328,370,160,88,0.0012531328320802004,1499.27,1485.9334166298765,1353.0,1500
8.483154058456421,371,160,88,0.0011574074074074073,1499.2,1484.6715814864624,1353.0,1500
8.506162166595459,372,161,86,0.0011750881316098707,1499.28,1484.9123657489858,1353.5,1500
8.529165983200073,373,161,86,0.001098901098901099,1499.3199999999999,1484.138285409688,1353.5,1500
8.552163124084473,374,161,85,0.0010395010395010396,1499.425,1483.5442848156874,1353.75,1500
8.57522702217102,375,159,83,0.0012077294685990338,1499.45,1485.3947975357653,1354.25,1500
8.59821105003357,376,159,84,0.0011111111111111111,1499.6199999999999,1484.5002240324961,1354.0,1500
8.621260166168213,377,159,82,0.0011750881316098707,1499.8499999999999,1485.1399942374837,1354.5,1500
8.6442129611969,378,158,83,0.0011574074074074073,1499.9300000000001,1485.0810933633654,1354.25,1500
8.66719102859497,379,158,83,0.0012077294685990338,1500.0,1485.6491863010237,1354.25,1500
8.690160036087036,380,159,82,0.001287001287001287,1500.0450000000001,1486.4757729399673,1354.5,1500
8.713223934173584,381,158,82,0.0013227513227513227,1499.895,1486.9986172128115,1354.5,1500
8.736112117767334,382,159,81,0.0011904761904761906,1499.885,1485.6912539489265,1354.75,1500
8.759323120117188,383,159,80,0.0012987012987012987,1499.7149999999999,1486.9733052309778,1355.0,1500
8.78231406211853,384,159,79,0.0012422360248447205,1499.5450000000001,1486.6113874777557,1355.25,1500
8.805351972579956,385,159,78,0.0012626262626262627,1499.5450000000001,1486.8701866495985,1355.5,1500
8.828206062316895,386,158,77,0.0012626262626262627,1499.3900000000001,1487.0217018011135,1355.75,1500
8.851071119308472,387,157,76,0.0012422360248447205,1499.3,1486.884947316533,1356.0,1500
8.87398099899292,388,155,74,0.001336898395721925,1499.175,1488.0110620136195,1356.5,1500
8.897119998931885,389,153,73,0.0014005602240896359,1499.0599999999999,1488.8405110527872,1356.75,1500
8.9201819896698,390,153,72,0.0013605442176870747,1499.0899999999999,1488.5138939194474,1357.0,1500
8.943101167678833,391,152,71,0.0013227513227513227,1499.02,1488.1359649700898,1357.25,1500
8.96596097946167,392,152,68,0.0014285714285714286,1498.9349999999999,1489.4322612663861,1358.0,1500
8.988863945007324,393,152,67,0.0014705882352941176,1498.73,1490.0243162702059,1358.25,1500
9.011739015579224,394,154,67,0.0013605442176870747,1498.595,1489.0421842869778,1358.25,1500
9.034754991531372,395,156,66,0.0012987012987012987,1498.45,1488.4598301331951,1358.5,1500
9.057580947875977,396,157,66,0.0012626262626262627,1498.1949999999999,1488.0990797724448,1358.5,1500
9.080464124679565,397,160,67,0.001336898395721925,1498.1800000000001,1488.9364634742785,1358.25,1500
9.103305101394653,398,163,66,0.0016339869281045752,1498.26,1492.2044373304877,1358.5,1500
9.126206159591675,399,166,68,0.0012254901960784314,1498.5550000000001,1487.9443999822151,1358.0,1500
9.149049997329712,400,173,71,0.0011261261261261261,1499.335,1486.7163411911311,1357.25,1500
9.171998977661133,401,175,74,0.0011750881316098707,1499.72,1487.058298054827,1356.5,1500
9.19489598274231,402,175,76,0.001142857142857143,1500.085,1486.4502738815856,1356.0,1500
9.217721939086914,403,176,79,0.0012987012987012987,1500.7249999999999,1487.8368285034344,1355.25,1500
9.240566968917847,404,176,81,0.0012285012285012285,1501.335,1487.0027848122477,1354.75,1500
9.263540983200073,405,174,83,0.0013227513227513227,1502.0650000000001,1487.9693357787987,1354.25,1500
9.286417961120605,406,174,85,0.0012626262626262627,1503.0599999999999,1487.368085177548,1353.75,1500
9.309314966201782,407,172,88,0.0013605442176870747,1503.7,1488.3709105501214,1353.0,1500
9.332199096679688,408,171,90,0.0012987012987012987,1504.3399999999999,1487.4171957308604,1352.5,1500
9.355188131332397,409,169,94,0.0013605442176870747,1504.7249999999999,1488.1706789423267,1351.5,1500
9.37804102897644,410,169,95,0.0012422360248447205,1504.8050000000001,1487.1037069126219,1351.25,1500
9.400930166244507,411,168,97,0.0012626262626262627,1504.6800000000001,1487.3951474214537,1350.75,1500
9.423815965652466,412,168,99,0.001336898395721925,1504.5350000000001,1488.3319100052749,1350.25,1500
9.446717023849487,413,169,101,0.0012987012987012987,1504.3699999999999,1487.9499390350688,1349.75,1500
9.469598054885864,414,170,103,0.0013605442176870747,1504.0799999999999,1488.7004112141124,1349.25,1500
9.492543935775757,415,171,104,0.0012987012987012987,1503.895,1488.0579320002046,1349.0,1500
9.515486001968384,416,172,106,0.0013605442176870747,1503.645,1488.774279145123,1348.5,1500
9.538378953933716,417,172,107,0.0014005602240896359,1503.405,1489.2144552155512,1348.25,1500
9.561243057250977,418,173,106,0.0013605442176870747,1503.375,1488.8761380705114,1348.5,1500
9.584275007247925,419,172,105,0.0012987012987012987,1503.3199999999999,1488.195865961668,1348.75,1500
9.607304096221924,420,172,103,0.0012987012987012987,1503.425,1488.2523312355245,1349.25,1500
9.63019609451294,421,172,101,0.0013605442176870747,1503.645,1488.9686783804432,1349.75,1500
9.653038024902344,422,173,98,0.001388888888888889,1503.96,1489.3041155856281,1350.5,1500
9.675903081893921,423,174,96,0.0012285012285012285,1504.2750000000001,1487.6300389115515,1351.0,1500
9.698748111724854,424,174,93,0.0012987012987012987,1504.375,1488.2701966945665,1351.75,1500
9.721986055374146,425,175,90,0.0012987012987012987,1504.5150000000001,1488.2701966945665,1352.5,1500
9.744951009750366,426,176,86,0.0011750881316098707,1504.595,1486.8486089375749,1353.5,1500
9.767845153808594,427,176,84,0.0011750881316098707,1504.635,1486.6231368450951,1354.0,1500
9.790702104568481,428,175,82,0.0011261261261261261,1504.585,1485.8990986986969,1354.5,1500
9.81358814239502,429,174,82,0.0012077294685990338,1504.595,1486.6241602933237,1354.5,1500
9.836450099945068,430,174,80,0.0012285012285012285,1504.7650000000001,1486.7616778221454,1355.0,1500
9.859318971633911,431,172,81,0.0011574074074074073,1504.8050000000001,1485.8476028009277,1354.75,1500
9.8822660446167,432,172,81,0.0012285012285012285,1504.99,1486.3981533514782,1354.75,1500
9.905303001403809,433,171,81,0.0013227513227513227,1504.9649999999999,1487.4349043882291,1354.75,1500
9.928176164627075,434,171,82,0.0011261261261261261,1504.98,1485.2960772494021,1354.5,1500
9.95103907585144,435,170,83,0.0011574074074074073,1504.845,1485.4675961709211,1354.25,1500
9.973878145217896,436,170,84,0.0012077294685990338,1504.635,1486.0034581198265,1354.0,1500
9.996763944625854,437,171,83,0.0011574074074074073,1504.52,1485.4825567837077,1354.25,1500
10.019654989242554,438,171,83,0.0012077294685990338,1504.3,1486.0673807380967,1354.25,1500
10.042617082595825,439,172,82,0.0012077294685990338,1504.23,1486.0673807380967,1354.5,1500
10.065523147583008,440,173,81,0.0012422360248447205,1504.095,1486.4261810968972,1354.75,1500
10.08840799331665,441,174,80,0.0012077294685990338,1504.0650000000001,1486.131437595632,1355.0,1500
10.111273050308228,442,175,79,0.0012422360248447205,1504.0899999999999,1486.4902379544324,1355.25,1500
10.134164094924927,443,176,78,0.0012626262626262627,1504.165,1486.6340152721227,1355.5,1500
10.157011032104492,444,178,77,0.0012422360248447205,1504.3900000000001,1486.5462227930259,1355.75,1500
10.179893016815186,445,178,77,0.0012987012987012987,1504.53,1487.2521694228856,1355.75,1500
10.202744007110596,446,178,78,0.0012422360248447205,1504.73,1486.7220232405655,1355.5,1500
10.225625038146973,447,178,77,0.001336898395721925,1504.9349999999999,1487.8481379376519,1355.75,1500
10.248476028442383,448,179,78,0.0012422360248447205,1505.2950000000001,1486.9360207851257,1355.5,1500
10.271367073059082,449,179,78,0.0011574074074074073,1505.6199999999999,1486.0374125495609,1355.5,1500
10.294368982315063,450,178,78,0.0012422360248447205,1505.7950000000001,1486.885698723934,1355.5,1500
10.317291021347046,451,178,78,0.0012626262626262627,1506.0150000000001,1487.1444978957766,1355.5,1500
10.340134143829346,452,177,78,0.0012422360248447205,1506.085,1486.9405955179614,1355.5,1500
10.363031148910522,453,175,76,0.001388888888888889,1506.0699999999999,1488.5333867846655,1356.0,1500
10.385870933532715,454,174,76,0.0012987012987012987,1506.05,1487.6879761566463,1356.0,1500
10.408799171447754,455,172,76,0.0012787723785166241,1505.8800000000001,1487.4687580346149,1356.0,1500
10.431808948516846,456,173,75,0.0012987012987012987,1506.0050000000001,1487.7245125103182,1356.25,1500
10.454960107803345,457,172,73,0.0012987012987012987,1505.875,1487.6863154132975,1356.75,1500
10.477880954742432,458,172,73,0.0012987012987012987,1505.6700000000001,1487.742780687154,1356.75,1500
10.500790119171143,459,171,72,0.0012987012987012987,1505.3099999999999,1487.884074578448,1357.0,1500
10.523694038391113,460,171,71,0.0012077294685990338,1504.9849999999999,1486.9398497211796,1357.25,1500
10.546606063842773,461,171,70,0.001336898395721925,1504.72,1488.3058111255043,1357.5,1500
10.569453954696655,462,172,70,0.0012987012987012987,1504.5450000000001,1487.9803054291544,1357.5,1500
10.592406034469604,463,172,70,0.0012987012987012987,1504.3800000000001,1487.8901178389669,1357.5,1500
10.61539101600647,464,173,71,0.0012626262626262627,1504.3050000000001,1487.4932924421416,1357.25,1500
10.638286113739014,465,173,72,0.001336898395721925,1504.24,1488.2941397903035,1357.0,1500
10.66112494468689,466,175,72,0.0012626262626262627,1504.3099999999999,1487.5153434232718,1357.0,1500
10.684407949447632,467,176,72,0.0012987012987012987,1504.3900000000001,1487.8760937840223,1357.0,1500
10.707289934158325,468,176,72,0.0014005602240896359,1504.3699999999999,1488.9965419632938,1357.0,1500
10.73019003868103,469,177,71,0.0014005602240896359,1504.5599999999999,1489.0984008886821,1357.25,1500
10.753045082092285,470,176,70,0.001336898395721925,1504.5550000000001,1488.590951532128,1357.5,1500
10.775947093963623,471,175,71,0.0014005602240896359,1504.675,1489.2912316441727,1357.25,1500
10.798805952072144,472,174,70,0.0014705882352941176,1504.8050000000001,1490.1633986928105,1357.5,1500
10.821686029434204,473,172,71,0.0015360983102918587,1504.845,1491.0558964543784,1357.25,1500
10.84466814994812,474,173,71,0.0013605442176870747,1505.1849999999999,1489.3982734833914,1357.25,1500
10.86766004562378,475,171,71,0.001488095238095238,1505.175,1490.8249805298462,1357.25,1500
10.890784978866577,476,173,71,0.0013605442176870747,1505.385,1489.6473882808255,1357.25,1500
10.913762092590332,477,173,71,0.0013605442176870747,1505.28,1489.7092311998113,1357.25,1500
10.936646938323975,478,173,70,0.0012987012987012987,1505.0550000000001,1488.9889430845651,1357.5,1500
10.959541082382202,479,172,70,0.0014705882352941176,1504.74,1490.7778404616979,1357.5,1500
10.982582092285156,480,173,71,0.0013605442176870747,1504.5550000000001,1489.7010461075927,1357.25,1500
11.005807161331177,481,173,71,0.0013605442176870747,1504.4449999999999,1489.6610301011901,1357.25,1500
11.028708934783936,482,172,71,0.0014005602240896359,1504.2950000000001,1489.9911621540111,1357.25,1500
11.051605939865112,483,173,71,0.0013605442176870747,1504.45,1489.4154479973809,1357.25,1500
11.074608087539673,484,173,71,0.0013605442176870747,1504.3900000000001,1489.4154479973809,1357.25,1500
11.09751296043396,485,172,71,0.0014005602240896359,1504.405,1489.7280730474008,1357.25,1500
11.120373010635376,486,173,71,0.0013605442176870747,1504.5050000000001,1489.3279129833752,1357.25,1500
11.143264055252075,487,173,70,0.0012987012987012987,1504.4449999999999,1488.6476408745316,1357.5,1500
11.166100978851318,488,172,70,0.001336898395721925,1504.3499999999999,1489.0678089417586,1357.5,1500
11.188971042633057,489,173,70,0.0014285714285714286,1504.5050000000001,1489.9425224635308,1357.5,1500
11.211826086044312,490,173,71,0.0013605442176870747,1504.4449999999999,1489.2622503546872,1357.25,1500
11.234864950180054,491,172,71,0.0014005602240896359,1504.3499999999999,1489.7024264251154,1357.25,1500
11.257725954055786,492,172,70,0.0014705882352941176,1504.4100000000001,1490.4727345483648,1357.5,1500
11.280611038208008,493,171,70,0.0016129032258064516,1504.26,1492.1482434616075,1357.5,1500
11.303478002548218,494,173,70,0.0012987012987012987,1504.46,1488.9443812715701,1357.5,1500
11.326390981674194,495,172,70,0.0014005602240896359,1504.4200000000001,1489.9629705254536,1357.5,1500
11.349257946014404,496,172,71,0.0014005602240896359,1504.365,1490.0029865318561,1357.25,1500
11.37219500541687,497,173,70,0.0012987012987012987,1504.405,1488.9843972779727,1357.5,1500
11.395138025283813,498,173,70,0.0012987012987012987,1504.3399999999999,1488.9462001809522,1357.5,1500
11.418051958084106,499,172,70,0.001336898395721925,1504.2449999999999,1489.2364981183089,1357.5,1500
11.440896987915039,500,172,70,0.0014005602240896359,1504.1900000000001,1489.9131324083885,1357.5,1500
11.463778018951416,501,172,70,0.0014005602240896359,1504.1900000000001,1489.9131324083885,1357.5,1500
11.486616134643555,502,172,71,0.0014005602240896359,1504.25,1489.8431043971841,1357.25,1500
11.509529113769531,503,173,70,0.0012987012987012987,1504.46,1488.5103132161955,1357.5,1500
11.532426118850708,504,173,70,0.0013605442176870747,1504.4000000000001,1489.1905853250391,1357.5,1500
11.555392980575562,505,173,70,0.0012987012987012987,1504.395,1488.470297209793,1357.5,1500
11.578240156173706,506,173,70,0.0012987012987012987,1504.3900000000001,1488.3684382844046,1357.5,1500
11.601140022277832,507,172,70,0.001336898395721925,1504.2349999999999,1488.7886063516316,1357.5,1500
11.624345064163208,508,173,70,0.0013605442176870747,1504.335,1489.0869074902689,1357.5,1500
11.647268056869507,509,172,71,0.0014005602240896359,1504.2950000000001,1489.5507293826622,1357.25,1500
11.670123100280762,510,172,70,0.0014705882352941176,1504.355,1490.3210375059114,1357.5,1500
11.693026065826416,511,172,70,0.001336898395721925,1504.415,1488.9204772818218,1357.5,1500
11.715942144393921,512,172,70,0.001336898395721925,1504.415,1488.8568154534541,1357.5,1500
