time,frame,x,y,size_inv,roll,pitch,thrust,yaw
0.0005369186401367188,1,162,78,0.00205761316872428,1500.55,1490.0,1305.5,1500
0.022706985473632812,2,162,78,0.00205761316872428,1500.5999999999999,1490.0,1305.5,1500
0.04454493522644043,3,162,78,0.00205761316872428,1500.6500000000001,1490.0,1305.5,1500
0.06627988815307617,4,162,78,0.00205761316872428,1500.7,1490.0,1305.5,1500
0.08805203437805176,5,162,78,0.00205761316872428,1500.75,1490.0,1305.5,1500
0.1095728874206543,6,163,78,0.0019157088122605363,1501.075,1487.8714346530439,1305.5,1500
0.13112902641296387,7,162,78,0.00205761316872428,1500.875,1490.0,1305.5,1500
0.15294694900512695,8,162,78,0.00205761316872428,1500.925,1490.0,1305.5,1500
0.17475390434265137,9,162,78,0.00205761316872428,1500.9749999999999,1490.0,1305.5,1500
0.19655799865722656,10,163,78,0.0019157088122605363,1501.3,1487.8714346530439,1305.5,1500
0.21851086616516113,11,162,78,0.00205761316872428,1501.05,1490.0,1305.5,1500
0.24056696891784668,12,162,78,0.00205761316872428,1501.05,1490.0,1305.5,1500
0.2625999450683594,13,162,78,0.00205761316872428,1501.05,1490.0,1305.5,1500
0.28461694717407227,14,162,78,0.00205761316872428,1501.05,1490.0,1305.5,1500
0.30670595169067383,15,162,79,0.0022624434389140274,1501.05,1493.0724540528463,1305.25,1500
0.3287630081176758,16,163,78,0.00205761316872428,1501.3,1490.0,1305.5,1500
0.35085296630859375,17,163,78,0.00205761316872428,1501.325,1490.0,1305.5,1500
0.37285685539245605,18,163,78,0.001984126984126984,1501.3499999999999,1488.8977072310406,1305.5,1500
0.3949298858642578,19,164,78,0.00205761316872428,1501.6500000000001,1490.0,1305.5,1500
0.4169330596923828,20,164,78,0.002178649237472767,1501.675,1491.8155410312272,1305.5,1500
0.43906092643737793,21,165,78,0.0021008403361344537,1502.0,1490.6484075111525,1305.5,1500
0.46106791496276855,22,165,78,0.001984126984126984,1502.075,1488.8977072310406,1305.5,1500
0.48317503929138184,23,165,79,0.0022624434389140274,1502.1500000000001,1493.0724540528463,1305.25,1500
0.5052340030670166,24,166,80,0.0021008403361344537,1502.5,1490.6484075111525,1305.0,1500
0.5273458957672119,25,167,81,0.0021008403361344537,1502.875,1490.6484075111525,1304.75,1500
0.5494170188903809,26,167,82,0.001949317738791423,1502.9749999999999,1488.3755685510071,1304.5,1500
0.5715110301971436,27,167,82,0.00205761316872428,1503.075,1490.0,1304.5,1500
0.5935680866241455,28,167,82,0.001984126984126984,1503.175,1488.8977072310406,1304.5,1500
0.6156799793243408,29,168,82,0.00205761316872428,1503.5250000000001,1490.0,1304.5,1500
0.6377999782562256,30,168,82,0.002178649237472767,1503.625,1491.8155410312272,1304.5,1500
0.6599218845367432,31,168,82,0.00205761316872428,1503.7,1490.0,1304.5,1500
0.6820108890533447,32,168,82,0.00205761316872428,1503.7750000000001,1490.0,1304.5,1500
0.7040998935699463,33,167,83,0.002136752136752137,1503.575,1491.1870845204178,1304.25,1500
0.7261190414428711,34,168,83,0.00205761316872428,1503.875,1490.0,1304.25,1500
0.748370885848999,35,168,84,0.002178649237472767,1503.9000000000001,1491.8155410312272,1304.0,1500
0.7704100608825684,36,167,84,0.0022624434389140274,1503.6500000000001,1493.0724540528463,1304.0,1500
0.7925500869750977,37,168,84,0.002178649237472767,1503.925,1491.8155410312272,1304.0,1500
0.8145818710327148,38,167,84,0.0022624434389140274,1503.675,1493.0724540528463,1304.0,1500
0.8367390632629395,39,168,84,0.002028397565922921,1503.925,1489.5617659579796,1304.0,1500
0.8588159084320068,40,168,84,0.00196078431372549,1503.925,1488.5475671750182,1304.0,1500
0.8808798789978027,41,167,83,0.00205761316872428,1503.6500000000001,1490.0,1304.25,1500
0.9029750823974609,42,167,83,0.00205761316872428,1503.625,1490.0,1304.25,1500
0.9249880313873291,43,167,83,0.00205761316872428,1503.625,1490.0,1304.25,1500
0.9470498561859131,44,167,84,0.0021008403361344537,1503.5999999999999,1490.6484075111525,1304.0,1500
0.969127893447876,45,166,84,0.002136752136752137,1503.3,1491.1870845204178,1304.0,1500
0.991304874420166,46,167,84,0.00205761316872428,1503.55,1490.0,1304.0,1500
1.0136299133300781,47,167,85,0.002178649237472767,1503.5250000000001,1491.8155410312272,1303.75,1500
1.0360238552093506,48,166,84,0.002178649237472767,1503.25,1491.8155410312272,1304.0,1500
1.058194875717163,49,166,84,0.002178649237472767,1503.2,1491.8155410312272,1304.0,1500
1.0802478790283203,50,167,83,0.0019157088122605363,1503.425,1487.8714346530439,1304.25,1500
1.1021549701690674,51,166,83,0.00205761316872428,1503.1500000000001,1490.0,1304.25,1500
1.1242680549621582,52,166,83,0.00205761316872428,1503.125,1490.0,1304.25,1500
1.1463780403137207,53,165,84,0.002178649237472767,1502.825,1491.8155410312272,1304.0,1500
1.1687500476837158,54,166,84,0.00205761316872428,1503.05,1490.0,1304.0,1500
1.190990924835205,55,165,85,0.002178649237472767,1502.7750000000001,1491.8155410312272,1303.75,1500
1.2130498886108398,56,165,85,0.0021008403361344537,1502.7249999999999,1490.6484075111525,1303.75,1500
1.2351698875427246,57,165,84,0.002178649237472767,1502.675,1491.8155410312272,1304.0,1500
1.2572569847106934,58,165,85,0.002178649237472767,1502.6500000000001,1491.8155410312272,1303.75,1500
1.2793679237365723,59,165,85,0.002178649237472767,1502.625,1491.8155410312272,1303.75,1500
1.3014719486236572,60,165,85,0.002178649237472767,1502.575,1491.8155410312272,1303.75,1500
1.3236079216003418,61,164,85,0.002136752136752137,1502.2750000000001,1491.1870845204178,1303.75,1500
1.3457109928131104,62,164,85,0.0022624434389140274,1502.2249999999999,1493.0724540528463,1303.75,1500
1.3679840564727783,63,164,85,0.0021008403361344537,1502.2,1490.6484075111525,1303.75,1500
1.3900439739227295,64,164,85,0.0021008403361344537,1502.1500000000001,1490.6484075111525,1303.75,1500
1.4121849536895752,65,164,85,0.002178649237472767,1502.125,1491.8155410312272,1303.75,1500
1.4342758655548096,66,164,85,0.002178649237472767,1502.0999999999999,1491.8155410312272,1303.75,1500
1.4564099311828613,67,163,85,0.0022624434389140274,1501.8,1493.0724540528463,1303.75,1500
1.4784770011901855,68,163,85,0.002178649237472767,1501.75,1491.8155410312272,1303.75,1500
1.500549077987671,69,163,85,0.00205761316872428,1501.7,1490.0,1303.75,1500
1.5226099491119385,70,163,85,0.00205761316872428,1501.6500000000001,1490.0,1303.75,1500
1.544705867767334,71,163,85,0.002178649237472767,1501.625,1491.8155410312272,1303.75,1500
1.5668089389801025,72,162,85,0.0021008403361344537,1501.325,1490.6484075111525,1303.75,1500
1.5889160633087158,73,162,85,0.002178649237472767,1501.2750000000001,1491.8155410312272,1303.75,1500
1.6109440326690674,74,162,85,0.00205761316872428,1501.2249999999999,1490.0,1303.75,1500
1.633025884628296,75,161,86,0.0022624434389140274,1500.9000000000001,1493.0724540528463,1303.5,1500
1.6550579071044922,76,161,86,0.002178649237472767,1500.825,1491.8155410312272,1303.5,1500
1.677121877670288,77,161,86,0.002178649237472767,1500.7750000000001,1491.8155410312272,1303.5,1500
1.6991450786590576,78,161,86,0.002178649237472767,1500.7249999999999,1491.8155410312272,1303.5,1500
1.721329927444458,79,160,86,0.0022624434389140274,1500.4000000000001,1493.0724540528463,1303.5,1500
1.7433619499206543,80,161,86,0.002178649237472767,1500.5999999999999,1491.8155410312272,1303.5,1500
1.765491008758545,81,160,86,0.0022624434389140274,1500.2750000000001,1493.0724540528463,1303.5,1500
1.7875919342041016,82,160,86,0.002178649237472767,1500.2249999999999,1491.8155410312272,1303.5,1500
1.809687852859497,83,160,86,0.002178649237472767,1500.175,1491.8155410312272,1303.5,1500
1.8318030834197998,84,160,86,0.002178649237472767,1500.125,1491.8155410312272,1303.5,1500
1.8539378643035889,85,160,85,0.0023148148148148147,1500.0999999999999,1493.858024691358,1303.75,1500
1.876209020614624,86,160,85,0.002178649237472767,1500.075,1491.8155410312272,1303.75,1500
1.8984289169311523,87,158,85,0.002403846153846154,1499.5,1495.1934947768282,1303.75,1500
1.920548915863037,88,158,85,0.002403846153846154,1499.425,1495.1934947768282,1303.75,1500
1.9427309036254883,89,159,85,0.0023148148148148147,1499.6500000000001,1493.858024691358,1303.75,1500
1.9647390842437744,90,158,84,0.002403846153846154,1499.325,1495.1934947768282,1304.0,1500
1.9870240688323975,91,157,84,0.002403846153846154,1499.0,1495.1934947768282,1304.0,1500
2.0091230869293213,92,158,84,0.0023148148148148147,1499.2,1493.858024691358,1304.0,1500
2.0312089920043945,93,157,84,0.0025,1498.875,1496.6358024691358,1304.0,1500
2.053344964981079,94,157,85,0.002178649237472767,1498.8,1491.8155410312272,1303.75,1500
2.0755019187927246,95,156,84,0.002403846153846154,1498.45,1495.1934947768282,1304.0,1500
2.0975840091705322,96,156,84,0.0023148148148148147,1498.3499999999999,1493.858024691358,1304.0,1500
2.1196889877319336,97,156,84,0.0023148148148148147,1498.3,1493.858024691358,1304.0,1500
2.1417739391326904,98,155,84,0.002403846153846154,1497.9749999999999,1495.1934947768282,1304.0,1500
2.163896083831787,99,155,84,0.002403846153846154,1497.875,1495.1934947768282,1304.0,1500
2.1859519481658936,100,155,84,0.002403846153846154,1497.8,1495.1934947768282,1304.0,1500
2.208185911178589,101,155,84,0.0025,1497.75,1496.6358024691358,1304.0,1500
2.2302169799804688,102,154,84,0.002564102564102564,1497.4000000000001,1497.5973409306744,1304.0,1500
2.2523419857025146,103,154,84,0.0025,1497.325,1496.6358024691358,1304.0,1500
2.274359941482544,104,154,84,0.0025,1497.25,1496.6358024691358,1304.0,1500
2.296475887298584,105,152,84,0.0030303030303030303,1496.6500000000001,1504.5903479236813,1304.0,1500
2.318608045578003,106,153,83,0.002403846153846154,1496.825,1495.1934947768282,1304.25,1500
2.34066104888916,107,153,83,0.002403846153846154,1496.75,1495.1934947768282,1304.25,1500
2.362694025039673,108,152,83,0.002717391304347826,1496.425,1499.8966720343533,1304.25,1500
2.384721040725708,109,152,83,0.002898550724637681,1496.3499999999999,1502.614063338701,1304.25,1500
2.40680193901062,110,151,83,0.0030303030303030303,1496.0,1504.5903479236813,1304.25,1500
2.4284448623657227,111,151,82,0.0026041666666666665,1495.9000000000001,1498.1983024691358,1304.5,1500
2.450087070465088,112,151,82,0.0026041666666666665,1495.825,1498.1983024691358,1304.5,1500
2.4717390537261963,113,152,83,0.002564102564102564,1496.0250000000001,1497.5973409306744,1304.25,1500
2.4933650493621826,114,150,83,0.002898550724637681,1495.425,1502.614063338701,1304.25,1500
2.5150179862976074,115,149,82,0.0030303030303030303,1495.0999999999999,1504.5903479236813,1304.5,1500
2.5367319583892822,116,149,81,0.0030303030303030303,1495.0,1504.5903479236813,1304.75,1500
2.5584840774536133,117,149,81,0.0030303030303030303,1494.9000000000001,1504.5903479236813,1304.75,1500
2.5801069736480713,118,149,80,0.0030303030303030303,1494.825,1504.5903479236813,1305.0,1500
2.6017630100250244,119,149,80,0.0030303030303030303,1494.75,1504.5903479236813,1305.0,1500
2.623394012451172,120,149,80,0.002898550724637681,1494.7,1502.614063338701,1305.0,1500
2.6450538635253906,121,148,80,0.003246753246753247,1494.375,1507.8371011704346,1305.0,1500
2.6667580604553223,122,149,80,0.002898550724637681,1494.575,1502.614063338701,1305.0,1500
2.6885030269622803,123,148,79,0.0030303030303030303,1494.2249999999999,1504.5903479236813,1305.25,1500
2.7101340293884277,124,148,78,0.0030303030303030303,1494.175,1504.5903479236813,1305.5,1500
2.7317938804626465,125,148,77,0.003105590062111801,1494.1500000000001,1505.7196534008128,1305.75,1500
2.753424882888794,126,147,78,0.0030303030303030303,1493.8499999999999,1504.5903479236813,1305.5,1500
2.775075912475586,127,148,78,0.003105590062111801,1494.075,1505.7196534008128,1305.5,1500
2.7968459129333496,128,147,78,0.003246753246753247,1493.7750000000001,1507.8371011704346,1305.5,1500
2.8190488815307617,129,148,77,0.003105590062111801,1494.0,1505.7196534008128,1305.75,1500
2.842275857925415,130,147,77,0.0030303030303030303,1493.7,1504.5903479236813,1305.75,1500
2.8654818534851074,131,147,76,0.003105590062111801,1493.675,1505.7196534008128,1306.0,1500
2.8886430263519287,132,146,77,0.0030303030303030303,1493.3499999999999,1504.5903479236813,1305.75,1500
2.911846876144409,133,146,77,0.0030303030303030303,1493.3,1504.5903479236813,1305.75,1500
2.935030937194824,134,146,76,0.003246753246753247,1493.25,1507.8371011704346,1306.0,1500
2.958561897277832,135,146,76,0.002898550724637681,1493.2,1502.614063338701,1306.0,1500
2.981703996658325,136,146,75,0.002898550724637681,1493.175,1502.614063338701,1306.25,1500
3.004945993423462,137,145,74,0.003246753246753247,1492.8499999999999,1507.8371011704346,1306.5,1500
3.028127908706665,138,145,75,0.003246753246753247,1492.8,1507.8371011704346,1306.25,1500
3.051405906677246,139,145,75,0.003105590062111801,1492.7249999999999,1505.7196534008128,1306.25,1500
3.074575901031494,140,144,75,0.0030303030303030303,1492.4000000000001,1504.5903479236813,1306.25,1500
3.097809076309204,141,144,74,0.003246753246753247,1492.325,1507.8371011704346,1306.5,1500
3.1209449768066406,142,144,74,0.002898550724637681,1492.2750000000001,1502.614063338701,1306.5,1500
3.144186019897461,143,143,73,0.003246753246753247,1491.95,1507.8371011704346,1306.75,1500
3.167451858520508,144,144,73,0.003105590062111801,1492.1500000000001,1505.7196534008128,1306.75,1500
3.190592050552368,145,143,73,0.003246753246753247,1491.825,1507.8371011704346,1306.75,1500
3.213507890701294,146,143,73,0.003105590062111801,1491.75,1505.7196534008128,1306.75,1500
3.236548900604248,147,142,73,0.003246753246753247,1491.425,1507.8371011704346,1306.75,1500
3.259507894515991,148,142,72,0.003246753246753247,1491.3499999999999,1507.8371011704346,1307.0,1500
3.282418966293335,149,142,71,0.003246753246753247,1491.2750000000001,1507.8371011704346,1307.25,1500
3.3052940368652344,150,142,70,0.003105590062111801,1491.2249999999999,1505.7196534008128,1307.5,1500
3.3282248973846436,151,141,70,0.003246753246753247,1490.9000000000001,1507.8371011704346,1307.5,1500
3.3511528968811035,152,141,71,0.0030303030303030303,1490.825,1504.5903479236813,1307.25,1500
3.374202013015747,153,140,71,0.003246753246753247,1490.5,1507.8371011704346,1307.25,1500
3.3971118927001953,154,140,72,0.0034965034965034965,1490.4000000000001,1510,1307.0,1500
3.420396089553833,155,140,70,0.003105590062111801,1490.325,1505.7196534008128,1307.5,1500
3.4434049129486084,156,140,69,0.003105590062111801,1490.25,1505.7196534008128,1307.75,1500
3.4665660858154297,157,139,69,0.003246753246753247,1489.925,1507.8371011704346,1307.75,1500
3.489690065383911,158,139,69,0.003246753246753247,1489.8499999999999,1507.8371011704346,1307.75,1500
3.5125529766082764,159,138,71,0.003663003663003663,1489.5,1510,1307.25,1500
3.535383939743042,160,138,72,0.003105590062111801,1489.4000000000001,1505.7196534008128,1307.0,1500
3.558274984359741,161,137,72,0.003246753246753247,1489.05,1507.8371011704346,1307.0,1500
3.581186056137085,162,137,71,0.003246753246753247,1488.95,1507.8371011704346,1307.25,1500
3.604074001312256,163,137,70,0.003246753246753247,1488.875,1507.8371011704346,1307.5,1500
3.6270649433135986,164,137,69,0.003105590062111801,1488.8,1505.7196534008128,1307.75,1500
3.650045871734619,165,136,69,0.003246753246753247,1488.45,1507.8371011704346,1307.75,1500
3.6729559898376465,166,136,70,0.003246753246753247,1488.3499999999999,1507.8371011704346,1307.5,1500
3.6960549354553223,167,136,70,0.0034965034965034965,1488.2750000000001,1510,1307.5,1500
3.7194299697875977,168,135,69,0.003246753246753247,1487.925,1507.8371011704346,1307.75,1500
3.7424309253692627,169,135,68,0.003246753246753247,1487.8499999999999,1507.8371011704346,1308.0,1500
3.7655189037323,170,135,68,0.003246753246753247,1487.7750000000001,1507.8371011704346,1308.0,1500
3.7884140014648438,171,134,68,0.004048582995951417,1487.45,1510,1308.0,1500
3.8112659454345703,172,135,67,0.003401360544217687,1487.6500000000001,1510,1308.25,1500
3.8341078758239746,173,134,69,0.0034965034965034965,1487.325,1510,1307.75,1500
3.856987953186035,174,134,69,0.003246753246753247,1487.25,1507.8371011704346,1307.75,1500
3.879894971847534,175,134,69,0.0034965034965034965,1487.2,1510,1307.75,1500
3.902733087539673,176,134,68,0.0034965034965034965,1487.1500000000001,1510,1308.0,1500
3.925503969192505,177,134,67,0.003663003663003663,1487.0999999999999,1510,1308.25,1500
3.9482970237731934,178,132,67,0.003968253968253968,1486.5250000000001,1510,1308.25,1500
3.971410036087036,179,133,69,0.0034965034965034965,1486.7249999999999,1510,1307.75,1500
3.9942829608917236,180,132,69,0.0037593984962406013,1486.4000000000001,1510,1307.75,1500
4.017229080200195,181,132,68,0.004048582995951417,1486.3499999999999,1510,1308.0,1500
4.040241956710815,182,133,67,0.003246753246753247,1486.55,1507.8371011704346,1308.25,1500
4.063310861587524,183,133,66,0.003246753246753247,1486.5250000000001,1507.8371011704346,1308.5,1500
4.086258888244629,184,133,66,0.0034965034965034965,1486.5,1510,1308.5,1500
4.109370946884155,185,133,66,0.0034965034965034965,1486.4749999999999,1510,1308.5,1500
4.13222599029541,186,133,64,0.003246753246753247,1486.45,1507.8371011704346,1309.0,1500
4.155150890350342,187,133,64,0.003246753246753247,1486.425,1507.8371011704346,1309.0,1500
4.178112030029297,188,131,65,0.0035714285714285713,1485.9000000000001,1510,1308.75,1500
4.200945854187012,189,132,67,0.003246753246753247,1486.125,1507.8371011704346,1308.25,1500
4.2238609790802,190,130,67,0.0037593984962406013,1485.575,1510,1308.25,1500
4.246819019317627,191,131,67,0.0034965034965034965,1485.8,1510,1308.25,1500
4.269857883453369,192,131,66,0.003246753246753247,1485.75,1507.8371011704346,1308.5,1500
4.292736053466797,193,131,66,0.0034965034965034965,1485.7,1510,1308.5,1500
4.315571069717407,194,131,65,0.003246753246753247,1485.6500000000001,1507.8371011704346,1308.75,1500
4.338489055633545,195,131,66,0.0034965034965034965,1485.5999999999999,1510,1308.5,1500
4.3613200187683105,196,131,66,0.0034965034965034965,1485.55,1510,1308.5,1500
4.384093999862671,197,131,66,0.003246753246753247,1485.5,1507.8371011704346,1308.5,1500
4.407197952270508,198,131,65,0.003246753246753247,1485.5,1507.8371011704346,1308.75,1500
4.430274963378906,199,131,65,0.003401360544217687,1485.4749999999999,1510,1308.75,1500
4.453111886978149,200,131,65,0.0031746031746031746,1485.5,1506.7548500881835,1308.75,1500
4.475982904434204,201,131,64,0.003246753246753247,1485.5,1507.8371011704346,1309.0,1500
4.499230861663818,202,131,64,0.0034965034965034965,1485.5,1510,1309.0,1500
4.522013902664185,203,131,62,0.003246753246753247,1485.5,1507.8371011704346,1309.5,1500
4.5449440479278564,204,132,62,0.003105590062111801,1485.7750000000001,1505.7196534008128,1309.5,1500
4.567818880081177,205,132,62,0.003105590062111801,1485.8,1505.7196534008128,1309.5,1500
4.590739965438843,206,132,64,0.003105590062111801,1485.825,1505.7196534008128,1309.0,1500
4.6136229038238525,207,132,64,0.003105590062111801,1485.8499999999999,1505.7196534008128,1309.0,1500
4.636775970458984,208,132,63,0.003105590062111801,1485.875,1505.7196534008128,1309.25,1500
4.659852981567383,209,132,63,0.003105590062111801,1485.9000000000001,1505.7196534008128,1309.25,1500
4.682750940322876,210,131,64,0.003246753246753247,1485.6500000000001,1507.8371011704346,1309.0,1500
4.705633878707886,211,131,65,0.003246753246753247,1485.6500000000001,1507.8371011704346,1308.75,1500
4.728589057922363,212,132,65,0.0033444816053511705,1485.925,1509.3030265494033,1308.75,1500
4.751538038253784,213,132,64,0.003105590062111801,1485.95,1505.7196534008128,1309.0,1500
4.774507999420166,214,132,64,0.003105590062111801,1485.95,1505.7196534008128,1309.0,1500
4.797374963760376,215,132,65,0.0030303030303030303,1485.95,1504.5903479236813,1308.75,1500
4.8203370571136475,216,133,64,0.002898550724637681,1486.2249999999999,1502.614063338701,1309.0,1500
4.843260049819946,217,133,63,0.003105590062111801,1486.25,1505.7196534008128,1309.25,1500
4.866141080856323,218,133,63,0.002898550724637681,1486.2750000000001,1502.614063338701,1309.25,1500
4.889420986175537,219,133,63,0.002898550724637681,1486.3,1502.614063338701,1309.25,1500
4.9123899936676025,220,133,63,0.002898550724637681,1486.3499999999999,1502.614063338701,1309.25,1500
4.935328006744385,221,133,62,0.003105590062111801,1486.4000000000001,1505.7196534008128,1309.5,1500
4.958288908004761,222,133,62,0.002717391304347826,1486.425,1499.8966720343533,1309.5,1500
4.981159925460815,223,133,62,0.002777777777777778,1486.45,1500.8024691358025,1309.5,1500
5.004422903060913,224,133,61,0.0026041666666666665,1486.4749999999999,1498.1983024691358,1309.75,1500
5.027332067489624,225,133,61,0.002898550724637681,1486.5,1502.614063338701,1309.75,1500
5.0502660274505615,226,133,61,0.002898550724637681,1486.5,1502.614063338701,1309.75,1500
5.073170900344849,227,133,61,0.002898550724637681,1486.5,1502.614063338701,1309.75,1500
5.096073865890503,228,133,62,0.002898550724637681,1486.5,1502.614063338701,1309.5,1500
5.119081020355225,229,133,63,0.002717391304347826,1486.5,1499.8966720343533,1309.25,1500
5.142009973526001,230,133,64,0.002717391304347826,1486.5,1499.8966720343533,1309.0,1500
5.164982080459595,231,133,65,0.0030303030303030303,1486.5,1504.5903479236813,1308.75,1500
5.188515901565552,232,135,64,0.0025,1487.05,1496.6358024691358,1309.0,1500
5.2115490436553955,233,134,64,0.0030303030303030303,1486.825,1504.5903479236813,1309.0,1500
5.234498977661133,234,135,63,0.002717391304347826,1487.125,1499.8966720343533,1309.25,1500
5.257544994354248,235,135,64,0.002898550724637681,1487.175,1502.614063338701,1309.0,1500
5.280643939971924,236,135,65,0.002717391304347826,1487.2249999999999,1499.8966720343533,1308.75,1500
5.303564071655273,237,136,65,0.0026041666666666665,1487.55,1498.1983024691358,1308.75,1500
5.326622009277344,238,136,65,0.002717391304347826,1487.625,1499.8966720343533,1308.75,1500
5.349785089492798,239,136,64,0.002717391304347826,1487.7,1499.8966720343533,1309.0,1500
5.372838973999023,240,136,63,0.0025575447570332483,1487.7750000000001,1497.4989738246345,1309.25,1500
5.395794868469238,241,137,63,0.0022624434389140274,1488.125,1493.0724540528463,1309.25,1500
5.418850898742676,242,137,63,0.0022624434389140274,1488.175,1493.0724540528463,1309.25,1500
5.441853046417236,243,137,62,0.0023148148148148147,1488.25,1493.858024691358,1309.5,1500
5.464709043502808,244,137,62,0.002178649237472767,1488.3,1491.8155410312272,1309.5,1500
5.487653017044067,245,137,62,0.0022624434389140274,1488.3499999999999,1493.0724540528463,1309.5,1500
5.510519027709961,246,137,62,0.00205761316872428,1488.4000000000001,1490.0,1309.5,1500
5.533423900604248,247,138,62,0.002178649237472767,1488.7,1491.8155410312272,1309.5,1500
5.556294918060303,248,138,63,0.002178649237472767,1488.75,1491.8155410312272,1309.25,1500
5.579560995101929,249,138,63,0.001984126984126984,1488.8,1488.8977072310406,1309.25,1500
5.602468967437744,250,139,64,0.002178649237472767,1489.125,1491.8155410312272,1309.0,1500
5.625385046005249,251,139,64,0.00205761316872428,1489.175,1490.0,1309.0,1500
5.6482908725738525,252,140,64,0.00205761316872428,1489.5,1490.0,1309.0,1500
5.6711790561676025,253,140,65,0.002178649237472767,1489.575,1491.8155410312272,1308.75,1500
5.69405198097229,254,141,65,0.00205761316872428,1489.925,1490.0,1308.75,1500
5.717087030410767,255,141,64,0.002136752136752137,1490.0250000000001,1491.1870845204178,1309.0,1500
5.740156888961792,256,142,64,0.001949317738791423,1490.4000000000001,1488.3755685510071,1309.0,1500
5.763105869293213,257,143,64,0.001949317738791423,1490.7750000000001,1488.3755685510071,1309.0,1500
5.786042928695679,258,143,64,0.0018796992481203006,1490.9000000000001,1487.3312911909404,1309.0,1500
5.809369087219238,259,144,64,0.0018148820326678765,1491.3,1486.3590329591539,1309.0,1500
5.832300901412964,260,145,64,0.0018148820326678765,1491.7,1486.3590329591539,1309.0,1500
5.855262041091919,261,145,64,0.0016666666666666668,1491.8499999999999,1484.1358024691358,1309.0,1500
5.878151893615723,262,145,64,0.0016666666666666668,1491.9749999999999,1484.1358024691358,1309.0,1500
5.90107798576355,263,146,64,0.0016129032258064516,1492.375,1483.3293508562326,1309.0,1500
5.923964023590088,264,146,64,0.0016666666666666668,1492.5,1484.1358024691358,1309.0,1500
5.9470438957214355,265,147,63,0.0016129032258064516,1492.9000000000001,1483.3293508562326,1309.25,1500
5.970144987106323,266,148,63,0.0016129032258064516,1493.3,1483.3293508562326,1309.25,1500
5.9931159019470215,267,148,63,0.001488095238095238,1493.425,1481.4572310405645,1309.25,1500
6.015995025634766,268,149,63,0.0016129032258064516,1493.825,1483.3293508562326,1309.25,1500
6.039608001708984,269,149,64,0.0015360983102918587,1493.95,1482.1772771235137,1309.0,1500
6.062546968460083,270,150,63,0.0016129032258064516,1494.325,1483.3293508562326,1309.25,1500
6.085468053817749,271,150,63,0.001488095238095238,1494.45,1481.4572310405645,1309.25,1500
6.108358860015869,272,151,63,0.0014204545454545455,1494.8499999999999,1480.442620650954,1309.25,1500
6.131304979324341,273,151,63,0.001488095238095238,1494.9749999999999,1481.4572310405645,1309.25,1500
6.154192924499512,274,153,64,0.001466275659824047,1495.6500000000001,1481.1299373664965,1309.0,1500
6.177212953567505,275,154,64,0.0014204545454545455,1496.075,1480.442620650954,1309.0,1500
6.200121879577637,276,156,63,0.0013774104683195593,1496.7750000000001,1479.7969594939291,1309.25,1500
6.2230658531188965,277,158,63,0.0012077294685990338,1497.5250000000001,1477.2517444981213,1309.25,1500
6.246003866195679,278,159,62,0.0012626262626262627,1498.0250000000001,1478.0751964085298,1309.5,1500
6.269284963607788,279,160,64,0.0012422360248447205,1498.55,1477.7693428418065,1309.0,1500
6.292191982269287,280,161,65,0.0012422360248447205,1499.075,1477.7693428418065,1308.75,1500
6.315142869949341,281,162,66,0.0012422360248447205,1499.625,1477.7693428418065,1308.5,1500
6.338052034378052,282,163,66,0.0011574074074074073,1500.175,1476.4969135802469,1308.5,1500
6.3609888553619385,283,165,66,0.0012077294685990338,1501.0250000000001,1477.2517444981213,1308.5,1500
6.383872032165527,284,166,65,0.0011111111111111111,1501.5999999999999,1475.8024691358025,1308.75,1500
6.406938076019287,285,168,65,0.0011111111111111111,1502.45,1475.8024691358025,1308.75,1500
6.429975986480713,286,169,66,0.001142857142857143,1503.0250000000001,1476.2786596119929,1308.5,1500
6.452939033508301,287,170,67,0.0011111111111111111,1503.575,1475.8024691358025,1308.25,1500
6.475838899612427,288,171,68,0.0012422360248447205,1504.125,1477.7693428418065,1308.0,1500
6.498945951461792,289,173,68,0.0010526315789473684,1504.95,1474.9252761533464,1308.0,1500
6.52186393737793,290,175,67,0.0010683760683760685,1505.8,1475.1614434947769,1308.25,1500
6.544827938079834,291,179,65,0.0009380863039399625,1507.2249999999999,1473.2070970282352,1308.75,1500
6.567713022232056,292,180,64,0.0009861932938856016,1507.9000000000001,1473.9287018774198,1309.0,1500
6.590683937072754,293,182,64,0.0010162601626016261,1508.825,1474.3797049081602,1309.0,1500
6.613615989685059,294,182,61,0.001644736842105263,1509.2249999999999,1483.8068551007148,1309.75,1500
6.636744976043701,295,183,67,0.001,1509.8499999999999,1474.1358024691358,1308.25,1500
6.6598498821258545,296,185,67,0.0009615384615384616,1510.75,1473.5588793922127,1308.25,1500
6.682793855667114,297,186,69,0.000925925925925926,1511.4000000000001,1473.0246913580247,1307.75,1500
6.705743074417114,298,187,68,0.000925925925925926,1512.05,1473.0246913580247,1308.0,1500
6.729008913040161,299,189,65,0.0010416666666666667,1512.95,1474.7608024691358,1308.75,1500
6.751967906951904,300,193,65,0.0009380863039399625,1514.4000000000001,1473.2070970282352,1308.75,1500
6.77492094039917,301,194,66,0.0008928571428571428,1515.0250000000001,1472.5286596119929,1308.5,1500
6.7978339195251465,302,197,67,0.0008818342151675485,1516.2,1472.3633156966491,1308.25,1500
6.820788860321045,303,198,68,0.0009157509157509158,1516.8499999999999,1472.8720662053995,1308.0,1500
6.843726873397827,304,200,70,0.0008503401360544217,1517.8,1471.8909045099522,1307.5,1500
6.866796970367432,305,202,70,0.0008305647840531562,1518.7750000000001,1471.594274229933,1307.5,1500
6.889891862869263,306,203,70,0.0008503401360544217,1519.4749999999999,1471.8909045099522,1307.5,1500
6.9128289222717285,307,205,71,0.0008410428931875525,1520,1471.7514458669491,1307.25,1500
6.935636043548584,308,208,72,0.0008210180623973727,1520,1471.4510734050964,1307.0,1500
6.9585120677948,309,211,73,0.0008305647840531562,1520,1471.594274229933,1306.75,1500
6.981348037719727,310,213,74,0.0008019246190858059,1520,1471.1646717554229,1306.5,1500
7.004215955734253,311,215,73,0.0007751937984496124,1520,1470.7637094458801,1306.75,1500
7.027307033538818,312,217,73,0.0007751937984496124,1520,1470.7637094458801,1306.75,1500
7.0501649379730225,313,219,73,0.0007751937984496124,1520,1470.7637094458801,1306.75,1500
7.072967052459717,314,221,74,0.0008019246190858059,1520,1471.1646717554229,1306.5,1500
7.095808029174805,315,222,75,0.0007836990595611285,1520,1470.8912883625528,1306.25,1500
7.118740081787109,316,225,75,0.0007751937984496124,1520,1470.7637094458801,1306.25,1500
7.141608953475952,317,229,74,0.0007331378299120235,1520,1470.1328699178162,1306.5,1500
7.164474964141846,318,231,73,0.0007751937984496124,1520,1470.7637094458801,1306.75,1500
7.187535047531128,319,233,73,0.0007501875468867217,1520,1470.3886156724366,1306.75,1500
7.210352897644043,320,235,72,0.0007407407407407407,1520,1470.2469135802469,1307.0,1500
7.233186960220337,321,236,73,0.0007331378299120235,1520,1470.1328699178162,1306.75,1500
7.256011962890625,322,238,73,0.0007575757575757576,1520,1470.4994388327721,1306.75,1500
7.279309034347534,323,240,73,0.0007331378299120235,1520,1470.1328699178162,1306.75,1500
7.30226993560791,324,242,72,0.0007168458781362007,1520,1470,1307.0,1500
7.325042009353638,325,243,71,0.0007575757575757576,1520,1470.4994388327721,1307.25,1500
7.34793496131897,326,246,70,0.0007331378299120235,1520,1470.1328699178162,1307.5,1500
7.370863914489746,327,248,71,0.000744047619047619,1520,1470.29651675485,1307.25,1500
7.393704891204834,328,247,72,0.0007102272727272727,1520,1470,1307.0,1500
7.4165380001068115,329,249,71,0.0007680491551459293,1520,1470.6565397963248,1307.25,1500
7.439589977264404,330,252,69,0.0007047216349541931,1520,1470,1307.75,1500
7.462260961532593,331,253,67,0.0006944444444444445,1520,1470,1308.25,1500
7.484947919845581,332,254,66,0.0006944444444444445,1520,1470,1308.5,1500
7.507623910903931,333,254,66,0.0007168458781362007,1520,1470,1308.5,1500
7.530340909957886,334,255,66,0.0006944444444444445,1520,1470,1308.5,1500
7.553026914596558,335,255,68,0.0006793478260869565,1520,1470,1308.0,1500
7.575744867324829,336,253,68,0.0006793478260869565,1520,1470,1308.0,1500
7.598419904708862,337,253,68,0.0006944444444444445,1520,1470,1308.0,1500
7.62116003036499,338,251,68,0.0006793478260869565,1520,1470,1308.0,1500
7.643877029418945,339,251,68,0.0006734006734006734,1520,1470,1308.0,1500
7.666738986968994,340,251,67,0.0006648936170212766,1520,1470,1308.25,1500
7.689581871032715,341,250,66,0.0006944444444444445,1520,1470,1308.5,1500
7.712306022644043,342,248,67,0.0006587615283267457,1520,1470,1308.25,1500
7.734957933425903,343,249,67,0.0006447453255963894,1520,1470,1308.25,1500
7.757670879364014,344,247,63,0.0006184291898577613,1520,1470,1309.25,1500
7.78037691116333,345,246,61,0.0006447453255963894,1520,1470,1309.75,1500
7.8030619621276855,346,244,60,0.0006313131313131314,1520,1470,1310.0,1500
7.82575798034668,347,244,60,0.0006184291898577613,1520,1470,1310.0,1500
7.848698854446411,348,242,60,0.0006127450980392157,1520,1470,1310.0,1500
7.871394872665405,349,241,60,0.0006447453255963894,1520,1470,1310.0,1500
7.894121885299683,350,240,60,0.0006002400960384153,1520,1470,1310.0,1500
7.916874885559082,351,238,60,0.0006127450980392157,1520,1470,1310.0,1500
7.9397289752960205,352,237,60,0.0006184291898577613,1520,1470,1310.0,1500
7.9624528884887695,353,234,60,0.0006184291898577613,1520,1470,1310.0,1500
7.985483884811401,354,233,60,0.000588235294117647,1520,1470,1310.0,1500
8.008463859558105,355,232,62,0.0006184291898577613,1520,1470,1309.5,1500
8.031468868255615,356,230,64,0.0006313131313131314,1520,1470,1309.0,1500
8.054413080215454,357,229,65,0.0006184291898577613,1520,1470,1308.75,1500
8.077481031417847,358,228,66,0.0006184291898577613,1520,1470,1308.5,1500
8.100404024124146,359,227,67,0.0006184291898577613,1520,1470,1308.25,1500
8.123417854309082,360,225,68,0.0006184291898577613,1520,1470,1308.0,1500
8.146522998809814,361,224,69,0.0006060606060606061,1520,1470,1307.75,1500
8.169667959213257,362,221,71,0.0006127450980392157,1520,1470,1307.25,1500
8.192614078521729,363,219,72,0.0006377551020408163,1520,1470,1307.0,1500
8.215883016586304,364,217,72,0.0006184291898577613,1520,1470,1307.0,1500
8.238960027694702,365,216,72,0.0006127450980392157,1520,1470,1307.0,1500
8.261962890625,366,215,72,0.0006127450980392157,1520,1470,1307.0,1500
8.28489089012146,367,212,73,0.0006510416666666666,1520,1470,1306.75,1500
8.307965993881226,368,211,74,0.000625,1520,1470,1306.5,1500
8.330899000167847,369,210,74,0.000625,1520,1470,1306.5,1500
8.353863954544067,370,207,73,0.000625,1520,1470,1306.75,1500
8.376944065093994,371,207,73,0.0006127450980392157,1520,1470,1306.75,1500
8.400086879730225,372,204,74,0.0006583278472679394,1520,1470,1306.5,1500
8.423045873641968,373,202,73,0.0006583278472679394,1520,1470,1306.75,1500
8.446049928665161,374,201,72,0.0006451612903225806,1520,1470,1307.0,1500
8.469341039657593,375,200,71,0.0006451612903225806,1520,1470,1307.25,1500
8.492114067077637,376,198,72,0.0006583278472679394,1520,1470,1307.0,1500
8.515061855316162,377,197,72,0.0006802721088435374,1520,1470,1307.0,1500
8.537992000579834,378,193,71,0.0006583278472679394,1518.7249999999999,1470,1307.25,1500
8.560914039611816,379,191,70,0.0006944444444444445,1517.75,1470,1307.5,1500
8.584163904190063,380,189,71,0.0006720430107526882,1516.8,1470,1307.25,1500
8.60729694366455,381,187,71,0.0006944444444444445,1515.8,1470,1307.25,1500
8.630424976348877,382,185,71,0.0007092198581560284,1514.825,1470,1307.25,1500
8.653496980667114,383,183,72,0.0007183908045977011,1513.8499999999999,1470,1307.0,1500
8.676769018173218,384,182,73,0.0006944444444444445,1513.125,1470,1306.75,1500
8.699990034103394,385,180,74,0.0006944444444444445,1512.125,1470,1306.5,1500
8.723106861114502,386,177,76,0.0007037297677691766,1510.8499999999999,1470,1306.0,1500
8.746177911758423,387,174,69,0.0015527950310559005,1509.5250000000001,1482.4277279349742,1307.75,1500
8.76966404914856,388,173,78,0.0007183908045977011,1508.7750000000001,1470,1305.5,1500
8.792747020721436,389,171,79,0.0007183908045977011,1507.7750000000001,1470,1305.25,1500
8.81588888168335,390,170,80,0.0006863417982155113,1507.05,1470,1305.0,1500
8.839231014251709,391,164,74,0.0016025641025641025,1504.9749999999999,1483.1742640075972,1306.5,1500
8.86244797706604,392,165,80,0.0008695652173913044,1504.7249999999999,1472.1792807300053,1305.0,1500
8.885609865188599,393,162,83,0.0007836990595611285,1503.45,1470.8912883625528,1304.25,1500
8.909070014953613,394,159,84,0.0008116883116883117,1502.125,1471.3111271444604,1304.0,1500
8.932232856750488,395,158,85,0.0008417508417508417,1501.325,1471.7620650953984,1303.75,1500
8.955440998077393,396,156,85,0.0008417508417508417,1500.3,1471.7620650953984,1303.75,1500
8.978596925735474,397,154,85,0.0008741258741258741,1499.3,1472.247690581024,1303.75,1500
9.001807928085327,398,152,86,0.0008417508417508417,1498.2750000000001,1471.7620650953984,1303.5,1500
9.02498197555542,399,151,85,0.0008741258741258741,1497.5250000000001,1472.247690581024,1303.75,1500
9.048276901245117,400,149,85,0.0008944543828264759,1496.5,1472.5526182115329,1303.75,1500
9.071425914764404,401,148,85,0.0008944543828264759,1495.8499999999999,1472.5526182115329,1303.75,1500
9.094846963882446,402,143,86,0.0009523809523809524,1494.05,1473.42151675485,1303.5,1500
9.118052959442139,403,140,86,0.0010256410256410256,1492.75,1474.5204178537513,1303.5,1500
9.141468048095703,404,138,86,0.0010256410256410256,1491.7249999999999,1474.5204178537513,1303.5,1500
9.164723873138428,405,137,86,0.000975609756097561,1490.95,1473.7699488105993,1303.5,1500
9.188147068023682,406,134,87,0.0010256410256410256,1489.6500000000001,1474.5204178537513,1303.25,1500
9.211348056793213,407,132,87,0.0010416666666666667,1488.5999999999999,1474.7608024691358,1303.25,1500
9.234575033187866,408,130,88,0.0011441647597254005,1487.55,1476.2982738650169,1303.0,1500
9.257767915725708,409,127,88,0.0011750881316098707,1486.2,1476.7621244432839,1303.0,1500
9.280978918075562,410,124,89,0.0012422360248447205,1484.825,1477.7693428418065,1302.75,1500
9.30410885810852,411,122,90,0.0012787723785166241,1483.675,1478.3173881468852,1302.5,1500
9.327938079833984,412,121,90,0.0012422360248447205,1482.875,1477.7693428418065,1302.5,1500
9.351305961608887,413,119,90,0.0012987012987012987,1481.8499999999999,1478.6163219496552,1302.5,1500
9.374659061431885,414,117,91,0.0012787723785166241,1480.825,1478.3173881468852,1302.25,1500
9.398007869720459,415,115,91,0.001336898395721925,1480,1479.1892784049646,1302.25,1500
9.421084880828857,416,113,91,0.001336898395721925,1480,1479.1892784049646,1302.25,1500
9.444427967071533,417,110,93,0.0014005602240896359,1480,1480.1442058304804,1301.75,1500
9.467529058456421,418,108,92,0.0016129032258064516,1480,1483.3293508562326,1302.0,1500
9.490810871124268,419,106,93,0.0015873015873015873,1480,1482.9453262786596,1301.75,1500
9.513928890228271,420,106,93,0.001443001443001443,1480,1480.7808241141574,1301.75,1500
9.537131071090698,421,104,93,0.0016129032258064516,1480,1483.3293508562326,1301.75,1500
9.560296058654785,422,102,93,0.0016129032258064516,1480,1483.3293508562326,1301.75,1500
9.583441972732544,423,101,93,0.0016129032258064516,1480,1483.3293508562326,1301.75,1500
9.606644868850708,424,100,93,0.0016666666666666668,1480,1484.1358024691358,1301.75,1500
9.629912853240967,425,98,94,0.0016129032258064516,1480,1483.3293508562326,1301.5,1500
9.652972936630249,426,96,95,0.0017543859649122807,1480,1485.45159194282,1301.25,1500
9.67607593536377,427,94,94,0.0017857142857142857,1480,1485.92151675485,1301.5,1500
9.699235916137695,428,102,94,0.0026455026455026454,1480,1498.8183421516756,1301.5,1500
9.72209906578064,429,109,98,0.0024154589371980675,1480,1495.3676865271068,1300.5,1500
9.744901895523071,430,104,99,0.002136752136752137,1480,1491.1870845204178,1300.25,1500
9.767766952514648,431,102,94,0.0022624434389140274,1480,1493.0724540528463,1301.5,1500
9.790581941604614,432,101,87,0.0022624434389140274,1480,1493.0724540528463,1303.25,1500
9.813442945480347,433,100,86,0.00205761316872428,1480,1490.0,1303.5,1500
9.83623194694519,434,98,92,0.0020242914979757085,1480,1489.5001749387714,1302.0,1500
9.859201908111572,435,98,96,0.00205761316872428,1480,1490.0,1301.0,1500
9.881968021392822,436,99,100,0.00205761316872428,1480,1490.0,1300.0,1500
9.904771089553833,437,100,101,0.002178649237472767,1480,1491.8155410312272,1299.75,1500
9.927567958831787,438,101,99,0.0022624434389140274,1480,1493.0724540528463,1300.25,1500
9.950429916381836,439,102,96,0.0022624434389140274,1480,1493.0724540528463,1301.0,1500
9.973222017288208,440,104,93,0.002178649237472767,1480,1491.8155410312272,1301.75,1500
9.996072053909302,441,105,91,0.0022624434389140274,1480,1493.0724540528463,1302.25,1500
10.019098043441772,442,108,91,0.002178649237472767,1480,1491.8155410312272,1302.25,1500
10.042003870010376,443,108,92,0.0022624434389140274,1480,1493.0724540528463,1302.0,1500
10.064818859100342,444,110,92,0.002178649237472767,1480,1491.8155410312272,1302.0,1500
10.087638854980469,445,111,91,0.0022624434389140274,1480,1493.0724540528463,1302.25,1500
10.11045789718628,446,112,89,0.002403846153846154,1480,1495.1934947768282,1302.75,1500
10.13332486152649,447,113,87,0.002403846153846154,1480,1495.1934947768282,1303.25,1500
10.156135082244873,448,112,85,0.0030303030303030303,1480,1504.5903479236813,1303.75,1500
10.179110050201416,449,113,79,0.002898550724637681,1480,1502.614063338701,1305.25,1500
10.201904058456421,450,113,80,0.0030303030303030303,1480,1504.5903479236813,1305.0,1500
10.224770069122314,451,115,83,0.0026041666666666665,1480,1498.1983024691358,1304.25,1500
10.247591972351074,452,115,84,0.0030303030303030303,1480,1504.5903479236813,1304.0,1500
10.270411968231201,453,117,83,0.002717391304347826,1480,1499.8966720343533,1304.25,1500
10.293221950531006,454,117,83,0.0030303030303030303,1480,1504.5903479236813,1304.25,1500
10.316082954406738,455,119,82,0.002898550724637681,1480,1502.614063338701,1304.5,1500
10.339003086090088,456,120,81,0.002898550724637681,1480,1502.614063338701,1304.75,1500
10.361840963363647,457,121,81,0.002898550724637681,1480,1502.614063338701,1304.75,1500
10.38496994972229,458,122,82,0.002898550724637681,1480,1502.614063338701,1304.5,1500
10.407835960388184,459,123,83,0.002898550724637681,1480.3,1502.614063338701,1304.25,1500
10.430731058120728,460,125,82,0.002898550724637681,1481.0999999999999,1502.614063338701,1304.5,1500
10.453670024871826,461,126,80,0.003246753246753247,1481.625,1507.8371011704346,1305.0,1500
10.476603984832764,462,127,79,0.0030303030303030303,1482.175,1504.5903479236813,1305.25,1500
10.499614953994751,463,128,78,0.0030303030303030303,1482.7,1504.5903479236813,1305.5,1500
10.522484064102173,464,130,78,0.003105590062111801,1483.5250000000001,1505.7196534008128,1305.5,1500
10.54543685913086,465,130,79,0.003246753246753247,1483.8,1507.8371011704346,1305.25,1500
10.568336963653564,466,131,80,0.003105590062111801,1484.325,1505.7196534008128,1305.0,1500
10.591274976730347,467,131,80,0.003246753246753247,1484.575,1507.8371011704346,1305.0,1500
10.614144086837769,468,133,79,0.0034965034965034965,1485.3499999999999,1510,1305.25,1500
10.637017011642456,469,134,79,0.003663003663003663,1485.875,1510,1305.25,1500
10.659862041473389,470,134,80,0.0034965034965034965,1486.0999999999999,1510,1305.0,1500
10.682687044143677,471,135,81,0.003663003663003663,1486.575,1510,1304.75,1500
10.70544695854187,472,135,80,0.003246753246753247,1486.7750000000001,1507.8371011704346,1305.0,1500
10.728358030319214,473,135,80,0.0038461538461538464,1486.95,1510,1305.0,1500
10.751137971878052,474,135,79,0.004048582995951417,1487.075,1510,1305.25,1500
10.773993968963623,475,135,78,0.0038461538461538464,1487.2,1510,1305.5,1500
