time,frame,x,y,size_inv,roll,pitch,thrust,yaw
0.0003600120544433594,1,273,93,9.45179584120983e-05,1511.3,1480,1264.0,1500
0.052645206451416016,2,271,99,7.113387395077535e-05,1511.1,1480,1252.0,1500
0.10443305969238281,3,266,92,6.613756613756614e-05,1510.6,1480,1266.0,1500
0.1560981273651123,4,256,89,5.0999592003263974e-05,1509.6,1480,1272.0,1500
0.20787620544433594,5,243,73,5.3705692803437166e-05,1508.3,1480,1300,1500
0.25951313972473145,6,213,72,4.4955943175687825e-05,1505.3,1480,1300,1500
0.31128621101379395,7,195,65,4.45632798573975e-05,1503.5,1480,1300,1500
0.3630180358886719,8,177,70,4.857434303201049e-05,1501.7,1480,1300,1500
0.4146461486816406,9,175,67,4.538852578068264e-05,1501.5,1480,1300,1500
0.4662301540374756,10,151,60,6.982265046781176e-05,1499.1,1480,1300,1500
0.5178201198577881,11,153,84,0.00011580775911986103,1499.3,1480,1282.0,1500
0.5694921016693115,12,175,57,0.00010578652279699566,1501.5,1480,1300,1500
0.6212520599365234,13,168,56,4.984051036682616e-05,1500.8,1480,1300,1500
0.6728880405426025,14,193,64,4.4296788482835e-05,1503.3,1480,1300,1500
0.7245121002197266,15,208,51,5.792400370713624e-05,1504.8,1480,1300,1500
0.7761991024017334,16,224,54,5.628412224911353e-05,1506.4,1480,1300,1500
0.8278419971466064,17,243,53,6.566850538481745e-05,1508.3,1480,1300,1500
0.8794541358947754,18,253,48,8.034709946970914e-05,1509.3,1480,1300,1500
0.9313092231750488,19,260,46,9.350163627863488e-05,1510.0,1480,1300,1500
0.9829061031341553,20,262,42,0.0001239771881973717,1510.2,1480,1300,1500
1.0345120429992676,21,297,58,0.0004873294346978557,1513.7,1480,1300,1500
1.0861141681671143,22,301,63,0.0008841732979664014,1514.1,1483.841732979664,1300,1500
1.137803077697754,23,229,49,0.0003112356053532524,1506.9,1480,1300,1500
1.189413070678711,24,250,47,9.107468123861566e-05,1509.0,1480,1300,1500
1.2412002086639404,25,236,56,6.321112515802781e-05,1507.6,1480,1300,1500
1.2928190231323242,26,225,65,5.0553561498407566e-05,1506.5,1480,1300,1500
1.3444101810455322,27,199,70,4.2169182761238085e-05,1503.9,1480,1300,1500
1.396022081375122,28,178,77,5.584096493187402e-05,1501.8,1480,1296.0,1500
1.4477121829986572,29,142,75,0.0031746031746031746,1498.2,1506.7460317460318,1300.0,1500
1.4994571208953857,30,120,140,0.015625,1496.0,1520,1200,1500
1.551063060760498,31,,,,1500.0,1500.0,1250.0,1500
1.6023871898651123,32,,,,1500.0,1500.0,1250.0,1500
1.6536571979522705,33,,,,1500.0,1500.0,1250.0,1500
1.704909086227417,34,,,,1500.0,1500.0,1250.0,1500
1.7561981678009033,35,,,,1500.0,1500.0,1250.0,1500
1.8074681758880615,36,,,,1500.0,1500.0,1250.0,1500
1.8587241172790527,37,,,,1500.0,1500.0,1250.0,1500
1.9099810123443604,38,,,,1500.0,1500.0,1250.0,1500
1.96122407913208,39,,,,1500.0,1500.0,1250.0,1500
2.012484073638916,40,,,,1500.0,1500.0,1250.0,1500
2.063967227935791,41,212,55,0.008,1505.2,1520,1300,1500
2.1155810356140137,42,205,42,0.00018796992481203009,1504.5,1480,1300,1500
2.1674392223358154,43,210,38,8.271982794275788e-05,1505.0,1480,1300,1500
2.2190771102905273,44,214,37,8.890469416785207e-05,1505.4,1480,1300,1500
2.2706961631774902,45,225,38,9.081827263645445e-05,1506.5,1480,1300,1500
2.3223140239715576,46,225,37,9.012256669069935e-05,1506.5,1480,1300,1500
2.3739490509033203,47,227,42,8.074935400516796e-05,1506.7,1480,1300,1500
2.425558090209961,48,230,46,7.139797229758674e-05,1507.0,1480,1300,1500
2.4771640300750732,49,229,58,5.575379125780553e-05,1506.9,1480,1300,1500
2.5287680625915527,50,230,64,4.9062898636051415e-05,1507.0,1480,1300,1500
2.580371141433716,51,224,70,4.3779003589878295e-05,1506.4,1480,1300,1500
2.6320152282714844,52,214,78,6.124448799608035e-05,1505.4,1480,1294.0,1500
2.68373703956604,53,263,108,0.0029411764705882353,1510.3,1504.4117647058824,1234.0,1500
2.73551607131958,54,,,,1500.0,1500.0,1250.0,1500
2.7868521213531494,55,,,,1500.0,1500.0,1250.0,1500
2.8382010459899902,56,,,,1500.0,1500.0,1250.0,1500
2.889519214630127,57,,,,1500.0,1500.0,1250.0,1500
2.941049098968506,58,,,,1500.0,1500.0,1250.0,1500
2.9923532009124756,59,,,,1500.0,1500.0,1250.0,1500
3.0438430309295654,60,221,138,0.020833333333333332,1506.1,1520,1200,1500
3.0958192348480225,61,246,88,0.0001095290251916758,1508.6,1480,1274.0,1500
3.14749813079834,62,235,76,5.208333333333334e-05,1507.5,1480,1298.0,1500
3.1991820335388184,63,241,80,4.3434826043521695e-05,1508.1,1480,1290.0,1500
3.2508630752563477,64,243,76,4.81000481000481e-05,1508.3,1480,1298.0,1500
3.302493095397949,65,236,70,5.214851898206091e-05,1507.6,1480,1300,1500
3.3540680408477783,66,227,75,4.730368968779565e-05,1506.7,1480,1300.0,1500
3.405771017074585,67,204,70,4.890453834115806e-05,1504.4,1480,1300,1500
3.4573841094970703,68,182,60,6.071645415907711e-05,1502.2,1480,1300,1500
3.5090160369873047,69,139,45,0.00011291779584462511,1497.9,1480,1300,1500
3.5606510639190674,70,124,54,0.0011086474501108647,1496.4,1486.0864745011086,1300,1500
3.612366199493408,71,149,118,0.015384615384615385,1498.9,1520,1214.0,1500
3.6640491485595703,72,111,79,0.005714285714285714,1495.1,1520,1292.0,1500
3.715724229812622,73,101,54,0.0032258064516129032,1494.1,1507.258064516129,1300,1500
3.7674560546875,74,123,60,0.0016666666666666668,1496.3,1491.6666666666667,1300,1500
3.8192391395568848,75,149,63,0.00032092426187419767,1498.9,1480,1300,1500
3.8710172176361084,76,173,70,5.120327700972862e-05,1501.3,1480,1300,1500
3.9226841926574707,77,194,65,4.893325504012527e-05,1503.4,1480,1300,1500
3.974309206008911,78,224,58,5.538938739337543e-05,1506.4,1480,1300,1500
4.025971174240112,79,242,68,5.032206119162641e-05,1508.2,1480,1300,1500
4.077594041824341,80,263,63,6.968155529231412e-05,1510.3,1480,1300,1500
4.129193067550659,81,270,65,7.633587786259542e-05,1511.0,1480,1300,1500
4.180804014205933,82,275,69,8.960573476702509e-05,1511.5,1480,1300,1500
4.232442140579224,83,276,71,9.209799226376865e-05,1511.6,1480,1300,1500
4.284060001373291,84,270,75,7.575757575757576e-05,1511.0,1480,1300.0,1500
4.3356850147247314,85,263,69,6.799945600435197e-05,1510.3,1480,1300,1500
4.387280225753784,86,247,69,5.4945054945054945e-05,1508.7,1480,1300,1500
4.438887119293213,87,232,74,4.662004662004662e-05,1507.2,1480,1300,1500
4.490487098693848,88,207,74,4.4446419840881815e-05,1504.7,1480,1300,1500
4.542079210281372,89,191,74,4.301075268817204e-05,1503.1,1480,1300,1500
4.593667030334473,90,161,59,6.758583400919168e-05,1500.1,1480,1300,1500
4.645303010940552,91,145,59,7.487271638215035e-05,1498.5,1480,1300,1500
4.69691801071167,92,118,72,0.0004868549172346641,1495.8,1480,1300,1500
4.748521089553833,93,104,65,0.001388888888888889,1494.4,1488.888888888889,1300,1500
4.800202131271362,94,85,44,0.007936507936507936,1492.5,1520,1300,1500
4.851821184158325,95,83,89,0.0125,1492.3,1520,1272.0,1500
4.903396129608154,96,107,80,0.006666666666666667,1494.7,1520,1290.0,1500
4.95500922203064,97,111,68,0.005714285714285714,1495.1,1520,1300,1500
5.0066001415252686,98,100,47,0.00039872408293460925,1494.0,1480,1300,1500
5.058221101760864,99,144,56,7.572889057175312e-05,1498.4,1480,1300,1500
5.109898090362549,100,158,46,8.54481756814492e-05,1499.8,1480,1300,1500
5.16157603263855,101,179,46,6.690753378830456e-05,1501.9,1480,1300,1500
5.213181018829346,102,196,40,8.01667468334135e-05,1503.6,1480,1300,1500
5.2647881507873535,103,207,37,9.592326139088728e-05,1504.7,1480,1300,1500
5.316394090652466,104,219,30,0.00012600806451612903,1505.9,1480,1300,1500
5.367994070053101,105,202,28,0.0002370791844476055,1504.2,1480,1300,1500
5.4195802211761475,106,281,48,0.0028011204481792717,1512.1,1503.0112044817927,1300,1500
5.471386194229126,107,288,55,0.011904761904761904,1512.8,1520,1300,1500
5.522947072982788,108,295,67,0.008928571428571428,1513.5,1520,1300,1500
5.574520111083984,109,300,73,0.003125,1514.0,1506.25,1300,1500
5.626132011413574,110,264,80,0.00011613053071652537,1510.4,1480,1290.0,1500
5.677801132202148,111,256,85,7.093707881109456e-05,1509.6,1480,1280.0,1500
5.729514122009277,112,256,88,5.617346365576902e-05,1509.6,1480,1274.0,1500
5.781495094299316,113,251,113,5.260942760942761e-05,1509.1,1480,1224.0,1500
5.833191156387329,114,246,121,5.49178977428744e-05,1508.6,1480,1208.0,1500
5.884865999221802,115,230,119,6.11545988258317e-05,1507.0,1480,1212.0,1500
5.936808109283447,116,217,122,5.08440105755542e-05,1505.7,1480,1206.0,1500
5.988500118255615,117,202,112,4.4640864247131826e-05,1504.2,1480,1226.0,1500
6.0402281284332275,118,187,99,4.772130756382725e-05,1502.7,1480,1252.0,1500
6.09191107749939,119,173,82,5.049739938393173e-05,1501.3,1480,1286.0,1500
6.143580198287964,120,167,78,5.22466039707419e-05,1500.7,1480,1294.0,1500
6.195241212844849,121,150,52,6.988120195667365e-05,1499.0,1480,1300,1500
6.246835231781006,122,160,54,5.90318772136954e-05,1500.0,1480,1300,1500
6.298412084579468,123,160,41,7.631257631257631e-05,1500.0,1480,1300,1500
6.350069046020508,124,165,42,7.639419404125286e-05,1500.5,1480,1300,1500
6.401768207550049,125,166,39,9.239582370876836e-05,1500.6,1480,1300,1500
6.453331232070923,126,188,40,7.57460990758976e-05,1502.8,1480,1300,1500
6.504936218261719,127,208,43,7.058159232072275e-05,1504.8,1480,1300,1500
6.556514024734497,128,219,49,6.273919317397578e-05,1505.9,1480,1300,1500
6.608122110366821,129,234,61,5.1695616211745244e-05,1507.4,1480,1300,1500
6.659747123718262,130,241,63,5.139802631578947e-05,1508.1,1480,1300,1500
6.71150016784668,131,248,79,4.567252797442338e-05,1508.8,1480,1292.0,1500
6.763216018676758,132,249,87,4.730368968779565e-05,1508.9,1480,1276.0,1500
6.814905166625977,133,248,99,4.8633401420095325e-05,1508.8,1480,1252.0,1500
6.866584062576294,134,244,108,4.892367906066536e-05,1508.4,1480,1234.0,1500
6.918223142623901,135,231,110,5.5172413793103446e-05,1507.1,1480,1230.0,1500
6.969941139221191,136,223,115,5.411255411255411e-05,1506.3,1480,1220.0,1500
7.02170205116272,137,198,121,5.0085144746068314e-05,1503.8,1480,1208.0,1500
7.07340407371521,138,178,112,7.730364873222017e-05,1501.8,1480,1226.0,1500
7.1250691413879395,139,171,100,6.144393241167435e-05,1501.1,1480,1250.0,1500
7.1767261028289795,140,146,94,8.900756564307967e-05,1498.6,1480,1262.0,1500
7.228417158126831,141,169,93,4.8225308641975306e-05,1500.9,1480,1264.0,1500
7.280194997787476,142,170,79,4.830684507994783e-05,1501.0,1480,1292.0,1500
7.331973075866699,143,176,64,4.807692307692308e-05,1501.6,1480,1300,1500
7.383563041687012,144,183,59,5.2851329210929655e-05,1502.3,1480,1300,1500
7.435171127319336,145,193,50,6.429214350006429e-05,1503.3,1480,1300,1500
7.486769199371338,146,200,46,7.027900766041184e-05,1504.0,1480,1300,1500
7.538330078125,147,212,45,7.394262052647145e-05,1505.2,1480,1300,1500
7.590037107467651,148,223,50,6.923769300006924e-05,1506.3,1480,1300,1500
7.6417741775512695,149,229,51,6.695681285570806e-05,1506.9,1480,1300,1500
7.693382024765015,150,238,58,6.690753378830456e-05,1507.8,1480,1300,1500
7.745014190673828,151,242,67,5.501760563380282e-05,1508.2,1480,1300,1500
7.796621084213257,152,246,75,4.96031746031746e-05,1508.6,1480,1300.0,1500
7.848278999328613,153,247,80,4.9945060433523126e-05,1508.7,1480,1290.0,1500
7.90006422996521,154,244,94,4.693293283897311e-05,1508.4,1480,1262.0,1500
7.9518702030181885,155,240,94,4.859086491739553e-05,1508.0,1480,1262.0,1500
8.003542184829712,156,230,103,4.692192192192192e-05,1507.0,1480,1244.0,1500
8.055220127105713,157,221,98,5.1535765821480104e-05,1506.1,1480,1254.0,1500
8.106870174407959,158,209,103,4.489337822671156e-05,1504.9,1480,1244.0,1500
8.158518075942993,159,198,103,4.4955943175687825e-05,1503.8,1480,1244.0,1500
8.21021318435669,160,164,97,6.0455837011063415e-05,1500.4,1480,1256.0,1500
8.261871099472046,161,157,95,7.163836951070993e-05,1499.7,1480,1260.0,1500
8.313555002212524,162,159,86,5.935422602089269e-05,1499.9,1480,1278.0,1500
8.365241050720215,163,151,78,6.634819532908705e-05,1499.1,1480,1294.0,1500
8.416917085647583,164,143,72,6.787023211619383e-05,1498.3,1480,1300,1500
8.468538045883179,165,139,71,7.229612492770387e-05,1497.9,1480,1300,1500
8.520159006118774,166,134,69,8.947745168217609e-05,1497.4,1480,1300,1500
8.571760177612305,167,136,67,9.424182452172274e-05,1497.6,1480,1300,1500
8.623382091522217,168,142,65,6.901311249137337e-05,1498.2,1480,1300,1500
8.675165176391602,169,149,65,6.585879873551106e-05,1498.9,1480,1300,1500
8.727137088775635,170,167,58,5.611672278338945e-05,1500.7,1480,1300,1500
8.778825998306274,171,180,68,4.930966469428008e-05,1502.0,1480,1300,1500
8.830424070358276,172,198,65,5.19318653926049e-05,1503.8,1480,1300,1500
8.882036209106445,173,214,76,6.346788525006347e-05,1505.4,1480,1298.0,1500
8.933708190917969,174,245,67,0.00025,1508.5,1480,1300,1500
8.98527216911316,175,237,71,0.0009132420091324201,1507.7,1484.132420091324,1300,1500
9.037016153335571,176,266,78,0.0005350454788657035,1510.6,1480.350454788657,1294.0,1500
9.088760137557983,177,267,64,0.004273504273504274,1510.7,1517.7350427350427,1300,1500
9.14042615890503,178,276,67,0.00024509803921568627,1511.6,1480,1300,1500
9.192018032073975,179,278,84,0.00023441162681669012,1511.8,1480,1282.0,1500
9.243680000305176,180,280,66,0.00013419216317767042,1512.0,1480,1300,1500
9.2952721118927,181,277,60,0.00011230907457322552,1511.7,1480,1300,1500
9.346856117248535,182,277,53,0.00011512779184895233,1511.7,1480,1300,1500
9.398470163345337,183,276,63,9.856100926473487e-05,1511.6,1480,1300,1500
9.450138092041016,184,272,66,8.59106529209622e-05,1511.2,1480,1300,1500
9.501796007156372,185,269,60,8.928571428571429e-05,1510.9,1480,1300,1500
9.553380012512207,186,266,71,7.301401869158878e-05,1510.6,1480,1300,1500
9.60499119758606,187,258,79,6.944926731022988e-05,1509.8,1480,1292.0,1500
9.656667232513428,188,246,74,8.774238834781083e-05,1508.6,1480,1300,1500
9.70825719833374,189,225,88,0.00010101010101010101,1506.5,1480,1274.0,1500
9.759986162185669,190,178,101,0.0006688963210702341,1501.8,1481.6889632107022,1248.0,1500
9.811806201934814,191,192,98,0.005952380952380952,1503.2,1520,1254.0,1500
9.863438129425049,192,161,105,0.011111111111111112,1500.1,1520,1240.0,1500
9.915083169937134,193,95,110,0.00980392156862745,1493.5,1520,1230.0,1500
9.966737031936646,194,128,111,0.019230769230769232,1496.8,1520,1228.0,1500
10.01839017868042,195,99,118,0.027777777777777776,1493.9,1520,1214.0,1500
10.070143222808838,196,114,114,0.017857142857142856,1495.4,1520,1222.0,1500
10.121857166290283,197,152,105,0.004761904761904762,1499.2,1520,1240.0,1500
10.173488140106201,198,177,101,0.005291005291005291,1501.7,1520,1248.0,1500
10.225112199783325,199,165,74,0.010416666666666666,1500.5,1520,1300,1500
10.276684999465942,200,212,101,0.005555555555555556,1505.2,1520,1248.0,1500
10.328347206115723,201,252,128,0.007518796992481203,1509.2,1520,1200,1500
10.380053043365479,202,225,138,0.027777777777777776,1506.5,1520,1200,1500
10.431795120239258,203,221,114,0.005494505494505495,1506.1,1520,1222.0,1500
10.483501195907593,204,211,125,0.006211180124223602,1505.1,1520,1200.0,1500
10.53512716293335,205,245,130,0.007142857142857143,1508.5,1520,1200,1500
10.586716175079346,206,187,77,0.002380952380952381,1502.7,1498.8095238095239,1296.0,1500
10.638466119766235,207,197,80,0.0022624434389140274,1503.7,1497.6244343891403,1290.0,1500
10.690223217010498,208,197,64,0.00011321181931393638,1503.7,1480,1300,1500
10.741841077804565,209,190,58,4.645113340765515e-05,1503.0,1480,1300,1500
10.793442010879517,210,192,58,4.605747973470892e-05,1503.2,1480,1300,1500
10.845060110092163,211,189,62,4.177109440267335e-05,1502.9,1480,1300,1500
10.896703004837036,212,191,55,5.1610239471511145e-05,1503.1,1480,1300,1500
10.948300123214722,213,189,61,4.608294930875576e-05,1502.9,1480,1300,1500
11.000018119812012,214,188,58,5.087505087505087e-05,1502.8,1480,1300,1500
11.051799058914185,215,179,62,5.291005291005291e-05,1501.9,1480,1300,1500
11.103385210037231,216,170,47,0.00015943877551020407,1501.0,1480,1300,1500
11.15494418144226,217,191,73,0.0001292824822236587,1503.1,1480,1300,1500
11.206536054611206,218,202,61,0.00040404040404040404,1504.2,1480,1300,1500
11.25811219215393,219,186,41,0.0003419972640218878,1502.6,1480,1300,1500
11.309669017791748,220,207,63,5.3307745615437925e-05,1504.7,1480,1300,1500
11.361414194107056,221,211,56,4.999750012499375e-05,1505.1,1480,1300,1500
11.413047075271606,222,220,57,4.777830864787386e-05,1506.0,1480,1300,1500
11.464699029922485,223,222,49,5.6747247758483716e-05,1506.2,1480,1300,1500
11.516607999801636,224,228,55,5.20751965838671e-05,1506.8,1480,1300,1500
11.568227052688599,225,220,36,8.2904990880451e-05,1506.0,1480,1300,1500
11.619810104370117,226,223,57,4.8430840759395585e-05,1506.3,1480,1300,1500
11.671593189239502,227,219,56,5.085952598921778e-05,1505.9,1480,1300,1500
11.723247051239014,228,214,64,4.524886877828054e-05,1505.4,1480,1300,1500
11.774919033050537,229,210,68,4.391743522178305e-05,1505.0,1480,1300,1500
11.826500177383423,230,212,74,5.709065996802923e-05,1505.2,1480,1300,1500
11.878082036972046,231,211,80,6.349206349206349e-05,1505.1,1480,1290.0,1500
11.92973518371582,232,214,63,7.321180174244088e-05,1505.4,1480,1300,1500
11.981498003005981,233,217,68,4.683182690956774e-05,1505.7,1480,1300,1500
12.033164024353027,234,217,63,4.743382980741865e-05,1505.7,1480,1300,1500
12.084778070449829,235,220,72,3.986446083316723e-05,1506.0,1480,1300,1500
12.13637900352478,236,217,65,4.4640864247131826e-05,1505.7,1480,1300,1500
12.18799614906311,237,216,63,4.714979489839219e-05,1505.6,1480,1300,1500
12.239703178405762,238,212,65,4.770992366412214e-05,1505.2,1480,1300,1500
12.291721105575562,239,208,64,5.060728744939271e-05,1504.8,1480,1300,1500
12.343386173248291,240,198,73,4.7582794061667303e-05,1503.8,1480,1300,1500
12.39502501487732,241,187,76,6.167509559639817e-05,1502.7,1480,1298.0,1500
12.446716070175171,242,172,81,7.971938775510203e-05,1501.2,1480,1288.0,1500
12.498409032821655,243,167,108,0.002840909090909091,1500.7,1503.409090909091,1234.0,1500
12.550129175186157,244,150,114,0.023809523809523808,1499.0,1520,1222.0,1500
12.601782083511353,245,147,131,0.006666666666666667,1498.7,1520,1200,1500
12.653385162353516,246,184,181,0.037037037037037035,1502.4,1520,1200,1500
12.704974174499512,247,157,143,0.041666666666666664,1499.7,1520,1200,1500
12.756603002548218,248,154,119,0.041666666666666664,1499.4,1520,1212.0,1500
12.808130025863647,249,,,,1500.0,1500.0,1250.0,1500
12.859608173370361,250,149,136,0.03125,1498.9,1520,1200,1500
12.911315202713013,251,138,159,0.041666666666666664,1497.8,1520,1200,1500
12.962923049926758,252,154,107,0.022222222222222223,1499.4,1520,1236.0,1500
13.014605045318604,253,157,109,0.027777777777777776,1499.7,1520,1232.0,1500
13.066297054290771,254,189,124,0.02040816326530612,1502.9,1520,1202.0,1500
13.117961168289185,255,156,104,0.016666666666666666,1499.6,1520,1242.0,1500
13.169618129730225,256,185,127,0.016666666666666666,1502.5,1520,1200,1500
13.22134518623352,257,196,156,0.027777777777777776,1503.6,1520,1200,1500
13.272945165634155,258,150,111,0.03125,1499.0,1520,1228.0,1500
13.324570178985596,259,192,153,0.025,1503.2,1520,1200,1500
13.376150131225586,260,196,182,0.027777777777777776,1503.6,1520,1200,1500
13.427760124206543,261,155,126,0.041666666666666664,1499.5,1520,1200,1500
13.47934103012085,262,168,132,0.037037037037037035,1500.8,1520,1200,1500
13.53089714050293,263,154,118,0.0625,1499.4,1520,1214.0,1500
13.582544088363647,264,161,154,0.047619047619047616,1500.1,1520,1200,1500
13.634128093719482,265,127,125,0.041666666666666664,1496.7,1520,1200.0,1500
13.685794115066528,266,163,141,0.007246376811594203,1500.3,1520,1200,1500
13.737292051315308,267,,,,1500.0,1500.0,1250.0,1500
13.788759231567383,268,190,136,0.022222222222222223,1503.0,1520,1200,1500
13.84035611152649,269,169,156,0.019230769230769232,1500.9,1520,1200,1500
13.891943216323853,270,178,100,0.019230769230769232,1501.8,1520,1250.0,1500
13.943430185317993,271,,,,1500.0,1500.0,1250.0,1500
13.994883060455322,272,172,145,0.030303030303030304,1501.2,1520,1200,1500
14.046502113342285,273,153,98,0.022222222222222223,1499.3,1520,1254.0,1500
14.098125219345093,274,159,112,0.037037037037037035,1499.9,1520,1226.0,1500
14.149739027023315,275,163,168,0.03571428571428571,1500.3,1520,1200,1500
14.201494216918945,276,173,169,0.016666666666666666,1501.3,1520,1200,1500
14.25308609008789,277,167,140,0.03571428571428571,1500.7,1520,1200,1500
14.30463719367981,278,183,129,0.010416666666666666,1502.3,1520,1200,1500
14.36004114151001,279,188,138,0.04,1502.8,1520,1200,1500
14.4117591381073,280,173,176,0.018518518518518517,1501.3,1520,1200,1500
14.463373184204102,281,178,137,0.047619047619047616,1501.8,1520,1200,1500
14.515000104904175,282,146,103,0.020833333333333332,1498.6,1520,1244.0,1500
14.56670618057251,283,190,151,0.04,1503.0,1520,1200,1500
14.618309020996094,284,190,152,0.0625,1503.0,1520,1200,1500
14.669976234436035,285,182,155,0.025,1502.2,1520,1200,1500
14.721636056900024,286,146,101,0.047619047619047616,1498.6,1520,1248.0,1500
14.773382186889648,287,178,130,0.041666666666666664,1501.8,1520,1200,1500
14.825046062469482,288,201,198,0.027777777777777776,1504.1,1520,1200,1500
14.87665605545044,289,162,131,0.011111111111111112,1500.2,1520,1200,1500
14.928260087966919,290,171,174,0.027777777777777776,1501.1,1520,1200,1500
14.979981184005737,291,150,110,0.017857142857142856,1499.0,1520,1230.0,1500
15.03181505203247,292,169,161,0.016666666666666666,1500.9,1520,1200,1500
15.083434104919434,293,181,157,0.016666666666666666,1502.1,1520,1200,1500
15.135035037994385,294,163,132,0.027777777777777776,1500.3,1520,1200,1500
15.186661005020142,295,190,145,0.027777777777777776,1503.0,1520,1200,1500
15.238291025161743,296,159,119,0.022727272727272728,1499.9,1520,1212.0,1500
15.290091037750244,297,156,130,0.01020408163265306,1499.6,1520,1200,1500
15.341840028762817,298,168,161,0.047619047619047616,1500.8,1520,1200,1500
15.393449068069458,299,168,153,0.014705882352941176,1500.8,1520,1200,1500
15.44506311416626,300,140,161,0.047619047619047616,1498.0,1520,1200,1500
15.49665117263794,301,130,112,0.030303030303030304,1497.0,1520,1226.0,1500
15.548287153244019,302,150,115,0.02,1499.0,1520,1220.0,1500
15.599969148635864,303,154,142,0.006666666666666667,1499.4,1520,1200,1500
15.651679039001465,304,166,166,0.01282051282051282,1500.6,1520,1200,1500
15.703298091888428,305,193,179,0.03125,1503.3,1520,1200,1500
15.754948139190674,306,161,135,0.018518518518518517,1500.1,1520,1200,1500
15.80658221244812,307,197,183,0.05,1503.7,1520,1200,1500
15.858152151107788,308,169,161,0.017857142857142856,1500.9,1520,1200,1500
15.909802198410034,309,136,145,0.047619047619047616,1497.6,1520,1200,1500
15.961555004119873,310,164,138,0.02564102564102564,1500.4,1520,1200,1500
16.01318907737732,311,150,106,0.023809523809523808,1499.0,1520,1238.0,1500
16.064863204956055,312,137,109,0.03571428571428571,1497.7,1520,1232.0,1500
16.11653208732605,313,182,134,0.03125,1502.2,1520,1200,1500
16.168142080307007,314,152,113,0.025,1499.2,1520,1224.0,1500
16.219810009002686,315,182,198,0.02564102564102564,1502.2,1520,1200,1500
16.27157211303711,316,175,171,0.025,1501.5,1520,1200,1500
16.323150157928467,317,151,152,0.0196078431372549,1499.1,1520,1200,1500
16.374778032302856,318,158,96,0.030303030303030304,1499.8,1520,1258.0,1500
16.42645812034607,319,187,125,0.015873015873015872,1502.7,1520,1200.0,1500
16.478137016296387,320,194,136,0.025,1503.4,1520,1200,1500
16.52972412109375,321,151,130,0.0125,1499.1,1520,1200,1500
16.581427097320557,322,186,124,0.018518518518518517,1502.6,1520,1202.0,1500
16.633109092712402,323,166,111,0.011111111111111112,1500.6,1520,1228.0,1500
16.684805154800415,324,193,121,0.009615384615384616,1503.3,1520,1208.0,1500
16.736502170562744,325,196,137,0.015873015873015872,1503.6,1520,1200,1500
16.788119077682495,326,170,135,0.025,1501.0,1520,1200,1500
16.839702129364014,327,204,186,0.016666666666666666,1504.4,1520,1200,1500
16.891540050506592,328,,,,1500.0,1500.0,1250.0,1500
16.943027019500732,329,184,181,0.027777777777777776,1502.4,1520,1200,1500
16.994676113128662,330,175,129,0.0196078431372549,1501.5,1520,1200,1500
17.046319007873535,331,177,168,0.041666666666666664,1501.7,1520,1200,1500
17.097926139831543,332,183,137,0.01020408163265306,1502.3,1520,1200,1500
17.149505138397217,333,191,143,0.015625,1503.1,1520,1200,1500
17.201271057128906,334,193,126,0.009615384615384616,1503.3,1520,1200,1500
17.252901077270508,335,218,133,0.011363636363636364,1505.8,1520,1200,1500
17.304513216018677,336,191,146,0.007692307692307693,1503.1,1520,1200,1500
17.35642409324646,337,185,114,0.00411522633744856,1502.5,1516.1522633744855,1222.0,1500
17.40822410583496,338,219,178,0.011904761904761904,1505.9,1520,1200,1500
17.459899187088013,339,188,137,0.010526315789473684,1502.8,1520,1200,1500
17.511593103408813,340,182,105,0.011904761904761904,1502.2,1520,1240.0,1500
17.563284158706665,341,185,150,0.003952569169960474,1502.5,1514.5256916996047,1200,1500
17.61500120162964,342,200,132,0.002066115702479339,1504.0,1495.6611570247933,1200,1500
17.666699171066284,343,183,155,0.0008361204013377926,1502.3,1483.361204013378,1200,1500
17.718451023101807,344,184,107,0.0002349072116513977,1502.4,1480,1236.0,1500
17.77019715309143,345,183,109,7.124536905101169e-05,1502.3,1480,1232.0,1500
17.82191300392151,346,179,104,5.49178977428744e-05,1501.9,1480,1242.0,1500
17.873603105545044,347,155,82,9.035872413481521e-05,1499.5,1480,1286.0,1500
17.925294160842896,348,137,78,0.0003663003663003663,1497.7,1480,1294.0,1500
17.976997137069702,349,98,59,0.002857142857142857,1493.8,1503.5714285714287,1300,1500
18.02873706817627,350,117,91,0.004032258064516129,1495.7,1515.3225806451612,1268.0,1500
18.080518007278442,351,97,89,0.007352941176470588,1493.7,1520,1272.0,1500
18.132190227508545,352,122,110,0.020833333333333332,1496.2,1520,1230.0,1500
18.18384599685669,353,94,85,0.013333333333333334,1493.4,1520,1280.0,1500
18.23550510406494,354,98,64,0.00625,1493.8,1520,1300,1500
18.28709101676941,355,131,88,0.002304147465437788,1497.1,1498.041474654378,1274.0,1500
18.338850021362305,356,166,64,0.00011015642211940956,1500.6,1480,1300,1500
18.390482187271118,357,205,72,4.9135220125786166e-05,1504.5,1480,1300,1500
18.442132234573364,358,223,74,4.671587405400355e-05,1506.3,1480,1300,1500
18.49376606941223,359,242,77,5.501760563380282e-05,1508.2,1480,1296.0,1500
18.545467138290405,360,257,89,6.349206349206349e-05,1509.7,1480,1272.0,1500
18.597170114517212,361,262,92,7.628928898382667e-05,1510.2,1480,1266.0,1500
18.648872137069702,362,266,98,8.056719303899453e-05,1510.6,1480,1254.0,1500
18.700589179992676,363,264,106,6.868131868131868e-05,1510.4,1480,1238.0,1500
18.752300024032593,364,252,110,6.089392278650591e-05,1509.2,1480,1230.0,1500
18.80401301383972,365,239,106,5.90318772136954e-05,1507.9,1480,1238.0,1500
18.855854034423828,366,212,93,6.349206349206349e-05,1505.2,1480,1264.0,1500
18.907762050628662,367,197,90,6.25e-05,1503.7,1480,1270.0,1500
18.95947003364563,368,167,73,8.428150021070375e-05,1500.7,1480,1300,1500
19.011287212371826,369,165,80,0.00012608750472828143,1500.5,1480,1290.0,1500
19.063022136688232,370,165,65,0.0005291005291005291,1500.5,1480.2910052910054,1300,1500
19.114739179611206,371,160,48,0.00022426553038797938,1500.0,1480,1300,1500
19.166348218917847,372,187,78,5.828524800373026e-05,1502.7,1480,1294.0,1500
19.218038082122803,373,202,78,4.965489845573266e-05,1504.2,1480,1294.0,1500
19.269740104675293,374,224,79,5.1498609537542483e-05,1506.4,1480,1292.0,1500
19.32159399986267,375,238,78,4.9062898636051415e-05,1507.8,1480,1294.0,1500
19.373297214508057,376,255,84,5.421817393190197e-05,1509.5,1480,1282.0,1500
19.42500615119934,377,263,87,6.0201071579074104e-05,1510.3,1480,1276.0,1500
19.476701021194458,378,272,98,6.991051454138702e-05,1511.2,1480,1254.0,1500
19.52840304374695,379,275,98,7.936507936507937e-05,1511.5,1480,1254.0,1500
19.580204010009766,380,276,99,8.674531575294934e-05,1511.6,1480,1252.0,1500
19.632082223892212,381,275,97,8.51861316977596e-05,1511.5,1480,1256.0,1500
19.68393111228943,382,265,99,6.430041152263375e-05,1510.5,1480,1252.0,1500
19.73567509651184,383,250,95,5.864414731409805e-05,1509.0,1480,1260.0,1500
19.787379026412964,384,221,89,5.309546564723373e-05,1506.1,1480,1272.0,1500
19.839112043380737,385,199,78,5.835667600373483e-05,1503.9,1480,1294.0,1500
19.890812158584595,386,158,65,0.00021786492374727668,1499.8,1480,1300,1500
19.942445039749146,387,146,46,0.0009074410163339383,1498.6,1484.0744101633393,1300,1500
19.994202136993408,388,134,111,0.008333333333333333,1497.4,1520,1228.0,1500
20.04625701904297,389,113,58,0.007575757575757576,1495.3,1520,1300,1500
20.097909212112427,390,116,71,0.011764705882352941,1495.6,1520,1300,1500
20.149521112442017,391,98,69,0.005847953216374269,1493.8,1520,1300,1500
20.20128321647644,392,130,93,0.0021645021645021645,1497.0,1496.6450216450216,1264.0,1500
20.25303602218628,393,175,77,0.00014025245441795232,1501.5,1480,1296.0,1500
20.304726123809814,394,196,75,4.792026068621813e-05,1503.6,1480,1300.0,1500
20.356495141983032,395,221,67,4.71342383107089e-05,1506.1,1480,1300,1500
20.408347129821777,396,236,63,4.98355427090601e-05,1507.6,1480,1300,1500
20.4601092338562,397,250,52,6.787023211619383e-05,1509.0,1480,1300,1500
20.51182508468628,398,254,44,8.481764206955047e-05,1509.4,1480,1300,1500
20.563481092453003,399,259,39,0.00010291242152927858,1509.9,1480,1300,1500
20.61510419845581,400,259,39,0.00010548523206751055,1509.9,1480,1300,1500
20.667046070098877,401,257,43,9.09090909090909e-05,1509.7,1480,1300,1500
20.71871304512024,402,255,53,7.068136839129205e-05,1509.5,1480,1300,1500
20.770373106002808,403,249,66,5.409206469410937e-05,1508.9,1480,1300,1500
20.822039127349854,404,245,76,4.6354239095165254e-05,1508.5,1480,1298.0,1500
20.873751163482666,405,239,89,5.417118093174431e-05,1507.9,1480,1272.0,1500
20.925441026687622,406,238,96,6.611570247933885e-05,1507.8,1480,1258.0,1500
20.97717308998108,407,238,97,6.565126050420168e-05,1507.8,1480,1256.0,1500
21.028919219970703,408,237,91,5.611672278338945e-05,1507.7,1480,1268.0,1500
21.080626010894775,409,236,74,4.694835680751174e-05,1507.6,1480,1300,1500
21.1322660446167,410,235,65,5.301102629346904e-05,1507.5,1480,1300,1500
21.183910131454468,411,236,45,7.631257631257631e-05,1507.6,1480,1300,1500
21.23554515838623,412,236,33,0.00010585371017254155,1507.6,1480,1300,1500
21.287139177322388,413,281,20,0.0007309941520467836,1512.1,1482.3099415204679,1300,1500
21.338841199874878,414,279,19,0.0015479876160990713,1511.9,1490.4798761609907,1300,1500
21.39062809944153,415,279,23,0.00196078431372549,1511.9,1494.6078431372548,1300,1500
21.442538022994995,416,275,31,0.0008223684210526315,1511.5,1483.2236842105262,1300,1500
21.494298219680786,417,264,55,0.0002564102564102564,1510.4,1480,1300,1500
21.545919179916382,418,220,60,6.188501763723002e-05,1506.0,1480,1300,1500
21.597565174102783,419,213,79,4.693513564254201e-05,1505.3,1480,1292.0,1500
21.64928412437439,420,205,85,6.51890482398957e-05,1504.5,1480,1280.0,1500
21.70114016532898,421,203,97,0.000111000111000111,1504.3,1480,1256.0,1500
21.752838134765625,422,199,109,0.002403846153846154,1503.9,1499.0384615384614,1232.0,1500
21.804590225219727,423,179,115,0.003105590062111801,1501.9,1506.055900621118,1220.0,1500
21.856329202651978,424,196,186,0.020833333333333332,1503.6,1520,1200,1500
21.9079430103302,425,165,113,0.03333333333333333,1500.5,1520,1224.0,1500
21.959612131118774,426,173,157,0.047619047619047616,1501.3,1520,1200,1500
22.01126003265381,427,,,,1500.0,1500.0,1250.0,1500
22.062782049179077,428,162,127,0.037037037037037035,1500.2,1520,1200,1500
22.114415168762207,429,194,165,0.03125,1503.4,1520,1200,1500
22.16588306427002,430,,,,1500.0,1500.0,1250.0,1500
22.217209100723267,431,,,,1500.0,1500.0,1250.0,1500
22.268683195114136,432,211,168,0.0625,1505.1,1520,1200,1500
22.320272207260132,433,186,129,0.027777777777777776,1502.6,1520,1200,1500
22.371928215026855,434,189,147,0.05555555555555555,1502.9,1520,1200,1500
22.423771142959595,435,186,155,0.0625,1502.6,1520,1200,1500
22.475419998168945,436,197,149,0.05555555555555555,1503.7,1520,1200,1500
22.527188062667847,437,196,151,0.05,1503.6,1520,1200,1500
22.57878804206848,438,190,157,0.025,1503.0,1520,1200,1500
22.630234003067017,439,,,,1500.0,1500.0,1250.0,1500
22.68156909942627,440,,,,1500.0,1500.0,1250.0,1500
22.7328941822052,441,,,,1500.0,1500.0,1250.0,1500
22.784179210662842,442,,,,1500.0,1500.0,1250.0,1500
22.835483074188232,443,,,,1500.0,1500.0,1250.0,1500
22.886763095855713,444,,,,1500.0,1500.0,1250.0,1500
22.938215017318726,445,179,139,0.05,1501.9,1520,1200,1500
22.98966407775879,446,,,,1500.0,1500.0,1250.0,1500
23.041563034057617,447,,,,1500.0,1500.0,1250.0,1500
23.092888116836548,448,,,,1500.0,1500.0,1250.0,1500
23.144191026687622,449,,,,1500.0,1500.0,1250.0,1500
23.195481061935425,450,,,,1500.0,1500.0,1250.0,1500
23.246777057647705,451,,,,1500.0,1500.0,1250.0,1500
23.29807710647583,452,,,,1500.0,1500.0,1250.0,1500
23.349523067474365,453,185,122,0.05,1502.5,1520,1206.0,1500
23.40133309364319,454,221,130,0.03125,1506.1,1520,1200,1500
23.452928066253662,455,202,105,0.005376344086021506,1504.2,1520,1240.0,1500
23.504578113555908,456,199,70,8.379420144126027e-05,1503.9,1480,1300,1500
23.556198120117188,457,205,66,5.528527200353826e-05,1504.5,1480,1300,1500
23.607858180999756,458,213,60,6.116956202593589e-05,1505.3,1480,1300,1500
23.65953516960144,459,223,59,6.565126050420168e-05,1506.3,1480,1300,1500
23.71132206916809,460,237,67,7.639419404125286e-05,1507.7,1480,1300,1500
23.763009071350098,461,244,71,7.704160246533128e-05,1508.4,1480,1300,1500
23.814658164978027,462,251,71,6.836204539239814e-05,1509.1,1480,1300,1500
23.866308212280273,463,255,78,7.104290991759022e-05,1509.5,1480,1294.0,1500
23.91804599761963,464,258,81,7.194244604316547e-05,1509.8,1480,1288.0,1500
23.969752073287964,465,254,76,7.246376811594203e-05,1509.4,1480,1298.0,1500
24.021599054336548,466,237,68,6.648052120728626e-05,1507.7,1480,1300,1500
24.07326102256775,467,218,63,6.3500127000254e-05,1505.8,1480,1300,1500
24.12493109703064,468,186,59,6.313131313131313e-05,1502.6,1480,1300,1500
24.17658305168152,469,168,55,6.72314105149926e-05,1500.8,1480,1300,1500
24.228203058242798,470,151,57,6.385696040868455e-05,1499.1,1480,1300,1500
24.27997612953186,471,147,59,6.271165182490907e-05,1498.7,1480,1300,1500
24.331767082214355,472,157,58,6.053268765133172e-05,1499.7,1480,1300,1500
24.383409023284912,473,177,62,5.7930714865021436e-05,1501.7,1480,1300,1500
24.435060024261475,474,194,65,5.739539688916949e-05,1503.4,1480,1300,1500
24.48668909072876,475,215,70,5.628729032984352e-05,1505.5,1480,1300,1500
24.538316011428833,476,226,73,5.538325210456358e-05,1506.6,1480,1300,1500
24.590047121047974,477,241,88,5.9417706476530004e-05,1508.1,1480,1274.0,1500
24.641887187957764,478,248,97,6.897978892184589e-05,1508.8,1480,1256.0,1500
24.6936252117157,479,261,118,9.584052137243626e-05,1510.1,1480,1214.0,1500
24.745368003845215,480,253,127,0.00021312872975277067,1509.3,1480,1200,1500
24.797003030776978,481,261,171,0.005050505050505051,1510.1,1520,1200,1500
24.848639011383057,482,220,181,0.047619047619047616,1506.0,1520,1200,1500
24.90011215209961,483,,,,1500.0,1500.0,1250.0,1500
24.951426029205322,484,,,,1500.0,1500.0,1250.0,1500
25.002758026123047,485,,,,1500.0,1500.0,1250.0,1500
25.054092168807983,486,,,,1500.0,1500.0,1250.0,1500
25.105387210845947,487,,,,1500.0,1500.0,1250.0,1500
25.1566801071167,488,,,,1500.0,1500.0,1250.0,1500
25.207983016967773,489,,,,1500.0,1500.0,1250.0,1500
25.25928020477295,490,,,,1500.0,1500.0,1250.0,1500
25.31055212020874,491,,,,1500.0,1500.0,1250.0,1500
25.361845016479492,492,,,,1500.0,1500.0,1250.0,1500
25.41312003135681,493,,,,1500.0,1500.0,1250.0,1500
25.464413166046143,494,,,,1500.0,1500.0,1250.0,1500
25.515690088272095,495,,,,1500.0,1500.0,1250.0,1500
25.566949129104614,496,,,,1500.0,1500.0,1250.0,1500
25.618292093276978,497,,,,1500.0,1500.0,1250.0,1500
25.669573068618774,498,,,,1500.0,1500.0,1250.0,1500
25.721339225769043,499,,,,1500.0,1500.0,1250.0,1500
25.772651195526123,500,,,,1500.0,1500.0,1250.0,1500
25.82389521598816,501,,,,1500.0,1500.0,1250.0,1500
25.875121116638184,502,,,,1500.0,1500.0,1250.0,1500
25.926340103149414,503,,,,1500.0,1500.0,1250.0,1500
25.977607011795044,504,,,,1500.0,1500.0,1250.0,1500
26.028871059417725,505,,,,1500.0,1500.0,1250.0,1500
26.080069065093994,506,,,,1500.0,1500.0,1250.0,1500
26.131580114364624,507,248,127,0.03333333333333333,1508.8,1520,1200,1500
26.18318200111389,508,199,107,0.013888888888888888,1503.9,1520,1236.0,1500
26.23488712310791,509,225,73,0.004761904761904762,1506.5,1520,1300,1500
26.28645920753479,510,188,90,0.002173913043478261,1502.8,1496.7391304347825,1270.0,1500
26.338571071624756,511,233,77,0.005208333333333333,1507.3,1520,1296.0,1500
26.390246152877808,512,211,89,0.002564102564102564,1505.1,1500.6410256410256,1272.0,1500
26.441949129104614,513,233,89,0.0019047619047619048,1507.3,1494.047619047619,1272.0,1500
26.493733167648315,514,195,91,0.0009233610341643582,1503.5,1484.2336103416435,1268.0,1500
26.545465230941772,515,223,75,0.001006036217303823,1506.3,1485.0603621730381,1300.0,1500
26.59725308418274,516,223,100,0.0005537098560354374,1506.3,1480.5370985603545,1250.0,1500
26.648964166641235,517,223,76,0.00033967391304347825,1506.3,1480,1298.0,1500
26.700594186782837,518,203,88,0.00011837121212121212,1504.3,1480,1274.0,1500
26.75227403640747,519,208,85,0.00014742739200943535,1504.8,1480,1280.0,1500
26.804018020629883,520,213,95,0.00010427528675703858,1505.3,1480,1260.0,1500
26.855720043182373,521,220,97,0.0001050420168067227,1506.0,1480,1256.0,1500
26.907381057739258,522,224,90,0.00012165450121654502,1506.4,1480,1270.0,1500
26.959068059921265,523,231,86,0.00015686274509803922,1507.1,1480,1278.0,1500
27.010822057724,524,228,95,9.691800736576855e-05,1506.8,1480,1260.0,1500
27.06274700164795,525,226,94,9.169264624977077e-05,1506.6,1480,1262.0,1500
27.11448311805725,526,226,83,0.00014518002322880372,1506.6,1480,1284.0,1500
27.166208028793335,527,219,85,0.00010751532093323298,1505.9,1480,1280.0,1500
27.217905044555664,528,215,92,0.00010199918400652795,1505.5,1480,1266.0,1500
27.269607067108154,529,207,83,0.00010131712259371833,1504.7,1480,1284.0,1500
27.32143211364746,530,205,84,9.674922600619196e-05,1504.5,1480,1282.0,1500
27.373148202896118,531,199,83,0.00010537407797681771,1503.9,1480,1284.0,1500
27.42482900619507,532,203,89,9.71534052268532e-05,1504.3,1480,1272.0,1500
27.47651219367981,533,199,93,7.109847138286527e-05,1503.9,1480,1264.0,1500
27.528208017349243,534,193,88,7.61208799573723e-05,1503.3,1480,1274.0,1500
27.580050230026245,535,192,87,7.599939200486396e-05,1503.2,1480,1276.0,1500
27.63191318511963,536,193,87,0.00011002310485201893,1503.3,1480,1276.0,1500
27.683635234832764,537,218,78,0.00023126734505087883,1505.8,1480,1294.0,1500
27.73536705970764,538,227,90,0.00014925373134328358,1506.7,1480,1270.0,1500
27.787063121795654,539,213,83,0.0001231527093596059,1505.3,1480,1284.0,1500
27.8390212059021,540,223,90,8.210180623973728e-05,1506.3,1480,1270.0,1500
27.89100217819214,541,225,84,8.03793907242183e-05,1506.5,1480,1282.0,1500
27.94293713569641,542,233,86,7.246376811594203e-05,1507.3,1480,1278.0,1500
27.994904041290283,543,239,92,6.663113006396588e-05,1507.9,1480,1266.0,1500
28.04691505432129,544,244,88,8.35421888053467e-05,1508.4,1480,1274.0,1500
28.098875999450684,545,245,95,8.950948800572861e-05,1508.5,1480,1260.0,1500
28.150827169418335,546,247,99,0.00011138338159946537,1508.7,1480,1252.0,1500
28.20279812812805,547,236,99,0.0001490757304710793,1507.6,1480,1252.0,1500
28.25475311279297,548,232,97,0.00011934598400763814,1507.2,1480,1256.0,1500
28.306703090667725,549,224,98,9.718172983479106e-05,1506.4,1480,1254.0,1500
28.358694076538086,550,208,100,7.748934521503293e-05,1504.8,1480,1250.0,1500
28.410654067993164,551,193,99,6.757669955399378e-05,1503.3,1480,1252.0,1500
28.462627172470093,552,175,83,0.00010974539069359087,1501.5,1480,1284.0,1500
28.514592170715332,553,179,72,0.0004591368227731864,1501.9,1480,1300,1500
28.566492080688477,554,187,87,0.0038314176245210726,1502.7,1513.3141762452108,1276.0,1500
28.61854314804077,555,152,89,0.0007215007215007215,1499.2,1482.2150072150073,1272.0,1500
28.6705961227417,556,188,99,0.000663129973474801,1502.8,1481.631299734748,1252.0,1500
28.722650051116943,557,172,80,0.00011947431302270011,1501.2,1480,1290.0,1500
28.77463722229004,558,187,84,7.266913741733885e-05,1502.7,1480,1282.0,1500
28.826601028442383,559,205,83,6.836204539239814e-05,1504.5,1480,1284.0,1500
28.878583192825317,560,217,87,6.481301445330222e-05,1505.7,1480,1276.0,1500
28.930533170700073,561,233,86,7.710694733595497e-05,1507.3,1480,1278.0,1500
28.982530117034912,562,242,90,8.400537634408603e-05,1508.2,1480,1270.0,1500
29.03483819961548,563,254,102,8.520064752492119e-05,1509.4,1480,1246.0,1500
29.08684206008911,564,256,99,0.00010248001639680262,1509.6,1480,1252.0,1500
29.13878607749939,565,258,94,0.00014249073810202338,1509.8,1480,1262.0,1500
29.190742015838623,566,256,105,0.0001016260162601626,1509.6,1480,1240.0,1500
29.242711067199707,567,246,105,9.377344336084021e-05,1508.6,1480,1240.0,1500
29.294665098190308,568,242,99,9.527439024390244e-05,1508.2,1480,1252.0,1500
29.346606016159058,569,228,92,8.707767328456984e-05,1506.8,1480,1266.0,1500
29.39859700202942,570,216,96,6.420133538777607e-05,1505.6,1480,1258.0,1500
29.450576066970825,571,210,79,7.891414141414142e-05,1505.0,1480,1292.0,1500
29.502533197402954,572,202,74,7.633587786259542e-05,1504.2,1480,1300,1500
29.554432153701782,573,198,81,6.939625260235948e-05,1503.8,1480,1288.0,1500
29.60641121864319,574,192,88,5.448403617740002e-05,1503.2,1480,1274.0,1500
29.658388137817383,575,191,89,5.341880341880342e-05,1503.1,1480,1272.0,1500
29.71033811569214,576,185,92,5.292685508627077e-05,1502.5,1480,1266.0,1500
29.76234006881714,577,183,93,5.0339793606846214e-05,1502.3,1480,1264.0,1500
29.814301013946533,578,179,75,9.155832265152902e-05,1501.9,1480,1300.0,1500
29.86628818511963,579,183,81,8.451656524678837e-05,1502.3,1480,1288.0,1500
29.918248176574707,580,189,84,8.845643520566122e-05,1502.9,1480,1282.0,1500
29.970235109329224,581,198,96,7.751937984496124e-05,1503.8,1480,1258.0,1500
30.022237062454224,582,204,90,8.608815426997245e-05,1504.4,1480,1270.0,1500
30.074236154556274,583,208,94,7.014590347923682e-05,1504.8,1480,1262.0,1500
30.126198053359985,584,216,105,5.0276520864756156e-05,1505.6,1480,1240.0,1500
30.17817211151123,585,223,93,5.456430403230207e-05,1506.3,1480,1264.0,1500
30.23012900352478,586,225,78,5.5029716046665196e-05,1506.5,1480,1294.0,1500
30.2821102142334,587,225,72,6.0496067755595884e-05,1506.5,1480,1300,1500
30.33402705192566,588,224,65,6.825006825006825e-05,1506.4,1480,1300,1500
30.38594913482666,589,221,61,7.458790184232118e-05,1506.1,1480,1300,1500
30.4379620552063,590,216,58,7.846829880728186e-05,1505.6,1480,1300,1500
30.489988088607788,591,207,58,7.566585956416465e-05,1504.7,1480,1300,1500
30.542001008987427,592,198,59,7.121492664862555e-05,1503.8,1480,1300,1500
30.59388303756714,593,186,62,6.557377049180328e-05,1502.6,1480,1300,1500
30.6457622051239,594,178,64,6.201550387596899e-05,1501.8,1480,1300,1500
30.697662115097046,595,168,70,5.5407801418439715e-05,1500.8,1480,1300,1500
30.749605178833008,596,164,73,5.3625053625053626e-05,1500.4,1480,1300,1500
30.80164623260498,597,152,56,8.849557522123894e-05,1499.2,1480,1300,1500
30.853727102279663,598,144,53,0.00012012012012012012,1498.4,1480,1300,1500
30.905643224716187,599,162,55,0.000392156862745098,1500.2,1480,1300,1500
30.95754623413086,600,155,76,0.00018221574344023323,1499.5,1480,1298.0,1500
31.009541034698486,601,166,55,0.00011761938367442955,1500.6,1480,1300,1500
31.06155300140381,602,194,82,0.0007836990595611285,1503.4,1482.8369905956113,1286.0,1500
31.113550186157227,603,178,42,0.00390625,1501.8,1514.0625,1300,1500
31.165484189987183,604,136,59,0.00909090909090909,1497.6,1520,1300,1500
31.217379093170166,605,121,92,0.027777777777777776,1496.1,1520,1266.0,1500
31.269180059432983,606,,,,1500.0,1500.0,1250.0,1500
31.320749044418335,607,,,,1500.0,1500.0,1250.0,1500
31.372303009033203,608,,,,1500.0,1500.0,1250.0,1500
31.42385721206665,609,,,,1500.0,1500.0,1250.0,1500
31.475394010543823,610,,,,1500.0,1500.0,1250.0,1500
31.526945114135742,611,,,,1500.0,1500.0,1250.0,1500
31.5784912109375,612,,,,1500.0,1500.0,1250.0,1500
31.63002109527588,613,,,,1500.0,1500.0,1250.0,1500
31.68158721923828,614,,,,1500.0,1500.0,1250.0,1500
31.733309030532837,615,,,,1500.0,1500.0,1250.0,1500
31.78486204147339,616,,,,1500.0,1500.0,1250.0,1500
31.836419105529785,617,,,,1500.0,1500.0,1250.0,1500
31.887962102890015,618,,,,1500.0,1500.0,1250.0,1500
31.93950605392456,619,,,,1500.0,1500.0,1250.0,1500
31.991135120391846,620,,,,1500.0,1500.0,1250.0,1500
32.0430121421814,621,,,,1500.0,1500.0,1250.0,1500
32.094579219818115,622,,,,1500.0,1500.0,1250.0,1500
32.14610505104065,623,,,,1500.0,1500.0,1250.0,1500
32.197654008865356,624,,,,1500.0,1500.0,1250.0,1500
32.24919605255127,625,,,,1500.0,1500.0,1250.0,1500
32.300719022750854,626,,,,1500.0,1500.0,1250.0,1500
32.35225009918213,627,,,,1500.0,1500.0,1250.0,1500
32.40379500389099,628,,,,1500.0,1500.0,1250.0,1500
32.455371141433716,629,,,,1500.0,1500.0,1250.0,1500
32.5072181224823,630,,,,1500.0,1500.0,1250.0,1500
32.558810234069824,631,,,,1500.0,1500.0,1250.0,1500
32.6103720664978,632,,,,1500.0,1500.0,1250.0,1500
32.6619291305542,633,,,,1500.0,1500.0,1250.0,1500
32.71348714828491,634,,,,1500.0,1500.0,1250.0,1500
32.76504111289978,635,,,,1500.0,1500.0,1250.0,1500
32.8165922164917,636,,,,1500.0,1500.0,1250.0,1500
32.868141174316406,637,,,,1500.0,1500.0,1250.0,1500
32.91968107223511,638,,,,1500.0,1500.0,1250.0,1500
32.97131705284119,639,,,,1500.0,1500.0,1250.0,1500
33.02293515205383,640,,,,1500.0,1500.0,1250.0,1500
33.074475049972534,641,,,,1500.0,1500.0,1250.0,1500
33.12610602378845,642,,,,1500.0,1500.0,1250.0,1500
33.177659034729004,643,,,,1500.0,1500.0,1250.0,1500
33.22928810119629,644,,,,1500.0,1500.0,1250.0,1500
33.28102707862854,645,,,,1500.0,1500.0,1250.0,1500
33.33255910873413,646,,,,1500.0,1500.0,1250.0,1500
33.38415312767029,647,,,,1500.0,1500.0,1250.0,1500
33.43570423126221,648,,,,1500.0,1500.0,1250.0,1500
33.48723912239075,649,,,,1500.0,1500.0,1250.0,1500
33.53877115249634,650,,,,1500.0,1500.0,1250.0,1500
33.59030222892761,651,,,,1500.0,1500.0,1250.0,1500
33.641881227493286,652,,,,1500.0,1500.0,1250.0,1500
33.69342303276062,653,,,,1500.0,1500.0,1250.0,1500
33.7449951171875,654,,,,1500.0,1500.0,1250.0,1500
33.79654407501221,655,,,,1500.0,1500.0,1250.0,1500
33.848164081573486,656,,,,1500.0,1500.0,1250.0,1500
33.89971208572388,657,,,,1500.0,1500.0,1250.0,1500
33.951343059539795,658,,,,1500.0,1500.0,1250.0,1500
34.00300216674805,659,,,,1500.0,1500.0,1250.0,1500
34.0546510219574,660,,,,1500.0,1500.0,1250.0,1500
34.10628414154053,661,,,,1500.0,1500.0,1250.0,1500
34.15795111656189,662,,,,1500.0,1500.0,1250.0,1500
34.20953822135925,663,,,,1500.0,1500.0,1250.0,1500
34.261155128479004,664,,,,1500.0,1500.0,1250.0,1500
