time,frame,x,y,size_inv,roll,pitch,thrust,yaw
0.000701904296875,1,166,81,0.002717391304347826,1505.25,1490.0,1379.75,1500
0.023671865463256836,2,165,81,0.0030303030303030303,1505.125,1496.5711462450593,1379.75,1500
0.04609799385070801,3,166,81,0.0026041666666666665,1506.625,1487.6222826086957,1379.75,1500
0.06844305992126465,4,164,81,0.0035087719298245615,1505.625,1506.6189931350114,1379.75,1500
0.09067082405090332,5,166,81,0.002717391304347826,1507.875,1490.0,1379.75,1500
0.11280202865600586,6,166,81,0.002717391304347826,1508.625,1490.0,1379.75,1500
0.13493800163269043,7,166,81,0.002898550724637681,1509.375,1493.804347826087,1379.75,1500
0.15712785720825195,8,167,81,0.0025,1511.0,1485.4347826086957,1379.75,1500
0.17928290367126465,9,166,81,0.002777777777777778,1511.0,1491.268115942029,1379.75,1500
0.20159196853637695,10,166,81,0.002898550724637681,1511.75,1493.804347826087,1379.75,1500
0.22427582740783691,11,165,81,0.0030303030303030303,1510.875,1496.5711462450593,1379.75,1500
0.24717998504638672,12,166,81,0.002898550724637681,1511.75,1493.804347826087,1379.75,1500
0.27003002166748047,13,166,81,0.0026041666666666665,1511.75,1487.6222826086957,1379.75,1500
0.2930300235748291,14,166,81,0.002717391304347826,1512.0,1490.0,1379.75,1500
0.3158700466156006,15,166,81,0.0026041666666666665,1512.0,1487.6222826086957,1379.75,1500
0.33892297744750977,16,167,81,0.0026666666666666666,1512.875,1488.9347826086957,1379.75,1500
0.3619809150695801,17,167,81,0.0025,1513.0,1485.4347826086957,1379.75,1500
0.38486194610595703,18,166,81,0.0030303030303030303,1512.125,1496.5711462450593,1379.75,1500
0.40776991844177246,19,168,82,0.002777777777777778,1513.875,1491.268115942029,1379.5,1500
0.4306788444519043,20,168,82,0.002840909090909091,1514.125,1492.5938735177865,1379.5,1500
0.45363688468933105,21,169,84,0.0030303030303030303,1515.375,1496.5711462450593,1379.0,1500
0.47646093368530273,22,170,85,0.0026041666666666665,1516.625,1487.6222826086957,1378.75,1500
0.4993250370025635,23,170,86,0.002898550724637681,1517.125,1493.804347826087,1378.5,1500
0.5221560001373291,24,170,87,0.002898550724637681,1517.625,1493.804347826087,1378.25,1500
0.545029878616333,25,171,84,0.005714285714285714,1519.0,1510,1379.0,1500
0.5677468776702881,26,172,88,0.003289473684210526,1520.375,1502.0137299771168,1378.0,1500
0.5906848907470703,27,170,89,0.0030303030303030303,1519.25,1496.5711462450593,1377.75,1500
0.6136088371276855,28,169,90,0.0030303030303030303,1518.875,1496.5711462450593,1377.5,1500
0.6364898681640625,29,170,90,0.002898550724637681,1519.875,1493.804347826087,1377.5,1500
0.6593470573425293,30,170,90,0.002898550724637681,1520.125,1493.804347826087,1377.5,1500
0.682222843170166,31,170,90,0.002898550724637681,1520.25,1493.804347826087,1377.5,1500
0.7050440311431885,32,170,90,0.002898550724637681,1520.25,1493.804347826087,1377.5,1500
0.7279410362243652,33,170,90,0.002898550724637681,1520.25,1493.804347826087,1377.5,1500
0.7508840560913086,34,170,90,0.002898550724637681,1520.25,1493.804347826087,1377.5,1500
0.7737908363342285,35,170,90,0.002898550724637681,1520.125,1493.804347826087,1377.5,1500
0.7966940402984619,36,170,90,0.002898550724637681,1519.875,1493.804347826087,1377.5,1500
0.8197510242462158,37,170,90,0.002898550724637681,1519.875,1493.804347826087,1377.5,1500
0.8432798385620117,38,170,90,0.002898550724637681,1520.0,1493.804347826087,1377.5,1500
0.8662669658660889,39,170,90,0.002898550724637681,1520.0,1493.804347826087,1377.5,1500
0.8891408443450928,40,170,90,0.002898550724637681,1520.0,1493.804347826087,1377.5,1500
0.9120008945465088,41,170,90,0.002898550724637681,1520.0,1493.804347826087,1377.5,1500
0.9348049163818359,42,170,90,0.002898550724637681,1520.0,1493.804347826087,1377.5,1500
0.9576759338378906,43,170,90,0.002898550724637681,1520.0,1493.804347826087,1377.5,1500
0.9806790351867676,44,170,90,0.002898550724637681,1520.0,1493.804347826087,1377.5,1500
1.0038089752197266,45,170,90,0.002898550724637681,1520.0,1493.804347826087,1377.5,1500
1.026681900024414,46,170,90,0.002898550724637681,1520.0,1493.804347826087,1377.5,1500
1.0498719215393066,47,170,90,0.002898550724637681,1520.0,1493.804347826087,1377.5,1500
1.0743160247802734,48,170,90,0.002898550724637681,1520.0,1493.804347826087,1377.5,1500
1.0972769260406494,49,170,90,0.002898550724637681,1520.0,1493.804347826087,1377.5,1500
1.1201999187469482,50,170,90,0.002898550724637681,1520.0,1493.804347826087,1377.5,1500
1.143218994140625,51,170,90,0.002898550724637681,1520.0,1493.804347826087,1377.5,1500
1.1660339832305908,52,170,90,0.002898550724637681,1520.0,1493.804347826087,1377.5,1500
1.1888618469238281,53,170,90,0.002898550724637681,1520.0,1493.804347826087,1377.5,1500
1.2116339206695557,54,170,90,0.002898550724637681,1520.0,1493.804347826087,1377.5,1500
1.2344670295715332,55,170,90,0.002898550724637681,1520.0,1493.804347826087,1377.5,1500
1.2572519779205322,56,170,90,0.002898550724637681,1520.0,1493.804347826087,1377.5,1500
1.2801368236541748,57,170,90,0.002898550724637681,1520.0,1493.804347826087,1377.5,1500
1.3030269145965576,58,170,90,0.002898550724637681,1520.0,1493.804347826087,1377.5,1500
1.325873851776123,59,170,90,0.002898550724637681,1520.0,1493.804347826087,1377.5,1500
1.3486709594726562,60,170,90,0.002898550724637681,1520.0,1493.804347826087,1377.5,1500
1.3715300559997559,61,170,90,0.002898550724637681,1520.0,1493.804347826087,1377.5,1500
1.3943400382995605,62,170,90,0.002898550724637681,1520.0,1493.804347826087,1377.5,1500
1.4171829223632812,63,170,90,0.002898550724637681,1520.0,1493.804347826087,1377.5,1500
1.4399669170379639,64,170,90,0.002898550724637681,1520.0,1493.804347826087,1377.5,1500
1.4629569053649902,65,170,90,0.002898550724637681,1520.0,1493.804347826087,1377.5,1500
1.4857368469238281,66,170,90,0.002898550724637681,1520.0,1493.804347826087,1377.5,1500
1.508551836013794,67,170,90,0.002898550724637681,1520.0,1493.804347826087,1377.5,1500
1.531322956085205,68,170,90,0.002898550724637681,1520.0,1493.804347826087,1377.5,1500
1.5542569160461426,69,170,90,0.002898550724637681,1520.0,1493.804347826087,1377.5,1500
1.577327013015747,70,170,90,0.002898550724637681,1520.0,1493.804347826087,1377.5,1500
1.600294828414917,71,170,90,0.002898550724637681,1520.0,1493.804347826087,1377.5,1500
1.6231930255889893,72,170,90,0.002898550724637681,1520.0,1493.804347826087,1377.5,1500
1.6460719108581543,73,170,90,0.002898550724637681,1520.0,1493.804347826087,1377.5,1500
1.6688649654388428,74,170,90,0.002898550724637681,1520.0,1493.804347826087,1377.5,1500
1.691701889038086,75,170,90,0.002898550724637681,1520.0,1493.804347826087,1377.5,1500
1.7144889831542969,76,170,90,0.002898550724637681,1520.0,1493.804347826087,1377.5,1500
1.737333059310913,77,170,90,0.002898550724637681,1520.0,1493.804347826087,1377.5,1500
1.760213851928711,78,170,90,0.002898550724637681,1520.0,1493.804347826087,1377.5,1500
1.783236026763916,79,170,90,0.002898550724637681,1520.0,1493.804347826087,1377.5,1500
1.8063440322875977,80,170,90,0.002898550724637681,1520.0,1493.804347826087,1377.5,1500
1.8293418884277344,81,170,90,0.002898550724637681,1520.0,1493.804347826087,1377.5,1500
1.8524279594421387,82,170,90,0.002898550724637681,1520.0,1493.804347826087,1377.5,1500
1.8753249645233154,83,170,90,0.002898550724637681,1520.0,1493.804347826087,1377.5,1500
1.898144006729126,84,170,90,0.002898550724637681,1520.0,1493.804347826087,1377.5,1500
1.9231748580932617,85,170,90,0.002898550724637681,1520.0,1493.804347826087,1377.5,1500
1.946936845779419,86,170,90,0.002898550724637681,1520.0,1493.804347826087,1377.5,1500
1.9702868461608887,87,170,90,0.002898550724637681,1520.0,1493.804347826087,1377.5,1500
1.993340015411377,88,170,90,0.002898550724637681,1520.0,1493.804347826087,1377.5,1500
2.016268014907837,89,170,90,0.002898550724637681,1520.0,1493.804347826087,1377.5,1500
2.0391180515289307,90,170,90,0.002898550724637681,1520.0,1493.804347826087,1377.5,1500
2.062013864517212,91,170,90,0.002898550724637681,1520.0,1493.804347826087,1377.5,1500
2.084836959838867,92,170,90,0.002898550724637681,1520.0,1493.804347826087,1377.5,1500
2.1076810359954834,93,170,90,0.002898550724637681,1520.0,1493.804347826087,1377.5,1500
2.1308419704437256,94,170,90,0.002898550724637681,1520.0,1493.804347826087,1377.5,1500
