time,frame,x,y,size_inv,roll,pitch,thrust,yaw
0.0002830028533935547,1,156,80,0.006666666666666667,1499.5999999999999,1490.0,1410.0,1500
0.021915912628173828,2,156,80,0.006666666666666667,1499.5999999999999,1490.0,1410.0,1500
0.0432589054107666,3,156,80,0.006666666666666667,1499.5999999999999,1490.0,1410.0,1500
0.06450009346008301,4,156,80,0.006666666666666667,1499.5999999999999,1490.0,1410.0,1500
0.08567404747009277,5,156,81,0.005681818181818182,1499.5999999999999,1470.3030303030303,1409.5,1500
0.10680508613586426,6,156,80,0.006666666666666667,1499.5999999999999,1490.0,1410.0,1500
0.12793993949890137,7,156,80,0.006666666666666667,1499.5999999999999,1490.0,1410.0,1500
0.14914894104003906,8,156,80,0.006666666666666667,1499.5999999999999,1490.0,1410.0,1500
0.17030000686645508,9,156,80,0.006666666666666667,1499.5999999999999,1490.0,1410.0,1500
0.19145894050598145,10,156,80,0.006666666666666667,1499.5999999999999,1490.0,1410.0,1500
0.2128889560699463,11,156,80,0.006666666666666667,1499.5999999999999,1490.0,1410.0,1500
0.23451590538024902,12,156,81,0.005681818181818182,1499.5999999999999,1470.3030303030303,1409.5,1500
0.2561049461364746,13,156,80,0.006666666666666667,1499.5999999999999,1490.0,1410.0,1500
0.2776219844818115,14,156,80,0.006666666666666667,1499.5999999999999,1490.0,1410.0,1500
0.2991518974304199,15,156,80,0.006666666666666667,1499.5999999999999,1490.0,1410.0,1500
0.3206520080566406,16,156,80,0.006666666666666667,1499.5999999999999,1490.0,1410.0,1500
0.3421900272369385,17,156,81,0.006060606060606061,1499.5999999999999,1477.8787878787878,1409.5,1500
0.36371493339538574,18,156,80,0.006666666666666667,1499.5999999999999,1490.0,1410.0,1500
0.3852519989013672,19,156,81,0.006060606060606061,1499.5999999999999,1477.8787878787878,1409.5,1500
0.40676403045654297,20,156,81,0.006060606060606061,1499.5999999999999,1477.8787878787878,1409.5,1500
0.4283111095428467,21,156,81,0.006060606060606061,1499.5999999999999,1477.8787878787878,1409.5,1500
0.4498250484466553,22,156,80,0.006666666666666667,1499.5999999999999,1490.0,1410.0,1500
0.47143101692199707,23,156,81,0.005681818181818182,1499.5999999999999,1470.3030303030303,1409.5,1500
0.4931650161743164,24,156,80,0.006666666666666667,1499.5999999999999,1490.0,1410.0,1500
0.5147790908813477,25,156,80,0.006666666666666667,1499.5999999999999,1490.0,1410.0,1500
0.5362880229949951,26,156,80,0.006666666666666667,1499.5999999999999,1490.0,1410.0,1500
0.5578179359436035,27,156,80,0.006666666666666667,1499.5999999999999,1490.0,1410.0,1500
0.5793271064758301,28,156,80,0.006666666666666667,1499.5999999999999,1490.0,1410.0,1500
0.6008739471435547,29,156,80,0.006666666666666667,1499.5999999999999,1490.0,1410.0,1500
0.6223800182342529,30,156,81,0.005681818181818182,1499.5999999999999,1470.3030303030303,1409.5,1500
0.6439189910888672,31,156,81,0.006060606060606061,1499.5999999999999,1477.8787878787878,1409.5,1500
0.6654219627380371,32,156,80,0.006666666666666667,1499.5999999999999,1490.0,1410.0,1500
0.6869559288024902,33,156,80,0.006666666666666667,1499.5999999999999,1490.0,1410.0,1500
0.7084541320800781,34,156,81,0.006060606060606061,1499.5999999999999,1477.8787878787878,1409.5,1500
0.7299940586090088,35,156,80,0.006666666666666667,1499.5999999999999,1490.0,1410.0,1500
0.7515079975128174,36,156,81,0.006060606060606061,1499.5999999999999,1477.8787878787878,1409.5,1500
0.773090124130249,37,156,81,0.005681818181818182,1499.5999999999999,1470.3030303030303,1409.5,1500
0.7946610450744629,38,156,81,0.006060606060606061,1499.5999999999999,1477.8787878787878,1409.5,1500
0.8162100315093994,39,156,81,0.005681818181818182,1499.5999999999999,1470.3030303030303,1409.5,1500
0.8377370834350586,40,155,80,0.007142857142857143,1499.5,1499.5238095238094,1410.0,1500
0.8592650890350342,41,156,80,0.006666666666666667,1499.5999999999999,1490.0,1410.0,1500
0.8807840347290039,42,156,81,0.006060606060606061,1499.5999999999999,1477.8787878787878,1409.5,1500
0.9023280143737793,43,155,80,0.007142857142857143,1499.5,1499.5238095238094,1410.0,1500
0.9238400459289551,44,156,81,0.006060606060606061,1499.5999999999999,1477.8787878787878,1409.5,1500
0.9456069469451904,45,156,80,0.006666666666666667,1499.5999999999999,1490.0,1410.0,1500
0.9671330451965332,46,156,81,0.005681818181818182,1499.5999999999999,1470.3030303030303,1409.5,1500
0.9886860847473145,47,156,81,0.005681818181818182,1499.5999999999999,1470.3030303030303,1409.5,1500
1.0101969242095947,48,156,80,0.006666666666666667,1499.5999999999999,1490.0,1410.0,1500
1.0317280292510986,49,156,80,0.006666666666666667,1499.5999999999999,1490.0,1410.0,1500
1.053267002105713,50,156,80,0.006666666666666667,1499.5999999999999,1490.0,1410.0,1500
1.0748701095581055,51,156,80,0.006666666666666667,1499.5999999999999,1490.0,1410.0,1500
1.0963850021362305,52,156,81,0.006060606060606061,1499.5999999999999,1477.8787878787878,1409.5,1500
1.1179349422454834,53,156,81,0.006060606060606061,1499.5999999999999,1477.8787878787878,1409.5,1500
1.1394460201263428,54,156,81,0.005681818181818182,1499.5999999999999,1470.3030303030303,1409.5,1500
1.160991907119751,55,156,80,0.006666666666666667,1499.5999999999999,1490.0,1410.0,1500
1.182513952255249,56,156,81,0.005681818181818182,1499.5999999999999,1470.3030303030303,1409.5,1500
1.2040419578552246,57,155,80,0.007142857142857143,1499.5,1499.5238095238094,1410.0,1500
1.2255630493164062,58,156,80,0.006666666666666667,1499.5999999999999,1490.0,1410.0,1500
1.2471790313720703,59,156,81,0.005681818181818182,1499.5999999999999,1470.3030303030303,1409.5,1500
1.2687270641326904,60,156,81,0.005681818181818182,1499.5999999999999,1470.3030303030303,1409.5,1500
1.290241003036499,61,156,81,0.006060606060606061,1499.5999999999999,1477.8787878787878,1409.5,1500
1.3117899894714355,62,156,80,0.006666666666666667,1499.5999999999999,1490.0,1410.0,1500
1.3333349227905273,63,156,81,0.006060606060606061,1499.5999999999999,1477.8787878787878,1409.5,1500
1.35493803024292,64,156,81,0.006060606060606061,1499.5999999999999,1477.8787878787878,1409.5,1500
1.376452922821045,65,156,80,0.006666666666666667,1499.5999999999999,1490.0,1410.0,1500
1.397974967956543,66,156,80,0.006666666666666667,1499.5999999999999,1490.0,1410.0,1500
1.419477939605713,67,156,80,0.006666666666666667,1499.5999999999999,1490.0,1410.0,1500
1.4410090446472168,68,156,81,0.005681818181818182,1499.5999999999999,1470.3030303030303,1409.5,1500
1.4625189304351807,69,156,80,0.006666666666666667,1499.5999999999999,1490.0,1410.0,1500
1.484039068222046,70,156,80,0.006666666666666667,1499.5999999999999,1490.0,1410.0,1500
1.5055389404296875,71,156,80,0.006666666666666667,1499.5999999999999,1490.0,1410.0,1500
1.5270631313323975,72,156,80,0.006666666666666667,1499.5999999999999,1490.0,1410.0,1500
1.5485689640045166,73,156,80,0.006666666666666667,1499.5999999999999,1490.0,1410.0,1500
1.5700969696044922,74,156,80,0.006666666666666667,1499.5999999999999,1490.0,1410.0,1500
1.591644048690796,75,156,80,0.006666666666666667,1499.5999999999999,1490.0,1410.0,1500
1.6133160591125488,76,156,80,0.006666666666666667,1499.5999999999999,1490.0,1410.0,1500
1.6348989009857178,77,156,80,0.006666666666666667,1499.5999999999999,1490.0,1410.0,1500
1.656454086303711,78,156,80,0.006666666666666667,1499.5999999999999,1490.0,1410.0,1500
1.67795991897583,79,156,80,0.006666666666666667,1499.5999999999999,1490.0,1410.0,1500
1.6994991302490234,80,156,81,0.005681818181818182,1499.5999999999999,1470.3030303030303,1409.5,1500
1.7210240364074707,81,156,80,0.006666666666666667,1499.5999999999999,1490.0,1410.0,1500
1.7425639629364014,82,156,80,0.006666666666666667,1499.5999999999999,1490.0,1410.0,1500
1.7640929222106934,83,156,80,0.006666666666666667,1499.5999999999999,1490.0,1410.0,1500
1.78568696975708,84,156,80,0.006666666666666667,1499.5999999999999,1490.0,1410.0,1500
1.8073570728302002,85,156,80,0.006666666666666667,1499.5999999999999,1490.0,1410.0,1500
1.828913927078247,86,156,81,0.005681818181818182,1499.5999999999999,1470.3030303030303,1409.5,1500
1.8504459857940674,87,156,80,0.006666666666666667,1499.5999999999999,1490.0,1410.0,1500
1.871980905532837,88,156,81,0.005681818181818182,1499.5999999999999,1470.3030303030303,1409.5,1500
1.8937010765075684,89,155,80,0.007142857142857143,1499.5,1499.5238095238094,1410.0,1500
1.9152500629425049,90,156,81,0.005681818181818182,1499.5999999999999,1470.3030303030303,1409.5,1500
1.9367671012878418,91,156,81,0.005681818181818182,1499.5999999999999,1470.3030303030303,1409.5,1500
1.9583101272583008,92,155,80,0.007142857142857143,1499.5,1499.5238095238094,1410.0,1500
1.9798309803009033,93,156,80,0.006666666666666667,1499.5999999999999,1490.0,1410.0,1500
2.0013539791107178,94,156,80,0.006060606060606061,1499.5999999999999,1477.8787878787878,1410.0,1500
2.022855043411255,95,156,80,0.006666666666666667,1499.5999999999999,1490.0,1410.0,1500
2.0444729328155518,96,156,80,0.006666666666666667,1499.5999999999999,1490.0,1410.0,1500
2.0660159587860107,97,156,80,0.006666666666666667,1499.5999999999999,1490.0,1410.0,1500
2.087583065032959,98,156,80,0.00625,1499.5999999999999,1481.6666666666667,1410.0,1500
2.1090900897979736,99,156,80,0.006666666666666667,1499.5999999999999,1490.0,1410.0,1500
2.1306400299072266,100,156,80,0.006666666666666667,1499.5999999999999,1490.0,1410.0,1500
2.1521549224853516,101,156,80,0.006666666666666667,1499.5999999999999,1490.0,1410.0,1500
2.1736960411071777,102,156,80,0.006666666666666667,1499.5999999999999,1490.0,1410.0,1500
2.195190906524658,103,156,80,0.006060606060606061,1499.5999999999999,1477.8787878787878,1410.0,1500
2.2167201042175293,104,156,80,0.006666666666666667,1499.5999999999999,1490.0,1410.0,1500
2.2382071018218994,105,156,80,0.006666666666666667,1499.5999999999999,1490.0,1410.0,1500
2.2597310543060303,106,156,80,0.006666666666666667,1499.5999999999999,1490.0,1410.0,1500
2.2812108993530273,107,156,81,0.005681818181818182,1499.5999999999999,1470.3030303030303,1409.5,1500
2.302717924118042,108,156,80,0.006666666666666667,1499.5999999999999,1490.0,1410.0,1500
2.3241939544677734,109,155,80,0.007142857142857143,1499.5,1499.5238095238094,1410.0,1500
2.345716953277588,110,156,80,0.006666666666666667,1499.5999999999999,1490.0,1410.0,1500
2.3672261238098145,111,156,80,0.006666666666666667,1499.5999999999999,1490.0,1410.0,1500
2.3887529373168945,112,155,80,0.006666666666666667,1499.5,1490.0,1410.0,1500
2.410228967666626,113,155,80,0.006666666666666667,1499.5,1490.0,1410.0,1500
2.431736946105957,114,155,80,0.006666666666666667,1499.5,1490.0,1410.0,1500
2.453242063522339,115,155,80,0.006666666666666667,1499.5,1490.0,1410.0,1500
2.4748659133911133,116,155,80,0.006666666666666667,1499.5,1490.0,1410.0,1500
2.4965391159057617,117,155,80,0.006666666666666667,1499.5,1490.0,1410.0,1500
2.51808500289917,118,155,80,0.006666666666666667,1499.5,1490.0,1410.0,1500
2.5395729541778564,119,155,80,0.006060606060606061,1499.5,1477.8787878787878,1410.0,1500
2.561100959777832,120,154,80,0.007142857142857143,1499.4000000000001,1499.5238095238094,1410.0,1500
2.5825929641723633,121,155,80,0.006060606060606061,1499.5,1477.8787878787878,1410.0,1500
2.6041150093078613,122,155,80,0.006060606060606061,1499.5,1477.8787878787878,1410.0,1500
2.6256020069122314,123,154,80,0.007142857142857143,1499.4000000000001,1499.5238095238094,1410.0,1500
2.6471269130706787,124,155,80,0.006060606060606061,1499.5,1477.8787878787878,1410.0,1500
2.668610095977783,125,155,80,0.006060606060606061,1499.5,1477.8787878787878,1410.0,1500
2.6901230812072754,126,155,80,0.006060606060606061,1499.5,1477.8787878787878,1410.0,1500
2.7116200923919678,127,155,80,0.006060606060606061,1499.5,1477.8787878787878,1410.0,1500
2.733175039291382,128,155,80,0.006060606060606061,1499.5,1477.8787878787878,1410.0,1500
2.7547049522399902,129,156,80,0.0053475935828877,1499.5999999999999,1470,1410.0,1500
2.7761731147766113,130,156,80,0.005050505050505051,1499.5999999999999,1470,1410.0,1500
2.7976179122924805,131,156,79,0.005555555555555556,1499.5999999999999,1470,1410.5,1500
2.819093942642212,132,155,79,0.006060606060606061,1499.5,1477.8787878787878,1410.5,1500
2.8405990600585938,133,155,79,0.006666666666666667,1499.5,1490.0,1410.5,1500
2.862107038497925,134,155,79,0.006060606060606061,1499.5,1477.8787878787878,1410.5,1500
2.883791923522949,135,155,79,0.006666666666666667,1499.5,1490.0,1410.5,1500
2.9053170680999756,136,155,79,0.006666666666666667,1499.5,1490.0,1410.5,1500
2.9268009662628174,137,155,79,0.006666666666666667,1499.5,1490.0,1410.5,1500
2.948301076889038,138,155,79,0.006666666666666667,1499.5,1490.0,1410.5,1500
2.969770908355713,139,155,79,0.00625,1499.5,1481.6666666666667,1410.5,1500
2.9912919998168945,140,155,79,0.006666666666666667,1499.5,1490.0,1410.5,1500
3.012777090072632,141,155,79,0.006666666666666667,1499.5,1490.0,1410.5,1500
3.034353017807007,142,155,79,0.006666666666666667,1499.5,1490.0,1410.5,1500
3.0558650493621826,143,155,79,0.006666666666666667,1499.5,1490.0,1410.5,1500
3.077404022216797,144,155,79,0.006666666666666667,1499.5,1490.0,1410.5,1500
3.098912000656128,145,155,79,0.006666666666666667,1499.5,1490.0,1410.5,1500
3.1205029487609863,146,155,79,0.006666666666666667,1499.5,1490.0,1410.5,1500
3.142024040222168,147,155,79,0.006666666666666667,1499.5,1490.0,1410.5,1500
3.1635019779205322,148,155,79,0.006666666666666667,1499.5,1490.0,1410.5,1500
3.185020923614502,149,154,79,0.007142857142857143,1499.4000000000001,1499.5238095238094,1410.5,1500
3.2065179347991943,150,155,79,0.006666666666666667,1499.5,1490.0,1410.5,1500
3.2280189990997314,151,155,79,0.006666666666666667,1499.5,1490.0,1410.5,1500
3.2494969367980957,152,155,80,0.005681818181818182,1499.5,1470.3030303030303,1410.0,1500
3.2710211277008057,153,155,80,0.005681818181818182,1499.5,1470.3030303030303,1410.0,1500
3.292513132095337,154,155,80,0.005681818181818182,1499.5,1470.3030303030303,1410.0,1500
3.3140311241149902,155,155,80,0.006060606060606061,1499.5,1477.8787878787878,1410.0,1500
3.3355209827423096,156,155,80,0.006060606060606061,1499.5,1477.8787878787878,1410.0,1500
3.3570399284362793,157,154,80,0.006493506493506494,1499.4000000000001,1486.5367965367966,1410.0,1500
3.378533124923706,158,154,80,0.006493506493506494,1499.4000000000001,1486.5367965367966,1410.0,1500
3.400054931640625,159,155,80,0.006060606060606061,1499.5,1477.8787878787878,1410.0,1500
3.4215381145477295,160,155,80,0.006060606060606061,1499.5,1477.8787878787878,1410.0,1500
3.4430549144744873,161,155,80,0.006060606060606061,1499.5,1477.8787878787878,1410.0,1500
3.464617967605591,162,155,80,0.005681818181818182,1499.5,1470.3030303030303,1410.0,1500
3.4861319065093994,163,155,80,0.005681818181818182,1499.5,1470.3030303030303,1410.0,1500
3.507625102996826,164,155,80,0.006060606060606061,1499.5,1477.8787878787878,1410.0,1500
3.5291600227355957,165,155,80,0.006060606060606061,1499.5,1477.8787878787878,1410.0,1500
3.5506510734558105,166,155,80,0.006060606060606061,1499.5,1477.8787878787878,1410.0,1500
3.5722310543060303,167,155,80,0.005681818181818182,1499.5,1470.3030303030303,1410.0,1500
3.5938940048217773,168,155,80,0.006060606060606061,1499.5,1477.8787878787878,1410.0,1500
3.6154580116271973,169,156,80,0.0053475935828877,1499.5999999999999,1470,1410.0,1500
3.636941909790039,170,156,80,0.0053475935828877,1499.5999999999999,1470,1410.0,1500
3.658421039581299,171,156,80,0.0053475935828877,1499.5999999999999,1470,1410.0,1500
3.679858922958374,172,155,80,0.006060606060606061,1499.5,1477.8787878787878,1410.0,1500
3.7013731002807617,173,155,80,0.006060606060606061,1499.5,1477.8787878787878,1410.0,1500
3.722852945327759,174,154,80,0.006493506493506494,1499.4000000000001,1486.5367965367966,1410.0,1500
3.744508981704712,175,155,80,0.006060606060606061,1499.5,1477.8787878787878,1410.0,1500
3.766026020050049,176,156,80,0.0053475935828877,1499.5999999999999,1470,1410.0,1500
3.7874979972839355,177,155,80,0.006060606060606061,1499.5,1477.8787878787878,1410.0,1500
3.808979034423828,178,155,80,0.006060606060606061,1499.5,1477.8787878787878,1410.0,1500
3.830897092819214,179,155,80,0.005681818181818182,1499.5,1470.3030303030303,1410.0,1500
3.8537099361419678,180,155,80,0.006060606060606061,1499.5,1477.8787878787878,1410.0,1500
3.876523971557617,181,155,80,0.006060606060606061,1499.5,1477.8787878787878,1410.0,1500
3.899238109588623,182,155,80,0.005681818181818182,1499.5,1470.3030303030303,1410.0,1500
3.9222850799560547,183,155,80,0.005681818181818182,1499.5,1470.3030303030303,1410.0,1500
3.945028066635132,184,156,80,0.005050505050505051,1499.5999999999999,1470,1410.0,1500
3.967698097229004,185,155,80,0.006060606060606061,1499.5,1477.8787878787878,1410.0,1500
3.9904370307922363,186,155,80,0.005681818181818182,1499.5,1470.3030303030303,1410.0,1500
4.013292074203491,187,156,80,0.005050505050505051,1499.5999999999999,1470,1410.0,1500
4.036071062088013,188,156,80,0.005050505050505051,1499.5999999999999,1470,1410.0,1500
4.058741092681885,189,155,80,0.005681818181818182,1499.5,1470.3030303030303,1410.0,1500
4.081460952758789,190,156,80,0.005050505050505051,1499.5999999999999,1470,1410.0,1500
4.1041340827941895,191,156,80,0.0053475935828877,1499.5999999999999,1470,1410.0,1500
4.126774072647095,192,155,80,0.006060606060606061,1499.5,1477.8787878787878,1410.0,1500
4.149517059326172,193,155,80,0.005681818181818182,1499.5,1470.3030303030303,1410.0,1500
4.172230958938599,194,155,80,0.006060606060606061,1499.5,1477.8787878787878,1410.0,1500
4.194971084594727,195,155,80,0.006060606060606061,1499.5,1477.8787878787878,1410.0,1500
4.217674016952515,196,155,80,0.006060606060606061,1499.5,1477.8787878787878,1410.0,1500
4.240422964096069,197,155,80,0.005681818181818182,1499.5,1470.3030303030303,1410.0,1500
4.26318097114563,198,155,80,0.006060606060606061,1499.5,1477.8787878787878,1410.0,1500
4.285989046096802,199,155,80,0.005681818181818182,1499.5,1470.3030303030303,1410.0,1500
4.308697938919067,200,155,80,0.006060606060606061,1499.5,1477.8787878787878,1410.0,1500
4.331455945968628,201,155,80,0.005681818181818182,1499.5,1470.3030303030303,1410.0,1500
4.35418701171875,202,154,80,0.006493506493506494,1499.4000000000001,1486.5367965367966,1410.0,1500
4.376938104629517,203,155,80,0.005681818181818182,1499.5,1470.3030303030303,1410.0,1500
4.399641990661621,204,155,80,0.005681818181818182,1499.5,1470.3030303030303,1410.0,1500
4.422384023666382,205,155,80,0.005681818181818182,1499.5,1470.3030303030303,1410.0,1500
4.44510293006897,206,154,80,0.006493506493506494,1499.4000000000001,1486.5367965367966,1410.0,1500
4.467925071716309,207,156,80,0.0053475935828877,1499.5999999999999,1470,1410.0,1500
4.490790128707886,208,156,80,0.0053475935828877,1499.5999999999999,1470,1410.0,1500
4.513575077056885,209,155,80,0.006060606060606061,1499.5,1477.8787878787878,1410.0,1500
4.536437034606934,210,155,80,0.006060606060606061,1499.5,1477.8787878787878,1410.0,1500
4.559219121932983,211,155,80,0.006060606060606061,1499.5,1477.8787878787878,1410.0,1500
4.58193302154541,212,155,80,0.005681818181818182,1499.5,1470.3030303030303,1410.0,1500
4.604758024215698,213,155,80,0.005681818181818182,1499.5,1470.3030303030303,1410.0,1500
4.627662897109985,214,154,80,0.006493506493506494,1499.4000000000001,1486.5367965367966,1410.0,1500
4.650454998016357,215,155,80,0.005681818181818182,1499.5,1470.3030303030303,1410.0,1500
4.67323112487793,216,155,80,0.006060606060606061,1499.5,1477.8787878787878,1410.0,1500
4.696043968200684,217,155,80,0.005681818181818182,1499.5,1470.3030303030303,1410.0,1500
4.718748092651367,218,155,80,0.006060606060606061,1499.5,1477.8787878787878,1410.0,1500
4.7414960861206055,219,155,80,0.006060606060606061,1499.5,1477.8787878787878,1410.0,1500
4.764243125915527,220,154,80,0.006493506493506494,1499.4000000000001,1486.5367965367966,1410.0,1500
4.787013053894043,221,155,80,0.006060606060606061,1499.5,1477.8787878787878,1410.0,1500
4.809722900390625,222,156,80,0.005050505050505051,1499.5999999999999,1470,1410.0,1500
4.832411050796509,223,156,80,0.0053475935828877,1499.5999999999999,1470,1410.0,1500
4.855061054229736,224,156,80,0.005050505050505051,1499.5999999999999,1470,1410.0,1500
4.877718925476074,225,156,80,0.005050505050505051,1499.5999999999999,1470,1410.0,1500
4.9003400802612305,226,156,80,0.005050505050505051,1499.5999999999999,1470,1410.0,1500
4.923126935958862,227,156,80,0.005050505050505051,1499.5999999999999,1470,1410.0,1500
4.946290016174316,228,156,80,0.005050505050505051,1499.5999999999999,1470,1410.0,1500
4.96903395652771,229,156,80,0.0053475935828877,1499.5999999999999,1470,1410.0,1500
4.9916911125183105,230,156,80,0.005050505050505051,1499.5999999999999,1470,1410.0,1500
5.014377117156982,231,156,80,0.005050505050505051,1499.5999999999999,1470,1410.0,1500
5.037039041519165,232,156,80,0.005050505050505051,1499.5999999999999,1470,1410.0,1500
5.059813976287842,233,156,80,0.005050505050505051,1499.5999999999999,1470,1410.0,1500
5.082524061203003,234,156,80,0.005050505050505051,1499.5999999999999,1470,1410.0,1500
5.105158090591431,235,156,80,0.005050505050505051,1499.5999999999999,1470,1410.0,1500
5.127814054489136,236,156,80,0.005050505050505051,1499.5999999999999,1470,1410.0,1500
5.150444984436035,237,156,80,0.005050505050505051,1499.5999999999999,1470,1410.0,1500
5.173161029815674,238,156,80,0.005050505050505051,1499.5999999999999,1470,1410.0,1500
5.1958839893341064,239,156,80,0.005050505050505051,1499.5999999999999,1470,1410.0,1500
5.218569993972778,240,156,79,0.004629629629629629,1499.5999999999999,1470,1410.5,1500
5.241225004196167,241,156,79,0.004629629629629629,1499.5999999999999,1470,1410.5,1500
5.263891935348511,242,156,79,0.005050505050505051,1499.5999999999999,1470,1410.5,1500
5.286505937576294,243,156,79,0.004629629629629629,1499.5999999999999,1470,1410.5,1500
5.309159994125366,244,156,79,0.004629629629629629,1499.5999999999999,1470,1410.5,1500
5.331779956817627,245,156,79,0.004629629629629629,1499.5999999999999,1470,1410.5,1500
5.354468107223511,246,156,79,0.004629629629629629,1499.5999999999999,1470,1410.5,1500
5.377082109451294,247,156,79,0.005050505050505051,1499.5999999999999,1470,1410.5,1500
5.399749040603638,248,156,79,0.004629629629629629,1499.5999999999999,1470,1410.5,1500
5.422410011291504,249,156,79,0.004629629629629629,1499.5999999999999,1470,1410.5,1500
5.4450719356536865,250,156,79,0.004629629629629629,1499.5999999999999,1470,1410.5,1500
5.4677159786224365,251,156,79,0.004629629629629629,1499.5999999999999,1470,1410.5,1500
5.490368127822876,252,156,79,0.004629629629629629,1499.5999999999999,1470,1410.5,1500
5.5129899978637695,253,156,79,0.004629629629629629,1499.5999999999999,1470,1410.5,1500
5.5358641147613525,254,156,79,0.004629629629629629,1499.5999999999999,1470,1410.5,1500
5.558505058288574,255,156,79,0.004629629629629629,1499.5999999999999,1470,1410.5,1500
5.58116602897644,256,156,79,0.004629629629629629,1499.5999999999999,1470,1410.5,1500
5.6038429737091064,257,156,79,0.004629629629629629,1499.5999999999999,1470,1410.5,1500
5.626585960388184,258,156,79,0.005050505050505051,1499.5999999999999,1470,1410.5,1500
5.649219036102295,259,157,79,0.0053475935828877,1499.7,1470,1410.5,1500
5.671874046325684,260,157,79,0.004901960784313725,1499.7,1470,1410.5,1500
5.694507122039795,261,157,79,0.0053475935828877,1499.7,1470,1410.5,1500
5.717178106307983,262,157,79,0.0053475935828877,1499.7,1470,1410.5,1500
5.7398130893707275,263,157,79,0.005050505050505051,1499.7,1470,1410.5,1500
5.762495040893555,264,157,79,0.005050505050505051,1499.7,1470,1410.5,1500
5.785106897354126,265,157,79,0.005050505050505051,1499.7,1470,1410.5,1500
5.807760953903198,266,157,79,0.005050505050505051,1499.7,1470,1410.5,1500
5.830390930175781,267,157,78,0.004629629629629629,1499.7,1470,1411.0,1500
5.8531410694122314,268,157,78,0.004629629629629629,1499.7,1470,1411.0,1500
5.875838041305542,269,157,78,0.005050505050505051,1499.7,1470,1411.0,1500
5.8985350131988525,270,157,78,0.004629629629629629,1499.7,1470,1411.0,1500
5.921217918395996,271,157,78,0.005050505050505051,1499.7,1470,1411.0,1500
5.9438769817352295,272,157,78,0.005050505050505051,1499.7,1470,1411.0,1500
5.9665000438690186,273,157,78,0.005050505050505051,1499.7,1470,1411.0,1500
5.989174127578735,274,157,78,0.005050505050505051,1499.7,1470,1411.0,1500
6.011790037155151,275,157,78,0.005050505050505051,1499.7,1470,1411.0,1500
6.034454107284546,276,157,78,0.005050505050505051,1499.7,1470,1411.0,1500
6.0570900440216064,277,157,78,0.005050505050505051,1499.7,1470,1411.0,1500
6.0800769329071045,278,157,78,0.005050505050505051,1499.7,1470,1411.0,1500
6.102752923965454,279,157,78,0.005050505050505051,1499.7,1470,1411.0,1500
6.125572919845581,280,157,77,0.004629629629629629,1499.7,1470,1411.5,1500
6.148236036300659,281,157,77,0.004629629629629629,1499.7,1470,1411.5,1500
6.170906066894531,282,157,78,0.005050505050505051,1499.7,1470,1411.0,1500
6.193588972091675,283,157,77,0.004629629629629629,1499.7,1470,1411.5,1500
6.216318130493164,284,157,77,0.0043859649122807015,1499.7,1470,1411.5,1500
6.238944053649902,285,157,77,0.0043859649122807015,1499.7,1470,1411.5,1500
6.261606931686401,286,157,78,0.004784688995215311,1499.7,1470,1411.0,1500
6.284248113632202,287,157,78,0.004784688995215311,1499.7,1470,1411.0,1500
6.306944131851196,288,157,77,0.0043859649122807015,1499.7,1470,1411.5,1500
6.32961893081665,289,156,77,0.004629629629629629,1499.5999999999999,1470,1411.5,1500
6.35233211517334,290,156,78,0.005050505050505051,1499.5999999999999,1470,1411.0,1500
6.374964952468872,291,156,78,0.005050505050505051,1499.5999999999999,1470,1411.0,1500
6.397639036178589,292,156,77,0.004629629629629629,1499.5999999999999,1470,1411.5,1500
6.4202799797058105,293,156,77,0.0043859649122807015,1499.5999999999999,1470,1411.5,1500
6.44298791885376,294,156,78,0.004784688995215311,1499.5999999999999,1470,1411.0,1500
6.465837001800537,295,156,77,0.0043859649122807015,1499.5999999999999,1470,1411.5,1500
6.488717079162598,296,156,77,0.0043859649122807015,1499.5999999999999,1470,1411.5,1500
6.511446952819824,297,156,77,0.0043859649122807015,1499.5999999999999,1470,1411.5,1500
6.5341410636901855,298,156,77,0.0043859649122807015,1499.5999999999999,1470,1411.5,1500
6.556843996047974,299,156,77,0.0043859649122807015,1499.5999999999999,1470,1411.5,1500
6.579505920410156,300,155,77,0.004629629629629629,1499.5,1470,1411.5,1500
6.602114915847778,301,155,77,0.005050505050505051,1499.5,1470,1411.5,1500
6.624753952026367,302,155,77,0.005050505050505051,1499.5,1470,1411.5,1500
6.647363901138306,303,155,77,0.005050505050505051,1499.5,1470,1411.5,1500
6.670006990432739,304,155,77,0.004784688995215311,1499.5,1470,1411.5,1500
6.692618131637573,305,155,77,0.004784688995215311,1499.5,1470,1411.5,1500
6.715404033660889,306,155,77,0.004784688995215311,1499.5,1470,1411.5,1500
6.738065958023071,307,155,77,0.004784688995215311,1499.5,1470,1411.5,1500
6.7607550621032715,308,154,77,0.005050505050505051,1499.4000000000001,1470,1411.5,1500
6.783469915390015,309,154,77,0.005050505050505051,1499.4000000000001,1470,1411.5,1500
6.806217908859253,310,154,77,0.005050505050505051,1499.4000000000001,1470,1411.5,1500
6.82890510559082,311,154,77,0.005050505050505051,1499.4000000000001,1470,1411.5,1500
6.851613998413086,312,154,77,0.005050505050505051,1499.4000000000001,1470,1411.5,1500
6.874254941940308,313,154,77,0.005050505050505051,1499.4000000000001,1470,1411.5,1500
6.8969340324401855,314,154,77,0.005050505050505051,1499.4000000000001,1470,1411.5,1500
6.919610977172852,315,154,77,0.004784688995215311,1499.4000000000001,1470,1411.5,1500
6.942331075668335,316,154,77,0.004784688995215311,1499.4000000000001,1470,1411.5,1500
6.9649999141693115,317,154,77,0.004784688995215311,1499.4000000000001,1470,1411.5,1500
6.987715005874634,318,154,76,0.0043859649122807015,1499.4000000000001,1470,1412.0,1500
7.010378122329712,319,154,76,0.0043859649122807015,1499.4000000000001,1470,1412.0,1500
7.0332350730896,320,154,76,0.004784688995215311,1499.4000000000001,1470,1412.0,1500
7.056232929229736,321,154,76,0.0043859649122807015,1499.4000000000001,1470,1412.0,1500
7.079088926315308,322,153,76,0.005050505050505051,1499.3,1470,1412.0,1500
7.101799964904785,323,154,76,0.004784688995215311,1499.4000000000001,1470,1412.0,1500
7.124470949172974,324,154,76,0.004784688995215311,1499.4000000000001,1470,1412.0,1500
7.147126913070679,325,154,76,0.004784688995215311,1499.4000000000001,1470,1412.0,1500
7.169816970825195,326,154,76,0.004784688995215311,1499.4000000000001,1470,1412.0,1500
7.192478895187378,327,153,76,0.005050505050505051,1499.3,1470,1412.0,1500
7.219321966171265,328,153,76,0.005050505050505051,1499.3,1470,1412.0,1500
7.242095947265625,329,153,76,0.005050505050505051,1499.3,1470,1412.0,1500
7.264741897583008,330,153,76,0.005050505050505051,1499.3,1470,1412.0,1500
7.287405967712402,331,153,76,0.005050505050505051,1499.3,1470,1412.0,1500
7.310025930404663,332,153,76,0.005050505050505051,1499.3,1470,1412.0,1500
7.332706928253174,333,154,76,0.004784688995215311,1499.4000000000001,1470,1412.0,1500
7.355474948883057,334,153,76,0.005050505050505051,1499.3,1470,1412.0,1500
7.378147125244141,335,154,76,0.004784688995215311,1499.4000000000001,1470,1412.0,1500
7.40077805519104,336,153,76,0.005050505050505051,1499.3,1470,1412.0,1500
7.423489093780518,337,153,76,0.005050505050505051,1499.3,1470,1412.0,1500
7.4461829662323,338,153,76,0.005050505050505051,1499.3,1470,1412.0,1500
7.468847036361694,339,153,76,0.005050505050505051,1499.3,1470,1412.0,1500
7.491487979888916,340,154,76,0.004784688995215311,1499.4000000000001,1470,1412.0,1500
7.514244079589844,341,153,76,0.005050505050505051,1499.3,1470,1412.0,1500
7.5370659828186035,342,153,76,0.005050505050505051,1499.3,1470,1412.0,1500
7.5597779750823975,343,153,76,0.005050505050505051,1499.3,1470,1412.0,1500
7.582413911819458,344,154,76,0.004784688995215311,1499.4000000000001,1470,1412.0,1500
7.605088949203491,345,153,75,0.004629629629629629,1499.3,1470,1412.5,1500
7.62772011756897,346,153,75,0.004629629629629629,1499.3,1470,1412.5,1500
7.6504011154174805,347,153,75,0.004629629629629629,1499.3,1470,1412.5,1500
7.67303991317749,348,153,75,0.004629629629629629,1499.3,1470,1412.5,1500
7.695856094360352,349,153,75,0.004629629629629629,1499.3,1470,1412.5,1500
7.71849513053894,350,154,75,0.0043859649122807015,1499.4000000000001,1470,1412.5,1500
7.741168975830078,351,154,75,0.004629629629629629,1499.4000000000001,1470,1412.5,1500
7.763871908187866,352,154,75,0.004629629629629629,1499.4000000000001,1470,1412.5,1500
7.7866051197052,353,154,75,0.004629629629629629,1499.4000000000001,1470,1412.5,1500
7.809247016906738,354,154,75,0.004048582995951417,1499.4000000000001,1470,1412.5,1500
7.831928014755249,355,154,75,0.004629629629629629,1499.4000000000001,1470,1412.5,1500
7.854610919952393,356,154,75,0.004273504273504274,1499.4000000000001,1470,1412.5,1500
7.877279996871948,357,154,75,0.004273504273504274,1499.4000000000001,1470,1412.5,1500
7.8998870849609375,358,155,75,0.004048582995951417,1499.5,1470,1412.5,1500
7.92253303527832,359,155,75,0.004048582995951417,1499.5,1470,1412.5,1500
7.945143938064575,360,154,74,0.004629629629629629,1499.4000000000001,1470,1413.0,1500
7.967813014984131,361,154,74,0.004629629629629629,1499.4000000000001,1470,1413.0,1500
7.9904820919036865,362,154,74,0.004629629629629629,1499.4000000000001,1470,1413.0,1500
8.013262033462524,363,155,74,0.0043859649122807015,1499.5,1470,1413.0,1500
8.036051034927368,364,155,74,0.004048582995951417,1499.5,1470,1413.0,1500
8.058763027191162,365,155,74,0.004048582995951417,1499.5,1470,1413.0,1500
8.08143401145935,366,155,74,0.004048582995951417,1499.5,1470,1413.0,1500
8.1041100025177,367,155,74,0.004048582995951417,1499.5,1470,1413.0,1500
8.126730918884277,368,155,74,0.004048582995951417,1499.5,1470,1413.0,1500
8.149404048919678,369,155,74,0.004048582995951417,1499.5,1470,1413.0,1500
8.172038078308105,370,155,74,0.004048582995951417,1499.5,1470,1413.0,1500
8.194703102111816,371,155,74,0.004048582995951417,1499.5,1470,1413.0,1500
8.217355966567993,372,155,74,0.004048582995951417,1499.5,1470,1413.0,1500
8.240034103393555,373,155,74,0.004048582995951417,1499.5,1470,1413.0,1500
8.262682914733887,374,155,74,0.004048582995951417,1499.5,1470,1413.0,1500
8.28548812866211,375,155,74,0.0038461538461538464,1499.5,1470,1413.0,1500
8.308136940002441,376,155,73,0.004048582995951417,1499.5,1470,1413.5,1500
8.330814123153687,377,155,73,0.004048582995951417,1499.5,1470,1413.5,1500
8.353528022766113,378,155,73,0.0038461538461538464,1499.5,1470,1413.5,1500
8.376275062561035,379,155,73,0.004048582995951417,1499.5,1470,1413.5,1500
8.399212121963501,380,155,73,0.004048582995951417,1499.5,1470,1413.5,1500
8.421914100646973,381,155,73,0.0038461538461538464,1499.5,1470,1413.5,1500
8.444560050964355,382,155,72,0.0035714285714285713,1499.5,1470,1414.0,1500
8.467323064804077,383,155,72,0.0035714285714285713,1499.5,1470,1414.0,1500
8.490180015563965,384,156,72,0.003401360544217687,1499.5999999999999,1470,1414.0,1500
8.512901067733765,385,155,72,0.004048582995951417,1499.5,1470,1414.0,1500
8.53578805923462,386,155,72,0.004048582995951417,1499.5,1470,1414.0,1500
8.55846905708313,387,155,72,0.0038461538461538464,1499.5,1470,1414.0,1500
8.581110000610352,388,155,72,0.004048582995951417,1499.5,1470,1414.0,1500
8.6038339138031,389,155,72,0.004048582995951417,1499.5,1470,1414.0,1500
8.626523971557617,390,155,72,0.0038461538461538464,1499.5,1470,1414.0,1500
8.649214029312134,391,155,72,0.004048582995951417,1499.5,1470,1414.0,1500
8.671844959259033,392,155,72,0.004048582995951417,1499.5,1470,1414.0,1500
8.694528102874756,393,155,72,0.004048582995951417,1499.5,1470,1414.0,1500
8.71715497970581,394,155,72,0.0038461538461538464,1499.5,1470,1414.0,1500
8.739829063415527,395,154,72,0.004273504273504274,1499.4000000000001,1470,1414.0,1500
8.762502908706665,396,154,72,0.004273504273504274,1499.4000000000001,1470,1414.0,1500
8.785181045532227,397,155,72,0.004048582995951417,1499.5,1470,1414.0,1500
8.80781602859497,398,155,72,0.0038461538461538464,1499.5,1470,1414.0,1500
8.83049201965332,399,154,72,0.004273504273504274,1499.4000000000001,1470,1414.0,1500
8.853219985961914,400,156,72,0.003663003663003663,1499.5999999999999,1470,1414.0,1500
8.875983953475952,401,156,72,0.003663003663003663,1499.5999999999999,1470,1414.0,1500
8.898657083511353,402,155,72,0.0034965034965034965,1499.5,1470,1414.0,1500
8.92134690284729,403,155,72,0.0034965034965034965,1499.5,1470,1414.0,1500
8.943996906280518,404,155,71,0.003246753246753247,1499.5,1470,1414.5,1500
8.966670989990234,405,154,71,0.0035714285714285713,1499.4000000000001,1470,1414.5,1500
8.989383935928345,406,153,71,0.003968253968253968,1499.3,1470,1414.5,1500
9.012166023254395,407,153,71,0.004273504273504274,1499.3,1470,1414.5,1500
9.03485894203186,408,153,71,0.004273504273504274,1499.3,1470,1414.5,1500
9.057539939880371,409,153,71,0.004273504273504274,1499.3,1470,1414.5,1500
9.080260038375854,410,155,71,0.003663003663003663,1499.5,1470,1414.5,1500
9.102912902832031,411,154,71,0.0034965034965034965,1499.4000000000001,1470,1414.5,1500
9.125750064849854,412,154,71,0.0034965034965034965,1499.4000000000001,1470,1414.5,1500
9.148447036743164,413,154,71,0.0034965034965034965,1499.4000000000001,1470,1414.5,1500
9.171135902404785,414,154,71,0.0034965034965034965,1499.4000000000001,1470,1414.5,1500
9.19383192062378,415,154,71,0.0034965034965034965,1499.4000000000001,1470,1414.5,1500
9.216574907302856,416,154,71,0.0034965034965034965,1499.4000000000001,1470,1414.5,1500
9.23924207687378,417,154,71,0.0034965034965034965,1499.4000000000001,1470,1414.5,1500
9.261920928955078,418,154,71,0.0034965034965034965,1499.4000000000001,1470,1414.5,1500
9.284565925598145,419,154,71,0.0034965034965034965,1499.4000000000001,1470,1414.5,1500
9.307267904281616,420,154,71,0.0034965034965034965,1499.4000000000001,1470,1414.5,1500
9.329921960830688,421,154,71,0.0034965034965034965,1499.4000000000001,1470,1414.5,1500
9.35263705253601,422,153,70,0.0034965034965034965,1499.3,1470,1415.0,1500
9.375389099121094,423,153,70,0.0034965034965034965,1499.3,1470,1415.0,1500
9.398097038269043,424,153,70,0.0034965034965034965,1499.3,1470,1415.0,1500
9.420753955841064,425,153,70,0.0034965034965034965,1499.3,1470,1415.0,1500
9.443500995635986,426,153,70,0.0034965034965034965,1499.3,1470,1415.0,1500
9.466218948364258,427,153,70,0.0034965034965034965,1499.3,1470,1415.0,1500
9.488893985748291,428,153,70,0.0034965034965034965,1499.3,1470,1415.0,1500
9.511538028717041,429,153,70,0.0034965034965034965,1499.3,1470,1415.0,1500
9.534220933914185,430,153,70,0.0034965034965034965,1499.3,1470,1415.0,1500
9.556847095489502,431,153,69,0.003246753246753247,1499.3,1470,1415,1500
9.57972002029419,432,153,69,0.003246753246753247,1499.3,1470,1415,1500
9.60228705406189,433,153,69,0.003246753246753247,1499.3,1470,1415,1500
9.624861001968384,434,153,69,0.003246753246753247,1499.3,1470,1415,1500
9.647402048110962,435,153,69,0.003246753246753247,1499.3,1470,1415,1500
9.669963121414185,436,153,69,0.003246753246753247,1499.3,1470,1415,1500
9.692487955093384,437,153,69,0.003246753246753247,1499.3,1470,1415,1500
9.715076923370361,438,153,69,0.003246753246753247,1499.3,1470,1415,1500
9.737653970718384,439,153,69,0.003246753246753247,1499.3,1470,1415,1500
9.760226011276245,440,153,69,0.003246753246753247,1499.3,1470,1415,1500
9.782757043838501,441,153,69,0.003246753246753247,1499.3,1470,1415,1500
9.805459976196289,442,154,69,0.003105590062111801,1499.4000000000001,1470,1415,1500
9.828048944473267,443,154,69,0.003105590062111801,1499.4000000000001,1470,1415,1500
9.850649118423462,444,154,69,0.003105590062111801,1499.4000000000001,1470,1415,1500
9.873271942138672,445,154,69,0.003105590062111801,1499.4000000000001,1470,1415,1500
9.895918130874634,446,154,69,0.003105590062111801,1499.4000000000001,1470,1415,1500
9.918440103530884,447,154,69,0.003105590062111801,1499.4000000000001,1470,1415,1500
9.941004037857056,448,154,69,0.003105590062111801,1499.4000000000001,1470,1415,1500
9.963592052459717,449,154,69,0.003105590062111801,1499.4000000000001,1470,1415,1500
9.986232042312622,450,154,69,0.003246753246753247,1499.4000000000001,1470,1415,1500
10.008776903152466,451,154,69,0.003246753246753247,1499.4000000000001,1470,1415,1500
10.03142499923706,452,154,69,0.003246753246753247,1499.4000000000001,1470,1415,1500
10.054172992706299,453,155,69,0.003105590062111801,1499.5,1470,1415,1500
10.076801061630249,454,155,69,0.003105590062111801,1499.5,1470,1415,1500
10.099359035491943,455,154,69,0.0030303030303030303,1499.4000000000001,1470,1415,1500
10.121939897537231,456,154,69,0.0030303030303030303,1499.4000000000001,1470,1415,1500
10.144484996795654,457,154,68,0.003246753246753247,1499.4000000000001,1470,1415,1500
10.167082071304321,458,154,68,0.003246753246753247,1499.4000000000001,1470,1415,1500
10.189657926559448,459,154,68,0.003246753246753247,1499.4000000000001,1470,1415,1500
10.21224594116211,460,155,68,0.003105590062111801,1499.5,1470,1415,1500
10.234791040420532,461,155,68,0.003246753246753247,1499.5,1470,1415,1500
10.257404088973999,462,155,68,0.003246753246753247,1499.5,1470,1415,1500
10.279942035675049,463,155,68,0.0030303030303030303,1499.5,1470,1415,1500
10.302515983581543,464,155,68,0.0030303030303030303,1499.5,1470,1415,1500
10.325057983398438,465,155,68,0.0030303030303030303,1499.5,1470,1415,1500
10.347731113433838,466,155,68,0.0030303030303030303,1499.5,1470,1415,1500
10.370481967926025,467,155,68,0.0030303030303030303,1499.5,1470,1415,1500
10.393151998519897,468,155,67,0.003246753246753247,1499.5,1470,1415,1500
10.415812015533447,469,155,67,0.003246753246753247,1499.5,1470,1415,1500
10.438415050506592,470,156,67,0.003105590062111801,1499.5999999999999,1470,1415,1500
10.461041927337646,471,156,67,0.003105590062111801,1499.5999999999999,1470,1415,1500
10.483832120895386,472,156,67,0.003105590062111801,1499.5999999999999,1470,1415,1500
10.506484031677246,473,156,67,0.003105590062111801,1499.5999999999999,1470,1415,1500
10.529098987579346,474,156,67,0.003105590062111801,1499.5999999999999,1470,1415,1500
10.55167293548584,475,156,67,0.003246753246753247,1499.5999999999999,1470,1415,1500
10.574279069900513,476,156,67,0.003246753246753247,1499.5999999999999,1470,1415,1500
10.596846103668213,477,156,67,0.003246753246753247,1499.5999999999999,1470,1415,1500
10.619448900222778,478,157,67,0.002898550724637681,1499.7,1470,1415,1500
10.64202094078064,479,156,67,0.0030303030303030303,1499.5999999999999,1470,1415,1500
10.664627075195312,480,157,67,0.002898550724637681,1499.7,1470,1415,1500
10.687180042266846,481,157,67,0.002898550724637681,1499.7,1470,1415,1500
10.709765911102295,482,157,67,0.002898550724637681,1499.7,1470,1415,1500
10.732600927352905,483,157,67,0.002898550724637681,1499.7,1470,1415,1500
10.75533390045166,484,157,67,0.002898550724637681,1499.7,1470,1415,1500
10.777904987335205,485,157,67,0.002898550724637681,1499.7,1470,1415,1500
10.800486087799072,486,157,67,0.002777777777777778,1499.7,1470,1415,1500
10.823115110397339,487,157,67,0.002898550724637681,1499.7,1470,1415,1500
10.845793008804321,488,157,67,0.002898550724637681,1499.7,1470,1415,1500
10.868360042572021,489,157,67,0.002777777777777778,1499.7,1470,1415,1500
10.890944004058838,490,157,66,0.003105590062111801,1499.7,1470,1415,1500
10.913607120513916,491,157,66,0.003105590062111801,1499.7,1470,1415,1500
10.93636703491211,492,157,66,0.003105590062111801,1499.7,1470,1415,1500
10.959059000015259,493,157,66,0.002976190476190476,1499.7,1470,1415,1500
10.98167896270752,494,157,66,0.003105590062111801,1499.7,1470,1415,1500
11.004233121871948,495,157,66,0.002976190476190476,1499.7,1470,1415,1500
11.026824951171875,496,157,66,0.003105590062111801,1499.7,1470,1415,1500
11.049385070800781,497,157,66,0.002777777777777778,1499.7,1470,1415,1500
11.071979999542236,498,157,66,0.002898550724637681,1499.7,1470,1415,1500
11.094572067260742,499,157,66,0.002898550724637681,1499.7,1470,1415,1500
11.11716604232788,500,157,66,0.002898550724637681,1499.7,1470,1415,1500
11.139737129211426,501,157,66,0.002898550724637681,1499.7,1470,1415,1500
11.162348985671997,502,157,66,0.002898550724637681,1499.7,1470,1415,1500
11.184906959533691,503,157,66,0.002898550724637681,1499.7,1470,1415,1500
11.207504987716675,504,157,66,0.002898550724637681,1499.7,1470,1415,1500
11.230052947998047,505,157,66,0.002898550724637681,1499.7,1470,1415,1500
11.252635955810547,506,157,66,0.002898550724637681,1499.7,1470,1415,1500
11.275330066680908,507,157,66,0.003105590062111801,1499.7,1470,1415,1500
11.297933101654053,508,157,66,0.003105590062111801,1499.7,1470,1415,1500
11.32049012184143,509,157,66,0.002898550724637681,1499.7,1470,1415,1500
11.343151092529297,510,157,66,0.002898550724637681,1499.7,1470,1415,1500
11.365790128707886,511,157,66,0.003105590062111801,1499.7,1470,1415,1500
11.388399124145508,512,157,66,0.003105590062111801,1499.7,1470,1415,1500
11.410943031311035,513,157,66,0.003105590062111801,1499.7,1470,1415,1500
11.433602094650269,514,157,66,0.003105590062111801,1499.7,1470,1415,1500
11.456226110458374,515,157,66,0.002976190476190476,1499.7,1470,1415,1500
11.47881007194519,516,157,66,0.002976190476190476,1499.7,1470,1415,1500
11.50135612487793,517,157,66,0.003105590062111801,1499.7,1470,1415,1500
11.523950099945068,518,157,66,0.002976190476190476,1499.7,1470,1415,1500
11.546534061431885,519,157,66,0.003105590062111801,1499.7,1470,1415,1500
11.569133043289185,520,157,66,0.003105590062111801,1499.7,1470,1415,1500
11.591681957244873,521,157,66,0.003105590062111801,1499.7,1470,1415,1500
11.614246129989624,522,157,66,0.003105590062111801,1499.7,1470,1415,1500
11.636760950088501,523,157,66,0.003105590062111801,1499.7,1470,1415,1500
11.65933108329773,524,157,66,0.0030303030303030303,1499.7,1470,1415,1500
11.68186092376709,525,157,66,0.003105590062111801,1499.7,1470,1415,1500
11.704422950744629,526,157,66,0.002898550724637681,1499.7,1470,1415,1500
11.72696590423584,527,157,66,0.002898550724637681,1499.7,1470,1415,1500
11.749561071395874,528,157,66,0.002777777777777778,1499.7,1470,1415,1500
11.772097110748291,529,157,66,0.003246753246753247,1499.7,1470,1415,1500
11.794672966003418,530,158,66,0.002898550724637681,1499.8,1470,1415,1500
11.817224025726318,531,157,66,0.0030303030303030303,1499.7,1470,1415,1500
11.839828968048096,532,157,66,0.0030303030303030303,1499.7,1470,1415,1500
11.862360954284668,533,158,66,0.002898550724637681,1499.8,1470,1415,1500
11.884938955307007,534,157,66,0.002898550724637681,1499.7,1470,1415,1500
11.907474040985107,535,157,66,0.002777777777777778,1499.7,1470,1415,1500
11.930045127868652,536,157,66,0.002898550724637681,1499.7,1470,1415,1500
11.952582120895386,537,157,66,0.002777777777777778,1499.7,1470,1415,1500
11.975287914276123,538,157,66,0.002898550724637681,1499.7,1470,1415,1500
11.99813199043274,539,157,66,0.002777777777777778,1499.7,1470,1415,1500
12.020724058151245,540,157,66,0.002898550724637681,1499.7,1470,1415,1500
12.043342113494873,541,158,66,0.002898550724637681,1499.8,1470,1415,1500
12.06601095199585,542,157,66,0.0030303030303030303,1499.7,1470,1415,1500
12.088577032089233,543,158,66,0.002898550724637681,1499.8,1470,1415,1500
12.111150979995728,544,157,66,0.002898550724637681,1499.7,1470,1415,1500
12.133749008178711,545,157,66,0.0030303030303030303,1499.7,1470,1415,1500
12.156394958496094,546,157,66,0.0030303030303030303,1499.7,1470,1415,1500
12.178913116455078,547,157,65,0.002717391304347826,1499.7,1470,1415,1500
12.201472043991089,548,157,65,0.002717391304347826,1499.7,1470,1415,1500
12.224025011062622,549,157,65,0.0026041666666666665,1499.7,1470,1415,1500
12.246601104736328,550,157,65,0.002717391304347826,1499.7,1470,1415,1500
12.269136905670166,551,157,65,0.002717391304347826,1499.7,1470,1415,1500
12.29171109199524,552,157,65,0.002898550724637681,1499.7,1470,1415,1500
12.314234972000122,553,157,65,0.002777777777777778,1499.7,1470,1415,1500
12.3368079662323,554,157,65,0.002777777777777778,1499.7,1470,1415,1500
12.35933804512024,555,156,65,0.0030303030303030303,1499.5999999999999,1470,1415,1500
12.3819100856781,556,157,65,0.002898550724637681,1499.7,1470,1415,1500
12.40442705154419,557,157,65,0.002898550724637681,1499.7,1470,1415,1500
12.427097082138062,558,157,65,0.002898550724637681,1499.7,1470,1415,1500
12.449880123138428,559,157,65,0.002898550724637681,1499.7,1470,1415,1500
12.473664999008179,560,156,65,0.0030303030303030303,1499.5999999999999,1470,1415,1500
12.497096061706543,561,157,65,0.002898550724637681,1499.7,1470,1415,1500
12.520240068435669,562,156,65,0.002898550724637681,1499.5999999999999,1470,1415,1500
12.543496131896973,563,156,65,0.0026041666666666665,1499.5999999999999,1470,1415,1500
12.566694021224976,564,156,65,0.002898550724637681,1499.5999999999999,1470,1415,1500
12.58988094329834,565,156,65,0.0026041666666666665,1499.5999999999999,1470,1415,1500
12.612982034683228,566,156,65,0.002717391304347826,1499.5999999999999,1470,1415,1500
12.636475086212158,567,157,65,0.0026041666666666665,1499.7,1470,1415,1500
12.659639120101929,568,156,65,0.0026041666666666665,1499.5999999999999,1470,1415,1500
12.682771921157837,569,156,65,0.002717391304347826,1499.5999999999999,1470,1415,1500
12.70602011680603,570,156,65,0.002717391304347826,1499.5999999999999,1470,1415,1500
12.72898006439209,571,156,65,0.0030303030303030303,1499.5999999999999,1470,1415,1500
12.752264022827148,572,156,65,0.002898550724637681,1499.5999999999999,1470,1415,1500
12.775804996490479,573,156,65,0.002898550724637681,1499.5999999999999,1470,1415,1500
12.79894495010376,574,156,65,0.002898550724637681,1499.5999999999999,1470,1415,1500
12.822124004364014,575,155,65,0.0030303030303030303,1499.5,1470,1415,1500
12.845324993133545,576,155,64,0.002840909090909091,1499.5,1470,1415,1500
12.868458986282349,577,157,64,0.0025,1499.7,1470,1415,1500
12.89157509803772,578,157,64,0.0026666666666666666,1499.7,1470,1415,1500
12.914777994155884,579,156,64,0.002564102564102564,1499.5999999999999,1470,1415,1500
12.937956094741821,580,156,64,0.002564102564102564,1499.5999999999999,1470,1415,1500
12.961066007614136,581,156,64,0.002564102564102564,1499.5999999999999,1470,1415,1500
12.984225034713745,582,156,63,0.002403846153846154,1499.5999999999999,1470,1415,1500
13.007308959960938,583,156,63,0.002403846153846154,1499.5999999999999,1470,1415,1500
13.03045392036438,584,156,63,0.002564102564102564,1499.5999999999999,1470,1415,1500
13.053661108016968,585,156,63,0.002564102564102564,1499.5999999999999,1470,1415,1500
13.076915979385376,586,156,63,0.002564102564102564,1499.5999999999999,1470,1415,1500
13.100045919418335,587,156,62,0.002403846153846154,1499.5999999999999,1470,1415,1500
13.123235940933228,588,156,62,0.0023148148148148147,1499.5999999999999,1470,1415,1500
13.146397113800049,589,156,62,0.0023148148148148147,1499.5999999999999,1470,1415,1500
13.16986894607544,590,156,62,0.0023148148148148147,1499.5999999999999,1470,1415,1500
13.1930410861969,591,156,62,0.0023148148148148147,1499.5999999999999,1470,1415,1500
13.216347932815552,592,155,62,0.002564102564102564,1499.5,1470,1415,1500
13.239525079727173,593,156,61,0.0023148148148148147,1499.5999999999999,1470,1415,1500
13.262659072875977,594,155,61,0.002403846153846154,1499.5,1470,1415,1500
13.28584599494934,595,155,61,0.002403846153846154,1499.5,1470,1415,1500
13.308969974517822,596,155,61,0.002403846153846154,1499.5,1470,1415,1500
13.332041025161743,597,155,61,0.002564102564102564,1499.5,1470,1415,1500
13.355207920074463,598,155,61,0.002564102564102564,1499.5,1470,1415,1500
13.378274917602539,599,155,60,0.0023148148148148147,1499.5,1470,1415,1500
13.401423931121826,600,155,60,0.0023148148148148147,1499.5,1470,1415,1500
13.42450499534607,601,155,60,0.0023148148148148147,1499.5,1470,1415,1500
13.447634935379028,602,155,60,0.0023148148148148147,1499.5,1470,1415,1500
13.470699071884155,603,155,60,0.002232142857142857,1499.5,1470,1415,1500
13.49385404586792,604,155,60,0.0023148148148148147,1499.5,1470,1415,1500
13.516932010650635,605,155,60,0.0023148148148148147,1499.5,1470,1415,1500
13.540092945098877,606,155,60,0.0023148148148148147,1499.5,1470,1415,1500
13.563239097595215,607,155,60,0.002232142857142857,1499.5,1470,1415,1500
13.58646297454834,608,155,60,0.002178649237472767,1499.5,1470,1415,1500
13.609561920166016,609,155,60,0.002178649237472767,1499.5,1470,1415,1500
13.632682085037231,610,155,60,0.002178649237472767,1499.5,1470,1415,1500
13.65589189529419,611,156,60,0.002178649237472767,1499.5999999999999,1470,1415,1500
13.679030895233154,612,155,60,0.0022624434389140274,1499.5,1470,1415,1500
13.702105045318604,613,155,60,0.0022624434389140274,1499.5,1470,1415,1500
13.72523808479309,614,156,60,0.002178649237472767,1499.5999999999999,1470,1415,1500
13.748353958129883,615,156,60,0.002178649237472767,1499.5999999999999,1470,1415,1500
13.771604061126709,616,156,60,0.002178649237472767,1499.5999999999999,1470,1415,1500
13.794703006744385,617,156,60,0.002178649237472767,1499.5999999999999,1470,1415,1500
13.817837953567505,618,156,59,0.001984126984126984,1499.5999999999999,1470,1415,1500
13.840972900390625,619,156,59,0.00205761316872428,1499.5999999999999,1470,1415,1500
13.86411190032959,620,156,59,0.00205761316872428,1499.5999999999999,1470,1415,1500
13.887197971343994,621,156,59,0.00205761316872428,1499.5999999999999,1470,1415,1500
13.910361051559448,622,156,59,0.001984126984126984,1499.5999999999999,1470,1415,1500
13.933512926101685,623,156,59,0.002178649237472767,1499.5999999999999,1470,1415,1500
13.956773042678833,624,156,58,0.001984126984126984,1499.5999999999999,1470,1415,1500
13.979907035827637,625,156,58,0.001984126984126984,1499.5999999999999,1470,1415,1500
14.00305700302124,626,156,58,0.002136752136752137,1499.5999999999999,1470,1415,1500
14.026323080062866,627,157,58,0.00205761316872428,1499.7,1470,1415,1500
14.049508094787598,628,157,57,0.00205761316872428,1499.7,1470,1415,1500
14.072626113891602,629,157,57,0.001984126984126984,1499.7,1470,1415,1500
14.095891952514648,630,158,57,0.0019157088122605363,1499.8,1470,1415,1500
14.119050979614258,631,157,57,0.001984126984126984,1499.7,1470,1415,1500
14.142205953598022,632,158,57,0.001851851851851852,1499.8,1470,1415,1500
14.165292978286743,633,159,57,0.0018148820326678765,1499.9000000000001,1470,1415,1500
14.188421964645386,634,159,56,0.0019157088122605363,1499.9000000000001,1470,1415,1500
14.211506128311157,635,159,56,0.0019157088122605363,1499.9000000000001,1470,1415,1500
14.234633922576904,636,159,56,0.0019157088122605363,1499.9000000000001,1470,1415,1500
14.25773310661316,637,159,56,0.0018148820326678765,1499.9000000000001,1470,1415,1500
14.280894041061401,638,159,55,0.001851851851851852,1499.9000000000001,1470,1415,1500
14.303977012634277,639,159,55,0.001851851851851852,1499.9000000000001,1470,1415,1500
14.327122926712036,640,159,55,0.0017543859649122807,1499.9000000000001,1470,1415,1500
14.35051703453064,641,159,55,0.0017543859649122807,1499.9000000000001,1470,1415,1500
14.373776912689209,642,159,55,0.0017543859649122807,1499.9000000000001,1470,1415,1500
14.396941900253296,643,159,54,0.001851851851851852,1499.9000000000001,1470,1415,1500
14.420089960098267,644,159,54,0.001851851851851852,1499.9000000000001,1470,1415,1500
14.443228960037231,645,159,54,0.001851851851851852,1499.9000000000001,1470,1415,1500
14.466520071029663,646,159,54,0.001851851851851852,1499.9000000000001,1470,1415,1500
14.489910125732422,647,159,54,0.001851851851851852,1499.9000000000001,1470,1415,1500
14.513190031051636,648,159,54,0.001851851851851852,1499.9000000000001,1470,1415,1500
14.536456108093262,649,159,54,0.001851851851851852,1499.9000000000001,1470,1415,1500
14.559617042541504,650,159,54,0.0017543859649122807,1499.9000000000001,1470,1415,1500
14.582703113555908,651,159,54,0.0017543859649122807,1499.9000000000001,1470,1415,1500
14.60598611831665,652,159,54,0.0017543859649122807,1499.9000000000001,1470,1415,1500
14.62911605834961,653,159,54,0.0017543859649122807,1499.9000000000001,1470,1415,1500
14.65227198600769,654,159,53,0.001851851851851852,1499.9000000000001,1470,1415,1500
14.675353050231934,655,158,53,0.001851851851851852,1499.8,1470,1415,1500
14.698493003845215,656,158,53,0.001851851851851852,1499.8,1470,1415,1500
14.72157597541809,657,158,53,0.001851851851851852,1499.8,1470,1415,1500
14.744714975357056,658,158,53,0.001851851851851852,1499.8,1470,1415,1500
14.767815113067627,659,158,53,0.0017543859649122807,1499.8,1470,1415,1500
14.790945053100586,660,158,53,0.001697792869269949,1499.8,1470,1415,1500
14.814050912857056,661,157,53,0.0017543859649122807,1499.7,1470,1415,1500
14.837235927581787,662,158,53,0.001697792869269949,1499.8,1470,1415,1500
14.860350131988525,663,157,52,0.001697792869269949,1499.7,1470,1415,1500
14.883608102798462,664,157,52,0.001697792869269949,1499.7,1470,1415,1500
14.90693211555481,665,157,52,0.001697792869269949,1499.7,1470,1415,1500
14.930062055587769,666,156,52,0.001697792869269949,1499.5999999999999,1470,1415,1500
14.953208923339844,667,156,52,0.001644736842105263,1499.5999999999999,1470,1415,1500
14.976438045501709,668,156,51,0.0015625,1499.5999999999999,1470,1415,1500
14.999538898468018,669,156,51,0.0016129032258064516,1499.5999999999999,1470,1415,1500
15.022687911987305,670,156,51,0.0015625,1499.5999999999999,1470,1415,1500
15.045949935913086,671,155,51,0.001697792869269949,1499.5,1470,1415,1500
15.069124937057495,672,155,50,0.0016129032258064516,1499.5,1470,1415,1500
15.092241048812866,673,155,50,0.0016129032258064516,1499.5,1470,1415,1500
15.115368127822876,674,155,50,0.001697792869269949,1499.5,1470,1415,1500
15.138440132141113,675,154,50,0.001644736842105263,1499.4000000000001,1470,1415,1500
15.161580085754395,676,155,49,0.0014705882352941176,1499.5,1470,1415,1500
15.184672117233276,677,154,49,0.0015625,1499.4000000000001,1470,1415,1500
15.207801103591919,678,155,49,0.0015479876160990713,1499.5,1470,1415,1500
15.23091197013855,679,155,48,0.0015151515151515152,1499.5,1470,1415,1500
15.254074096679688,680,154,48,0.0015479876160990713,1499.4000000000001,1470,1415,1500
15.277161121368408,681,154,47,0.0014705882352941176,1499.4000000000001,1470,1415,1500
15.300293922424316,682,154,47,0.0014705882352941176,1499.4000000000001,1470,1415,1500
15.323439121246338,683,154,47,0.0014705882352941176,1499.4000000000001,1470,1415,1500
15.346678972244263,684,154,47,0.0014705882352941176,1499.4000000000001,1470,1415,1500
15.369781970977783,685,154,47,0.0014705882352941176,1499.4000000000001,1470,1415,1500
15.392915964126587,686,154,47,0.0014005602240896359,1499.4000000000001,1470,1415,1500
15.416165113449097,687,154,46,0.0014705882352941176,1499.4000000000001,1470,1415,1500
15.439337968826294,688,154,46,0.0014705882352941176,1499.4000000000001,1470,1415,1500
15.462501049041748,689,154,46,0.0014705882352941176,1499.4000000000001,1470,1415,1500
15.485950946807861,690,154,46,0.0014705882352941176,1499.4000000000001,1470,1415,1500
15.509083986282349,691,154,46,0.0014285714285714286,1499.4000000000001,1470,1415,1500
15.532494068145752,692,154,46,0.0014705882352941176,1499.4000000000001,1470,1415,1500
15.555804014205933,693,154,46,0.0014705882352941176,1499.4000000000001,1470,1415,1500
15.578949928283691,694,154,46,0.0014705882352941176,1499.4000000000001,1470,1415,1500
15.602070093154907,695,154,46,0.0014705882352941176,1499.4000000000001,1470,1415,1500
15.625229120254517,696,154,46,0.0014705882352941176,1499.4000000000001,1470,1415,1500
15.64833402633667,697,154,46,0.0014705882352941176,1499.4000000000001,1470,1415,1500
15.670893907546997,698,154,46,0.0014705882352941176,1499.4000000000001,1470,1415,1500
15.693506002426147,699,154,46,0.0014705882352941176,1499.4000000000001,1470,1415,1500
15.716140985488892,700,154,46,0.0014705882352941176,1499.4000000000001,1470,1415,1500
15.738703966140747,701,154,46,0.0014705882352941176,1499.4000000000001,1470,1415,1500
15.761286973953247,702,154,46,0.0014705882352941176,1499.4000000000001,1470,1415,1500
15.783917903900146,703,154,46,0.0014705882352941176,1499.4000000000001,1470,1415,1500
15.806711912155151,704,155,46,0.0013605442176870747,1499.5,1470,1415,1500
15.82927393913269,705,155,46,0.0013605442176870747,1499.5,1470,1415,1500
15.85187292098999,706,155,46,0.0013605442176870747,1499.5,1470,1415,1500
15.874406099319458,707,155,46,0.0013605442176870747,1499.5,1470,1415,1500
15.896948099136353,708,155,46,0.0013605442176870747,1499.5,1470,1415,1500
15.919474124908447,709,155,46,0.0013605442176870747,1499.5,1470,1415,1500
15.942035913467407,710,155,46,0.0013605442176870747,1499.5,1470,1415,1500
15.964566946029663,711,155,45,0.0012987012987012987,1499.5,1470,1415,1500
15.987128973007202,712,155,45,0.0013605442176870747,1499.5,1470,1415,1500
16.009639978408813,713,155,45,0.0013605442176870747,1499.5,1470,1415,1500
16.03220510482788,714,155,45,0.0013605442176870747,1499.5,1470,1415,1500
16.05474591255188,715,155,45,0.0013605442176870747,1499.5,1470,1415,1500
16.077311038970947,716,155,44,0.0012987012987012987,1499.5,1470,1415,1500
16.099833011627197,717,155,44,0.0014005602240896359,1499.5,1470,1415,1500
16.122374057769775,718,155,44,0.0014005602240896359,1499.5,1470,1415,1500
16.144896984100342,719,156,44,0.0013605442176870747,1499.5999999999999,1470,1415,1500
16.167459964752197,720,155,44,0.0014005602240896359,1499.5,1470,1415,1500
16.18997812271118,721,155,44,0.0014005602240896359,1499.5,1470,1415,1500
16.21254301071167,722,156,43,0.0013605442176870747,1499.5999999999999,1470,1415,1500
16.23505997657776,723,156,43,0.0013605442176870747,1499.5999999999999,1470,1415,1500
