time,frame,x,y,size_inv,roll,pitch,thrust,yaw
0,0,,,,1500.0,1500.0,1420.0,1500
0.05,0,,,,1500.0,1500.0,1420.0,1500
0.1,0,,,,1500.0,1500.0,1420.0,1500
0.15000000000000002,0,,,,1500.0,1500.0,1420.0,1500
0.2,0,,,,1500.0,1500.0,1420.0,1500
0.25,0,,,,1500.0,1500.0,1420.0,1500
0.3,0,,,,1500.0,1500.0,1420.0,1500
0.35,0,,,,1500.0,1500.0,1420.0,1500
0.39999999999999997,0,,,,1500.0,1500.0,1420.0,1500
0.44999999999999996,0,,,,1500.0,1500.0,1420.0,1500
0.49999999999999994,0,,,,1500.0,1500.0,1420.0,1500
0.5499999999999999,0,,,,1500.0,1500.0,1420.0,1500
0.6,0,,,,1500.0,1500.0,1420.0,1500
0.65,0,,,,1500.0,1500.0,1420.0,1500
0.7000000000000001,0,,,,1500.0,1500.0,1420.0,1500
0.7500000000000001,0,,,,1500.0,1500.0,1420.0,1500
0.8000000000000002,0,,,,1500.0,1500.0,1420.0,1500
0.8500000000000002,0,,,,1500.0,1500.0,1420.0,1500
0.9000000000000002,0,,,,1500.0,1500.0,1420.0,1500
0.9500000000000003,0,,,,1500.0,1500.0,1420.0,1500
1.0000000000000002,0,,,,1500.0,1500.0,1420.0,1500
1.0500000000000003,0,,,,1500.0,1500.0,1420.0,1500
1.1000000000000003,0,,,,1500.0,1500.0,1420.0,1500
1.1500000000000004,0,,,,1500.0,1500.0,1420.0,1500
1.2000000000000004,0,,,,1500.0,1500.0,1420.0,1500
1.2500000000000004,0,,,,1500.0,1500.0,1420.0,1500
1.3000000000000005,0,,,,1500.0,1500.0,1420.0,1500
1.3500000000000005,0,,,,1500.0,1500.0,1420.0,1500
1.4000000000000006,0,,,,1500.0,1500.0,1420.0,1500
1.4500000000000006,0,,,,1500.0,1500.0,1420.0,1500
1.5000000000000007,0,,,,1500.0,1500.0,1420.0,1500
1.5500000000000007,0,,,,1500.0,1500.0,1420.0,1500
1.6000000000000008,0,,,,1500.0,1500.0,1420.0,1500
1.6500000000000008,0,,,,1500.0,1500.0,1420.0,1500
1.7000000000000008,0,,,,1500.0,1500.0,1420.0,1500
1.7500000000000009,0,,,,1500.0,1500.0,1420.0,1500
1.800000000000001,0,,,,1500.0,1500.0,1420.0,1500
1.850000000000001,0,,,,1500.0,1500.0,1420.0,1500
1.900000000000001,0,,,,1500.0,1500.0,1420.0,1500
1.950000000000001,1,303,99,,1514.3,1500.5,1421.0,1500
2.000000000000001,2,280,116,,1512.0,1500.5,1404.0,1500
2.0500000000000007,3,264,109,,1510.4,1500.5,1411.0,1500
2.1000000000000005,4,230,98,,1507.0,1500.5,1422.0,1500
2.1500000000000004,5,208,90,,1504.8,1500.5,1430.0,1500
2.2,6,184,83,,1502.4,1500.5,1437.0,1500
2.25,7,174,80,,1501.4,1500.5,1440.0,1500
2.3,8,162,78,,1500.2,1500.5,1442.0,1500
2.3499999999999996,9,158,79,,1499.8,1500.5,1441.0,1500
2.3999999999999995,10,154,82,,1499.4,1500.5,1438.0,1500
2.4499999999999993,11,153,85,,1499.3,1500.5,1435.0,1500
2.499999999999999,12,152,89,,1499.2,1500.5,1431.0,1500
2.549999999999999,13,152,93,,1499.2,1500.5,1427.0,1500
2.5999999999999988,14,151,94,,1499.1,1500.5,1426.0,1500
2.6499999999999986,15,149,96,,1498.9,1500.5,1424.0,1500
2.6999999999999984,16,147,96,,1498.7,1500.5,1424.0,1500
2.7499999999999982,17,145,96,,1498.5,1500.5,1424.0,1500
2.799999999999998,18,143,97,,1498.3,1500.5,1423.0,1500
2.849999999999998,19,143,98,,1498.3,1500.5,1422.0,1500
2.8999999999999977,20,142,98,,1498.2,1500.5,1422.0,1500
2.9499999999999975,21,141,99,,1498.1,1500.5,1421.0,1500
2.9999999999999973,22,140,99,,1498.0,1500.5,1421.0,1500
3.049999999999997,23,140,100,,1498.0,1500.5,1420.0,1500
3.099999999999997,24,139,100,,1497.9,1500.5,1420.0,1500
3.149999999999997,25,139,102,,1497.9,1500.5,1418.0,1500
3.1999999999999966,26,138,102,,1497.8,1500.5,1418.0,1500
3.2499999999999964,27,138,102,,1497.8,1500.5,1418.0,1500
3.2999999999999963,28,138,102,,1497.8,1500.5,1418.0,1500
3.349999999999996,29,137,102,,1497.7,1500.5,1418.0,1500
3.399999999999996,30,137,102,,1497.7,1500.5,1418.0,1500
3.4499999999999957,31,137,101,,1497.7,1500.5,1419.0,1500
3.4999999999999956,32,137,101,,1497.7,1500.5,1419.0,1500
3.5499999999999954,33,136,101,,1497.6,1500.5,1419.0,1500
3.599999999999995,34,136,101,,1497.6,1500.5,1419.0,1500
3.649999999999995,35,135,100,,1497.5,1500.5,1420.0,1500
3.699999999999995,36,135,100,,1497.5,1500.5,1420.0,1500
3.7499999999999947,37,134,100,,1497.4,1500.5,1420.0,1500
3.7999999999999945,38,134,100,,1497.4,1500.5,1420.0,1500
3.8499999999999943,39,134,101,,1497.4,1500.5,1419.0,1500
3.899999999999994,40,132,101,,1497.2,1500.5,1419.0,1500
3.949999999999994,41,133,101,,1497.3,1500.5,1419.0,1500
3.999999999999994,42,132,102,,1497.2,1500.5,1418.0,1500
4.049999999999994,43,133,102,,1497.3,1500.5,1418.0,1500
4.099999999999993,44,133,102,,1497.3,1500.5,1418.0,1500
4.149999999999993,45,133,102,,1497.3,1500.5,1418.0,1500
4.199999999999993,46,134,102,,1497.4,1500.5,1418.0,1500
4.249999999999993,47,135,102,,1497.5,1500.5,1418.0,1500
4.299999999999993,48,137,103,,1497.7,1500.5,1417.0,1500
4.3499999999999925,49,137,104,,1497.7,1500.5,1416.0,1500
4.399999999999992,50,140,105,,1498.0,1500.5,1415.0,1500
4.449999999999992,51,141,106,,1498.1,1500.5,1414.0,1500
4.499999999999992,52,143,108,,1498.3,1500.5,1412.0,1500
4.549999999999992,53,145,108,,1498.5,1500.5,1412.0,1500
4.599999999999992,54,147,110,,1498.7,1500.5,1410.0,1500
4.6499999999999915,55,149,110,,1498.9,1500.5,1410.0,1500
4.699999999999991,56,151,110,,1499.1,1500.5,1410.0,1500
4.749999999999991,57,153,110,,1499.3,1500.5,1410.0,1500
4.799999999999991,58,155,110,,1499.5,1500.5,1410.0,1500
4.849999999999991,59,158,111,,1499.8,1500.5,1409.0,1500
4.899999999999991,60,161,98,,1500.1,1500.5,1422.0,1500
4.94999999999999,61,163,111,,1500.3,1500.5,1409.0,1500
4.99999999999999,62,165,110,,1500.5,1500.5,1410.0,1500
5.04999999999999,63,166,97,,1500.6,1500.5,1423.0,1500
5.09999999999999,64,166,108,,1500.6,1500.5,1412.0,1500
5.14999999999999,65,165,106,,1500.5,1500.5,1414.0,1500
5.1999999999999895,66,164,103,,1500.4,1500.5,1417.0,1500
5.249999999999989,67,164,102,,1500.4,1500.5,1418.0,1500
5.299999999999989,68,162,101,,1500.2,1500.5,1419.0,1500
5.349999999999989,69,160,102,,1500.0,1500.5,1418.0,1500
5.399999999999989,70,159,101,,1499.9,1500.5,1419.0,1500
5.449999999999989,71,157,101,,1499.7,1500.5,1419.0,1500
5.4999999999999885,72,155,101,,1499.5,1500.5,1419.0,1500
5.549999999999988,73,152,101,,1499.2,1500.5,1419.0,1500
5.599999999999988,74,150,100,,1499.0,1500.5,1420.0,1500
5.649999999999988,75,147,99,,1498.7,1500.5,1421.0,1500
5.699999999999988,76,146,99,,1498.6,1500.5,1421.0,1500
5.749999999999988,77,143,98,,1498.3,1500.5,1422.0,1500
5.799999999999987,78,142,99,,1498.2,1500.5,1421.0,1500
5.849999999999987,79,140,98,,1498.0,1500.5,1422.0,1500
5.899999999999987,80,140,97,,1498.0,1500.5,1423.0,1500
5.949999999999987,81,138,97,,1497.8,1500.5,1423.0,1500
5.999999999999987,82,138,97,,1497.8,1500.5,1423.0,1500
6.0499999999999865,83,137,96,,1497.7,1500.5,1424.0,1500
6.099999999999986,84,137,95,,1497.7,1500.5,1425.0,1500
6.149999999999986,85,136,95,,1497.6,1500.5,1425.0,1500
6.199999999999986,86,136,94,,1497.6,1500.5,1426.0,1500
6.249999999999986,87,136,95,,1497.6,1500.5,1425.0,1500
6.299999999999986,88,135,95,,1497.5,1500.5,1425.0,1500
6.349999999999985,89,135,95,,1497.5,1500.5,1425.0,1500
6.399999999999985,90,135,96,,1497.5,1500.5,1424.0,1500
6.449999999999985,91,135,96,,1497.5,1500.5,1424.0,1500
6.499999999999985,92,138,97,,1497.8,1500.5,1423.0,1500
6.549999999999985,93,136,97,,1497.6,1500.5,1423.0,1500
6.5999999999999845,94,135,98,,1497.5,1500.5,1422.0,1500
6.649999999999984,95,135,98,,1497.5,1500.5,1422.0,1500
6.699999999999984,96,136,98,,1497.6,1500.5,1422.0,1500
6.749999999999984,97,135,98,,1497.5,1500.5,1422.0,1500
6.799999999999984,98,136,99,,1497.6,1500.5,1421.0,1500
6.849999999999984,99,136,98,,1497.6,1500.5,1422.0,1500
6.8999999999999835,100,136,99,,1497.6,1500.5,1421.0,1500
6.949999999999983,101,136,99,,1497.6,1500.5,1421.0,1500
6.999999999999983,102,137,99,,1497.7,1500.5,1421.0,1500
7.049999999999983,103,137,99,,1497.7,1500.5,1421.0,1500
7.099999999999983,104,138,98,,1497.8,1500.5,1422.0,1500
7.149999999999983,105,137,98,,1497.7,1500.5,1422.0,1500
7.199999999999982,106,138,99,,1497.8,1500.5,1421.0,1500
7.249999999999982,107,140,100,,1498.0,1500.5,1420.0,1500
7.299999999999982,108,138,100,,1497.8,1500.5,1420.0,1500
7.349999999999982,109,138,100,,1497.8,1500.5,1420.0,1500
7.399999999999982,110,138,100,,1497.8,1500.5,1420.0,1500
7.4499999999999815,111,138,100,,1497.8,1500.5,1420.0,1500
7.499999999999981,112,141,100,,1498.1,1500.5,1420.0,1500
7.549999999999981,113,139,100,,1497.9,1500.5,1420.0,1500
7.599999999999981,114,138,100,,1497.8,1500.5,1420.0,1500
7.649999999999981,115,139,101,,1497.9,1500.5,1419.0,1500
7.699999999999981,116,138,101,,1497.8,1500.5,1419.0,1500
7.7499999999999805,117,140,101,,1498.0,1500.5,1419.0,1500
7.79999999999998,118,138,101,,1497.8,1500.5,1419.0,1500
7.84999999999998,119,138,101,,1497.8,1500.5,1419.0,1500
7.89999999999998,120,138,101,,1497.8,1500.5,1419.0,1500
7.94999999999998,121,139,101,,1497.9,1500.5,1419.0,1500
7.99999999999998,122,137,102,,1497.7,1500.5,1418.0,1500
8.04999999999998,123,137,101,,1497.7,1500.5,1419.0,1500
8.09999999999998,124,137,102,,1497.7,1500.5,1418.0,1500
8.14999999999998,125,136,100,,1497.6,1500.5,1420.0,1500
8.199999999999982,126,140,104,,1498.0,1500.5,1416.0,1500
8.249999999999982,127,140,103,,1498.0,1500.5,1417.0,1500
8.299999999999983,128,137,102,,1497.7,1500.5,1418.0,1500
8.349999999999984,129,137,102,,1497.7,1500.5,1418.0,1500
8.399999999999984,130,137,102,,1497.7,1500.5,1418.0,1500
8.449999999999985,131,138,102,,1497.8,1500.5,1418.0,1500
8.499999999999986,132,137,102,,1497.7,1500.5,1418.0,1500
8.549999999999986,133,137,101,,1497.7,1500.5,1419.0,1500
8.599999999999987,134,138,101,,1497.8,1500.5,1419.0,1500
8.649999999999988,135,139,102,,1497.9,1500.5,1418.0,1500
8.699999999999989,136,139,100,,1497.9,1500.5,1420.0,1500
8.74999999999999,137,138,99,,1497.8,1500.5,1421.0,1500
8.79999999999999,138,140,102,,1498.0,1500.5,1418.0,1500
8.84999999999999,139,138,99,,1497.8,1500.5,1421.0,1500
8.899999999999991,140,139,102,,1497.9,1500.5,1418.0,1500
8.949999999999992,141,139,102,,1497.9,1500.5,1418.0,1500
8.999999999999993,142,139,102,,1497.9,1500.5,1418.0,1500
9.049999999999994,143,140,101,,1498.0,1500.5,1419.0,1500
9.099999999999994,144,139,102,,1497.9,1500.5,1418.0,1500
9.149999999999995,145,138,102,,1497.8,1500.5,1418.0,1500
9.199999999999996,146,138,102,,1497.8,1500.5,1418.0,1500
9.249999999999996,147,141,102,,1498.1,1500.5,1418.0,1500
9.299999999999997,148,139,102,,1497.9,1500.5,1418.0,1500
9.349999999999998,149,140,102,,1498.0,1500.5,1418.0,1500
9.399999999999999,150,138,102,,1497.8,1500.5,1418.0,1500
9.45,151,138,102,,1497.8,1500.5,1418.0,1500
9.5,152,138,102,,1497.8,1500.5,1418.0,1500
9.55,153,140,101,,1498.0,1500.5,1419.0,1500
9.600000000000001,154,140,99,,1498.0,1500.5,1421.0,1500
9.650000000000002,155,138,101,,1497.8,1500.5,1419.0,1500
9.700000000000003,156,139,100,,1497.9,1500.5,1420.0,1500
9.750000000000004,157,138,102,,1497.8,1500.5,1418.0,1500
9.800000000000004,158,139,102,,1497.9,1500.5,1418.0,1500
9.850000000000005,159,140,102,,1498.0,1500.5,1418.0,1500
9.900000000000006,160,140,102,,1498.0,1500.5,1418.0,1500
9.950000000000006,161,141,104,,1498.1,1500.5,1416.0,1500
10.000000000000007,162,139,102,,1497.9,1500.5,1418.0,1500
10.050000000000008,163,140,102,,1498.0,1500.5,1418.0,1500
10.100000000000009,164,140,102,,1498.0,1500.5,1418.0,1500
10.15000000000001,165,138,100,,1497.8,1500.5,1420.0,1500
10.20000000000001,166,141,103,,1498.1,1500.5,1417.0,1500
10.25000000000001,167,139,102,,1497.9,1500.5,1418.0,1500
10.300000000000011,168,141,104,,1498.1,1500.5,1416.0,1500
10.350000000000012,169,139,102,,1497.9,1500.5,1418.0,1500
10.400000000000013,170,140,102,,1498.0,1500.5,1418.0,1500
10.450000000000014,171,141,100,,1498.1,1500.5,1420.0,1500
10.500000000000014,172,139,102,,1497.9,1500.5,1418.0,1500
10.550000000000015,173,140,103,,1498.0,1500.5,1417.0,1500
10.600000000000016,174,138,103,,1497.8,1500.5,1417.0,1500
10.650000000000016,175,138,103,,1497.8,1500.5,1417.0,1500
10.700000000000017,176,138,102,,1497.8,1500.5,1418.0,1500
10.750000000000018,177,139,103,,1497.9,1500.5,1417.0,1500
10.800000000000018,178,138,103,,1497.8,1500.5,1417.0,1500
10.85000000000002,179,138,103,,1497.8,1500.5,1417.0,1500
10.90000000000002,180,138,103,,1497.8,1500.5,1417.0,1500
10.95000000000002,181,139,102,,1497.9,1500.5,1418.0,1500
11.000000000000021,182,141,104,,1498.1,1500.5,1416.0,1500
11.050000000000022,183,139,102,,1497.9,1500.5,1418.0,1500
11.100000000000023,184,140,104,,1498.0,1500.5,1416.0,1500
11.150000000000023,185,138,103,,1497.8,1500.5,1417.0,1500
11.200000000000024,186,138,103,,1497.8,1500.5,1417.0,1500
11.250000000000025,187,138,100,,1497.8,1500.5,1420.0,1500
11.300000000000026,188,139,101,,1497.9,1500.5,1419.0,1500
11.350000000000026,189,139,103,,1497.9,1500.5,1417.0,1500
11.400000000000027,190,138,102,,1497.8,1500.5,1418.0,1500
11.450000000000028,191,139,104,,1497.9,1500.5,1416.0,1500
11.500000000000028,192,138,103,,1497.8,1500.5,1417.0,1500
11.55000000000003,193,138,103,,1497.8,1500.5,1417.0,1500
11.60000000000003,194,138,103,,1497.8,1500.5,1417.0,1500
11.65000000000003,195,138,103,,1497.8,1500.5,1417.0,1500
11.700000000000031,196,138,103,,1497.8,1500.5,1417.0,1500
11.750000000000032,197,138,103,,1497.8,1500.5,1417.0,1500
11.800000000000033,198,139,103,,1497.9,1500.5,1417.0,1500
11.850000000000033,199,140,103,,1498.0,1500.5,1417.0,1500
11.900000000000034,200,139,103,,1497.9,1500.5,1417.0,1500
11.950000000000035,201,139,103,,1497.9,1500.5,1417.0,1500
12.000000000000036,202,139,104,,1497.9,1500.5,1416.0,1500
12.050000000000036,203,138,104,,1497.8,1500.5,1416.0,1500
12.100000000000037,204,138,104,,1497.8,1500.5,1416.0,1500
12.150000000000038,205,138,104,,1497.8,1500.5,1416.0,1500
12.200000000000038,206,138,104,,1497.8,1500.5,1416.0,1500
12.250000000000039,207,138,105,,1497.8,1500.5,1415.0,1500
12.30000000000004,208,138,105,,1497.8,1500.5,1415.0,1500
12.35000000000004,209,141,107,,1498.1,1500.5,1413.0,1500
12.400000000000041,210,140,106,,1498.0,1500.5,1414.0,1500
12.450000000000042,211,139,106,,1497.9,1500.5,1414.0,1500
12.500000000000043,212,142,106,,1498.2,1500.5,1414.0,1500
12.550000000000043,213,139,105,,1497.9,1500.5,1415.0,1500
12.600000000000044,214,142,107,,1498.2,1500.5,1413.0,1500
12.650000000000045,215,141,106,,1498.1,1500.5,1414.0,1500
12.700000000000045,216,141,105,,1498.1,1500.5,1415.0,1500
12.750000000000046,217,138,106,,1497.8,1500.5,1414.0,1500
12.800000000000047,218,138,106,,1497.8,1500.5,1414.0,1500
12.850000000000048,219,139,106,,1497.9,1500.5,1414.0,1500
12.900000000000048,220,138,105,,1497.8,1500.5,1415.0,1500
12.950000000000049,221,140,103,,1498.0,1500.5,1417.0,1500
13.00000000000005,222,139,105,,1497.9,1500.5,1415.0,1500
13.05000000000005,223,139,105,,1497.9,1500.5,1415.0,1500
13.100000000000051,224,139,104,,1497.9,1500.5,1416.0,1500
13.150000000000052,225,139,106,,1497.9,1500.5,1414.0,1500
13.200000000000053,226,139,102,,1497.9,1500.5,1418.0,1500
13.250000000000053,227,143,106,,1498.3,1500.5,1414.0,1500
13.300000000000054,228,141,104,,1498.1,1500.5,1416.0,1500
13.350000000000055,229,140,106,,1498.0,1500.5,1414.0,1500
13.400000000000055,230,141,104,,1498.1,1500.5,1416.0,1500
13.450000000000056,231,142,110,,1498.2,1500.5,1410.0,1500
13.500000000000057,232,142,107,,1498.2,1500.5,1413.0,1500
13.550000000000058,233,140,104,,1498.0,1500.5,1416.0,1500
13.600000000000058,234,142,107,,1498.2,1500.5,1413.0,1500
13.650000000000059,235,140,106,,1498.0,1500.5,1414.0,1500
13.70000000000006,236,139,106,,1497.9,1500.5,1414.0,1500
13.75000000000006,237,139,107,,1497.9,1500.5,1413.0,1500
13.800000000000061,238,143,107,,1498.3,1500.5,1413.0,1500
13.850000000000062,239,141,106,,1498.1,1500.5,1414.0,1500
13.900000000000063,240,140,106,,1498.0,1500.5,1414.0,1500
13.950000000000063,241,143,109,,1498.3,1500.5,1411.0,1500
14.000000000000064,242,140,106,,1498.0,1500.5,1414.0,1500
14.050000000000065,243,143,106,,1498.3,1500.5,1414.0,1500
14.100000000000065,244,143,106,,1498.3,1500.5,1414.0,1500
14.150000000000066,245,142,106,,1498.2,1500.5,1414.0,1500
14.200000000000067,246,141,105,,1498.1,1500.5,1415.0,1500
14.250000000000068,247,142,103,,1498.2,1500.5,1417.0,1500
14.300000000000068,248,141,104,,1498.1,1500.5,1416.0,1500
14.350000000000069,249,141,105,,1498.1,1500.5,1415.0,1500
14.40000000000007,250,141,104,,1498.1,1500.5,1416.0,1500
14.45000000000007,251,142,104,,1498.2,1500.5,1416.0,1500
14.500000000000071,252,141,104,,1498.1,1500.5,1416.0,1500
14.550000000000072,253,144,104,,1498.4,1500.5,1416.0,1500
14.600000000000072,254,142,103,,1498.2,1500.5,1417.0,1500
14.650000000000073,255,142,103,,1498.2,1500.5,1417.0,1500
14.700000000000074,256,141,103,,1498.1,1500.5,1417.0,1500
14.750000000000075,257,140,101,,1498.0,1500.5,1419.0,1500
14.800000000000075,258,143,102,,1498.3,1500.5,1418.0,1500
14.850000000000076,259,141,102,,1498.1,1500.5,1418.0,1500
14.900000000000077,260,141,102,,1498.1,1500.5,1418.0,1500
14.950000000000077,261,139,101,,1497.9,1500.5,1419.0,1500
15.000000000000078,262,139,101,,1497.9,1500.5,1419.0,1500
15.050000000000079,263,141,103,,1498.1,1500.5,1417.0,1500
15.10000000000008,264,140,100,,1498.0,1500.5,1420.0,1500
15.15000000000008,265,139,101,,1497.9,1500.5,1419.0,1500
15.200000000000081,266,140,101,,1498.0,1500.5,1419.0,1500
15.250000000000082,267,139,101,,1497.9,1500.5,1419.0,1500
15.300000000000082,268,139,101,,1497.9,1500.5,1419.0,1500
15.350000000000083,269,139,101,,1497.9,1500.5,1419.0,1500
15.400000000000084,270,140,98,,1498.0,1500.5,1422.0,1500
15.450000000000085,271,141,101,,1498.1,1500.5,1419.0,1500
15.500000000000085,272,139,101,,1497.9,1500.5,1419.0,1500
15.550000000000086,273,140,101,,1498.0,1500.5,1419.0,1500
15.600000000000087,274,141,101,,1498.1,1500.5,1419.0,1500
15.650000000000087,275,141,101,,1498.1,1500.5,1419.0,1500
15.700000000000088,276,138,99,,1497.8,1500.5,1421.0,1500
15.750000000000089,277,140,101,,1498.0,1500.5,1419.0,1500
15.80000000000009,278,140,99,,1498.0,1500.5,1421.0,1500
15.85000000000009,279,140,101,,1498.0,1500.5,1419.0,1500
15.900000000000091,280,140,101,,1498.0,1500.5,1419.0,1500
15.950000000000092,281,141,101,,1498.1,1500.5,1419.0,1500
16.000000000000092,282,141,104,,1498.1,1500.5,1416.0,1500
16.050000000000093,283,139,98,,1497.9,1500.5,1422.0,1500
16.100000000000094,284,139,101,,1497.9,1500.5,1419.0,1500
16.150000000000095,285,139,98,,1497.9,1500.5,1422.0,1500
16.200000000000095,286,142,100,,1498.2,1500.5,1420.0,1500
16.250000000000096,287,141,102,,1498.1,1500.5,1418.0,1500
16.300000000000097,288,143,102,,1498.3,1500.5,1418.0,1500
16.350000000000097,289,144,102,,1498.4,1500.5,1418.0,1500
16.400000000000098,290,146,102,,1498.6,1500.5,1418.0,1500
16.4500000000001,291,144,102,,1498.4,1500.5,1418.0,1500
16.5000000000001,292,145,103,,1498.5,1500.5,1417.0,1500
16.5500000000001,293,146,103,,1498.6,1500.5,1417.0,1500
16.6000000000001,294,148,103,,1498.8,1500.5,1417.0,1500
16.6500000000001,295,147,103,,1498.7,1500.5,1417.0,1500
16.700000000000102,296,149,103,,1498.9,1500.5,1417.0,1500
16.750000000000103,297,149,103,,1498.9,1500.5,1417.0,1500
16.800000000000104,298,150,103,,1499.0,1500.5,1417.0,1500
16.850000000000104,299,150,102,,1499.0,1500.5,1418.0,1500
16.900000000000105,300,151,103,,1499.1,1500.5,1417.0,1500
16.950000000000106,301,151,103,,1499.1,1500.5,1417.0,1500
17.000000000000107,302,152,103,,1499.2,1500.5,1417.0,1500
17.050000000000107,303,152,103,,1499.2,1500.5,1417.0,1500
17.100000000000108,304,152,103,,1499.2,1500.5,1417.0,1500
17.15000000000011,305,152,104,,1499.2,1500.5,1416.0,1500
17.20000000000011,306,154,103,,1499.4,1500.5,1417.0,1500
17.25000000000011,307,153,104,,1499.3,1500.5,1416.0,1500
17.30000000000011,308,153,103,,1499.3,1500.5,1417.0,1500
17.35000000000011,309,153,104,,1499.3,1500.5,1416.0,1500
17.400000000000112,310,154,104,,1499.4,1500.5,1416.0,1500
17.450000000000113,311,153,104,,1499.3,1500.5,1416.0,1500
17.500000000000114,312,154,101,,1499.4,1500.5,1419.0,1500
17.550000000000114,313,155,104,,1499.5,1500.5,1416.0,1500
17.600000000000115,314,155,104,,1499.5,1500.5,1416.0,1500
17.650000000000116,315,156,104,,1499.6,1500.5,1416.0,1500
17.700000000000117,316,156,103,,1499.6,1500.5,1417.0,1500
17.750000000000117,317,159,103,,1499.9,1500.5,1417.0,1500
17.800000000000118,318,158,103,,1499.8,1500.5,1417.0,1500
17.85000000000012,319,159,103,,1499.9,1500.5,1417.0,1500
17.90000000000012,320,160,103,,1500.0,1500.5,1417.0,1500
17.95000000000012,321,160,103,,1500.0,1500.5,1417.0,1500
18.00000000000012,322,162,103,,1500.2,1500.5,1417.0,1500
18.05000000000012,323,163,104,,1500.3,1500.5,1416.0,1500
18.100000000000122,324,163,104,,1500.3,1500.5,1416.0,1500
18.150000000000123,325,163,104,,1500.3,1500.5,1416.0,1500
18.200000000000124,326,166,104,,1500.6,1500.5,1416.0,1500
18.250000000000124,327,164,101,,1500.4,1500.5,1419.0,1500
18.300000000000125,328,164,104,,1500.4,1500.5,1416.0,1500
18.350000000000126,329,167,104,,1500.7,1500.5,1416.0,1500
18.400000000000126,330,166,104,,1500.6,1500.5,1416.0,1500
18.450000000000127,331,166,104,,1500.6,1500.5,1416.0,1500
18.500000000000128,332,166,104,,1500.6,1500.5,1416.0,1500
18.55000000000013,333,168,104,,1500.8,1500.5,1416.0,1500
18.60000000000013,334,167,104,,1500.7,1500.5,1416.0,1500
18.65000000000013,335,167,104,,1500.7,1500.5,1416.0,1500
18.70000000000013,336,168,105,,1500.8,1500.5,1415.0,1500
18.75000000000013,337,169,104,,1500.9,1500.5,1416.0,1500
18.800000000000132,338,170,104,,1501.0,1500.5,1416.0,1500
18.850000000000133,339,170,104,,1501.0,1500.5,1416.0,1500
18.900000000000134,340,172,104,,1501.2,1500.5,1416.0,1500
18.950000000000134,341,172,104,,1501.2,1500.5,1416.0,1500
19.000000000000135,342,173,103,,1501.3,1500.5,1417.0,1500
19.050000000000136,343,174,103,,1501.4,1500.5,1417.0,1500
19.100000000000136,344,175,103,,1501.5,1500.5,1417.0,1500
19.150000000000137,345,175,102,,1501.5,1500.5,1418.0,1500
19.200000000000138,346,177,103,,1501.7,1500.5,1417.0,1500
19.25000000000014,347,177,103,,1501.7,1500.5,1417.0,1500
19.30000000000014,348,178,103,,1501.8,1500.5,1417.0,1500
19.35000000000014,349,179,102,,1501.9,1500.5,1418.0,1500
19.40000000000014,350,180,103,,1502.0,1500.5,1417.0,1500
19.45000000000014,351,180,103,,1502.0,1500.5,1417.0,1500
19.500000000000142,352,180,103,,1502.0,1500.5,1417.0,1500
19.550000000000143,353,180,103,,1502.0,1500.5,1417.0,1500
19.600000000000144,354,180,103,,1502.0,1500.5,1417.0,1500
19.650000000000144,355,181,103,,1502.1,1500.5,1417.0,1500
19.700000000000145,356,181,103,,1502.1,1500.5,1417.0,1500
19.750000000000146,357,180,103,,1502.0,1500.5,1417.0,1500
19.800000000000146,358,180,104,,1502.0,1500.5,1416.0,1500
19.850000000000147,359,181,104,,1502.1,1500.5,1416.0,1500
19.900000000000148,360,180,105,,1502.0,1500.5,1415.0,1500
19.95000000000015,361,180,105,,1502.0,1500.5,1415.0,1500
20.00000000000015,362,179,106,,1501.9,1500.5,1414.0,1500
20.05000000000015,363,179,106,,1501.9,1500.5,1414.0,1500
20.10000000000015,364,179,106,,1501.9,1500.5,1414.0,1500
20.15000000000015,365,177,107,,1501.7,1500.5,1413.0,1500
20.200000000000152,366,177,107,,1501.7,1500.5,1413.0,1500
20.250000000000153,367,175,108,,1501.5,1500.5,1412.0,1500
20.300000000000153,368,175,108,,1501.5,1500.5,1412.0,1500
20.350000000000154,369,174,109,,1501.4,1500.5,1411.0,1500
20.400000000000155,370,173,111,,1501.3,1500.5,1409.0,1500
20.450000000000156,371,171,112,,1501.1,1500.5,1408.0,1500
20.500000000000156,372,171,113,,1501.1,1500.5,1407.0,1500
20.550000000000157,373,170,115,,1501.0,1500.5,1405.0,1500
20.600000000000158,374,170,116,,1501.0,1500.5,1404.0,1500
20.65000000000016,375,170,118,,1501.0,1500.5,1402.0,1500
20.70000000000016,376,171,119,,1501.1,1500.5,1401.0,1500
20.75000000000016,377,171,120,,1501.1,1500.5,1400.0,1500
20.80000000000016,378,171,120,,1501.1,1500.5,1400.0,1500
20.85000000000016,379,172,119,,1501.2,1500.5,1401.0,1500
20.900000000000162,380,172,119,,1501.2,1500.5,1401.0,1500
20.950000000000163,381,173,117,,1501.3,1500.5,1403.0,1500
21.000000000000163,382,173,117,,1501.3,1500.5,1403.0,1500
21.050000000000164,383,173,115,,1501.3,1500.5,1405.0,1500
21.100000000000165,384,173,114,,1501.3,1500.5,1406.0,1500
21.150000000000166,385,171,114,,1501.1,1500.5,1406.0,1500
21.200000000000166,386,170,113,,1501.0,1500.5,1407.0,1500
21.250000000000167,387,168,113,,1500.8,1500.5,1407.0,1500
21.300000000000168,388,167,112,,1500.7,1500.5,1408.0,1500
21.35000000000017,389,165,112,,1500.5,1500.5,1408.0,1500
21.40000000000017,390,163,111,,1500.3,1500.5,1409.0,1500
21.45000000000017,391,161,111,,1500.1,1500.5,1409.0,1500
21.50000000000017,392,158,109,,1499.8,1500.5,1411.0,1500
21.55000000000017,393,153,106,,1499.3,1500.5,1414.0,1500
21.600000000000172,394,149,104,,1498.9,1500.5,1416.0,1500
21.650000000000173,395,143,101,,1498.3,1500.5,1419.0,1500
21.700000000000173,396,139,100,,1497.9,1500.5,1420.0,1500
21.750000000000174,397,133,95,,1497.3,1500.5,1425.0,1500
21.800000000000175,398,129,96,,1496.9,1500.5,1424.0,1500
21.850000000000176,399,125,92,,1496.5,1500.5,1428.0,1500
21.900000000000176,400,120,92,,1496.0,1500.5,1428.0,1500
21.950000000000177,401,119,91,,1495.9,1500.5,1429.0,1500
22.000000000000178,402,117,89,,1495.7,1500.5,1431.0,1500
22.05000000000018,403,116,86,,1495.6,1500.5,1434.0,1500
22.10000000000018,404,115,92,,1495.5,1500.5,1428.0,1500
22.15000000000018,405,112,86,,1495.2,1500.5,1434.0,1500
22.20000000000018,406,106,87,,1494.6,1500.5,1433.0,1500
22.25000000000018,407,106,86,,1494.6,1500.5,1434.0,1500
22.300000000000182,408,102,84,,1494.2,1500.5,1436.0,1500
22.350000000000183,409,97,88,,1493.7,1500.5,1432.0,1500
22.400000000000183,410,91,87,,1493.1,1500.5,1433.0,1500
22.450000000000184,411,90,86,,1493.0,1500.5,1434.0,1500
22.500000000000185,412,90,87,,1493.0,1500.5,1433.0,1500
22.550000000000185,413,84,88,,1492.4,1500.5,1432.0,1500
22.600000000000186,414,86,88,,1492.6,1500.5,1432.0,1500
22.650000000000187,415,83,92,,1492.3,1500.5,1428.0,1500
22.700000000000188,416,82,98,,1492.2,1500.5,1422.0,1500
22.75000000000019,417,82,97,,1492.2,1500.5,1423.0,1500
22.80000000000019,418,81,102,,1492.1,1500.5,1418.0,1500
22.85000000000019,419,81,101,,1492.1,1500.5,1419.0,1500
22.90000000000019,420,79,101,,1491.9,1500.5,1419.0,1500
22.95000000000019,421,80,102,,1492.0,1500.5,1418.0,1500
23.000000000000192,422,80,106,,1492.0,1500.5,1414.0,1500
23.050000000000193,423,81,101,,1492.1,1500.5,1419.0,1500
23.100000000000193,424,80,101,,1492.0,1500.5,1419.0,1500
23.150000000000194,425,84,102,,1492.4,1500.5,1418.0,1500
23.200000000000195,426,85,99,,1492.5,1500.5,1421.0,1500
23.250000000000195,427,88,97,,1492.8,1500.5,1423.0,1500
23.300000000000196,428,90,97,,1493.0,1500.5,1423.0,1500
23.350000000000197,429,88,100,,1492.8,1500.5,1420.0,1500
23.400000000000198,430,91,96,,1493.1,1500.5,1424.0,1500
23.4500000000002,431,87,95,,1492.7,1500.5,1425.0,1500
23.5000000000002,432,86,94,,1492.6,1500.5,1426.0,1500
23.5500000000002,433,87,93,,1492.7,1500.5,1427.0,1500
23.6000000000002,434,88,94,,1492.8,1500.5,1426.0,1500
23.6500000000002,435,93,88,,1493.3,1500.5,1432.0,1500
23.700000000000202,436,97,87,,1493.7,1500.5,1433.0,1500
23.750000000000203,437,108,81,,1494.8,1500.5,1439.0,1500
23.800000000000203,438,116,84,,1495.6,1500.5,1436.0,1500
23.850000000000204,439,130,75,,1497.0,1500.5,1445.0,1500
23.900000000000205,440,139,76,,1497.9,1500.5,1444.0,1500
23.950000000000205,441,154,75,,1499.4,1500.5,1445.0,1500
24.000000000000206,442,163,72,,1500.3,1500.5,1448.0,1500
24.050000000000207,443,171,75,,1501.1,1500.5,1445.0,1500
24.100000000000207,444,185,76,,1502.5,1500.5,1444.0,1500
24.150000000000208,445,194,79,,1503.4,1500.5,1441.0,1500
24.20000000000021,446,204,83,,1504.4,1500.5,1437.0,1500
24.25000000000021,447,212,76,,1505.2,1500.5,1444.0,1500
24.30000000000021,448,235,83,,1507.5,1500.5,1437.0,1500
24.35000000000021,449,201,76,,1504.1,1500.5,1444.0,1500
24.40000000000021,450,237,82,,1507.7,1500.5,1438.0,1500
24.450000000000212,451,245,87,,1508.5,1500.5,1433.0,1500
24.500000000000213,452,239,90,,1507.9,1500.5,1430.0,1500
24.550000000000214,453,233,95,,1507.3,1500.5,1425.0,1500
24.600000000000215,454,238,92,,1507.8,1500.5,1428.0,1500
24.650000000000215,455,239,94,,1507.9,1500.5,1426.0,1500
24.700000000000216,456,255,102,,1509.5,1500.5,1418.0,1500
24.750000000000217,457,248,92,,1508.8,1500.5,1428.0,1500
24.800000000000217,458,252,94,,1509.2,1500.5,1426.0,1500
24.850000000000218,459,256,94,,1509.6,1500.5,1426.0,1500
24.90000000000022,460,259,82,,1509.9,1500.5,1438.0,1500
24.95000000000022,461,250,80,,1509.0,1500.5,1440.0,1500
25.00000000000022,462,229,78,,1506.9,1500.5,1442.0,1500
25.05000000000022,462,,,,1500.0,1500.0,1420.0,1500
25.10000000000022,463,249,86,,1508.9,1500.5,1434.0,1500
25.150000000000222,464,303,68,,1514.3,1500.5,1452.0,1500
25.200000000000223,465,263,80,,1510.3,1500.5,1440.0,1500
25.250000000000224,466,278,77,,1511.8,1500.5,1443.0,1500
25.300000000000225,467,282,88,,1512.2,1500.5,1432.0,1500
25.350000000000225,468,289,73,,1512.9,1500.5,1447.0,1500
25.400000000000226,469,295,73,,1513.5,1500.5,1447.0,1500
25.450000000000227,470,306,73,,1514.6,1500.5,1447.0,1500
25.500000000000227,470,,,,1500.0,1500.0,1420.0,1500
25.550000000000228,470,,,,1500.0,1500.0,1420.0,1500
25.60000000000023,470,,,,1500.0,1500.0,1420.0,1500
25.65000000000023,470,,,,1500.0,1500.0,1420.0,1500
25.70000000000023,470,,,,1500.0,1500.0,1420.0,1500
25.75000000000023,470,,,,1500.0,1500.0,1420.0,1500
25.80000000000023,470,,,,1500.0,1500.0,1420.0,1500
25.850000000000232,470,,,,1500.0,1500.0,1420.0,1500
25.900000000000233,470,,,,1500.0,1500.0,1420.0,1500
25.950000000000234,470,,,,1500.0,1500.0,1420.0,1500
26.000000000000234,470,,,,1500.0,1500.0,1420.0,1500
26.050000000000235,470,,,,1500.0,1500.0,1420.0,1500
26.100000000000236,470,,,,1500.0,1500.0,1420.0,1500
26.150000000000237,470,,,,1500.0,1500.0,1420.0,1500
26.200000000000237,470,,,,1500.0,1500.0,1420.0,1500
26.250000000000238,470,,,,1500.0,1500.0,1420.0,1500
26.30000000000024,470,,,,1500.0,1500.0,1420.0,1500
26.35000000000024,470,,,,1500.0,1500.0,1420.0,1500
26.40000000000024,470,,,,1500.0,1500.0,1420.0,1500
26.45000000000024,470,,,,1500.0,1500.0,1420.0,1500
26.50000000000024,470,,,,1500.0,1500.0,1420.0,1500
26.550000000000242,470,,,,1500.0,1500.0,1420.0,1500
26.600000000000243,470,,,,1500.0,1500.0,1420.0,1500
26.650000000000244,470,,,,1500.0,1500.0,1420.0,1500
26.700000000000244,470,,,,1500.0,1500.0,1420.0,1500
26.750000000000245,470,,,,1500.0,1500.0,1420.0,1500
26.800000000000246,470,,,,1500.0,1500.0,1420.0,1500
26.850000000000247,470,,,,1500.0,1500.0,1420.0,1500
26.900000000000247,470,,,,1500.0,1500.0,1420.0,1500
26.950000000000248,470,,,,1500.0,1500.0,1420.0,1500
27.00000000000025,470,,,,1500.0,1500.0,1420.0,1500
27.05000000000025,470,,,,1500.0,1500.0,1420.0,1500
27.10000000000025,470,,,,1500.0,1500.0,1420.0,1500
27.15000000000025,470,,,,1500.0,1500.0,1420.0,1500
27.20000000000025,470,,,,1500.0,1500.0,1420.0,1500
27.250000000000252,470,,,,1500.0,1500.0,1420.0,1500
27.300000000000253,470,,,,1500.0,1500.0,1420.0,1500
27.350000000000254,470,,,,1500.0,1500.0,1420.0,1500
27.400000000000254,470,,,,1500.0,1500.0,1420.0,1500
27.450000000000255,470,,,,1500.0,1500.0,1420.0,1500
27.500000000000256,470,,,,1500.0,1500.0,1420.0,1500
27.550000000000257,470,,,,1500.0,1500.0,1420.0,1500
27.600000000000257,470,,,,1500.0,1500.0,1420.0,1500
27.650000000000258,470,,,,1500.0,1500.0,1420.0,1500
27.70000000000026,470,,,,1500.0,1500.0,1420.0,1500
27.75000000000026,471,303,167,,1514.3,1500.5,1370,1500
27.80000000000026,472,291,126,,1513.1,1500.5,1394.0,1500
27.85000000000026,473,271,113,,1511.1,1500.5,1407.0,1500
27.90000000000026,474,255,95,,1509.5,1500.5,1425.0,1500
27.950000000000262,475,227,94,,1506.7,1500.5,1426.0,1500
28.000000000000263,476,207,89,,1504.7,1500.5,1431.0,1500
28.050000000000264,477,182,89,,1502.2,1500.5,1431.0,1500
28.100000000000264,478,156,89,,1499.6,1500.5,1431.0,1500
28.150000000000265,479,142,92,,1498.2,1500.5,1428.0,1500
28.200000000000266,480,128,93,,1496.8,1500.5,1427.0,1500
28.250000000000266,481,119,96,,1495.9,1500.5,1424.0,1500
28.300000000000267,482,109,89,,1494.9,1500.5,1431.0,1500
28.350000000000268,483,104,91,,1494.4,1500.5,1429.0,1500
28.40000000000027,484,96,98,,1493.6,1500.5,1422.0,1500
28.45000000000027,485,92,94,,1493.2,1500.5,1426.0,1500
28.50000000000027,486,89,97,,1492.9,1500.5,1423.0,1500
28.55000000000027,487,87,97,,1492.7,1500.5,1423.0,1500
28.60000000000027,488,87,99,,1492.7,1500.5,1421.0,1500
28.650000000000272,489,86,98,,1492.6,1500.5,1422.0,1500
28.700000000000273,490,86,99,,1492.6,1500.5,1421.0,1500
28.750000000000274,491,88,98,,1492.8,1500.5,1422.0,1500
28.800000000000274,492,89,97,,1492.9,1500.5,1423.0,1500
28.850000000000275,493,91,98,,1493.1,1500.5,1422.0,1500
28.900000000000276,494,97,97,,1493.7,1500.5,1423.0,1500
28.950000000000276,495,104,93,,1494.4,1500.5,1427.0,1500
29.000000000000277,496,122,95,,1496.2,1500.5,1425.0,1500
29.050000000000278,497,136,88,,1497.6,1500.5,1432.0,1500
29.10000000000028,498,171,92,,1501.1,1500.5,1428.0,1500
29.15000000000028,499,198,92,,1503.8,1500.5,1428.0,1500
29.20000000000028,500,224,97,,1506.4,1500.5,1423.0,1500
29.25000000000028,501,255,110,,1509.5,1500.5,1410.0,1500
29.30000000000028,502,268,117,,1510.8,1500.5,1403.0,1500
29.350000000000282,503,284,132,,1512.4,1500.5,1388.0,1500
29.400000000000283,504,292,137,,1513.2,1500.5,1383.0,1500
29.450000000000284,505,298,111,,1513.8,1500.5,1409.0,1500
29.500000000000284,506,299,115,,1513.9,1500.5,1405.0,1500
29.550000000000285,507,298,111,,1513.8,1500.5,1409.0,1500
29.600000000000286,508,296,110,,1513.6,1500.5,1410.0,1500
29.650000000000286,509,291,131,,1513.1,1500.5,1389.0,1500
29.700000000000287,510,286,127,,1512.6,1500.5,1393.0,1500
29.750000000000288,511,276,115,,1511.6,1500.5,1405.0,1500
29.80000000000029,512,267,107,,1510.7,1500.5,1413.0,1500
29.85000000000029,513,247,100,,1508.7,1500.5,1420.0,1500
29.90000000000029,514,226,89,,1506.6,1500.5,1431.0,1500
29.95000000000029,515,192,81,,1503.2,1500.5,1439.0,1500
30.00000000000029,516,175,77,,1501.5,1500.5,1443.0,1500
30.050000000000292,517,158,85,,1499.8,1500.5,1435.0,1500
30.100000000000293,518,150,82,,1499.0,1500.5,1438.0,1500
30.150000000000293,519,146,85,,1498.6,1500.5,1435.0,1500
30.200000000000294,520,143,88,,1498.3,1500.5,1432.0,1500
30.250000000000295,521,145,87,,1498.5,1500.5,1433.0,1500
30.300000000000296,522,144,90,,1498.4,1500.5,1430.0,1500
30.350000000000296,523,145,89,,1498.5,1500.5,1431.0,1500
30.400000000000297,524,145,89,,1498.5,1500.5,1431.0,1500
30.450000000000298,525,146,92,,1498.6,1500.5,1428.0,1500
30.5000000000003,526,146,92,,1498.6,1500.5,1428.0,1500
30.5500000000003,527,146,87,,1498.6,1500.5,1433.0,1500
30.6000000000003,528,145,90,,1498.5,1500.5,1430.0,1500
30.6500000000003,529,145,95,,1498.5,1500.5,1425.0,1500
30.7000000000003,530,145,90,,1498.5,1500.5,1430.0,1500
30.750000000000302,531,145,90,,1498.5,1500.5,1430.0,1500
30.800000000000303,532,146,93,,1498.6,1500.5,1427.0,1500
30.850000000000303,533,145,95,,1498.5,1500.5,1425.0,1500
30.900000000000304,534,144,91,,1498.4,1500.5,1429.0,1500
30.950000000000305,535,144,94,,1498.4,1500.5,1426.0,1500
31.000000000000306,536,143,95,,1498.3,1500.5,1425.0,1500
31.050000000000306,537,143,97,,1498.3,1500.5,1423.0,1500
31.100000000000307,538,143,94,,1498.3,1500.5,1426.0,1500
31.150000000000308,539,144,96,,1498.4,1500.5,1424.0,1500
31.20000000000031,540,145,93,,1498.5,1500.5,1427.0,1500
31.25000000000031,541,145,97,,1498.5,1500.5,1423.0,1500
31.30000000000031,542,144,98,,1498.4,1500.5,1422.0,1500
31.35000000000031,543,145,94,,1498.5,1500.5,1426.0,1500
31.40000000000031,544,144,96,,1498.4,1500.5,1424.0,1500
31.450000000000312,545,144,98,,1498.4,1500.5,1422.0,1500
31.500000000000313,546,143,98,,1498.3,1500.5,1422.0,1500
31.550000000000313,547,143,96,,1498.3,1500.5,1424.0,1500
31.600000000000314,548,143,96,,1498.3,1500.5,1424.0,1500
31.650000000000315,549,143,98,,1498.3,1500.5,1422.0,1500
31.700000000000315,550,143,94,,1498.3,1500.5,1426.0,1500
31.750000000000316,551,143,98,,1498.3,1500.5,1422.0,1500
31.800000000000317,552,142,96,,1498.2,1500.5,1424.0,1500
31.850000000000318,553,143,97,,1498.3,1500.5,1423.0,1500
31.90000000000032,554,143,96,,1498.3,1500.5,1424.0,1500
31.95000000000032,555,144,95,,1498.4,1500.5,1425.0,1500
32.00000000000032,556,144,96,,1498.4,1500.5,1424.0,1500
32.05000000000032,557,144,98,,1498.4,1500.5,1422.0,1500
32.100000000000314,558,145,98,,1498.5,1500.5,1422.0,1500
32.15000000000031,559,145,96,,1498.5,1500.5,1424.0,1500
32.20000000000031,560,144,96,,1498.4,1500.5,1424.0,1500
32.250000000000306,561,145,97,,1498.5,1500.5,1423.0,1500
32.3000000000003,562,145,99,,1498.5,1500.5,1421.0,1500
32.3500000000003,563,144,97,,1498.4,1500.5,1423.0,1500
32.4000000000003,564,145,100,,1498.5,1500.5,1420.0,1500
32.450000000000294,565,145,98,,1498.5,1500.5,1422.0,1500
32.50000000000029,566,146,100,,1498.6,1500.5,1420.0,1500
32.55000000000029,567,147,100,,1498.7,1500.5,1420.0,1500
32.600000000000286,568,148,103,,1498.8,1500.5,1417.0,1500
32.65000000000028,569,148,104,,1498.8,1500.5,1416.0,1500
32.70000000000028,570,149,107,,1498.9,1500.5,1413.0,1500
32.75000000000028,571,150,107,,1499.0,1500.5,1413.0,1500
32.800000000000274,572,150,110,,1499.0,1500.5,1410.0,1500
32.85000000000027,573,150,113,,1499.0,1500.5,1407.0,1500
32.90000000000027,574,151,113,,1499.1,1500.5,1407.0,1500
32.950000000000266,575,151,114,,1499.1,1500.5,1406.0,1500
33.00000000000026,576,152,116,,1499.2,1500.5,1404.0,1500
33.05000000000026,577,152,116,,1499.2,1500.5,1404.0,1500
33.10000000000026,578,151,118,,1499.1,1500.5,1402.0,1500
33.150000000000254,579,151,115,,1499.1,1500.5,1405.0,1500
33.20000000000025,580,150,114,,1499.0,1500.5,1406.0,1500
33.25000000000025,581,150,112,,1499.0,1500.5,1408.0,1500
33.300000000000246,582,150,111,,1499.0,1500.5,1409.0,1500
33.35000000000024,583,150,111,,1499.0,1500.5,1409.0,1500
33.40000000000024,584,150,110,,1499.0,1500.5,1410.0,1500
33.45000000000024,585,150,109,,1499.0,1500.5,1411.0,1500
33.500000000000234,586,150,109,,1499.0,1500.5,1411.0,1500
33.55000000000023,587,149,109,,1498.9,1500.5,1411.0,1500
33.60000000000023,588,149,109,,1498.9,1500.5,1411.0,1500
33.650000000000226,589,150,109,,1499.0,1500.5,1411.0,1500
33.70000000000022,590,150,109,,1499.0,1500.5,1411.0,1500
33.75000000000022,591,152,111,,1499.2,1500.5,1409.0,1500
33.80000000000022,592,153,112,,1499.3,1500.5,1408.0,1500
33.850000000000215,593,155,113,,1499.5,1500.5,1407.0,1500
33.90000000000021,594,158,115,,1499.8,1500.5,1405.0,1500
33.95000000000021,595,164,114,,1500.4,1500.5,1406.0,1500
34.000000000000206,596,170,114,,1501.0,1500.5,1406.0,1500
34.0500000000002,597,177,118,,1501.7,1500.5,1402.0,1500
34.1000000000002,598,182,116,,1502.2,1500.5,1404.0,1500
34.1500000000002,599,185,112,,1502.5,1500.5,1408.0,1500
34.200000000000195,600,193,111,,1503.3,1500.5,1409.0,1500
34.25000000000019,601,202,110,,1504.2,1500.5,1410.0,1500
34.30000000000019,602,217,110,,1505.7,1500.5,1410.0,1500
34.350000000000186,603,230,110,,1507.0,1500.5,1410.0,1500
34.40000000000018,604,251,110,,1509.1,1500.5,1410.0,1500
34.45000000000018,605,264,110,,1510.4,1500.5,1410.0,1500
34.50000000000018,606,275,115,,1511.5,1500.5,1405.0,1500
34.550000000000175,607,281,119,,1512.1,1500.5,1401.0,1500
34.60000000000017,608,292,123,,1513.2,1500.5,1397.0,1500
34.65000000000017,609,299,137,,1513.9,1500.5,1383.0,1500
34.700000000000166,610,308,136,,1514.8,1500.5,1384.0,1500
34.75000000000016,610,,,,1500.0,1500.0,1420.0,1500
34.80000000000016,610,,,,1500.0,1500.0,1420.0,1500
34.85000000000016,610,,,,1500.0,1500.0,1420.0,1500
34.900000000000155,610,,,,1500.0,1500.0,1420.0,1500
34.95000000000015,610,,,,1500.0,1500.0,1420.0,1500
35.00000000000015,610,,,,1500.0,1500.0,1420.0,1500
35.050000000000146,610,,,,1500.0,1500.0,1420.0,1500
35.10000000000014,610,,,,1500.0,1500.0,1420.0,1500
35.15000000000014,610,,,,1500.0,1500.0,1420.0,1500
35.20000000000014,610,,,,1500.0,1500.0,1420.0,1500
35.250000000000135,610,,,,1500.0,1500.0,1420.0,1500
35.30000000000013,610,,,,1500.0,1500.0,1420.0,1500
35.35000000000013,610,,,,1500.0,1500.0,1420.0,1500
35.40000000000013,610,,,,1500.0,1500.0,1420.0,1500
35.450000000000124,610,,,,1500.0,1500.0,1420.0,1500
35.50000000000012,610,,,,1500.0,1500.0,1420.0,1500
35.55000000000012,610,,,,1500.0,1500.0,1420.0,1500
35.600000000000115,610,,,,1500.0,1500.0,1420.0,1500
35.65000000000011,610,,,,1500.0,1500.0,1420.0,1500
35.70000000000011,610,,,,1500.0,1500.0,1420.0,1500
35.75000000000011,610,,,,1500.0,1500.0,1420.0,1500
35.800000000000104,610,,,,1500.0,1500.0,1420.0,1500
35.8500000000001,610,,,,1500.0,1500.0,1420.0,1500
35.9000000000001,610,,,,1500.0,1500.0,1420.0,1500
