time,frame,x,y,size_inv,roll,pitch,thrust,yaw
0.0001990795135498047,1,201,65,5.489679402722881e-05,1504.1,1480,1300,1500
0.026150941848754883,2,199,64,5.617346365576902e-05,1503.9,1480,1300,1500
0.047167062759399414,3,198,63,5.702554744525547e-05,1503.8,1480,1300,1500
0.06804704666137695,4,196,64,5.617346365576902e-05,1503.6,1480,1300,1500
0.08893299102783203,5,195,64,5.617346365576902e-05,1503.5,1480,1300,1500
0.10976409912109375,6,193,64,5.617346365576902e-05,1503.3,1480,1300,1500
0.13062405586242676,7,192,64,5.534034311012728e-05,1503.2,1480,1300,1500
0.15156912803649902,8,190,65,5.413892046992583e-05,1503.0,1480,1300,1500
0.17248201370239258,9,189,64,5.379236148466918e-05,1502.9,1480,1300,1500
0.19341206550598145,10,186,64,5.417118093174431e-05,1502.6,1480,1300,1500
0.2143261432647705,11,185,65,5.2284847851092756e-05,1502.5,1480,1300,1500
0.23523211479187012,12,183,63,5.425347222222222e-05,1502.3,1480,1300,1500
0.256148099899292,13,181,65,5.2284847851092756e-05,1502.1,1480,1300,1500
0.27707600593566895,14,180,58,5.854115443156539e-05,1502.0,1480,1300,1500
0.29799413681030273,15,178,66,5.1148278860416345e-05,1501.8,1480,1300,1500
0.3189070224761963,16,176,65,5.1578295853105015e-05,1501.6,1480,1300,1500
0.3398129940032959,17,175,64,5.162622612287042e-05,1501.5,1480,1300,1500
0.36070895195007324,18,174,65,5.089058524173028e-05,1501.4,1480,1300,1500
0.3816230297088623,19,173,63,5.208333333333334e-05,1501.3,1480,1300,1500
0.40255308151245117,20,173,62,5.3265153936294876e-05,1501.3,1480,1300,1500
0.4234600067138672,21,172,62,5.333333333333333e-05,1501.2,1480,1300,1500
0.4443690776824951,22,171,60,5.509641873278237e-05,1501.1,1480,1300,1500
0.46526312828063965,23,171,62,5.333333333333333e-05,1501.1,1480,1300,1500
0.4861631393432617,24,171,63,5.208333333333334e-05,1501.1,1480,1300,1500
0.5070769786834717,25,170,61,5.3763440860215054e-05,1501.0,1480,1300,1500
0.5279901027679443,26,170,61,5.4124269322364146e-05,1501.0,1480,1300,1500
0.5489151477813721,27,170,61,5.530667551573475e-05,1501.0,1480,1300,1500
0.5699880123138428,28,170,60,5.576000892160143e-05,1501.0,1480,1300,1500
0.5916290283203125,29,170,59,5.668934240362812e-05,1501.0,1480,1300,1500
0.6131980419158936,30,169,59,5.755726948313572e-05,1500.9,1480,1300,1500
0.6347851753234863,31,169,58,5.885122410546139e-05,1500.9,1480,1300,1500
0.6563529968261719,32,168,57,6.12369871402327e-05,1500.8,1480,1300,1500
0.6779270172119141,33,169,56,6.276281930584321e-05,1500.9,1480,1300,1500
0.6995201110839844,34,169,52,6.787023211619383e-05,1500.9,1480,1300,1500
0.7210791110992432,35,169,51,7.138777841233581e-05,1500.9,1480,1300,1500
0.7426509857177734,36,169,46,8.183306055646482e-05,1500.9,1480,1300,1500
0.7642190456390381,37,170,45,8.652764558276369e-05,1501.0,1480,1300,1500
0.7858121395111084,38,170,42,9.377344336084021e-05,1501.0,1480,1300,1500
0.8073890209197998,39,171,40,9.9147332936744e-05,1501.1,1480,1300,1500
0.8289430141448975,40,171,38,0.00010683760683760684,1501.1,1480,1300,1500
0.8505101203918457,41,172,36,0.0001155001155001155,1501.2,1480,1300,1500
0.8720841407775879,42,173,35,0.0001224739742804654,1501.3,1480,1300,1500
0.8936910629272461,43,173,34,0.00012825445684237527,1501.3,1480,1300,1500
0.9153921604156494,44,174,32,0.0001365001365001365,1501.4,1480,1300,1500
0.9369480609893799,45,174,31,0.000145623998835008,1501.4,1480,1300,1500
0.9585061073303223,46,154,32,0.00025799793601651185,1499.4,1480,1300,1500
0.980288028717041,47,142,38,0.0005668934240362812,1498.2,1480.668934240363,1300,1500
1.002208948135376,48,147,29,0.0010256410256410256,1498.7,1485.2564102564102,1300,1500
1.0239500999450684,49,137,40,0.001277139208173691,1497.7,1487.7713920817368,1300,1500
1.0456910133361816,50,136,50,0.003205128205128205,1497.6,1507.051282051282,1300,1500
1.067384958267212,51,139,38,0.005555555555555556,1497.9,1520,1300,1500
1.0889639854431152,52,140,40,0.005681818181818182,1498.0,1520,1300,1500
1.110517978668213,53,141,46,0.0028011204481792717,1498.1,1503.0112044817927,1300,1500
1.1321611404418945,54,140,39,0.0026041666666666665,1498.0,1501.0416666666667,1300,1500
1.1541471481323242,55,140,46,0.0015432098765432098,1498.0,1490.432098765432,1300,1500
1.175832986831665,56,141,43,0.000980392156862745,1498.1,1484.8039215686274,1300,1500
1.1975040435791016,57,149,37,0.000445632798573975,1498.9,1480,1300,1500
1.2190630435943604,58,150,36,0.00039308176100628933,1499.0,1480,1300,1500
1.2406179904937744,59,181,35,0.0001386001386001386,1502.1,1480,1300,1500
1.2621581554412842,60,181,34,0.00012825445684237527,1502.1,1480,1300,1500
1.283738136291504,61,181,34,0.0001260239445494644,1502.1,1480,1300,1500
1.305448055267334,62,181,36,0.00011649580615097856,1502.1,1480,1300,1500
1.3270001411437988,63,181,37,0.00011150758251561107,1502.1,1480,1300,1500
1.348555088043213,64,181,38,0.00010773540185304891,1502.1,1480,1300,1500
1.3701071739196777,65,180,39,0.00010548523206751055,1502.0,1480,1300,1500
1.3916881084442139,66,180,40,0.00010119409026512852,1502.0,1480,1300,1500
1.413228988647461,67,181,41,9.562057754828839e-05,1502.1,1480,1300,1500
1.4347920417785645,68,181,42,9.337068160597572e-05,1502.1,1480,1300,1500
1.4563651084899902,69,182,44,8.710042679209128e-05,1502.2,1480,1300,1500
1.4779579639434814,70,183,45,8.388558006878618e-05,1502.3,1480,1300,1500
1.4995501041412354,71,182,46,8.145975887911372e-05,1502.2,1480,1300,1500
1.5211291313171387,72,182,47,7.77363184079602e-05,1502.2,1480,1300,1500
1.5427329540252686,73,183,48,7.636502481863306e-05,1502.3,1480,1300,1500
1.5642900466918945,74,184,48,7.525020693806908e-05,1502.4,1480,1300,1500
1.5859401226043701,75,183,49,7.299270072992701e-05,1502.3,1480,1300,1500
1.6075201034545898,76,183,48,7.448234768359899e-05,1502.3,1480,1300,1500
1.6290791034698486,77,183,48,7.470491558344539e-05,1502.3,1480,1300,1500
1.6506500244140625,78,183,47,7.603406326034063e-05,1502.3,1480,1300,1500
1.6722650527954102,79,183,47,7.603406326034063e-05,1502.3,1480,1300,1500
1.6939949989318848,80,183,48,7.448234768359899e-05,1502.3,1480,1300,1500
1.7157230377197266,81,182,48,7.503001200480192e-05,1502.2,1480,1300,1500
1.737300157546997,82,182,47,7.716049382716049e-05,1502.2,1480,1300,1500
1.7588679790496826,83,181,47,7.914523149980213e-05,1502.1,1480,1300,1500
1.780440092086792,84,180,45,8.325008325008325e-05,1502.0,1480,1300,1500
1.8020269870758057,85,181,44,8.35421888053467e-05,1502.1,1480,1300,1500
1.8236010074615479,86,180,45,8.297378028542981e-05,1502.0,1480,1300,1500
1.8453049659729004,87,180,45,8.388558006878618e-05,1502.0,1480,1300,1500
1.8668739795684814,88,179,44,8.547008547008547e-05,1501.9,1480,1300,1500
1.8885221481323242,89,180,45,8.388558006878618e-05,1502.0,1480,1300,1500
1.9100980758666992,90,178,43,8.741258741258741e-05,1501.8,1480,1300,1500
1.9316551685333252,91,178,46,8.400537634408603e-05,1501.8,1480,1300,1500
1.9532239437103271,92,179,44,8.613264427217915e-05,1501.9,1480,1300,1500
1.9748141765594482,93,178,47,8.288437629506838e-05,1501.8,1480,1300,1500
1.9964160919189453,94,178,44,8.748906386701662e-05,1501.8,1480,1300,1500
2.017996072769165,95,178,43,8.947745168217609e-05,1501.8,1480,1300,1500
2.0395700931549072,96,178,44,8.680555555555556e-05,1501.8,1480,1300,1500
2.0611350536346436,97,178,44,8.847208705653367e-05,1501.8,1480,1300,1500
2.0826921463012695,98,179,44,8.847208705653367e-05,1501.9,1480,1300,1500
2.1042871475219727,99,179,45,8.652764558276369e-05,1501.9,1480,1300,1500
2.1259241104125977,100,179,43,8.947745168217609e-05,1501.9,1480,1300,1500
2.1477200984954834,101,180,44,8.748906386701662e-05,1502.0,1480,1300,1500
2.169337034225464,102,180,44,8.778089887640449e-05,1502.0,1480,1300,1500
2.1909520626068115,103,180,44,8.680555555555556e-05,1502.0,1480,1300,1500
2.2125210762023926,104,181,44,8.680555555555556e-05,1502.1,1480,1300,1500
2.2340760231018066,105,181,44,8.680555555555556e-05,1502.1,1480,1300,1500
2.2556450366973877,106,182,44,8.847208705653367e-05,1502.2,1480,1300,1500
2.2772250175476074,107,182,45,8.62663906142167e-05,1502.2,1480,1300,1500
2.2987961769104004,108,182,44,8.847208705653367e-05,1502.2,1480,1300,1500
2.320383071899414,109,181,44,8.680555555555556e-05,1502.1,1480,1300,1500
2.3422529697418213,110,181,46,8.400537634408603e-05,1502.1,1480,1300,1500
2.363924026489258,111,182,46,8.311170212765957e-05,1502.2,1480,1300,1500
2.38569712638855,112,181,44,8.680555555555556e-05,1502.1,1480,1300,1500
2.4073901176452637,113,181,45,8.361204013377926e-05,1502.1,1480,1300,1500
2.4290339946746826,114,181,46,8.271298593879239e-05,1502.1,1480,1300,1500
2.4506289958953857,115,181,47,8.074935400516796e-05,1502.1,1480,1300,1500
2.4722061157226562,116,180,47,8.012820512820513e-05,1502.0,1480,1300,1500
2.4937801361083984,117,180,47,7.974481658692185e-05,1502.0,1480,1300,1500
2.515439033508301,118,180,47,8.035355564483728e-05,1502.0,1480,1300,1500
2.53701114654541,119,180,47,7.914523149980213e-05,1502.0,1480,1300,1500
2.5585830211639404,120,180,49,7.5947444368497e-05,1502.0,1480,1300,1500
2.5801851749420166,121,180,49,7.538067239559776e-05,1502.0,1480,1300,1500
2.601901054382324,122,179,50,7.371369600471768e-05,1501.9,1480,1300,1500
2.6235640048980713,123,179,53,6.974473427256242e-05,1501.9,1480,1300,1500
2.6452879905700684,124,179,51,7.122507122507122e-05,1501.9,1480,1300,1500
2.666883945465088,125,179,51,7.191657677094571e-05,1501.9,1480,1300,1500
2.6884679794311523,126,178,55,6.613756613756614e-05,1501.8,1480,1300,1500
2.710031032562256,127,178,51,7.070135746606335e-05,1501.8,1480,1300,1500
2.731590986251831,128,178,54,6.648052120728626e-05,1501.8,1480,1300,1500
2.7531790733337402,129,178,54,6.696578048617156e-05,1501.8,1480,1300,1500
2.7747559547424316,130,179,55,6.481301445330222e-05,1501.9,1480,1300,1500
2.796376943588257,131,179,54,6.540222367560497e-05,1501.9,1480,1300,1500
2.817979097366333,132,179,54,6.648052120728626e-05,1501.9,1480,1300,1500
2.8395650386810303,133,179,53,6.758583400919168e-05,1501.9,1480,1300,1500
2.8611550331115723,134,179,53,6.772314777190844e-05,1501.9,1480,1300,1500
2.882766008377075,135,180,52,6.886103842445945e-05,1502.0,1480,1300,1500
2.904337167739868,136,179,54,6.696578048617156e-05,1501.9,1480,1300,1500
2.925920009613037,137,179,52,6.988120195667365e-05,1501.9,1480,1300,1500
2.9474661350250244,138,179,52,6.936736958934517e-05,1501.9,1480,1300,1500
2.9690401554107666,139,180,49,7.407407407407407e-05,1502.0,1480,1300,1500
2.990633964538574,140,180,49,7.5947444368497e-05,1502.0,1480,1300,1500
3.0121891498565674,141,179,50,7.500750075007501e-05,1501.9,1480,1300,1500
3.0337600708007812,142,180,48,7.751337105650724e-05,1502.0,1480,1300,1500
3.055475950241089,143,180,47,8.035355564483728e-05,1502.0,1480,1300,1500
3.077059030532837,144,180,46,8.208158909956496e-05,1502.0,1480,1300,1500
3.098690986633301,145,180,47,8.035355564483728e-05,1502.0,1480,1300,1500
3.1202731132507324,146,180,46,8.208158909956496e-05,1502.0,1480,1300,1500
3.141896963119507,147,179,46,8.271298593879239e-05,1501.9,1480,1300,1500
3.163478136062622,148,179,46,8.271298593879239e-05,1501.9,1480,1300,1500
3.18534517288208,149,179,46,8.183306055646482e-05,1501.9,1480,1300,1500
3.2069690227508545,150,178,46,8.271298593879239e-05,1501.8,1480,1300,1500
3.228537082672119,151,179,46,8.120838070488874e-05,1501.9,1480,1300,1500
3.250096082687378,152,178,48,7.614986293024673e-05,1501.8,1480,1300,1500
3.2716760635375977,153,177,49,7.462686567164179e-05,1501.7,1480,1300,1500
3.293255090713501,154,178,50,7.280139778683751e-05,1501.8,1480,1300,1500
3.3148040771484375,155,177,51,7.138777841233581e-05,1501.7,1480,1300,1500
3.3363840579986572,156,178,54,6.696578048617156e-05,1501.8,1480,1300,1500
3.357957124710083,157,179,55,6.389368091495751e-05,1501.9,1480,1300,1500
3.379538059234619,158,179,55,6.389368091495751e-05,1501.9,1480,1300,1500
3.4011390209198,159,179,55,6.243756243756244e-05,1501.9,1480,1300,1500
3.4227030277252197,160,179,56,6.0496067755595884e-05,1501.9,1480,1300,1500
3.4442801475524902,161,180,58,5.8142915285772426e-05,1502.0,1480,1300,1500
3.4658379554748535,162,180,60,5.5466193355150034e-05,1502.0,1480,1300,1500
3.487403154373169,163,181,62,5.187260089220873e-05,1502.1,1480,1300,1500
3.508981943130493,164,182,64,4.9691910157026436e-05,1502.2,1480,1300,1500
3.5308570861816406,165,183,65,4.7054394880481836e-05,1502.3,1480,1300,1500
3.552454948425293,166,184,67,4.462293618920125e-05,1502.4,1480,1300,1500
3.5740880966186523,167,186,71,4.065701740120345e-05,1502.6,1480,1300,1500
3.5957319736480713,168,188,69,4.0417104518632284e-05,1502.8,1480,1300,1500
3.617321014404297,169,191,76,3.532944709415297e-05,1503.1,1480,1298.0,1500
3.6390910148620605,170,192,68,3.84172109104879e-05,1503.2,1480,1300,1500
3.660818099975586,171,195,73,3.36157052574963e-05,1503.5,1480,1300,1500
3.68241810798645,172,196,72,3.380662609871535e-05,1503.6,1480,1300,1500
3.7040441036224365,173,197,75,3.209242618741977e-05,1503.7,1480,1300.0,1500
3.725795030593872,174,197,73,3.3510941322341746e-05,1503.7,1480,1300,1500
3.7474119663238525,175,198,69,3.5265904923120326e-05,1503.8,1480,1300,1500
3.7690329551696777,176,197,72,3.465603881476347e-05,1503.7,1480,1300,1500
3.7906441688537598,177,198,77,3.242016534284325e-05,1503.8,1480,1296.0,1500
3.8123080730438232,178,197,69,3.681885125184094e-05,1503.7,1480,1300,1500
3.8339271545410156,179,197,77,3.4135518006485746e-05,1503.7,1480,1296.0,1500
3.855654001235962,180,195,71,3.8005472788081484e-05,1503.5,1480,1300,1500
3.877290964126587,181,193,71,3.9286556140488726e-05,1503.3,1480,1300,1500
3.898956060409546,182,190,69,4.231908590774439e-05,1503.0,1480,1300,1500
3.920797109603882,183,189,66,4.55684666210982e-05,1502.9,1480,1300,1500
3.942405939102173,184,187,65,4.800998607710404e-05,1502.7,1480,1300,1500
3.964082956314087,185,185,59,5.4923930356456306e-05,1502.5,1480,1300,1500
3.9858081340789795,186,181,57,5.747126436781609e-05,1502.1,1480,1300,1500
4.007375955581665,187,178,56,6.145526057030482e-05,1501.8,1480,1300,1500
4.028928995132446,188,174,54,6.493506493506494e-05,1501.4,1480,1300,1500
4.050466060638428,189,171,52,7.0402703463813e-05,1501.1,1480,1300,1500
4.071998119354248,190,164,52,7.313149041977475e-05,1500.4,1480,1300,1500
4.093567132949829,191,159,52,7.619047619047618e-05,1499.9,1480,1300,1500
4.11522912979126,192,154,52,7.669888019634913e-05,1499.4,1480,1300,1500
4.136778116226196,193,149,53,7.660487206986364e-05,1498.9,1480,1300,1500
4.158334970474243,194,143,54,7.64525993883792e-05,1498.3,1480,1300,1500
4.179912090301514,195,138,53,7.853608733212911e-05,1497.8,1480,1300,1500
4.201507091522217,196,131,53,7.913896802785692e-05,1497.1,1480,1300,1500
4.223088026046753,197,125,42,0.00010111223458038423,1496.5,1480,1300,1500
4.244642972946167,198,115,39,0.00012055455093429777,1495.5,1480,1300,1500
4.266180038452148,199,111,53,8.653513326410523e-05,1495.1,1480,1300,1500
4.287759065628052,200,101,41,0.00011904761904761905,1494.1,1480,1300,1500
4.309323072433472,201,95,34,0.00015037593984962405,1493.5,1480,1300,1500
4.3308939933776855,202,87,27,0.00026123301985370953,1492.7,1480,1300,1500
4.352441072463989,203,80,39,0.00021645021645021645,1492.0,1480,1300,1500
4.374063014984131,204,85,39,0.0004926108374384236,1492.5,1480,1300,1500
4.395766019821167,205,76,42,0.0005252100840336134,1491.6,1480.2521008403362,1300,1500
4.41745400428772,206,71,40,0.000945179584120983,1491.1,1484.4517958412098,1300,1500
4.439157009124756,207,73,22,0.005050505050505051,1491.3,1520,1300,1500
4.460721015930176,208,79,53,0.0017921146953405018,1491.9,1492.921146953405,1300,1500
4.4823760986328125,209,73,43,0.004347826086956522,1491.3,1518.4782608695652,1300,1500
4.504112005233765,210,74,56,0.002702702702702703,1491.4,1502.027027027027,1300,1500
4.525793075561523,211,72,38,0.002136752136752137,1491.2,1496.3675213675215,1300,1500
4.547435998916626,212,74,40,0.0011098779134295228,1491.4,1486.0987791342952,1300,1500
4.569123029708862,213,68,37,0.0006688963210702341,1490.8,1481.6889632107022,1300,1500
4.590834140777588,214,79,35,0.000588235294117647,1491.9,1480.8823529411766,1300,1500
4.612465143203735,215,79,34,0.000550357732526142,1491.9,1480.5035773252614,1300,1500
4.634083986282349,216,86,37,0.00015620118712902218,1492.6,1480,1300,1500
4.6556360721588135,217,94,37,0.00013333333333333334,1493.4,1480,1300,1500
4.677508115768433,218,101,49,9.345794392523364e-05,1494.1,1480,1300,1500
4.6990931034088135,219,113,44,9.363295880149813e-05,1495.3,1480,1300,1500
4.720669984817505,220,122,53,7.527853056308341e-05,1496.2,1480,1300,1500
4.7422521114349365,221,132,56,6.907031357922365e-05,1497.2,1480,1300,1500
4.763883113861084,222,140,57,6.44122383252818e-05,1498.0,1480,1300,1500
4.785577058792114,223,148,57,6.211180124223603e-05,1498.8,1480,1300,1500
4.807152032852173,224,162,56,6.321112515802781e-05,1500.2,1480,1300,1500
4.828711986541748,225,173,56,6.402868485081316e-05,1501.3,1480,1300,1500
4.850248098373413,226,183,57,6.113964294448521e-05,1502.3,1480,1300,1500
4.871757984161377,227,193,57,6.080875646093037e-05,1503.3,1480,1300,1500
4.893351078033447,228,204,56,5.9269796111901376e-05,1504.4,1480,1300,1500
4.915032148361206,229,224,57,5.4347826086956524e-05,1506.4,1480,1300,1500
4.936655044555664,230,233,59,5.241090146750524e-05,1507.3,1480,1300,1500
4.958207130432129,231,241,60,5.288207297726071e-05,1508.1,1480,1300,1500
4.979779005050659,232,244,59,5.555555555555556e-05,1508.4,1480,1300,1500
5.001358985900879,233,248,57,6.0284543043163735e-05,1508.8,1480,1300,1500
5.022930145263672,234,252,60,6.076810889645114e-05,1509.2,1480,1300,1500
5.0444910526275635,235,256,58,6.569438969911969e-05,1509.6,1480,1300,1500
5.066040992736816,236,258,57,6.896551724137931e-05,1509.8,1480,1300,1500
5.0876030921936035,237,259,60,6.774149844194554e-05,1509.9,1480,1300,1500
5.109154939651489,238,262,59,7.183908045977011e-05,1510.2,1480,1300,1500
5.130709171295166,239,263,59,7.371369600471768e-05,1510.3,1480,1300,1500
5.152241945266724,240,264,59,7.374631268436578e-05,1510.4,1480,1300,1500
5.173859119415283,241,264,57,7.69704433497537e-05,1510.4,1480,1300,1500
5.1955530643463135,242,265,56,7.90263948158685e-05,1510.5,1480,1300,1500
5.217106103897095,243,265,60,7.513148009015778e-05,1510.5,1480,1300,1500
5.238692998886108,244,265,57,7.836990595611286e-05,1510.5,1480,1300,1500
5.260249137878418,245,265,59,7.507507507507507e-05,1510.5,1480,1300,1500
5.28181004524231,246,264,59,7.440476190476191e-05,1510.4,1480,1300,1500
5.303390026092529,247,263,57,7.763975155279503e-05,1510.3,1480,1300,1500
5.3250510692596436,248,263,60,7.19010641357492e-05,1510.3,1480,1300,1500
5.346627950668335,249,261,59,7.122507122507122e-05,1510.1,1480,1300,1500
5.368181943893433,250,260,60,6.830601092896175e-05,1510.0,1480,1300,1500
5.389752149581909,251,258,59,6.830601092896175e-05,1509.8,1480,1300,1500
5.4113030433654785,252,258,61,6.451612903225807e-05,1509.8,1480,1300,1500
5.432842016220093,253,256,62,6.249218847644044e-05,1509.6,1480,1300,1500
5.454383134841919,254,255,61,6.206168931918326e-05,1509.5,1480,1300,1500
5.475954055786133,255,254,60,6.213881811967936e-05,1509.4,1480,1300,1500
5.497531175613403,256,251,63,5.661231884057971e-05,1509.1,1480,1300,1500
5.519073963165283,257,249,61,5.679236710586097e-05,1508.9,1480,1300,1500
5.5406270027160645,258,246,62,5.3265153936294876e-05,1508.6,1480,1300,1500
5.56220817565918,259,242,60,5.2543085329970576e-05,1508.2,1480,1300,1500
5.583853006362915,260,240,62,5e-05,1508.0,1480,1300,1500
5.605483055114746,261,233,59,5.187260089220873e-05,1507.3,1480,1300,1500
5.627048015594482,262,226,59,5.124000819840131e-05,1506.6,1480,1300,1500
5.648609161376953,263,221,59,5.318583129454313e-05,1506.1,1480,1300,1500
5.6701719760894775,264,212,58,5.467468562055768e-05,1505.2,1480,1300,1500
5.691765069961548,265,203,57,5.634437683119225e-05,1504.3,1480,1300,1500
5.713325023651123,266,194,57,5.709065996802923e-05,1503.4,1480,1300,1500
5.734986066818237,267,187,57,5.997001499250375e-05,1502.7,1480,1300,1500
5.756546974182129,268,177,56,6.177415369409439e-05,1501.7,1480,1300,1500
5.7781081199646,269,163,56,6.449948400412796e-05,1500.3,1480,1300,1500
5.799687147140503,270,157,54,7.057163020465773e-05,1499.7,1480,1300,1500
5.821237087249756,271,147,53,7.233796296296296e-05,1498.7,1480,1300,1500
5.84279203414917,272,140,50,8.036001285760205e-05,1498.0,1480,1300,1500
5.864343166351318,273,134,49,8.474576271186441e-05,1497.4,1480,1300,1500
5.886214971542358,274,127,52,8.428150021070375e-05,1496.7,1480,1300,1500
5.907817125320435,275,122,46,9.600614439324117e-05,1496.2,1480,1300,1500
5.929450035095215,276,116,46,9.956192751891676e-05,1495.6,1480,1300,1500
5.951044082641602,277,112,43,0.0001074229240519927,1495.2,1480,1300,1500
5.9726879596710205,278,109,40,0.00011986096128490951,1494.9,1480,1300,1500
5.994335174560547,279,106,41,0.00011697274535033338,1494.6,1480,1300,1500
6.015958070755005,280,106,50,9.52018278750952e-05,1494.6,1480,1300,1500
6.037572145462036,281,105,48,9.811616954474098e-05,1494.5,1480,1300,1500
6.059180021286011,282,103,42,0.00011627906976744187,1494.3,1480,1300,1500
6.0810301303863525,283,105,40,0.0001207437816952427,1494.5,1480,1300,1500
6.102931976318359,284,106,43,0.0001172882946281961,1494.6,1480,1300,1500
6.124740123748779,285,105,42,0.00011534025374855825,1494.5,1480,1300,1500
6.146567106246948,286,107,42,0.00011204481792717087,1494.7,1480,1300,1500
6.168385982513428,287,109,42,0.00010995052226498076,1494.9,1480,1300,1500
6.190261125564575,288,114,48,9.276437847866419e-05,1495.4,1480,1300,1500
6.212090969085693,289,113,42,0.00010024057738572574,1495.3,1480,1300,1500
6.233988046646118,290,115,49,8.417508417508418e-05,1495.5,1480,1300,1500
6.255885124206543,291,118,50,7.984669434685404e-05,1495.8,1480,1300,1500
6.277738094329834,292,121,51,7.468259895444362e-05,1496.1,1480,1300,1500
6.299590110778809,293,125,51,7.33998825601879e-05,1496.5,1480,1300,1500
6.321423053741455,294,128,55,6.517205422314912e-05,1496.8,1480,1300,1500
6.34331202507019,295,132,62,5.755395683453237e-05,1497.2,1480,1300,1500
6.365246057510376,296,134,56,5.899705014749263e-05,1497.4,1480,1300,1500
6.3871190547943115,297,137,54,5.90318772136954e-05,1497.7,1480,1300,1500
6.408981084823608,298,143,60,5.1332067142343825e-05,1498.3,1480,1300,1500
6.430814981460571,299,148,66,4.4489923032433154e-05,1498.8,1480,1300,1500
6.452712059020996,300,152,64,4.5599635202918376e-05,1499.2,1480,1300,1500
6.474568128585815,301,158,56,4.984051036682616e-05,1499.8,1480,1300,1500
6.496426105499268,302,162,70,4.1486890142714904e-05,1500.2,1480,1300,1500
6.518243074417114,303,179,75,3.766620211684056e-05,1501.9,1480,1300.0,1500
6.540152072906494,304,211,58,6.575918984678108e-05,1505.1,1480,1300,1500
6.561985969543457,305,221,71,5.298013245033112e-05,1506.1,1480,1300,1500
6.5839619636535645,306,213,97,0.00010486577181208053,1505.3,1480,1256.0,1500
6.6060850620269775,307,214,73,4.578754578754579e-05,1505.4,1480,1300,1500
6.6280131340026855,308,217,64,6.362537379907107e-05,1505.7,1480,1300,1500
6.649847030639648,309,211,93,5.288486963879634e-05,1505.1,1480,1264.0,1500
6.671751022338867,310,240,86,9.66183574879227e-05,1508.0,1480,1278.0,1500
6.693724155426025,311,215,43,5.7185337679418995e-05,1505.5,1480,1300,1500
6.715665102005005,312,220,74,7.301935012778386e-05,1506.0,1480,1300,1500
6.737473011016846,313,221,44,6.609385327164574e-05,1506.1,1480,1300,1500
6.759382009506226,314,205,71,0.00018552875695732838,1504.5,1480,1300,1500
6.781330108642578,315,215,59,4.567044208987943e-05,1505.5,1480,1300,1500
6.803261995315552,316,192,68,3.348289024308578e-05,1503.2,1480,1300,1500
6.825284957885742,317,192,64,3.7268932617769825e-05,1503.2,1480,1300,1500
6.847131967544556,318,189,63,4.166145898429363e-05,1502.9,1480,1300,1500
6.869012117385864,319,187,60,4.5409136318227226e-05,1502.7,1480,1300,1500
6.890925168991089,320,185,54,5.31632110579479e-05,1502.5,1480,1300,1500
6.9127631187438965,321,185,56,5.31632110579479e-05,1502.5,1480,1300,1500
6.934641122817993,322,183,49,6.451612903225807e-05,1502.3,1480,1300,1500
6.9565441608428955,323,183,44,7.507507507507507e-05,1502.3,1480,1300,1500
6.978690147399902,324,182,39,8.928571428571429e-05,1502.2,1480,1300,1500
7.0006091594696045,325,183,34,0.00010896807235480004,1502.3,1480,1300,1500
7.0225300788879395,326,182,30,0.00012600806451612903,1502.2,1480,1300,1500
7.044378042221069,327,183,26,0.00015304560759106213,1502.3,1480,1300,1500
7.0662360191345215,328,148,22,0.000505050505050505,1498.8,1480.050505050505,1300,1500
7.088500022888184,329,144,21,0.000980392156862745,1498.4,1484.8039215686274,1300,1500
7.110530138015747,330,146,23,0.005434782608695652,1498.6,1520,1300,1500
7.132435083389282,331,231,20,0.017857142857142856,1507.1,1520,1300,1500
7.1541571617126465,332,,,,1500.0,1500.0,1250.0,1500
7.175692081451416,333,,,,1500.0,1500.0,1250.0,1500
7.197203159332275,334,,,,1500.0,1500.0,1250.0,1500
7.218675136566162,335,,,,1500.0,1500.0,1250.0,1500
7.240347146987915,336,,,,1500.0,1500.0,1250.0,1500
7.2619240283966064,337,,,,1500.0,1500.0,1250.0,1500
7.283463954925537,338,,,,1500.0,1500.0,1250.0,1500
7.305276155471802,339,,,,1500.0,1500.0,1250.0,1500
7.326639175415039,340,,,,1500.0,1500.0,1250.0,1500
7.348221063613892,341,,,,1500.0,1500.0,1250.0,1500
7.369754076004028,342,,,,1500.0,1500.0,1250.0,1500
7.39133095741272,343,,,,1500.0,1500.0,1250.0,1500
7.412887096405029,344,,,,1500.0,1500.0,1250.0,1500
7.434406995773315,345,,,,1500.0,1500.0,1250.0,1500
7.4558820724487305,346,,,,1500.0,1500.0,1250.0,1500
7.477444171905518,347,,,,1500.0,1500.0,1250.0,1500
7.4989399909973145,348,,,,1500.0,1500.0,1250.0,1500
7.520432949066162,349,,,,1500.0,1500.0,1250.0,1500
7.541903018951416,350,,,,1500.0,1500.0,1250.0,1500
7.563444137573242,351,,,,1500.0,1500.0,1250.0,1500
7.585154056549072,352,,,,1500.0,1500.0,1250.0,1500
7.606671094894409,353,,,,1500.0,1500.0,1250.0,1500
7.628175973892212,354,,,,1500.0,1500.0,1250.0,1500
7.649655103683472,355,,,,1500.0,1500.0,1250.0,1500
7.671129941940308,356,,,,1500.0,1500.0,1250.0,1500
7.692681074142456,357,,,,1500.0,1500.0,1250.0,1500
7.714156150817871,358,,,,1500.0,1500.0,1250.0,1500
7.735620975494385,359,,,,1500.0,1500.0,1250.0,1500
7.7571120262146,360,,,,1500.0,1500.0,1250.0,1500
7.778584957122803,361,,,,1500.0,1500.0,1250.0,1500
7.800096035003662,362,,,,1500.0,1500.0,1250.0,1500
7.821648120880127,363,,,,1500.0,1500.0,1250.0,1500
7.843143939971924,364,,,,1500.0,1500.0,1250.0,1500
7.864665985107422,365,,,,1500.0,1500.0,1250.0,1500
7.886182069778442,366,,,,1500.0,1500.0,1250.0,1500
7.907849073410034,367,240,35,0.02857142857142857,1508.0,1520,1300,1500
7.929664134979248,368,141,45,0.011904761904761904,1498.1,1520,1300,1500
7.951467037200928,369,148,40,0.0021551724137931034,1498.8,1496.551724137931,1300,1500
7.973448038101196,370,155,31,0.00044444444444444447,1499.5,1480,1300,1500
7.9954140186309814,371,165,30,0.00023719165085388995,1500.5,1480,1300,1500
8.017269134521484,372,192,32,0.00012025012025012025,1503.2,1480,1300,1500
8.039080142974854,373,194,38,9.712509712509713e-05,1503.4,1480,1300,1500
8.060930013656616,374,196,42,8.463817181548878e-05,1503.6,1480,1300,1500
8.082802057266235,375,197,46,7.519362358072035e-05,1503.7,1480,1300,1500
8.104732036590576,376,199,49,6.871435442864014e-05,1503.9,1480,1300,1500
8.126597166061401,377,200,51,6.387327542156362e-05,1504.0,1480,1300,1500
8.148415088653564,378,202,55,5.7234432234432234e-05,1504.2,1480,1300,1500
8.170257091522217,379,204,55,5.595657769570813e-05,1504.4,1480,1300,1500
8.192392110824585,380,207,61,4.8393341076267905e-05,1504.7,1480,1300,1500
8.214728116989136,381,209,61,4.726791453961051e-05,1504.9,1480,1300,1500
8.23664903640747,382,213,60,4.630915995183848e-05,1505.3,1480,1300,1500
8.258479118347168,383,215,62,4.324324324324324e-05,1505.5,1480,1300,1500
8.28032398223877,384,218,61,4.347637059258293e-05,1505.8,1480,1300,1500
8.302175998687744,385,221,64,3.965107057890563e-05,1506.1,1480,1300,1500
8.324095010757446,386,222,61,4.2222597534200305e-05,1506.2,1480,1300,1500
8.345947980880737,387,222,64,3.9856516540454363e-05,1506.2,1480,1300,1500
8.367808103561401,388,222,63,4.0479274611398965e-05,1506.2,1480,1300,1500
8.389709949493408,389,223,63,4.0690104166666664e-05,1506.3,1480,1300,1500
8.411556959152222,390,222,64,4.0799673602611176e-05,1506.2,1480,1300,1500
8.433465957641602,391,220,61,4.467077637809345e-05,1506.0,1480,1300,1500
8.45534610748291,392,220,61,4.467077637809345e-05,1506.0,1480,1300,1500
8.477116107940674,393,218,59,4.774637127578304e-05,1505.8,1480,1300,1500
8.499338150024414,394,217,55,5.2684263210579e-05,1505.7,1480,1300,1500
8.521186113357544,395,213,53,5.7690088842736815e-05,1505.3,1480,1300,1500
8.543087005615234,396,211,51,6.124448799608035e-05,1505.1,1480,1300,1500
8.564921140670776,397,210,47,6.898454746136865e-05,1505.0,1480,1300,1500
8.586819171905518,398,208,42,8.113590263691683e-05,1504.8,1480,1300,1500
8.608744144439697,399,206,43,8.269246671628214e-05,1504.6,1480,1300,1500
8.630606174468994,400,204,41,8.991188635137565e-05,1504.4,1480,1300,1500
8.65245008468628,401,202,34,0.00011074197120708749,1504.2,1480,1300,1500
8.674329042434692,402,200,33,0.00011859582542694497,1504.0,1480,1300,1500
8.696197986602783,403,199,32,0.0001282051282051282,1503.9,1480,1300,1500
8.718042135238647,404,161,29,0.0007507507507507507,1500.1,1482.5075075075074,1300,1500
8.739971160888672,405,243,36,0.005917159763313609,1508.3,1520,1300,1500
8.761780023574829,406,241,38,0.0038461538461538464,1508.1,1513.4615384615386,1300,1500
8.783760070800781,407,240,39,0.006993006993006993,1508.0,1520,1300,1500
8.805668115615845,408,239,35,0.018518518518518517,1507.9,1520,1300,1500
8.82749605178833,409,237,34,0.023809523809523808,1507.7,1520,1300,1500
8.84932017326355,410,189,39,0.03333333333333333,1502.9,1520,1300,1500
8.871129989624023,411,237,31,0.03333333333333333,1507.7,1520,1300,1500
8.892945051193237,412,,,,1500.0,1500.0,1250.0,1500
8.914500951766968,413,,,,1500.0,1500.0,1250.0,1500
8.93649697303772,414,236,25,0.0625,1507.6,1520,1300,1500
8.958282947540283,415,,,,1500.0,1500.0,1250.0,1500
8.980040073394775,416,211,38,0.04,1505.1,1520,1300,1500
9.001861095428467,417,190,39,0.05,1503.0,1520,1300,1500
9.023677110671997,418,211,40,0.0625,1505.1,1520,1300,1500
9.045415163040161,419,,,,1500.0,1500.0,1250.0,1500
9.066956043243408,420,,,,1500.0,1500.0,1250.0,1500
9.088616132736206,421,213,43,0.05,1505.3,1520,1300,1500
9.110419034957886,422,237,39,0.041666666666666664,1507.7,1520,1300,1500
9.132235050201416,423,211,37,0.0625,1505.1,1520,1300,1500
9.15408205986023,424,239,44,0.041666666666666664,1507.9,1520,1300,1500
9.175904035568237,425,188,39,0.025,1502.8,1520,1300,1500
9.1977059841156,426,240,41,0.0037593984962406013,1508.0,1512.593984962406,1300,1500
9.219604969024658,427,239,43,0.003968253968253968,1507.9,1514.6825396825398,1300,1500
9.24154806137085,428,241,43,0.002898550724637681,1508.1,1503.9855072463768,1300,1500
9.263522148132324,429,154,54,0.003076923076923077,1499.4,1505.7692307692307,1300,1500
9.285630941390991,430,155,46,0.0009074410163339383,1499.5,1484.0744101633393,1300,1500
9.307626962661743,431,165,41,0.00035014005602240897,1500.5,1480,1300,1500
9.329550981521606,432,197,35,0.00013986013986013986,1503.7,1480,1300,1500
9.351371049880981,433,196,36,0.00011750881316098707,1503.6,1480,1300,1500
9.373250007629395,434,196,38,0.000111000111000111,1503.6,1480,1300,1500
9.39530611038208,435,196,39,0.0001059322033898305,1503.6,1480,1300,1500
9.417152166366577,436,197,42,9.564801530368245e-05,1503.7,1480,1300,1500
9.4390549659729,437,197,44,8.748906386701662e-05,1503.7,1480,1300,1500
9.460948944091797,438,197,46,8.208158909956496e-05,1503.7,1480,1300,1500
9.482836961746216,439,197,46,7.998720204767237e-05,1503.7,1480,1300,1500
9.504755020141602,440,197,49,7.37300007373e-05,1503.7,1480,1300,1500
9.52659296989441,441,198,53,6.661337596589395e-05,1503.8,1480,1300,1500
9.548419952392578,442,198,53,6.581545346847439e-05,1503.8,1480,1300,1500
9.570284128189087,443,198,54,6.283775292195552e-05,1503.8,1480,1300,1500
9.592244148254395,444,199,51,6.41025641025641e-05,1503.9,1480,1300,1500
9.614102125167847,445,200,56,5.809225049378413e-05,1504.0,1480,1300,1500
9.635944128036499,446,201,59,5.3867700926524454e-05,1504.1,1480,1300,1500
9.657794952392578,447,202,56,5.5518543193426606e-05,1504.2,1480,1300,1500
9.679648160934448,448,204,60,5.0286633812732576e-05,1504.4,1480,1300,1500
9.702183961868286,449,205,63,4.7063253012048195e-05,1504.5,1480,1300,1500
9.724101066589355,450,205,53,5.577867023650156e-05,1504.5,1480,1300,1500
9.74628496170044,451,207,64,4.506940688660537e-05,1504.7,1480,1300,1500
9.768169164657593,452,208,61,4.726791453961051e-05,1504.8,1480,1300,1500
9.7900390625,453,208,61,4.6886721680420107e-05,1504.8,1480,1300,1500
9.81187105178833,454,207,57,5.0556117290192114e-05,1504.7,1480,1300,1500
9.833770990371704,455,208,61,4.699468960007519e-05,1504.8,1480,1300,1500
9.855679988861084,456,206,56,5.2675937631689846e-05,1504.6,1480,1300,1500
9.877578020095825,457,205,66,4.475474400286431e-05,1504.5,1480,1300,1500
9.8994460105896,458,205,61,4.8976393378391615e-05,1504.5,1480,1300,1500
9.921267986297607,459,203,61,5.018568704205561e-05,1504.3,1480,1300,1500
9.943158149719238,460,202,58,5.341880341880342e-05,1504.2,1480,1300,1500
9.965073108673096,461,200,60,5.220841599665866e-05,1504.0,1480,1300,1500
9.986960172653198,462,197,58,5.5862800960840175e-05,1503.7,1480,1300,1500
10.00881814956665,463,193,45,7.375175160410059e-05,1503.3,1480,1300,1500
10.030646085739136,464,190,54,6.184291898577613e-05,1503.0,1480,1300,1500
10.052467107772827,465,185,54,6.283775292195552e-05,1502.5,1480,1300,1500
10.074361085891724,466,175,55,6.377551020408164e-05,1501.5,1480,1300,1500
10.096233129501343,467,169,47,7.739938080495357e-05,1500.9,1480,1300,1500
10.11806607246399,468,163,45,7.876496534341525e-05,1500.3,1480,1300,1500
10.139875173568726,469,158,41,8.92458723784025e-05,1499.8,1480,1300,1500
10.161700963973999,470,153,46,7.998720204767237e-05,1499.3,1480,1300,1500
10.18361210823059,471,145,42,9.119927040583675e-05,1498.5,1480,1300,1500
10.205557107925415,472,140,45,8.558712769599452e-05,1498.0,1480,1300,1500
10.227566957473755,473,134,40,0.0001016260162601626,1497.4,1480,1300,1500
10.249575138092041,474,127,44,0.00010958904109589041,1496.7,1480,1300,1500
10.271384000778198,475,125,37,0.00011494252873563218,1496.5,1480,1300,1500
10.293283939361572,476,145,21,0.0005656108597285068,1498.5,1480.656108597285,1300,1500
10.31533694267273,477,118,28,0.00018335166850018335,1495.8,1480,1300,1500
10.337180137634277,478,114,35,0.0001292156609381057,1495.4,1480,1300,1500
10.359002113342285,479,133,38,0.0004873294346978557,1497.3,1480,1300,1500
10.380839109420776,480,113,30,0.0004012841091492777,1495.3,1480,1300,1500
10.402766942977905,481,130,36,0.0008928571428571428,1497.0,1483.9285714285713,1300,1500
10.424811124801636,482,119,35,0.0003506311360448808,1495.9,1480,1300,1500
10.447168111801147,483,146,46,0.00046685340802987864,1498.6,1480,1300,1500
10.469427108764648,484,145,36,0.0005649717514124294,1498.5,1480.6497175141244,1300,1500
10.491394996643066,485,141,24,0.00027210884353741496,1498.1,1480,1300,1500
10.51331615447998,486,129,45,0.00011063170704723974,1496.9,1480,1300,1500
10.535263061523438,487,132,33,0.00012542330364981815,1497.2,1480,1300,1500
10.557090997695923,488,139,41,9.267840593141798e-05,1497.9,1480,1300,1500
10.57896900177002,489,148,39,9.96710854181202e-05,1498.8,1480,1300,1500
10.600844144821167,490,150,48,7.185972980741592e-05,1499.0,1480,1300,1500
10.622656106948853,491,159,49,7.014590347923682e-05,1499.9,1480,1300,1500
10.644567012786865,492,166,47,7.36105999263894e-05,1500.6,1480,1300,1500
10.666422128677368,493,172,50,6.76132521974307e-05,1501.2,1480,1300,1500
10.68825912475586,494,179,50,6.68985817500669e-05,1501.9,1480,1300,1500
10.710088014602661,495,188,46,7.120985544399345e-05,1502.8,1480,1300,1500
10.731919050216675,496,203,59,5.2742616033755275e-05,1504.3,1480,1300,1500
10.753889083862305,497,209,59,5.1440329218106995e-05,1504.9,1480,1300,1500
10.775797128677368,498,218,61,4.829051574270813e-05,1505.8,1480,1300,1500
10.797670125961304,499,222,55,5.237795935470354e-05,1506.2,1480,1300,1500
10.819498062133789,500,229,53,5.577867023650156e-05,1506.9,1480,1300,1500
10.841317176818848,501,233,58,4.927079227433977e-05,1507.3,1480,1300,1500
10.863226175308228,502,234,61,4.661570016781652e-05,1507.4,1480,1300,1500
10.88529896736145,503,236,62,4.7337278106508875e-05,1507.6,1480,1300,1500
10.907145023345947,504,237,62,4.7523999619808e-05,1507.7,1480,1300,1500
10.928993940353394,505,237,62,4.878048780487805e-05,1507.7,1480,1300,1500
10.95110297203064,506,238,63,4.801229114653351e-05,1507.8,1480,1300,1500
10.973015069961548,507,239,64,4.7557901745375e-05,1507.9,1480,1300,1500
10.994888067245483,508,240,62,4.968944099378882e-05,1508.0,1480,1300,1500
11.016730070114136,509,239,61,4.978096375945838e-05,1507.9,1480,1300,1500
11.038567066192627,510,239,60,5.1015202530354045e-05,1507.9,1480,1300,1500
11.060412168502808,511,238,65,4.626416840157298e-05,1507.8,1480,1300,1500
11.082250118255615,512,236,61,4.829051574270813e-05,1507.6,1480,1300,1500
11.10415005683899,513,235,61,4.8106989945639104e-05,1507.5,1480,1300,1500
11.126116037368774,514,233,62,4.651162790697674e-05,1507.3,1480,1300,1500
11.148056030273438,515,232,61,4.645760743321719e-05,1507.2,1480,1300,1500
11.169922113418579,516,231,61,4.5821114369501466e-05,1507.1,1480,1300,1500
11.191869020462036,517,226,59,4.761904761904762e-05,1506.6,1480,1300,1500
11.213703155517578,518,224,62,4.5714285714285716e-05,1506.4,1480,1300,1500
11.235669136047363,519,220,62,4.4943820224719104e-05,1506.0,1480,1300,1500
11.25748610496521,520,216,61,4.661570016781652e-05,1505.6,1480,1300,1500
11.279330015182495,521,211,60,4.833019187086173e-05,1505.1,1480,1300,1500
11.301181077957153,522,209,61,4.6886721680420107e-05,1504.9,1480,1300,1500
11.323080062866211,523,204,60,4.919323101141283e-05,1504.4,1480,1300,1500
11.344926118850708,524,200,63,4.5955882352941176e-05,1504.0,1480,1300,1500
11.366796970367432,525,198,59,5.031952900920847e-05,1503.8,1480,1300,1500
11.388651132583618,526,194,59,5.031952900920847e-05,1503.4,1480,1300,1500
11.410526990890503,527,187,59,5.031952900920847e-05,1502.7,1480,1300,1500
11.432351112365723,528,185,63,4.6869141357330336e-05,1502.5,1480,1300,1500
11.45425009727478,529,183,60,4.919323101141283e-05,1502.3,1480,1300,1500
11.47608208656311,530,180,61,4.7824007651841225e-05,1502.0,1480,1300,1500
11.497907161712646,531,179,58,4.9558925562493803e-05,1501.9,1480,1300,1500
11.519752979278564,532,177,61,4.726791453961051e-05,1501.7,1480,1300,1500
11.541579961776733,533,177,60,4.710759374411155e-05,1501.7,1480,1300,1500
11.563475131988525,534,176,56,5.0704796673765336e-05,1501.6,1480,1300,1500
11.585616111755371,535,176,56,4.971661529283086e-05,1501.6,1480,1300,1500
11.607458114624023,536,178,65,4.2645741822679005e-05,1501.8,1480,1300,1500
11.629302024841309,537,176,59,4.774637127578304e-05,1501.6,1480,1300,1500
11.651132106781006,538,181,63,4.3988914793472045e-05,1502.1,1480,1300,1500
11.673031091690063,539,181,63,4.4138418079096045e-05,1502.1,1480,1300,1500
11.694885969161987,540,183,60,4.528575310207409e-05,1502.3,1480,1300,1500
11.71674108505249,541,186,63,4.374453193350831e-05,1502.6,1480,1300,1500
11.738590002059937,542,188,61,4.567461404951128e-05,1502.8,1480,1300,1500
11.760471105575562,543,194,63,4.525296406914653e-05,1503.4,1480,1300,1500
11.78230905532837,544,196,56,5.1153511688577424e-05,1503.6,1480,1300,1500
11.804228067398071,545,200,61,4.7824007651841225e-05,1504.0,1480,1300,1500
11.8261079788208,546,203,61,4.743833017077799e-05,1504.3,1480,1300,1500
11.848042011260986,547,205,53,5.478851632697787e-05,1504.5,1480,1300,1500
11.869915008544922,548,210,57,5.145356315924878e-05,1505.0,1480,1300,1500
11.891849040985107,549,214,58,5.014542172299669e-05,1505.4,1480,1300,1500
11.913684129714966,550,217,52,5.7372346528973036e-05,1505.7,1480,1300,1500
11.935656070709229,551,220,60,4.9785920541670816e-05,1506.0,1480,1300,1500
11.957687139511108,552,224,59,5.062265870203503e-05,1506.4,1480,1300,1500
11.979722023010254,553,227,62,4.7523999619808e-05,1506.7,1480,1300,1500
12.00165605545044,554,230,60,4.919323101141283e-05,1507.0,1480,1300,1500
12.023540019989014,555,232,64,4.6061722708429294e-05,1507.2,1480,1300,1500
12.045530080795288,556,235,60,4.948780125699015e-05,1507.5,1480,1300,1500
12.067684173583984,557,239,59,5.155436407691911e-05,1507.9,1480,1300,1500
12.089575052261353,558,240,67,4.658746797111577e-05,1508.0,1480,1300,1500
12.111435174942017,559,241,66,4.723219346306443e-05,1508.1,1480,1300,1500
12.133656978607178,560,242,69,4.608294930875576e-05,1508.2,1480,1300,1500
12.155704021453857,561,243,68,4.736193994506015e-05,1508.3,1480,1300,1500
12.1775541305542,562,243,65,5.02209722780233e-05,1508.3,1480,1300,1500
12.199435949325562,563,244,66,4.909662215239592e-05,1508.4,1480,1300,1500
12.221342086791992,564,245,67,4.938271604938271e-05,1508.5,1480,1300,1500
12.243231058120728,565,245,69,4.7644004002096336e-05,1508.5,1480,1300,1500
12.265181064605713,566,246,70,4.759864819839116e-05,1508.6,1480,1300,1500
12.287042140960693,567,245,71,4.6311304589450285e-05,1508.5,1480,1300,1500
12.308940172195435,568,245,67,4.905567819475104e-05,1508.5,1480,1300,1500
12.33080005645752,569,244,69,4.73305566073457e-05,1508.4,1480,1300,1500
12.352581977844238,570,243,69,4.6414481318171266e-05,1508.3,1480,1300,1500
12.374497175216675,571,242,68,4.64921660700172e-05,1508.2,1480,1300,1500
12.39637017250061,572,241,68,4.619791185438418e-05,1508.1,1480,1300,1500
12.418210983276367,573,237,65,4.536381781890764e-05,1507.7,1480,1300,1500
12.440042972564697,574,236,68,4.397150646381145e-05,1507.6,1480,1300,1500
12.461883068084717,575,233,64,4.420866489832007e-05,1507.3,1480,1300,1500
12.483776092529297,576,230,64,4.3215211754537596e-05,1507.0,1480,1300,1500
12.505743980407715,577,228,64,4.22654268808115e-05,1506.8,1480,1300,1500
12.527598142623901,578,225,62,4.4444444444444447e-05,1506.5,1480,1300,1500
12.549467086791992,579,220,61,4.505316273202379e-05,1506.0,1480,1300,1500
12.571336030960083,580,210,62,4.4587123238808635e-05,1505.0,1480,1300,1500
12.593289136886597,581,201,57,5.145356315924878e-05,1504.1,1480,1300,1500
12.615247011184692,582,193,55,5.46000546000546e-05,1503.3,1480,1300,1500
12.63718295097351,583,183,62,5.0955414012738855e-05,1502.3,1480,1300,1500
12.659096956253052,584,175,58,5.55000555000555e-05,1501.5,1480,1300,1500
12.681030035018921,585,166,54,6.2266500622665e-05,1500.6,1480,1300,1500
12.702955961227417,586,158,48,7.416747014759327e-05,1499.8,1480,1300,1500
12.725005149841309,587,151,51,6.91754288876591e-05,1499.1,1480,1300,1500
12.746993064880371,588,142,50,0.00010582010582010582,1498.2,1480,1300,1500
12.768824100494385,589,123,18,0.0002554931016862545,1496.3,1480,1300,1500
12.790670156478882,590,143,41,0.0007541478129713424,1498.3,1482.5414781297134,1300,1500
12.812594175338745,591,137,53,0.002066115702479339,1497.7,1495.6611570247933,1300,1500
12.834594011306763,592,118,47,0.01,1495.8,1520,1300,1500
12.856374025344849,593,118,32,0.008928571428571428,1495.8,1520,1300,1500
12.878230094909668,594,129,73,0.027777777777777776,1496.9,1520,1300,1500
12.90021300315857,595,114,70,0.015151515151515152,1495.4,1520,1300,1500
12.922199964523315,596,64,38,0.047619047619047616,1490.4,1520,1300,1500
12.94404911994934,597,88,51,0.022222222222222223,1492.8,1520,1300,1500
12.965778112411499,598,,,,1500.0,1500.0,1250.0,1500
12.987328052520752,599,,,,1500.0,1500.0,1250.0,1500
13.008985042572021,600,74,52,0.022727272727272728,1491.4,1520,1300,1500
13.030679941177368,601,,,,1500.0,1500.0,1250.0,1500
13.052191019058228,602,,,,1500.0,1500.0,1250.0,1500
13.07371211051941,603,,,,1500.0,1500.0,1250.0,1500
13.095484972000122,604,58,74,0.08333333333333333,1489.8,1520,1300,1500
13.117231130599976,605,,,,1500.0,1500.0,1250.0,1500
13.138978004455566,606,,,,1500.0,1500.0,1250.0,1500
13.160576105117798,607,,,,1500.0,1500.0,1250.0,1500
13.182065963745117,608,,,,1500.0,1500.0,1250.0,1500
13.203648090362549,609,,,,1500.0,1500.0,1250.0,1500
13.22522497177124,610,,,,1500.0,1500.0,1250.0,1500
13.246718168258667,611,,,,1500.0,1500.0,1250.0,1500
13.268275022506714,612,,,,1500.0,1500.0,1250.0,1500
13.2897789478302,613,,,,1500.0,1500.0,1250.0,1500
13.311254978179932,614,,,,1500.0,1500.0,1250.0,1500
13.33279299736023,615,,,,1500.0,1500.0,1250.0,1500
13.354271173477173,616,,,,1500.0,1500.0,1250.0,1500
13.376374006271362,617,,,,1500.0,1500.0,1250.0,1500
13.397921085357666,618,,,,1500.0,1500.0,1250.0,1500
13.419417142868042,619,,,,1500.0,1500.0,1250.0,1500
13.440880060195923,620,,,,1500.0,1500.0,1250.0,1500
13.462749004364014,621,,,,1500.0,1500.0,1250.0,1500
13.484256982803345,622,,,,1500.0,1500.0,1250.0,1500
13.505941152572632,623,52,89,0.027777777777777776,1489.2,1520,1272.0,1500
13.527871131896973,624,66,80,0.025,1490.6,1520,1290.0,1500
13.549734115600586,625,86,84,0.041666666666666664,1492.6,1520,1282.0,1500
13.571655988693237,626,81,67,0.05555555555555555,1492.1,1520,1300,1500
13.593407154083252,627,,,,1500.0,1500.0,1250.0,1500
13.615179061889648,628,68,20,0.05555555555555555,1490.8,1520,1300,1500
13.636857986450195,629,,,,1500.0,1500.0,1250.0,1500
13.658524990081787,630,123,68,0.020833333333333332,1496.3,1520,1300,1500
13.68028211593628,631,63,64,0.025,1490.3,1520,1300,1500
13.702075004577637,632,123,33,0.006172839506172839,1496.3,1520,1300,1500
13.723984956741333,633,95,37,0.007518796992481203,1493.5,1520,1300,1500
13.745864152908325,634,141,37,0.0021645021645021645,1498.1,1496.6450216450216,1300,1500
13.767882108688354,635,153,21,0.006944444444444444,1499.3,1520,1300,1500
13.789806127548218,636,166,34,0.0011904761904761906,1500.6,1486.904761904762,1300,1500
13.811728954315186,637,172,3,0.00303951367781155,1501.2,1505.3951367781156,1300,1500
13.833702087402344,638,162,28,0.00013290802764486976,1500.2,1480,1300,1500
13.855643033981323,639,177,44,0.00015964240102171138,1501.7,1480,1300,1500
13.877525091171265,640,191,43,8.234519104084322e-05,1503.1,1480,1300,1500
13.899389028549194,641,202,44,7.880220646178094e-05,1504.2,1480,1300,1500
13.92132306098938,642,208,35,9.646922631680494e-05,1504.8,1480,1300,1500
13.943161964416504,643,217,39,8.503401360544217e-05,1505.7,1480,1300,1500
13.965198040008545,644,225,44,7.168458781362007e-05,1506.5,1480,1300,1500
13.98707914352417,645,231,46,6.863417982155113e-05,1507.1,1480,1300,1500
14.00888705253601,646,236,48,6.417661404184315e-05,1507.6,1480,1300,1500
14.030737161636353,647,240,45,6.836204539239814e-05,1508.0,1480,1300,1500
14.052551984786987,648,243,48,6.669334400426837e-05,1508.3,1480,1300,1500
14.074434995651245,649,245,47,6.898454746136865e-05,1508.5,1480,1300,1500
14.096395015716553,650,245,50,6.644959797993223e-05,1508.5,1480,1300,1500
14.118343114852905,651,246,51,6.496881496881497e-05,1508.6,1480,1300,1500
14.140270948410034,652,248,52,6.66000666000666e-05,1508.8,1480,1300,1500
14.162156105041504,653,248,51,6.837139340899768e-05,1508.8,1480,1300,1500
14.184035062789917,654,248,51,6.789327177676693e-05,1508.8,1480,1300,1500
14.205947160720825,655,249,53,6.535520554212144e-05,1508.9,1480,1300,1500
14.22778606414795,656,249,52,6.597176408497163e-05,1508.9,1480,1300,1500
14.24958610534668,657,247,53,6.430041152263375e-05,1508.7,1480,1300,1500
14.27143406867981,658,246,47,7.209805335255949e-05,1508.6,1480,1300,1500
14.2933030128479,659,246,52,6.523157208088715e-05,1508.6,1480,1300,1500
14.315304040908813,660,245,52,6.247657128576784e-05,1508.5,1480,1300,1500
14.33716106414795,661,243,50,6.449948400412796e-05,1508.3,1480,1300,1500
14.35897707939148,662,242,49,6.41025641025641e-05,1508.2,1480,1300,1500
14.380810976028442,663,240,50,6.165988407941794e-05,1508.0,1480,1300,1500
14.40265703201294,664,239,48,6.377551020408164e-05,1507.9,1480,1300,1500
14.42455506324768,665,235,52,5.9523809523809524e-05,1507.5,1480,1300,1500
14.446393013000488,666,231,49,6.196938712276135e-05,1507.1,1480,1300,1500
14.468242168426514,667,229,50,6.0742270546073014e-05,1506.9,1480,1300,1500
14.490097999572754,668,222,47,6.578947368421052e-05,1506.2,1480,1300,1500
14.511928081512451,669,217,48,6.566419331538512e-05,1505.7,1480,1300,1500
14.533887147903442,670,212,40,8.01667468334135e-05,1505.2,1480,1300,1500
14.555803060531616,671,192,37,8.830801836806782e-05,1503.2,1480,1300,1500
14.577653169631958,672,185,29,0.00011415525114155251,1502.5,1480,1300,1500
14.599523067474365,673,209,10,0.0007331378299120235,1504.9,1482.3313782991202,1300,1500
14.621454000473022,674,201,46,0.0011363636363636363,1504.1,1486.3636363636363,1300,1500
14.643418073654175,675,179,46,0.000992063492063492,1501.9,1484.920634920635,1300,1500
14.66543197631836,676,145,2,0.003968253968253968,1498.5,1514.6825396825398,1300,1500
14.687633991241455,677,147,12,0.004761904761904762,1498.7,1520,1300,1500
14.709465026855469,678,161,36,0.009523809523809525,1500.1,1520,1300,1500
14.731266021728516,679,157,80,0.014285714285714285,1499.7,1520,1290.0,1500
14.753205060958862,680,125,44,0.01,1496.5,1520,1300,1500
14.775086164474487,681,121,47,0.015625,1496.1,1520,1300,1500
14.796926975250244,682,117,49,0.05555555555555555,1495.7,1520,1300,1500
14.818617105484009,683,,,,1500.0,1500.0,1250.0,1500
14.8403000831604,684,102,93,0.020833333333333332,1494.2,1520,1264.0,1500
14.862240076065063,685,69,21,0.030303030303030304,1490.9,1520,1300,1500
14.8839590549469,686,,,,1500.0,1500.0,1250.0,1500
14.905725002288818,687,78,78,0.022222222222222223,1491.8,1520,1294.0,1500
14.927602052688599,688,67,78,0.025,1490.7,1520,1294.0,1500
14.949444055557251,689,59,81,0.004901960784313725,1489.9,1520,1288.0,1500
14.971183061599731,690,,,,1500.0,1500.0,1250.0,1500
14.99277114868164,691,,,,1500.0,1500.0,1250.0,1500
15.014278173446655,692,,,,1500.0,1500.0,1250.0,1500
15.035765171051025,693,,,,1500.0,1500.0,1250.0,1500
15.05724310874939,694,,,,1500.0,1500.0,1250.0,1500
15.078724145889282,695,,,,1500.0,1500.0,1250.0,1500
15.100234031677246,696,,,,1500.0,1500.0,1250.0,1500
15.121783018112183,697,,,,1500.0,1500.0,1250.0,1500
15.143464088439941,698,,,,1500.0,1500.0,1250.0,1500
15.165326118469238,699,,,,1500.0,1500.0,1250.0,1500
15.18685793876648,700,,,,1500.0,1500.0,1250.0,1500
15.208410024642944,701,,,,1500.0,1500.0,1250.0,1500
15.229912042617798,702,,,,1500.0,1500.0,1250.0,1500
15.251399040222168,703,,,,1500.0,1500.0,1250.0,1500
15.272948980331421,704,,,,1500.0,1500.0,1250.0,1500
15.294496059417725,705,,,,1500.0,1500.0,1250.0,1500
15.3159921169281,706,,,,1500.0,1500.0,1250.0,1500
15.337459087371826,707,,,,1500.0,1500.0,1250.0,1500
15.358931064605713,708,,,,1500.0,1500.0,1250.0,1500
15.38040804862976,709,,,,1500.0,1500.0,1250.0,1500
15.401909112930298,710,,,,1500.0,1500.0,1250.0,1500
15.423444032669067,711,,,,1500.0,1500.0,1250.0,1500
15.445006132125854,712,,,,1500.0,1500.0,1250.0,1500
15.466681957244873,713,16,150,0.018518518518518517,1485.6,1520,1200,1500
15.488468170166016,714,,,,1500.0,1500.0,1250.0,1500
15.50997805595398,715,,,,1500.0,1500.0,1250.0,1500
15.531661987304688,716,19,161,0.041666666666666664,1485.9,1520,1200,1500
15.553740978240967,717,24,163,0.03333333333333333,1486.4,1520,1200,1500
15.575809955596924,718,27,164,0.0125,1486.7,1520,1200,1500
15.59773302078247,719,16,165,0.03333333333333333,1485.6,1520,1200,1500
15.61965298652649,720,27,165,0.020833333333333332,1486.7,1520,1200,1500
15.641486167907715,721,10,164,0.015151515151515152,1485.0,1520,1200,1500
15.6633620262146,722,7,163,0.0125,1484.7,1520,1200,1500
15.685338973999023,723,6,158,0.014285714285714285,1484.6,1520,1200,1500
15.707044124603271,724,,,,1500.0,1500.0,1250.0,1500
15.728732109069824,725,11,149,0.03571428571428571,1485.1,1520,1200,1500
15.750563144683838,726,27,144,0.047619047619047616,1486.7,1520,1200,1500
15.772318124771118,727,,,,1500.0,1500.0,1250.0,1500
15.7938711643219,728,,,,1500.0,1500.0,1250.0,1500
15.815591096878052,729,64,128,0.027777777777777776,1490.4,1520,1200,1500
15.837432146072388,730,58,115,0.030303030303030304,1489.8,1520,1220.0,1500
15.859177112579346,731,,,,1500.0,1500.0,1250.0,1500
15.880897045135498,732,63,87,0.014285714285714285,1490.3,1520,1276.0,1500
15.902892112731934,733,77,84,0.03125,1491.7,1520,1282.0,1500
15.924800157546997,734,63,54,0.022222222222222223,1490.3,1520,1300,1500
15.946606159210205,735,72,49,0.006802721088435374,1491.2,1520,1300,1500
15.96843695640564,736,79,29,0.003703703703703704,1491.9,1512.037037037037,1300,1500
15.990362167358398,737,99,92,0.003968253968253968,1493.9,1514.6825396825398,1266.0,1500
16.012402057647705,738,128,60,0.0009950248756218905,1496.8,1484.9502487562188,1300,1500
16.034330129623413,739,139,37,0.0011312217194570137,1497.9,1486.3122171945702,1300,1500
16.056277990341187,740,158,54,9.706853038245001e-05,1499.8,1480,1300,1500
16.078408002853394,741,149,65,5.1551706361480566e-05,1498.9,1480,1300,1500
16.10029911994934,742,154,61,4.77190303493033e-05,1499.4,1480,1300,1500
16.122197151184082,743,164,58,5.087505087505087e-05,1500.4,1480,1300,1500
16.144052028656006,744,175,59,4.553734061930783e-05,1501.5,1480,1300,1500
16.165945053100586,745,185,64,4.113533525298231e-05,1502.5,1480,1300,1500
16.18779706954956,746,194,65,3.9758269720101784e-05,1503.4,1480,1300,1500
16.20965313911438,747,203,67,3.694945314809341e-05,1504.3,1480,1300,1500
16.23149299621582,748,206,66,3.836120914531226e-05,1504.6,1480,1300,1500
16.253395080566406,749,214,68,3.552145495879511e-05,1505.4,1480,1300,1500
16.275407075881958,750,216,69,3.543962859269235e-05,1505.6,1480,1300,1500
16.29729199409485,751,218,64,3.924646781789639e-05,1505.8,1480,1300,1500
16.319107055664062,752,221,69,3.5893754486719313e-05,1506.1,1480,1300,1500
16.341619968414307,753,223,50,5.13294322964788e-05,1506.3,1480,1300,1500
16.363508939743042,754,223,66,3.895749737036893e-05,1506.3,1480,1300,1500
16.38557195663452,755,223,66,3.927729772191673e-05,1506.3,1480,1300,1500
16.407506942749023,756,222,67,3.751500600240096e-05,1506.2,1480,1300,1500
16.429403066635132,757,222,69,3.644314868804665e-05,1506.2,1480,1300,1500
16.451236963272095,758,224,70,3.732736095558044e-05,1506.4,1480,1300,1500
16.47313094139099,759,227,67,3.961180431768667e-05,1506.7,1480,1300,1500
16.4949631690979,760,226,63,4.177807486631016e-05,1506.6,1480,1300,1500
16.51681900024414,761,222,67,3.798670465337132e-05,1506.2,1480,1300,1500
16.53869915008545,762,224,68,3.7820052191672025e-05,1506.4,1480,1300,1500
16.56041717529297,763,226,67,4.040077569489334e-05,1506.6,1480,1300,1500
16.582365036010742,764,224,63,4.1335978835978834e-05,1506.4,1480,1300,1500
16.60424494743347,765,219,66,3.7313432835820896e-05,1505.9,1480,1300,1500
16.62628197669983,766,221,67,4.101049868766404e-05,1506.1,1480,1300,1500
16.648113012313843,767,220,72,3.500787677227376e-05,1506.0,1480,1300,1500
16.670037984848022,768,223,60,4.225114078080108e-05,1506.3,1480,1300,1500
16.69193696975708,769,218,71,3.472222222222222e-05,1505.8,1480,1300,1500
16.71389603614807,770,221,63,4.079800905715801e-05,1506.1,1480,1300,1500
16.735859155654907,771,218,65,3.779003854583932e-05,1505.8,1480,1300,1500
16.757766008377075,772,220,64,3.8954462233648865e-05,1506.0,1480,1300,1500
16.779585123062134,773,219,64,3.8566855644259326e-05,1505.9,1480,1300,1500
16.801449060440063,774,216,67,3.586800573888092e-05,1505.6,1480,1300,1500
16.823357105255127,775,216,61,4.266939750810719e-05,1505.6,1480,1300,1500
16.845267057418823,776,208,76,5.2631578947368424e-05,1504.8,1480,1298.0,1500
16.867194175720215,777,215,65,3.914660403210022e-05,1505.5,1480,1300,1500
16.88908100128174,778,210,60,4.304407713498623e-05,1505.0,1480,1300,1500
16.91088604927063,779,208,67,3.7411148522259634e-05,1504.8,1480,1300,1500
16.932717084884644,780,210,45,6.173601679219657e-05,1505.0,1480,1300,1500
16.954591989517212,781,198,62,4.467277194549922e-05,1503.8,1480,1300,1500
16.976433038711548,782,195,53,5.079236082893133e-05,1503.5,1480,1300,1500
16.998384952545166,783,190,44,6.812917291184085e-05,1503.0,1480,1300,1500
17.02032494544983,784,214,89,0.00012703252032520327,1505.4,1480,1272.0,1500
17.0422101020813,785,180,58,8.239947264337508e-05,1502.0,1480,1300,1500
17.064144134521484,786,186,61,6.808278867102397e-05,1502.6,1480,1300,1500
17.086015939712524,787,115,44,0.0013605442176870747,1495.5,1488.6054421768708,1300,1500
17.10794711112976,788,194,32,0.00023912003825920613,1503.4,1480,1300,1500
17.129762172698975,789,184,76,0.0004748338081671415,1502.4,1480,1298.0,1500
17.151673078536987,790,185,45,0.0005574136008918618,1502.5,1480.5741360089187,1300,1500
17.17366909980774,791,199,20,0.0016891891891891893,1503.9,1491.8918918918919,1300,1500
17.195691108703613,792,139,45,0.00202020202020202,1497.9,1495.20202020202,1300,1500
17.217616081237793,793,165,1,0.005555555555555556,1500.5,1520,1300,1500
17.239432096481323,794,154,53,0.005681818181818182,1499.4,1520,1300,1500
17.261516094207764,795,149,39,0.004761904761904762,1498.9,1520,1300,1500
17.283436059951782,796,133,46,0.004,1497.3,1515.0,1300,1500
17.305415153503418,797,152,88,0.006666666666666667,1499.2,1520,1274.0,1500
17.327322006225586,798,120,40,0.03125,1496.0,1520,1300,1500
17.349099159240723,799,157,108,0.03333333333333333,1499.7,1520,1234.0,1500
17.370975971221924,800,96,90,0.019230769230769232,1493.6,1520,1270.0,1500
17.392945051193237,801,121,97,0.01818181818181818,1496.1,1520,1256.0,1500
17.414692163467407,802,,,,1500.0,1500.0,1250.0,1500
17.43635106086731,803,90,80,0.03125,1493.0,1520,1290.0,1500
17.458134174346924,804,,,,1500.0,1500.0,1250.0,1500
17.479861974716187,805,101,109,0.016666666666666666,1494.1,1520,1232.0,1500
17.501695156097412,806,93,105,0.03125,1493.3,1520,1240.0,1500
17.52354407310486,807,70,97,0.037037037037037035,1491.0,1520,1256.0,1500
17.545523166656494,808,58,99,0.013333333333333334,1489.8,1520,1252.0,1500
17.567307949066162,809,,,,1500.0,1500.0,1250.0,1500
17.58890199661255,810,,,,1500.0,1500.0,1250.0,1500
17.61050009727478,811,,,,1500.0,1500.0,1250.0,1500
17.632009983062744,812,,,,1500.0,1500.0,1250.0,1500
17.65360999107361,813,,,,1500.0,1500.0,1250.0,1500
17.675209999084473,814,,,,1500.0,1500.0,1250.0,1500
17.69674015045166,815,,,,1500.0,1500.0,1250.0,1500
17.71856999397278,816,,,,1500.0,1500.0,1250.0,1500
17.740944147109985,817,,,,1500.0,1500.0,1250.0,1500
17.762460947036743,818,,,,1500.0,1500.0,1250.0,1500
17.78420615196228,819,74,106,0.0625,1491.4,1520,1238.0,1500
17.80611300468445,820,78,99,0.016666666666666666,1491.8,1520,1252.0,1500
17.828009128570557,821,112,112,0.025,1495.2,1520,1226.0,1500
17.849889993667603,822,136,119,0.025,1497.6,1520,1212.0,1500
17.871819972991943,823,75,39,0.016666666666666666,1491.5,1520,1300,1500
17.89374804496765,824,99,70,0.016666666666666666,1493.9,1520,1300,1500
17.915650129318237,825,127,73,0.02,1496.7,1520,1300,1500
17.9374361038208,826,160,95,0.005208333333333333,1500.0,1520,1260.0,1500
17.95936894416809,827,160,43,0.003676470588235294,1500.0,1511.764705882353,1300,1500
17.981255054473877,828,157,29,0.00625,1499.7,1520,1300,1500
18.003124952316284,829,182,70,0.0004926108374384236,1502.2,1480,1300,1500
18.024959087371826,830,162,48,9.541984732824427e-05,1500.2,1480,1300,1500
18.046787977218628,831,171,51,6.771397616468039e-05,1501.1,1480,1300,1500
18.068631172180176,832,181,58,5.926277112717791e-05,1502.1,1480,1300,1500
18.090469121932983,833,200,68,4.7707647535900004e-05,1504.0,1480,1300,1500
18.11233115196228,834,207,63,4.95221116228396e-05,1504.7,1480,1300,1500
