time,frame,x,y,size_inv,roll,pitch,thrust,yaw
0.0003609657287597656,1,157,70,0.001488095238095238,1499.175,1490.0,1307.5,1500
0.022107839584350586,2,157,70,0.0015360983102918587,1499.0999999999999,1490.7200460829492,1307.5,1500
0.04356193542480469,3,157,70,0.0015360983102918587,1499.0250000000001,1490.7200460829492,1307.5,1500
0.06492781639099121,4,157,70,0.0015360983102918587,1498.95,1490.7200460829492,1307.5,1500
0.08629393577575684,5,157,70,0.001443001443001443,1498.875,1489.323593073593,1307.5,1500
0.10760784149169922,6,157,70,0.001488095238095238,1498.8,1490.0,1307.5,1500
0.12896299362182617,7,157,70,0.0015360983102918587,1498.7249999999999,1490.7200460829492,1307.5,1500
0.1502978801727295,8,157,70,0.0015360983102918587,1498.6500000000001,1490.7200460829492,1307.5,1500
0.1716618537902832,9,157,70,0.0015360983102918587,1498.575,1490.7200460829492,1307.5,1500
0.19298982620239258,10,157,70,0.001488095238095238,1498.5,1490.0,1307.5,1500
0.21446990966796875,11,157,70,0.0015360983102918587,1498.5,1490.7200460829492,1307.5,1500
0.23608183860778809,12,157,70,0.0015360983102918587,1498.5,1490.7200460829492,1307.5,1500
0.25768494606018066,13,156,70,0.0016666666666666668,1498.2249999999999,1492.6785714285713,1307.5,1500
0.27927279472351074,14,157,70,0.0015360983102918587,1498.4749999999999,1490.7200460829492,1307.5,1500
0.3008899688720703,15,157,70,0.0015360983102918587,1498.4749999999999,1490.7200460829492,1307.5,1500
0.3224678039550781,16,156,70,0.0015360983102918587,1498.2,1490.7200460829492,1307.5,1500
0.3440837860107422,17,157,70,0.0015151515151515152,1498.45,1490.4058441558441,1307.5,1500
0.36567091941833496,18,156,70,0.0015625,1498.175,1491.1160714285713,1307.5,1500
0.3872809410095215,19,157,70,0.0016129032258064516,1498.425,1491.8721198156682,1307.5,1500
0.40886878967285156,20,157,70,0.001488095238095238,1498.425,1490.0,1307.5,1500
0.43050384521484375,21,157,69,0.0016129032258064516,1498.425,1491.8721198156682,1307.75,1500
0.4520909786224365,22,158,69,0.0015625,1498.7,1491.1160714285713,1307.75,1500
0.4736759662628174,23,158,69,0.0016666666666666668,1498.75,1492.6785714285713,1307.75,1500
0.49524879455566406,24,159,69,0.0016129032258064516,1499.05,1491.8721198156682,1307.75,1500
0.5169439315795898,25,160,71,0.0016129032258064516,1499.375,1491.8721198156682,1307.25,1500
0.5386338233947754,26,160,73,0.0016129032258064516,1499.4749999999999,1491.8721198156682,1306.75,1500
0.5602569580078125,27,161,74,0.0016129032258064516,1499.825,1491.8721198156682,1306.5,1500
0.5818419456481934,28,161,76,0.001488095238095238,1499.95,1490.0,1306.0,1500
0.6034419536590576,29,161,76,0.0015625,1500.05,1491.1160714285713,1306.0,1500
0.6253957748413086,30,161,76,0.0016129032258064516,1500.1500000000001,1491.8721198156682,1306.0,1500
0.6483709812164307,31,161,75,0.0016129032258064516,1500.25,1491.8721198156682,1306.25,1500
0.67128586769104,32,162,75,0.0015151515151515152,1500.5999999999999,1490.4058441558441,1306.25,1500
0.6943678855895996,33,163,75,0.0015151515151515152,1500.9749999999999,1490.4058441558441,1306.25,1500
0.7173647880554199,34,162,75,0.0016129032258064516,1500.8,1491.8721198156682,1306.25,1500
0.7404499053955078,35,162,76,0.0016129032258064516,1500.8499999999999,1491.8721198156682,1306.0,1500
0.7633237838745117,36,162,77,0.0016129032258064516,1500.9000000000001,1491.8721198156682,1305.75,1500
0.786240816116333,37,162,78,0.0016129032258064516,1500.925,1491.8721198156682,1305.5,1500
0.8092708587646484,38,161,78,0.0016129032258064516,1500.675,1491.8721198156682,1305.5,1500
0.832237958908081,39,162,78,0.0016129032258064516,1500.95,1491.8721198156682,1305.5,1500
0.8551027774810791,40,161,77,0.0017543859649122807,1500.7,1493.9943609022557,1305.75,1500
0.877997875213623,41,161,77,0.0016666666666666668,1500.7,1492.6785714285713,1305.75,1500
0.9008619785308838,42,160,77,0.0016666666666666668,1500.4000000000001,1492.6785714285713,1305.75,1500
0.9237689971923828,43,161,78,0.0015360983102918587,1500.5999999999999,1490.7200460829492,1305.5,1500
0.9466397762298584,44,161,78,0.0016129032258064516,1500.575,1491.8721198156682,1305.5,1500
0.9700238704681396,45,160,78,0.0015625,1500.2750000000001,1491.1160714285713,1305.5,1500
0.9929318428039551,46,159,78,0.0017543859649122807,1499.95,1493.9943609022557,1305.5,1500
1.015944004058838,47,160,77,0.0016129032258064516,1500.1500000000001,1491.8721198156682,1305.75,1500
1.0388939380645752,48,161,77,0.001594896331738437,1500.4000000000001,1491.6020164046479,1305.75,1500
1.061814785003662,49,160,77,0.0015625,1500.0999999999999,1491.1160714285713,1305.75,1500
1.0847368240356445,50,160,77,0.0015625,1500.075,1491.1160714285713,1305.75,1500
1.1075937747955322,51,160,77,0.0016129032258064516,1500.05,1491.8721198156682,1305.75,1500
1.1305480003356934,52,159,76,0.0016666666666666668,1499.7750000000001,1492.6785714285713,1306.0,1500
1.1534059047698975,53,159,76,0.0015625,1499.7249999999999,1491.1160714285713,1306.0,1500
1.1762897968292236,54,159,76,0.0016129032258064516,1499.675,1491.8721198156682,1306.0,1500
1.1993169784545898,55,159,76,0.001644736842105263,1499.6500000000001,1492.3496240601503,1306.0,1500
1.2222249507904053,56,159,75,0.0016129032258064516,1499.6500000000001,1491.8721198156682,1306.25,1500
1.2451059818267822,57,159,75,0.0016129032258064516,1499.625,1491.8721198156682,1306.25,1500
1.2680058479309082,58,159,76,0.0015625,1499.575,1491.1160714285713,1306.0,1500
1.2908339500427246,59,159,76,0.0015625,1499.55,1491.1160714285713,1306.0,1500
1.3137238025665283,60,159,76,0.001697792869269949,1499.5250000000001,1493.1454644676207,1306.0,1500
1.3366048336029053,61,159,75,0.0015625,1499.5,1491.1160714285713,1306.25,1500
1.359604835510254,62,159,74,0.0016129032258064516,1499.5,1491.8721198156682,1306.5,1500
1.3825058937072754,63,159,74,0.0016129032258064516,1499.5,1491.8721198156682,1306.5,1500
1.4054088592529297,64,159,75,0.001644736842105263,1499.5,1492.3496240601503,1306.25,1500
1.4282958507537842,65,159,76,0.0016129032258064516,1499.5,1491.8721198156682,1306.0,1500
1.4512279033660889,66,159,77,0.0015625,1499.5,1491.1160714285713,1305.75,1500
1.4740707874298096,67,159,78,0.0016129032258064516,1499.5,1491.8721198156682,1305.5,1500
1.4970309734344482,68,158,78,0.0015625,1499.2249999999999,1491.1160714285713,1305.5,1500
1.5199837684631348,69,158,77,0.001697792869269949,1499.2,1493.1454644676207,1305.75,1500
1.5428848266601562,70,158,77,0.001697792869269949,1499.175,1493.1454644676207,1305.75,1500
1.5657579898834229,71,159,77,0.0016129032258064516,1499.425,1491.8721198156682,1305.75,1500
1.588696002960205,72,158,78,0.0017543859649122807,1499.1500000000001,1493.9943609022557,1305.5,1500
1.611562967300415,73,158,78,0.0017543859649122807,1499.125,1493.9943609022557,1305.5,1500
1.6344969272613525,74,158,78,0.0015625,1499.0999999999999,1491.1160714285713,1305.5,1500
1.6574139595031738,75,158,78,0.0016129032258064516,1499.075,1491.8721198156682,1305.5,1500
1.6804218292236328,76,158,75,0.001953125,1499.05,1496.9754464285713,1306.25,1500
1.7034029960632324,77,158,77,0.0016129032258064516,1499.0250000000001,1491.8721198156682,1305.75,1500
1.7263598442077637,78,158,77,0.001697792869269949,1499.0250000000001,1493.1454644676207,1305.75,1500
1.7494559288024902,79,158,77,0.001697792869269949,1499.0250000000001,1493.1454644676207,1305.75,1500
1.7723979949951172,80,157,77,0.001697792869269949,1498.75,1493.1454644676207,1305.75,1500
1.7952649593353271,81,157,77,0.001697792869269949,1498.7,1493.1454644676207,1305.75,1500
1.8181819915771484,82,157,77,0.001697792869269949,1498.675,1493.1454644676207,1305.75,1500
1.8410868644714355,83,157,77,0.0016129032258064516,1498.6500000000001,1491.8721198156682,1305.75,1500
1.863996982574463,84,157,77,0.0016129032258064516,1498.625,1491.8721198156682,1305.75,1500
1.8870048522949219,85,156,78,0.001644736842105263,1498.325,1492.3496240601503,1305.5,1500
1.9099979400634766,86,156,78,0.001697792869269949,1498.2750000000001,1493.1454644676207,1305.5,1500
1.9328927993774414,87,156,77,0.0015625,1498.2249999999999,1491.1160714285713,1305.75,1500
1.955885887145996,88,156,78,0.001697792869269949,1498.175,1493.1454644676207,1305.5,1500
1.9792828559875488,89,156,78,0.001697792869269949,1498.125,1493.1454644676207,1305.5,1500
2.0022618770599365,90,155,77,0.001851851851851852,1497.825,1495.4563492063492,1305.75,1500
2.0251729488372803,91,155,78,0.0017543859649122807,1497.7750000000001,1493.9943609022557,1305.5,1500
2.0481228828430176,92,155,78,0.0017543859649122807,1497.7249999999999,1493.9943609022557,1305.5,1500
2.0710339546203613,93,156,78,0.001697792869269949,1497.95,1493.1454644676207,1305.5,1500
2.0939598083496094,94,155,78,0.001697792869269949,1497.6500000000001,1493.1454644676207,1305.5,1500
2.1169538497924805,95,154,78,0.0017543859649122807,1497.3499999999999,1493.9943609022557,1305.5,1500
2.140016794204712,96,155,78,0.001697792869269949,1497.575,1493.1454644676207,1305.5,1500
2.1629438400268555,97,154,77,0.0017543859649122807,1497.2750000000001,1493.9943609022557,1305.75,1500
2.1859099864959717,98,154,77,0.0017543859649122807,1497.2249999999999,1493.9943609022557,1305.75,1500
2.2088468074798584,99,154,76,0.001851851851851852,1497.175,1495.4563492063492,1306.0,1500
2.231832981109619,100,154,77,0.001851851851851852,1497.1500000000001,1495.4563492063492,1305.75,1500
2.2547879219055176,101,154,77,0.0019157088122605363,1497.125,1496.4142036124795,1305.75,1500
2.2778398990631104,102,152,78,0.0018796992481203006,1496.55,1495.874060150376,1305.5,1500
2.300764799118042,103,154,78,0.001697792869269949,1497.0,1493.1454644676207,1305.5,1500
2.323713779449463,104,152,78,0.0018796992481203006,1496.425,1495.874060150376,1305.5,1500
2.3466379642486572,105,152,76,0.001984126984126984,1496.375,1497.4404761904761,1306.0,1500
2.3697378635406494,106,152,77,0.001949317738791423,1496.3,1496.9183375104428,1305.75,1500
2.3926548957824707,107,153,77,0.001851851851851852,1496.5250000000001,1495.4563492063492,1305.75,1500
2.415595769882202,108,152,78,0.001949317738791423,1496.2249999999999,1496.9183375104428,1305.5,1500
2.438508987426758,109,151,78,0.001949317738791423,1495.9000000000001,1496.9183375104428,1305.5,1500
2.461413860321045,110,151,77,0.001949317738791423,1495.825,1496.9183375104428,1305.75,1500
2.484315872192383,111,151,76,0.00205761316872428,1495.75,1498.5427689594355,1306.0,1500
2.5074169635772705,112,151,76,0.00205761316872428,1495.7249999999999,1498.5427689594355,1306.0,1500
2.530465841293335,113,151,76,0.001949317738791423,1495.6500000000001,1496.9183375104428,1306.0,1500
2.5534307956695557,114,151,76,0.001949317738791423,1495.625,1496.9183375104428,1306.0,1500
2.576371908187866,115,151,75,0.0019157088122605363,1495.5999999999999,1496.4142036124795,1306.25,1500
2.5996057987213135,116,150,75,0.001949317738791423,1495.3,1496.9183375104428,1306.25,1500
2.6225547790527344,117,150,74,0.001984126984126984,1495.2249999999999,1497.4404761904761,1306.5,1500
2.645509958267212,118,150,74,0.001984126984126984,1495.175,1497.4404761904761,1306.5,1500
2.6684138774871826,119,150,74,0.00205761316872428,1495.1500000000001,1498.5427689594355,1306.5,1500
2.6916558742523193,120,150,74,0.00205761316872428,1495.125,1498.5427689594355,1306.5,1500
2.7145869731903076,121,150,74,0.00205761316872428,1495.0999999999999,1498.5427689594355,1306.5,1500
2.7375857830047607,122,150,74,0.0018148820326678765,1495.075,1494.9018019185896,1306.5,1500
2.76053786277771,123,150,72,0.00205761316872428,1495.05,1498.5427689594355,1307.0,1500
2.7834599018096924,124,149,72,0.00205761316872428,1494.75,1498.5427689594355,1307.0,1500
2.8063697814941406,125,149,72,0.00205761316872428,1494.7,1498.5427689594355,1307.0,1500
2.829572916030884,126,149,73,0.001949317738791423,1494.675,1496.9183375104428,1306.75,1500
2.8524928092956543,127,148,73,0.001984126984126984,1494.375,1497.4404761904761,1306.75,1500
2.8754258155822754,128,148,74,0.0018796992481203006,1494.325,1495.874060150376,1306.5,1500
2.8983068466186523,129,147,76,0.0029585798816568047,1494.0,1510,1306.0,1500
2.9211368560791016,130,148,73,0.00205761316872428,1494.2,1498.5427689594355,1306.75,1500
2.9440388679504395,131,148,73,0.001984126984126984,1494.1500000000001,1497.4404761904761,1306.75,1500
2.9670817852020264,132,148,73,0.00205761316872428,1494.0999999999999,1498.5427689594355,1306.75,1500
2.9905428886413574,133,148,72,0.001984126984126984,1494.05,1497.4404761904761,1307.0,1500
3.013592004776001,134,148,72,0.00205761316872428,1494.0250000000001,1498.5427689594355,1307.0,1500
3.0365588665008545,135,148,72,0.002178649237472767,1494.0,1500.358309990663,1307.0,1500
3.0595908164978027,136,148,71,0.0023148148148148147,1493.9749999999999,1502.4007936507937,1307.25,1500
3.0825369358062744,137,148,72,0.00205761316872428,1493.9749999999999,1498.5427689594355,1307.0,1500
3.1054179668426514,138,148,72,0.0021008403361344537,1493.9749999999999,1499.1911764705883,1307.0,1500
3.128342866897583,139,147,71,0.0021008403361344537,1493.7249999999999,1499.1911764705883,1307.25,1500
3.151301860809326,140,147,71,0.0021008403361344537,1493.7,1499.1911764705883,1307.25,1500
3.1742048263549805,141,146,70,0.002136752136752137,1493.4000000000001,1499.7298534798535,1307.5,1500
3.1971569061279297,142,147,70,0.00205761316872428,1493.625,1498.5427689594355,1307.5,1500
3.2201788425445557,143,147,70,0.00205761316872428,1493.5999999999999,1498.5427689594355,1307.5,1500
3.2430999279022217,144,147,70,0.002178649237472767,1493.575,1500.358309990663,1307.5,1500
3.2660388946533203,145,147,70,0.002232142857142857,1493.55,1501.1607142857142,1307.5,1500
3.288944959640503,146,147,69,0.001984126984126984,1493.5250000000001,1497.4404761904761,1307.75,1500
3.3118557929992676,147,146,69,0.002136752136752137,1493.2249999999999,1499.7298534798535,1307.75,1500
3.3347949981689453,148,146,71,0.0021008403361344537,1493.175,1499.1911764705883,1307.25,1500
3.3577358722686768,149,145,71,0.002178649237472767,1492.875,1500.358309990663,1307.25,1500
3.3805949687957764,150,145,70,0.0021008403361344537,1492.825,1499.1911764705883,1307.5,1500
3.4035167694091797,151,145,69,0.00205761316872428,1492.8,1498.5427689594355,1307.75,1500
3.426414966583252,152,145,68,0.002178649237472767,1492.75,1500.358309990663,1308.0,1500
3.449493885040283,153,145,68,0.002178649237472767,1492.7,1500.358309990663,1308.0,1500
3.47237491607666,154,145,67,0.0023148148148148147,1492.6500000000001,1502.4007936507937,1308.25,1500
3.495290994644165,155,144,68,0.002136752136752137,1492.325,1499.7298534798535,1308.0,1500
3.51818585395813,156,144,69,0.0023148148148148147,1492.25,1502.4007936507937,1307.75,1500
3.5411579608917236,157,143,69,0.002403846153846154,1491.925,1503.7362637362637,1307.75,1500
3.564215898513794,158,144,69,0.002178649237472767,1492.125,1500.358309990663,1307.75,1500
3.5872299671173096,159,144,68,0.002178649237472767,1492.0999999999999,1500.358309990663,1308.0,1500
3.610245943069458,160,144,68,0.002178649237472767,1492.075,1500.358309990663,1308.0,1500
3.633241891860962,161,144,68,0.002178649237472767,1492.05,1500.358309990663,1308.0,1500
3.656157970428467,162,144,68,0.0021008403361344537,1492.0250000000001,1499.1911764705883,1308.0,1500
3.6792409420013428,163,144,68,0.002178649237472767,1492.0,1500.358309990663,1308.0,1500
3.7021758556365967,164,144,67,0.002178649237472767,1491.9749999999999,1500.358309990663,1308.25,1500
3.725130796432495,165,144,66,0.00205761316872428,1491.9749999999999,1498.5427689594355,1308.5,1500
3.748046875,166,144,67,0.002178649237472767,1491.9749999999999,1500.358309990663,1308.25,1500
3.7709779739379883,167,144,68,0.002178649237472767,1492.0,1500.358309990663,1308.0,1500
3.793874979019165,168,144,69,0.002178649237472767,1492.0,1500.358309990663,1307.75,1500
3.816870927810669,169,144,68,0.002178649237472767,1492.0,1500.358309990663,1308.0,1500
3.839859962463379,170,144,68,0.002178649237472767,1492.0,1500.358309990663,1308.0,1500
3.8627588748931885,171,143,68,0.0022624434389140274,1491.7249999999999,1501.6152230122818,1308.0,1500
3.8856749534606934,172,143,68,0.0022624434389140274,1491.7,1501.6152230122818,1308.0,1500
3.908594846725464,173,144,68,0.00205761316872428,1491.95,1498.5427689594355,1308.0,1500
3.931489944458008,174,143,69,0.002178649237472767,1491.675,1500.358309990663,1307.75,1500
3.954507827758789,175,143,68,0.0021008403361344537,1491.6500000000001,1499.1911764705883,1308.0,1500
3.9779469966888428,176,143,68,0.002178649237472767,1491.625,1500.358309990663,1308.0,1500
4.00092887878418,177,143,67,0.0022624434389140274,1491.5999999999999,1501.6152230122818,1308.25,1500
4.023836851119995,178,143,66,0.002178649237472767,1491.575,1500.358309990663,1308.5,1500
4.046757936477661,179,143,66,0.0021008403361344537,1491.55,1499.1911764705883,1308.5,1500
4.069793939590454,180,143,67,0.002178649237472767,1491.5250000000001,1500.358309990663,1308.25,1500
4.092692852020264,181,142,69,0.0022624434389140274,1491.25,1501.6152230122818,1307.75,1500
4.115542888641357,182,142,69,0.0023148148148148147,1491.2249999999999,1502.4007936507937,1307.75,1500
4.138470888137817,183,142,69,0.002178649237472767,1491.175,1500.358309990663,1307.75,1500
4.161309003829956,184,142,68,0.002178649237472767,1491.1500000000001,1500.358309990663,1308.0,1500
4.184180974960327,185,142,68,0.002178649237472767,1491.125,1500.358309990663,1308.0,1500
4.207104921340942,186,142,68,0.002178649237472767,1491.0999999999999,1500.358309990663,1308.0,1500
4.230127811431885,187,142,69,0.002178649237472767,1491.075,1500.358309990663,1307.75,1500
4.252988815307617,188,142,70,0.002178649237472767,1491.05,1500.358309990663,1307.5,1500
4.275882005691528,189,142,70,0.002178649237472767,1491.0250000000001,1500.358309990663,1307.5,1500
4.298752784729004,190,142,69,0.002178649237472767,1491.0,1500.358309990663,1307.75,1500
4.321638822555542,191,142,68,0.0021008403361344537,1491.0,1499.1911764705883,1308.0,1500
4.3444719314575195,192,142,67,0.002403846153846154,1491.0,1503.7362637362637,1308.25,1500
4.367404937744141,193,143,68,0.002178649237472767,1491.2750000000001,1500.358309990663,1308.0,1500
4.390332937240601,194,143,67,0.00205761316872428,1491.3,1498.5427689594355,1308.25,1500
4.413216829299927,195,143,68,0.002178649237472767,1491.325,1500.358309990663,1308.0,1500
4.436093807220459,196,142,68,0.0022624434389140274,1491.075,1501.6152230122818,1308.0,1500
4.458988904953003,197,143,69,0.002178649237472767,1491.3499999999999,1500.358309990663,1307.75,1500
4.481867790222168,198,143,68,0.0023148148148148147,1491.375,1502.4007936507937,1308.0,1500
4.504772901535034,199,143,67,0.0023148148148148147,1491.4000000000001,1502.4007936507937,1308.25,1500
4.527638912200928,200,142,67,0.0022624434389140274,1491.1500000000001,1501.6152230122818,1308.25,1500
4.550569772720337,201,143,68,0.00205761316872428,1491.425,1498.5427689594355,1308.0,1500
4.573418855667114,202,142,69,0.0021008403361344537,1491.175,1499.1911764705883,1307.75,1500
4.596290826797485,203,142,69,0.0021008403361344537,1491.1500000000001,1499.1911764705883,1307.75,1500
4.619301795959473,204,142,69,0.0022624434389140274,1491.125,1501.6152230122818,1307.75,1500
4.64224100112915,205,142,68,0.002136752136752137,1491.0999999999999,1499.7298534798535,1308.0,1500
4.6650989055633545,206,143,68,0.002178649237472767,1491.375,1500.358309990663,1308.0,1500
4.688002824783325,207,143,67,0.002178649237472767,1491.375,1500.358309990663,1308.25,1500
4.710893869400024,208,143,68,0.002178649237472767,1491.375,1500.358309990663,1308.0,1500
4.733795881271362,209,143,67,0.0023148148148148147,1491.375,1502.4007936507937,1308.25,1500
4.756647825241089,210,143,66,0.00205761316872428,1491.4000000000001,1498.5427689594355,1308.5,1500
4.779653787612915,211,143,66,0.002178649237472767,1491.4000000000001,1500.358309990663,1308.5,1500
4.8025219440460205,212,143,67,0.002178649237472767,1491.425,1500.358309990663,1308.25,1500
4.825397968292236,213,143,67,0.002232142857142857,1491.45,1501.1607142857142,1308.25,1500
4.848258972167969,214,143,68,0.002178649237472767,1491.4749999999999,1500.358309990663,1308.0,1500
4.871167898178101,215,143,67,0.0021008403361344537,1491.5,1499.1911764705883,1308.25,1500
4.894017934799194,216,143,66,0.0022624434389140274,1491.5,1501.6152230122818,1308.5,1500
4.916974782943726,217,144,65,0.00205761316872428,1491.7750000000001,1498.5427689594355,1308.75,1500
4.939912796020508,218,144,65,0.00205761316872428,1491.8,1498.5427689594355,1308.75,1500
4.963079929351807,219,144,65,0.0023148148148148147,1491.825,1502.4007936507937,1308.75,1500
4.985982894897461,220,144,65,0.001984126984126984,1491.8499999999999,1497.4404761904761,1308.75,1500
5.008992910385132,221,144,65,0.00205761316872428,1491.875,1498.5427689594355,1308.75,1500
5.031900882720947,222,144,65,0.001984126984126984,1491.9000000000001,1497.4404761904761,1308.75,1500
5.054762840270996,223,144,65,0.002136752136752137,1491.925,1499.7298534798535,1308.75,1500
5.077675819396973,224,146,65,0.002028397565922921,1492.5,1498.1045349174153,1308.75,1500
5.100514888763428,225,145,65,0.002178649237472767,1492.3,1500.358309990663,1308.75,1500
5.123433828353882,226,145,65,0.00205761316872428,1492.3499999999999,1498.5427689594355,1308.75,1500
5.146320819854736,227,145,65,0.001984126984126984,1492.375,1497.4404761904761,1308.75,1500
5.169372797012329,228,145,66,0.001984126984126984,1492.4000000000001,1497.4404761904761,1308.5,1500
5.192234992980957,229,145,65,0.0021008403361344537,1492.425,1499.1911764705883,1308.75,1500
5.215127944946289,230,145,65,0.0021008403361344537,1492.45,1499.1911764705883,1308.75,1500
5.238017797470093,231,146,66,0.0018148820326678765,1492.75,1494.9018019185896,1308.5,1500
5.260919809341431,232,145,65,0.0022624434389140274,1492.5250000000001,1501.6152230122818,1308.75,1500
5.283779859542847,233,146,65,0.001949317738791423,1492.825,1496.9183375104428,1308.75,1500
5.30667781829834,234,147,64,0.001984126984126984,1493.0999999999999,1497.4404761904761,1309.0,1500
5.329786777496338,235,147,65,0.0018796992481203006,1493.1500000000001,1495.874060150376,1308.75,1500
5.35270094871521,236,147,64,0.001984126984126984,1493.2,1497.4404761904761,1309.0,1500
5.37555193901062,237,147,65,0.001949317738791423,1493.25,1496.9183375104428,1308.75,1500
5.39841890335083,238,148,64,0.00205761316872428,1493.575,1498.5427689594355,1309.0,1500
5.421290874481201,239,148,63,0.002178649237472767,1493.6500000000001,1500.358309990663,1309.25,1500
5.4442338943481445,240,148,63,0.001949317738791423,1493.7249999999999,1496.9183375104428,1309.25,1500
5.467189788818359,241,148,63,0.0018796992481203006,1493.7750000000001,1495.874060150376,1309.25,1500
5.490184783935547,242,148,62,0.002136752136752137,1493.8499999999999,1499.7298534798535,1309.5,1500
5.5130369663238525,243,149,63,0.0021008403361344537,1494.175,1499.1911764705883,1309.25,1500
5.535947799682617,244,149,63,0.002178649237472767,1494.2249999999999,1500.358309990663,1309.25,1500
5.558812856674194,245,149,63,0.0017857142857142857,1494.2750000000001,1494.4642857142858,1309.25,1500
5.5816919803619385,246,151,63,0.0018148820326678765,1494.875,1494.9018019185896,1309.25,1500
5.604552984237671,247,150,62,0.0018796992481203006,1494.7,1495.874060150376,1309.5,1500
5.627530813217163,248,152,60,0.0016129032258064516,1495.3,1491.8721198156682,1310.0,1500
5.650519847869873,249,152,60,0.0016666666666666668,1495.4000000000001,1492.6785714285713,1310.0,1500
5.673433780670166,250,152,61,0.0017543859649122807,1495.5,1493.9943609022557,1309.75,1500
5.696308851242065,251,152,63,0.0017543859649122807,1495.5999999999999,1493.9943609022557,1309.25,1500
5.719345808029175,252,153,63,0.001697792869269949,1495.9749999999999,1493.1454644676207,1309.25,1500
5.742221832275391,253,153,63,0.001697792869269949,1496.075,1493.1454644676207,1309.25,1500
5.7651047706604,254,154,62,0.0016129032258064516,1496.45,1491.8721198156682,1309.5,1500
5.787973880767822,255,154,61,0.0016129032258064516,1496.575,1491.8721198156682,1309.75,1500
5.81090784072876,256,155,61,0.0016129032258064516,1496.925,1491.8721198156682,1309.75,1500
5.833800792694092,257,155,62,0.0016129032258064516,1497.05,1491.8721198156682,1309.5,1500
5.856724977493286,258,156,62,0.0015151515151515152,1497.4000000000001,1490.4058441558441,1309.5,1500
5.879760980606079,259,156,62,0.001697792869269949,1497.5,1493.1454644676207,1309.5,1500
5.902726888656616,260,157,61,0.0015625,1497.875,1491.1160714285713,1309.75,1500
5.925609827041626,261,157,60,0.0016129032258064516,1498.0,1491.8721198156682,1310.0,1500
5.9488818645477295,262,158,60,0.0016129032258064516,1498.375,1491.8721198156682,1310.0,1500
5.972007989883423,263,159,60,0.0016129032258064516,1498.7750000000001,1491.8721198156682,1310.0,1500
5.99494481086731,264,159,60,0.001488095238095238,1498.9000000000001,1490.0,1310.0,1500
6.017817974090576,265,159,60,0.0015873015873015873,1499.0250000000001,1491.4880952380952,1310.0,1500
6.040773868560791,266,161,60,0.0015151515151515152,1499.675,1490.4058441558441,1310.0,1500
6.0637428760528564,267,160,61,0.001488095238095238,1499.55,1490.0,1309.75,1500
6.0868589878082275,268,161,60,0.0016129032258064516,1499.925,1491.8721198156682,1310.0,1500
6.109850883483887,269,162,60,0.0015360983102918587,1500.325,1490.7200460829492,1310.0,1500
6.132762908935547,270,162,60,0.0015360983102918587,1500.45,1490.7200460829492,1310.0,1500
6.155658960342407,271,162,59,0.001488095238095238,1500.575,1490.0,1310.25,1500
6.178581953048706,272,163,60,0.001443001443001443,1500.95,1489.323593073593,1310.0,1500
6.201429843902588,273,162,60,0.001488095238095238,1500.7750000000001,1490.0,1310.0,1500
6.224318981170654,274,164,61,0.0014005602240896359,1501.4000000000001,1488.6869747899159,1309.75,1500
6.247280836105347,275,164,60,0.001336898395721925,1501.5250000000001,1487.7320473644004,1310.0,1500
6.27028489112854,276,166,60,0.0013605442176870747,1502.1500000000001,1488.0867346938776,1310.0,1500
6.293141841888428,277,166,63,0.00202020202020202,1502.3,1497.9816017316018,1309.25,1500
6.316020965576172,278,168,65,0.002197802197802198,1502.9749999999999,1500.6456043956043,1308.75,1500
6.338888883590698,279,168,61,0.0012626262626262627,1503.125,1486.6179653679653,1309.75,1500
6.3618059158325195,280,169,58,0.0017857142857142857,1503.55,1494.4642857142858,1310.5,1500
6.384683847427368,281,168,61,0.0013774104683195593,1503.45,1488.3397284533648,1309.75,1500
6.407608985900879,282,170,61,0.0012422360248447205,1504.125,1486.3121118012423,1309.75,1500
6.4305219650268555,283,169,61,0.0014005602240896359,1504.05,1488.6869747899159,1309.75,1500
6.453445911407471,284,171,60,0.0013227513227513227,1504.7249999999999,1487.5198412698412,1310.0,1500
6.47628378868103,285,172,58,0.0015037593984962407,1505.175,1490.234962406015,1310.5,1500
6.4993109703063965,286,172,60,0.0012077294685990338,1505.325,1485.7945134575568,1310.0,1500
6.522194862365723,287,173,59,0.0012285012285012285,1505.75,1486.10608985609,1310.25,1500
6.545129776000977,288,174,60,0.0012422360248447205,1506.1500000000001,1486.3121118012423,1310.0,1500
6.568019866943359,289,174,59,0.0011574074074074073,1506.3,1485.0396825396826,1310.25,1500
6.590939998626709,290,175,58,0.0012987012987012987,1506.7,1487.159090909091,1310.5,1500
6.613810777664185,291,176,59,0.0011261261261261261,1507.1500000000001,1484.5704633204634,1310.25,1500
6.636767864227295,292,176,60,0.0011574074074074073,1507.3,1485.0396825396826,1310.0,1500
6.659779787063599,293,176,61,0.0011574074074074073,1507.4749999999999,1485.0396825396826,1309.75,1500
6.68268895149231,294,178,62,0.0011441647597254005,1508.1500000000001,1484.8410428244524,1309.5,1500
6.705619812011719,295,179,62,0.0011111111111111111,1508.575,1484.3452380952381,1309.5,1500
6.7285168170928955,296,180,62,0.001081081081081081,1509.0250000000001,1483.8947876447876,1309.5,1500
6.751377820968628,297,181,62,0.001081081081081081,1509.4749999999999,1483.8947876447876,1309.5,1500
6.774275779724121,298,182,62,0.0011750881316098707,1509.925,1485.3048934027195,1309.5,1500
6.7972259521484375,299,183,63,0.0010256410256410256,1510.4000000000001,1483.0631868131868,1309.25,1500
6.820242881774902,300,184,63,0.0010256410256410256,1510.875,1483.0631868131868,1309.25,1500
6.843159914016724,301,185,62,0.0010683760683760685,1511.3499999999999,1483.7042124542124,1309.5,1500
6.866053819656372,302,185,63,0.0010526315789473684,1511.575,1483.468045112782,1309.25,1500
6.888933897018433,303,188,61,0.0009861932938856016,1512.625,1482.4714708368554,1309.75,1500
6.911825895309448,304,189,62,0.0010256410256410256,1513.1500000000001,1483.0631868131868,1309.5,1500
6.93501091003418,305,190,62,0.0010256410256410256,1513.675,1483.0631868131868,1309.5,1500
6.957977771759033,306,190,62,0.0009861932938856016,1513.925,1482.4714708368554,1309.5,1500
6.980920791625977,307,191,63,0.0009861932938856016,1514.425,1482.4714708368554,1309.25,1500
7.003938913345337,308,191,63,0.001,1514.6500000000001,1482.6785714285713,1309.25,1500
7.026908874511719,309,193,62,0.0009861932938856016,1515.4000000000001,1482.4714708368554,1309.5,1500
7.049892902374268,310,193,63,0.000949667616334283,1515.625,1481.9235856735856,1309.25,1500
7.072774887084961,311,194,62,0.0009615384615384616,1516.0999999999999,1482.1016483516485,1309.5,1500
7.0956549644470215,312,196,63,0.000925925925925926,1516.875,1481.5674603174602,1309.25,1500
7.11856484413147,313,197,62,0.0009157509157509158,1517.3499999999999,1481.4148351648353,1309.5,1500
7.141448974609375,314,197,63,0.000925925925925926,1517.55,1481.5674603174602,1309.25,1500
7.164324998855591,315,199,62,0.0008944543828264759,1518.2750000000001,1481.0953871709685,1309.5,1500
7.187250852584839,316,198,62,0.000925925925925926,1518.2249999999999,1481.5674603174602,1309.5,1500
7.210234880447388,317,199,62,0.0008818342151675485,1518.675,1480.9060846560847,1309.5,1500
7.233122825622559,318,199,61,0.0008818342151675485,1518.875,1480.9060846560847,1309.75,1500
7.25603985786438,319,199,61,0.0008928571428571428,1519.0250000000001,1481.0714285714287,1309.75,1500
7.278903961181641,320,201,61,0.0008613264427217916,1519.7249999999999,1480.5984680693982,1309.75,1500
7.30179500579834,321,202,60,0.0008613264427217916,1520,1480.5984680693982,1310.0,1500
7.32454776763916,322,203,59,0.0008305647840531562,1520,1480.1370431893688,1310.25,1500
7.34740686416626,323,203,59,0.0008116883116883117,1520,1479.8538961038962,1310.25,1500
7.370229005813599,324,204,60,0.0007836990595611285,1520,1479.4340573219883,1310.0,1500
7.393013954162598,325,204,60,0.0008019246190858059,1520,1479.7074407148584,1310.0,1500
7.415740966796875,326,204,60,0.0007836990595611285,1520,1479.4340573219883,1310.0,1500
7.438565969467163,327,204,59,0.0007836990595611285,1520,1479.4340573219883,1310.25,1500
7.461306810379028,328,205,58,0.0007836990595611285,1520,1479.4340573219883,1310.5,1500
7.484070777893066,329,206,58,0.0008305647840531562,1520,1480.1370431893688,1310.5,1500
7.506926774978638,330,207,57,0.0007496251874062968,1520,1478.922949239666,1310.75,1500
7.529851913452148,331,208,56,0.0007407407407407407,1520,1478.7896825396826,1311.0,1500
7.552608966827393,332,209,56,0.0007407407407407407,1520,1478.7896825396826,1311.0,1500
7.575322866439819,333,209,56,0.0007407407407407407,1520,1478.7896825396826,1311.0,1500
7.598002910614014,334,209,56,0.0007575757575757576,1520,1479.0422077922078,1311.0,1500
7.620790958404541,335,211,57,0.0006944444444444445,1520,1478.0952380952381,1310.75,1500
7.643700838088989,336,211,58,0.0007012622720897616,1520,1478.1975055099178,1310.5,1500
7.666446924209595,337,211,57,0.0007407407407407407,1520,1478.7896825396826,1310.75,1500
7.689478874206543,338,212,57,0.0006720430107526882,1520,1477.7592165898618,1310.75,1500
7.7125279903411865,339,213,56,0.0006944444444444445,1520,1478.0952380952381,1311.0,1500
7.735395908355713,340,213,55,0.0006720430107526882,1520,1477.7592165898618,1311.25,1500
7.758195877075195,341,214,54,0.0006377551020408163,1520,1477.2448979591836,1311.5,1500
7.781002998352051,342,213,54,0.0006720430107526882,1520,1477.7592165898618,1311.5,1500
7.8038129806518555,343,214,54,0.0006377551020408163,1520,1477.2448979591836,1311.5,1500
7.826618909835815,344,214,55,0.0006377551020408163,1520,1477.2448979591836,1311.25,1500
7.849768877029419,345,214,55,0.0006377551020408163,1520,1477.2448979591836,1311.25,1500
7.872593879699707,346,214,56,0.0006313131313131314,1520,1477.1482683982683,1311.0,1500
7.895356893539429,347,214,56,0.0006510416666666666,1520,1477.4441964285713,1311.0,1500
7.918132781982422,348,215,56,0.0006377551020408163,1520,1477.2448979591836,1311.0,1500
7.940899848937988,349,215,55,0.0006060606060606061,1520,1476.7694805194806,1311.25,1500
7.964108943939209,350,215,55,0.000625,1520,1477.0535714285713,1311.25,1500
7.987266778945923,351,216,54,0.0006127450980392157,1520,1476.8697478991596,1311.5,1500
8.010333776473999,352,216,54,0.0005827505827505828,1520,1476.4198301698302,1311.5,1500
8.03330397605896,353,216,53,0.0005656108597285068,1520,1476.1627343244991,1311.75,1500
8.056181907653809,354,216,53,0.0005827505827505828,1520,1476.4198301698302,1311.75,1500
8.079173803329468,355,216,53,0.0005717552887364208,1520,1476.2549007596178,1311.75,1500
8.102070808410645,356,215,52,0.0005549389567147614,1520,1476.0026557792928,1312.0,1500
8.124873876571655,357,215,53,0.0005827505827505828,1520,1476.4198301698302,1311.75,1500
8.14771294593811,358,215,53,0.0005549389567147614,1520,1476.0026557792928,1311.75,1500
8.170475959777832,359,215,53,0.0005549389567147614,1520,1476.0026557792928,1311.75,1500
8.193274974822998,360,214,54,0.0005549389567147614,1520,1476.0026557792928,1311.5,1500
8.216020822525024,361,213,54,0.0005446623093681918,1520,1475.8485060690944,1311.5,1500
8.238862991333008,362,213,55,0.0005717552887364208,1520,1476.2549007596178,1311.25,1500
8.26164698600769,363,212,53,0.0005446623093681918,1520,1475.8485060690944,1311.75,1500
8.284440994262695,364,211,53,0.0005291005291005291,1520,1475.6150793650793,1311.75,1500
8.307393789291382,365,209,52,0.0005549389567147614,1520,1476.0026557792928,1312.0,1500
8.330421924591064,366,209,52,0.0005291005291005291,1520,1475.6150793650793,1312.0,1500
8.353211879730225,367,209,53,0.0005194805194805195,1520,1475.4707792207791,1311.75,1500
8.37600588798523,368,208,53,0.0005194805194805195,1520,1475.4707792207791,1311.75,1500
8.398746967315674,369,207,53,0.0005102040816326531,1520,1475.3316326530612,1311.75,1500
8.421544790267944,370,206,53,0.0005252100840336134,1520,1475.5567226890757,1311.75,1500
8.444369792938232,371,205,53,0.0005194805194805195,1520,1475.4707792207791,1311.75,1500
8.467259883880615,372,204,54,0.0005102040816326531,1520,1475.3316326530612,1311.5,1500
8.490179777145386,373,203,54,0.0005194805194805195,1520,1475.4707792207791,1311.5,1500
8.512988805770874,374,200,55,0.0005102040816326531,1520,1475.3316326530612,1311.25,1500
8.535783767700195,375,199,57,0.0005102040816326531,1520,1475.3316326530612,1310.75,1500
8.558586835861206,376,198,57,0.000496031746031746,1520,1475.1190476190477,1310.75,1500
8.581431865692139,377,196,58,0.000496031746031746,1519.6500000000001,1475.1190476190477,1310.5,1500
8.60434889793396,378,194,58,0.000496031746031746,1518.8,1475.1190476190477,1310.5,1500
8.62730884552002,379,193,59,0.0005102040816326531,1518.2,1475.3316326530612,1310.25,1500
8.650362968444824,380,192,59,0.0005012531328320802,1517.5999999999999,1475.1973684210527,1310.25,1500
8.67327880859375,381,190,60,0.0004926108374384236,1516.7249999999999,1475.0677339901479,1310.0,1500
8.696249961853027,382,189,59,0.00048426150121065375,1516.0999999999999,1474.9424939467312,1310.25,1500
8.71939992904663,383,184,59,0.000505050505050505,1514.375,1475.2543290043291,1310.25,1500
8.74240493774414,384,184,60,0.000462962962962963,1513.9749999999999,1474.6230158730159,1310.0,1500
8.765336990356445,385,182,61,0.00048426150121065375,1513.05,1474.9424939467312,1309.75,1500
8.788817882537842,386,181,60,0.0004985044865403788,1512.375,1475.156138726677,1310.0,1500
8.812408924102783,387,179,60,0.00048426150121065375,1511.45,1474.9424939467312,1310.0,1500
8.83579683303833,388,177,59,0.000462962962962963,1510.5250000000001,1474.6230158730159,1310.25,1500
8.859019994735718,389,175,59,0.0004761904761904762,1509.575,1474.8214285714287,1310.25,1500
8.882321834564209,390,173,59,0.0004873294346978557,1508.5999999999999,1474.9885129490392,1310.25,1500
8.905489921569824,391,170,59,0.00048426150121065375,1507.3499999999999,1474.9424939467312,1310.25,1500
8.928767919540405,392,168,59,0.0004985044865403788,1506.325,1475.156138726677,1310.25,1500
8.951915979385376,393,166,60,0.00048426150121065375,1505.375,1474.9424939467312,1310.0,1500
8.975161790847778,394,164,60,0.00048426150121065375,1504.375,1474.9424939467312,1310.0,1500
9.00270390510559,395,161,61,0.0005012531328320802,1503.0999999999999,1475.1973684210527,1309.75,1500
9.026015996932983,396,158,60,0.0005347593582887701,1501.7750000000001,1475.6999618029031,1310.0,1500
9.04937195777893,397,153,60,0.0005252100840336134,1499.875,1475.5567226890757,1310.0,1500
9.072597980499268,398,151,61,0.0005252100840336134,1498.7249999999999,1475.5567226890757,1309.75,1500
9.095767974853516,399,149,61,0.0005252100840336134,1497.575,1475.5567226890757,1309.75,1500
9.119026899337769,400,147,61,0.0005252100840336134,1496.425,1475.5567226890757,1309.75,1500
9.142201900482178,401,146,61,0.0005159958720330237,1495.575,1475.4185095090668,1309.75,1500
9.165405988693237,402,143,62,0.0005070993914807302,1494.2,1475.2850623007823,1309.5,1500
9.188572883605957,403,141,63,0.000531632110579479,1493.075,1475.6530530872635,1309.25,1500
9.211786985397339,404,136,63,0.0005347593582887701,1491.125,1475.6999618029031,1309.25,1500
9.234972953796387,405,134,64,0.0005411255411255411,1489.95,1475.7954545454545,1309.0,1500
9.258248805999756,406,131,65,0.0005509641873278236,1488.5250000000001,1475.9430342384887,1308.75,1500
9.281417846679688,407,129,66,0.0005509641873278236,1487.425,1475.9430342384887,1308.5,1500
9.304633855819702,408,127,67,0.0005509641873278236,1486.325,1475.9430342384887,1308.25,1500
9.327785968780518,409,124,67,0.0005717552887364208,1484.95,1476.2549007596178,1308.25,1500
9.350966930389404,410,121,68,0.0005827505827505828,1483.55,1476.4198301698302,1308.0,1500
9.374159812927246,411,119,69,0.0006009615384615385,1482.375,1476.6929945054944,1307.75,1500
9.397408962249756,412,115,69,0.0006009615384615385,1480.675,1476.6929945054944,1307.75,1500
9.420629978179932,413,113,68,0.000625,1480,1477.0535714285713,1308.0,1500
9.443727970123291,414,111,69,0.0006451612903225806,1480,1477.3559907834101,1307.75,1500
9.466755867004395,415,109,70,0.0006451612903225806,1480,1477.3559907834101,1307.5,1500
9.489977836608887,416,105,70,0.0006720430107526882,1480,1477.7592165898618,1307.5,1500
9.51305079460144,417,104,69,0.0006944444444444445,1480,1478.0952380952381,1307.75,1500
9.536139965057373,418,102,69,0.0006802721088435374,1480,1477.8826530612246,1307.75,1500
9.55932879447937,419,99,69,0.0006944444444444445,1480,1478.0952380952381,1307.75,1500
9.582457780838013,420,96,70,0.0007336757153338225,1480,1478.6837071585787,1307.5,1500
9.605546951293945,421,93,70,0.0007496251874062968,1480,1478.922949239666,1307.5,1500
9.628734827041626,422,91,69,0.0007575757575757576,1480,1479.0422077922078,1307.75,1500
9.651821851730347,423,89,69,0.0007246376811594203,1480,1478.5481366459628,1307.75,1500
9.674976825714111,424,87,70,0.0007836990595611285,1480,1479.4340573219883,1307.5,1500
9.698071956634521,425,86,71,0.0007662835249042146,1480,1479.1728243021346,1307.25,1500
9.721179962158203,426,84,71,0.0007836990595611285,1480,1479.4340573219883,1307.25,1500
9.74425983428955,427,82,71,0.0007763975155279503,1480,1479.3245341614906,1307.25,1500
9.767524003982544,428,78,71,0.0008503401360544217,1480,1480.4336734693877,1307.25,1500
9.79080080986023,429,76,72,0.0008710801393728223,1480,1480.7447735191638,1307.0,1500
9.813909769058228,430,74,72,0.0008928571428571428,1480,1481.0714285714287,1307.0,1500
9.83704686164856,431,74,73,0.000925925925925926,1480,1481.5674603174602,1306.75,1500
9.86019778251648,432,73,73,0.0008710801393728223,1480,1480.7447735191638,1306.75,1500
9.883258819580078,433,71,73,0.0008928571428571428,1480,1481.0714285714287,1306.75,1500
9.906367778778076,434,71,74,0.000949667616334283,1480,1481.9235856735856,1306.5,1500
9.929738998413086,435,70,74,0.0009033423667570009,1480,1481.2287069299264,1306.5,1500
9.952915906906128,436,76,74,0.001326259946949602,1480,1487.5724706328156,1306.5,1500
9.976295948028564,437,86,78,0.00125,1480,1486.4285714285713,1305.5,1500
9.99959397315979,438,88,80,0.001098901098901099,1480,1484.1620879120878,1305.0,1500
10.022700786590576,439,87,79,0.001142857142857143,1480,1484.8214285714287,1305.25,1500
10.045852899551392,440,86,75,0.0011261261261261261,1480,1484.5704633204634,1306.25,1500
10.069191932678223,441,83,71,0.0011111111111111111,1480,1484.3452380952381,1307.25,1500
10.092347860336304,442,84,70,0.001001001001001001,1480,1482.6935864435864,1307.5,1500
10.11542797088623,443,83,71,0.0010683760683760685,1480,1483.7042124542124,1307.25,1500
10.138640880584717,444,83,77,0.0011111111111111111,1480,1484.3452380952381,1305.75,1500
10.16171383857727,445,85,77,0.0011111111111111111,1480,1484.3452380952381,1305.75,1500
10.184802770614624,446,85,77,0.0011111111111111111,1480,1484.3452380952381,1305.75,1500
10.207901954650879,447,87,76,0.0010526315789473684,1480,1483.468045112782,1306.0,1500
10.231040954589844,448,87,75,0.0011111111111111111,1480,1484.3452380952381,1306.25,1500
10.25412392616272,449,88,75,0.0011111111111111111,1480,1484.3452380952381,1306.25,1500
10.27729082107544,450,89,74,0.0010395010395010396,1480,1483.2710870210869,1306.5,1500
10.300421953201294,451,89,74,0.0011574074074074073,1480,1485.0396825396826,1306.5,1500
10.323547840118408,452,91,74,0.0012254901960784314,1480,1486.0609243697479,1306.5,1500
10.34660792350769,453,92,73,0.001142857142857143,1480,1484.8214285714287,1306.75,1500
10.3697988986969,454,93,72,0.0011574074074074073,1480,1485.0396825396826,1307.0,1500
10.392883777618408,455,93,72,0.0011574074074074073,1480,1485.0396825396826,1307.0,1500
10.416010856628418,456,94,72,0.0011111111111111111,1480,1484.3452380952381,1307.0,1500
10.439111948013306,457,94,71,0.0012077294685990338,1480,1485.7945134575568,1307.25,1500
10.46221399307251,458,94,67,0.0013605442176870747,1480,1488.0867346938776,1308.25,1500
10.485256910324097,459,93,61,0.001336898395721925,1480,1487.7320473644004,1309.75,1500
10.508426904678345,460,94,65,0.0013774104683195593,1480,1488.3397284533648,1308.75,1500
10.531495809555054,461,92,66,0.0014204545454545455,1480,1488.9853896103896,1308.5,1500
10.554611921310425,462,94,67,0.0012787723785166241,1480,1486.8601571063207,1308.25,1500
10.577719926834106,463,93,68,0.001358695652173913,1480,1488.0590062111801,1308.0,1500
10.60085678100586,464,95,68,0.0013175230566534915,1480,1487.4414172783738,1308.0,1500
10.623941898345947,465,96,68,0.0014492753623188406,1480,1489.4177018633541,1308.0,1500
10.647167921066284,466,97,69,0.001358695652173913,1480,1488.0590062111801,1307.75,1500
10.670308828353882,467,98,69,0.001358695652173913,1480,1488.0590062111801,1307.75,1500
10.69347596168518,468,101,70,0.0013175230566534915,1480,1487.4414172783738,1307.5,1500
10.716577768325806,469,102,71,0.001402524544179523,1480,1488.7164395912644,1307.25,1500
10.739638805389404,470,103,71,0.0014492753623188406,1480,1489.4177018633541,1307.25,1500
10.76243782043457,471,104,71,0.0014204545454545455,1480,1488.9853896103896,1307.25,1500
10.785255908966064,472,105,71,0.0014204545454545455,1480,1488.9853896103896,1307.25,1500
10.808083772659302,473,107,71,0.001402524544179523,1480,1488.7164395912644,1307.25,1500
10.830942869186401,474,108,71,0.001402524544179523,1480,1488.7164395912644,1307.25,1500
10.853729963302612,475,109,70,0.001466275659824047,1480,1489.672706325932,1307.5,1500
10.876599788665771,476,111,69,0.001466275659824047,1480,1489.672706325932,1307.75,1500
10.899540901184082,477,112,69,0.001488095238095238,1480,1490.0,1307.75,1500
10.92234182357788,478,113,69,0.001466275659824047,1480,1489.672706325932,1307.75,1500
10.945132970809937,479,113,71,0.001488095238095238,1480,1490.0,1307.25,1500
10.967970848083496,480,114,72,0.001488095238095238,1480,1490.0,1307.0,1500
10.990875005722046,481,116,71,0.0016666666666666668,1480,1492.6785714285713,1307.25,1500
11.01370882987976,482,117,70,0.0016129032258064516,1480,1491.8721198156682,1307.5,1500
11.03650689125061,483,118,71,0.0015360983102918587,1480,1490.7200460829492,1307.25,1500
11.059496879577637,484,118,72,0.0016666666666666668,1480,1492.6785714285713,1307.0,1500
11.082291841506958,485,120,75,0.0016129032258064516,1480,1491.8721198156682,1306.25,1500
11.10512900352478,486,121,74,0.0015360983102918587,1480,1490.7200460829492,1306.5,1500
11.127964973449707,487,122,73,0.0015873015873015873,1480,1491.4880952380952,1306.75,1500
11.151270866394043,488,123,72,0.0015873015873015873,1480.3,1491.4880952380952,1307.0,1500
11.174280881881714,489,125,71,0.0015360983102918587,1481.0999999999999,1490.7200460829492,1307.25,1500
11.197285890579224,490,126,71,0.0015360983102918587,1481.6500000000001,1490.7200460829492,1307.25,1500
11.220234870910645,491,127,71,0.0015873015873015873,1482.175,1491.4880952380952,1307.25,1500
11.243228912353516,492,128,71,0.0016666666666666668,1482.7,1492.6785714285713,1307.25,1500
11.26610279083252,493,129,72,0.0015873015873015873,1483.2249999999999,1491.4880952380952,1307.0,1500
11.289177894592285,494,130,72,0.001851851851851852,1483.7750000000001,1495.4563492063492,1307.0,1500
11.312105894088745,495,131,72,0.0017857142857142857,1484.3,1494.4642857142858,1307.0,1500
11.335017919540405,496,132,72,0.0017857142857142857,1484.825,1494.4642857142858,1307.0,1500
11.357882976531982,497,133,72,0.0017857142857142857,1485.3499999999999,1494.4642857142858,1307.0,1500
11.38080382347107,498,134,74,0.0017857142857142857,1485.875,1494.4642857142858,1306.5,1500
11.403633832931519,499,135,74,0.001851851851851852,1486.375,1495.4563492063492,1306.5,1500
