time,x,y,size_inv,roll,pitch,thrust,yaw
0.0007188320159912109,166,51,4226.4235471613592,1501.29,1505.0,1350,1500.0
0.023782014846801758,166,51,4226.4235471613592,1501.3800000000001,1505.0,1350,1500.0
0.046388864517211914,166,51,4226.4235471613592,1501.47,1505.0,1350,1500.0
0.06883597373962402,166,51,4226.4235471613592,1501.5599999999999,1505.0,1350,1500.0
0.09127998352050781,166,51,4226.4235471613592,1501.6500000000001,1505.0,1350,1500.0
0.11384797096252441,166,51,4226.4235471613592,1501.74,1505.0,1350,1500.0
0.1362290382385254,166,51,4226.4235471613592,1501.8299999999999,1505.0,1350,1500.0
0.1585400104522705,166,51,4226.4235471613592,1501.9200000000001,1505.0,1350,1500.0
0.1808469295501709,165,51,4226.4235471613592,1501.7950000000001,1505.0,1350,1500.0
0.20346999168395996,165,51,4226.4235471613592,1501.8699999999999,1505.0,1350,1500.0
0.22641587257385254,166,51,4226.4235471613592,1496.47,1505.0,1350,1500.0
0.24958300590515137,167,51,4226.4235471613592,1499.4849999999999,1505.0,1350,1500.0
0.27277588844299316,166,51,4226.4235471613592,1499.2850000000001,1505.0,1350,1500.0
0.2959449291229248,167,51,4226.4235471613592,1507.9000000000001,1505.0,1350,1500.0
0.3190748691558838,166,49,4696.0261635126208,1513.3,1519.0880784905378,1350,1500.0
0.34226083755493164,166,47,4696.0261635126208,1513.3,1528.4801308175631,1350,1500.0
0.365447998046875,165,46,4696.0261635126208,1504.6849999999999,1535,1350,1500.0
0.3885159492492676,165,45,4696.0261635126208,1501.8699999999999,1535,1350,1500.0
0.41162991523742676,165,46,4696.0261635126208,1490.6700000000001,1535,1350,1500.0
0.4347410202026367,164,46,4696.0261635126208,1482.0550000000001,1535,1350,1500.0
0.4577908515930176,164,46,4696.0261635126208,1480,1535,1350,1500.0
0.4808049201965332,165,46,4696.0261635126208,1482.1949999999999,1528.4801308175631,1350,1500.0
0.5040910243988037,166,45,4226.4235471613592,1487.9949999999999,1505.0,1350,1500.0
0.5272660255432129,167,44,4226.4235471613592,1499.395,1486.2158953459495,1350,1500.0
0.5504570007324219,167,42,4226.4235471613592,1513.4100000000001,1476.8238430189242,1350,1500.0
0.5737259387969971,168,41,4226.4235471613592,1520,1475,1350,1500.0
0.5966758728027344,168,40,4226.4235471613592,1520,1475,1350,1500.0
0.6195878982543945,168,40,4226.4235471613592,1520,1475,1350,1500.0
0.642549991607666,168,45,4226.4235471613592,1520,1476.8238430189242,1350,1500.0
0.6655998229980469,167,48,4226.4235471613592,1520,1486.2158953459495,1350,1500.0
0.6886489391326904,167,52,4226.4235471613592,1516.4649999999999,1495.6079476729747,1350,1500.0
0.7118668556213379,167,56,4226.4235471613592,1505.2950000000001,1505.0,1334.0799999999999,1500.0
0.7351799011230469,167,60,4226.4235471613592,1496.9100000000001,1505.0,1293.6800000000001,1500.0
0.7584199905395508,166,62,4226.4235471613592,1488.2950000000001,1505.0,1268.1600000000001,1500.0
0.7817239761352539,167,64,4226.4235471613592,1488.4949999999999,1505.0,1250.8800000000001,1500.0
0.805001974105835,166,65,4226.4235471613592,1488.2650000000001,1505.0,1250,1500.0
0.8281519412994385,166,65,4226.4235471613592,1488.2349999999999,1505.0,1254.72,1500.0
0.8514389991760254,167,64,4226.4235471613592,1491.22,1505.0,1277.3599999999999,1500.0
0.874748945236206,167,64,4226.4235471613592,1499.605,1505.0,1297.5999999999999,1500.0
0.8979659080505371,167,65,4226.4235471613592,1499.605,1505.0,1316.72,1500.0
0.921252965927124,167,65,4226.4235471613592,1505.2049999999999,1505.0,1334.4000000000001,1500.0
0.9445829391479492,167,66,4226.4235471613592,1510.8050000000001,1505.0,1344.0,1500.0
0.9678599834442139,166,67,4226.4235471613592,1507.79,1505.0,1343.9200000000001,1500.0
0.9911949634552002,167,70,4226.4235471613592,1505.2049999999999,1505.0,1334.4000000000001,1500.0
1.0145089626312256,166,71,3842.2032246921449,1502.1900000000001,1493.4733903259237,1325.9200000000001,1500.0
1.0377328395843506,165,72,4226.4235471613592,1493.575,1497.3155935506156,1314.6400000000001,1500.0
1.060973882675171,164,72,4226.4235471613592,1482.145,1497.3155935506156,1307.3599999999999,1500.0
1.0843689441680908,165,73,4226.4235471613592,1482.3150000000001,1497.3155935506156,1301.5999999999999,1500.0
1.108008861541748,165,73,4226.4235471613592,1480,1497.3155935506156,1305.4400000000001,1500.0
1.1313199996948242,165,74,4226.4235471613592,1480,1512.6844064493844,1308.0799999999999,1500.0
1.1545779705047607,164,74,3842.2032246921449,1480,1501.1577967753078,1314.72,1500.0
1.1777689456939697,165,76,3842.2032246921449,1490.5799999999999,1493.4733903259237,1314.72,1500.0
1.2010889053344727,165,76,3842.2032246921449,1493.365,1485.7889838765393,1318.5599999999999,1500.0
1.2244420051574707,164,77,3842.2032246921449,1495.9200000000001,1478.1045774271549,1315.6800000000001,1500.0
1.247704029083252,164,78,3842.2032246921449,1495.8900000000001,1475,1312.8,1500.0
1.27085280418396,164,79,3842.2032246921449,1498.675,1475,1307.1199999999999,1500.0
1.2941620349884033,163,80,3842.2032246921449,1490.0599999999999,1478.1045774271549,1305.5999999999999,1500.0
1.3174538612365723,163,82,3842.2032246921449,1484.4300000000001,1485.7889838765393,1298.6400000000001,1500.0
1.3407139778137207,162,87,3842.2032246921449,1481.385,1493.4733903259237,1283.6800000000001,1500.0
1.3642499446868896,161,89,3842.2032246921449,1480,1501.1577967753078,1270.8800000000001,1500.0
1.3874180316925049,161,91,3842.2032246921449,1480,1501.1577967753078,1258.0,1500.0
1.4105439186096191,161,92,3842.2032246921449,1480,1501.1577967753078,1250,1500.0
1.4337430000305176,161,93,3842.2032246921449,1480,1501.1577967753078,1250,1500.0
1.4568040370941162,160,93,3842.2032246921449,1480,1501.1577967753078,1250,1500.0
1.4799139499664307,160,93,3842.2032246921449,1480,1501.1577967753078,1250.24,1500.0
1.503093957901001,159,92,3842.2032246921449,1480,1501.1577967753078,1266.3199999999999,1500.0
1.5262739658355713,159,91,3842.2032246921449,1480,1501.1577967753078,1285.28,1500.0
1.5494580268859863,159,91,3842.2032246921449,1480,1501.1577967753078,1303.1199999999999,1500.0
1.5726358890533447,158,91,3842.2032246921449,1480,1501.1577967753078,1314.1600000000001,1500.0
1.5958099365234375,158,91,3842.2032246921449,1480,1501.1577967753078,1322.48,1500.0
1.6189699172973633,158,91,3842.2032246921449,1480,1501.1577967753078,1325.28,1500.0
1.6421449184417725,157,91,3522.0196226344656,1480,1491.5522887135776,1323.9200000000001,1500.0
1.665313959121704,157,92,3522.0196226344656,1480,1485.1486166724239,1318.5599999999999,1500.0
1.6884520053863525,157,92,3522.0196226344656,1480,1478.7449446312703,1314.4000000000001,1500.0
1.7118139266967773,157,92,3522.0196226344656,1480,1475,1310.24,1500.0
1.7351069450378418,157,92,3522.0196226344656,1480,1475,1307.4400000000001,1500.0
1.7581980228424072,156,92,3522.0196226344656,1482.01,1475,1306.0,1500.0
1.7815220355987549,156,93,3522.0196226344656,1484.7650000000001,1478.7449446312703,1304.72,1500.0
1.8049368858337402,156,94,3522.0196226344656,1484.7349999999999,1485.1486166724239,1302.0,1500.0
1.8281989097595215,156,95,3522.0196226344656,1484.7049999999999,1491.5522887135776,1297.8399999999999,1500.0
1.8515479564666748,156,96,3522.0196226344656,1484.675,1497.955960754731,1292.24,1500.0
1.8748939037322998,155,98,3522.0196226344656,1484.4449999999999,1497.955960754731,1282.5599999999999,1500.0
1.8981859683990479,155,99,3522.0196226344656,1484.415,1497.955960754731,1274.0799999999999,1500.0
1.9216279983520508,155,98,3251.0950362779681,1484.385,1489.8282231640362,1272.24,1500.0
1.9450898170471191,155,98,3522.0196226344656,1484.355,1492.537469027601,1272.0,1500.0
1.9684059619903564,155,96,3522.0196226344656,1484.325,1492.5374690276012,1279.8399999999999,1500.0
1.9917559623718262,154,95,3522.0196226344656,1484.095,1492.5374690276012,1293.52,1500.0
2.0150339603424072,154,93,3522.0196226344656,1484.0650000000001,1492.5374690276012,1312.72,1500.0
2.0382628440856934,154,93,3522.0196226344656,1484.0350000000001,1503.374452481861,1325.3599999999999,1500.0
2.0617289543151855,154,92,3251.0950362779681,1484.0050000000001,1495.246714891166,1339.28,1500.0
2.0852270126342773,154,92,3251.0950362779681,1483.9749999999999,1489.8282231640362,1345.04,1500.0
2.1085379123687744,154,92,3251.0950362779681,1486.76,1484.4097314369062,1345.28,1500.0
2.1320998668670654,154,92,3251.0950362779681,1489.5450000000001,1478.9912397097762,1338.5599999999999,1500.0
2.155381917953491,154,92,3251.0950362779681,1492.3299999999999,1475,1333.2,1500.0
2.1785240173339844,154,92,3251.0950362779681,1495.115,1475,1325.04,1500.0
2.201777935028076,154,92,3251.0950362779681,1497.9000000000001,1478.9912397097762,1319.5999999999999,1500.0
2.2251479625701904,154,93,3251.0950362779681,1497.9000000000001,1484.4097314369062,1312.8800000000001,1500.0
2.248404026031494,154,94,3018.8739622581134,1497.9000000000001,1482.8615909434404,1307.4400000000001,1500.0
2.2718188762664795,155,95,3018.8739622581134,1500.915,1483.6356611901733,1300.5599999999999,1500.0
2.29524302482605,154,95,3018.8739622581134,1500.7149999999999,1478.9912397097762,1296.24,1500.0
2.3184850215911865,155,96,3018.8739622581134,1503.73,1475,1289.28,1500.0
2.3418428897857666,155,95,3251.0950362779681,1506.5450000000001,1476.6690289695778,1288.96,1500.0
2.3652939796447754,155,95,3251.0950362779681,1509.3599999999999,1485.957871930372,1290.24,1500.0
2.388546943664551,155,94,3251.0950362779681,1506.575,1495.2467148911662,1296.96,1500.0
2.4119319915771484,156,94,3251.0950362779681,1512.405,1504.5355578519602,1302.48,1500.0
2.4353528022766113,156,95,3251.0950362779681,1512.4349999999999,1513.8244008127544,1308.1600000000001,1500.0
2.4586238861083984,156,95,3251.0950362779681,1512.4649999999999,1513.8244008127544,1310.8800000000001,1500.0
2.482067823410034,156,94,3251.0950362779681,1512.4949999999999,1509.1799793323573,1314.8800000000001,1500.0
2.505504846572876,157,93,3251.0950362779681,1518.325,1504.5355578519602,1316.1600000000001,1500.0
2.5287699699401855,157,91,3251.0950362779681,1515.5699999999999,1499.8911363715633,1321.52,1500.0
2.5520968437194824,158,89,3251.0950362779681,1518.615,1495.246714891166,1331.2,1500.0
2.575363874435425,158,84,3251.0950362779681,1520,1495.246714891166,1350,1500.0
2.598428964614868,157,82,3251.0950362779681,1520,1495.246714891166,1350,1500.0
2.6216650009155273,157,81,3251.0950362779681,1515.72,1495.246714891166,1350,1500.0
2.6450319290161133,158,80,3251.0950362779681,1515.95,1495.246714891166,1350,1500.0
2.6681969165802,159,80,3251.0950362779681,1513.395,1495.2467148911662,1350,1500.0
2.691437005996704,159,80,3251.0950362779681,1510.6400000000001,1495.2467148911662,1350,1500.0
2.714737892150879,159,80,3251.0950362779681,1513.4849999999999,1495.2467148911662,1350,1500.0
2.7379050254821777,160,79,3251.0950362779681,1520,1495.2467148911662,1350,1500.0
2.7609658241271973,160,78,3251.0950362779681,1520,1495.2467148911662,1350,1500.0
2.784364938735962,160,77,3251.0950362779681,1520,1495.246714891166,1350,1500.0
2.8074169158935547,161,76,3251.0950362779681,1520,1495.246714891166,1350,1500.0
2.8304660320281982,161,75,3251.0950362779681,1520,1495.246714891166,1350,1500.0
2.8536839485168457,161,74,3251.0950362779681,1520,1495.246714891166,1350,1500.0
2.8767659664154053,161,73,3018.8739622581134,1519.8150000000001,1488.2800826705704,1350,1500.0
2.8999288082122803,161,72,3251.0950362779681,1519.845,1490.6022934107689,1350,1500.0
2.9231038093566895,162,72,3251.0950362779681,1517.29,1490.6022934107689,1350,1500.0
2.9463109970092773,162,71,3251.0950362779681,1514.5350000000001,1490.6022934107689,1350,1500.0
2.969533920288086,162,71,3251.0950362779681,1514.5650000000001,1490.6022934107689,1350,1500.0
2.9927239418029785,162,71,3251.0950362779681,1514.595,1499.8911363715631,1350,1500.0
3.015873908996582,163,71,3018.8739622581134,1517.6400000000001,1492.9245041509676,1350,1500.0
3.039003849029541,163,71,3018.8739622581134,1517.6700000000001,1488.2800826705704,1350,1500.0
3.0621650218963623,163,71,3018.8739622581134,1517.7,1483.6356611901733,1350,1500.0
3.085326910018921,163,71,2817.6156981075724,1517.73,1475,1350,1500.0
3.1083879470825195,163,71,2817.6156981075724,1517.76,1475,1349.1199999999999,1500.0
3.1317269802093506,163,71,2817.6156981075724,1512.1900000000001,1475,1347.76,1500.0
3.155081033706665,163,72,2817.6156981075724,1509.405,1475,1343.76,1500.0
3.178548812866211,163,73,2817.6156981075724,1506.6199999999999,1475,1339.6800000000001,1500.0
3.201896905899048,162,74,2817.6156981075724,1500.8199999999999,1475,1334.1600000000001,1500.0
3.2252650260925293,162,76,2817.6156981075724,1495.22,1478.8364256604295,1324.5599999999999,1500.0
3.248525857925415,162,77,2817.6156981075724,1492.405,1482.8615909434407,1314.72,1500.0
3.2719178199768066,162,79,2817.6156981075724,1489.5899999999999,1486.8867562264513,1303.5999999999999,1500.0
3.2953648567199707,162,81,2817.6156981075724,1486.7750000000001,1490.9119215094622,1292.4000000000001,1500.0
3.3186228275299072,162,81,2817.6156981075724,1489.5599999999999,1490.9119215094622,1286.4000000000001,1500.0
3.3420569896698,162,81,2817.6156981075724,1492.345,1490.9119215094622,1286.0,1500.0
3.365480899810791,162,81,2817.6156981075724,1495.1300000000001,1490.911921509462,1288.4000000000001,1500.0
3.3887009620666504,162,80,2817.6156981075724,1497.915,1490.911921509462,1297.6800000000001,1500.0
3.411993980407715,162,79,2817.6156981075724,1500.7,1490.911921509462,1312.6400000000001,1500.0
3.4352598190307617,162,78,2817.6156981075724,1500.7,1490.911921509462,1327.6800000000001,1500.0
3.4585349559783936,162,76,2817.6156981075724,1500.7,1490.911921509462,1344.0799999999999,1500.0
3.4819469451904297,161,75,2817.6156981075724,1497.6849999999999,1490.9119215094622,1350,1500.0
3.505208969116211,161,75,2817.6156981075724,1494.8699999999999,1490.9119215094622,1350,1500.0
3.52839994430542,161,75,2817.6156981075724,1492.0550000000001,1490.9119215094622,1350,1500.0
3.5517258644104004,161,75,2817.6156981075724,1489.24,1490.9119215094622,1350,1500.0
3.575073003768921,160,75,2817.6156981075724,1483.4100000000001,1490.9119215094622,1350,1500.0
3.5982539653778076,160,75,2817.6156981075724,1483.3800000000001,1490.911921509462,1350,1500.0
3.6215059757232666,161,75,2817.6156981075724,1486.365,1490.911921509462,1350,1500.0
3.6447508335113525,159,75,2817.6156981075724,1483.1199999999999,1490.911921509462,1345.4400000000001,1500.0
3.668010950088501,160,75,2817.6156981075724,1483.29,1490.911921509462,1341.3599999999999,1500.0
3.6914169788360596,159,74,2817.6156981075724,1485.845,1490.911921509462,1342.6400000000001,1500.0
3.714897871017456,159,74,2817.6156981075724,1485.8150000000001,1490.9119215094622,1344.0799999999999,1500.0
3.738175868988037,159,74,2817.6156981075724,1480.1849999999999,1490.9119215094622,1345.52,1500.0
3.7616159915924072,159,74,2817.6156981075724,1485.7550000000001,1490.9119215094622,1346.96,1500.0
3.785080909729004,159,74,2817.6156981075724,1485.7249999999999,1490.9119215094622,1348.4000000000001,1500.0
3.808337926864624,158,74,2641.5147169758493,1485.4949999999999,1485.6288920755105,1347.04,1500.0
3.8316779136657715,158,74,2641.5147169758493,1485.4649999999999,1482.1068724528759,1345.6800000000001,1500.0
3.855036973953247,158,74,2641.5147169758493,1488.22,1478.5848528302415,1344.3199999999999,1500.0
3.8783040046691895,157,74,2641.5147169758493,1482.3900000000001,1475.0628332076071,1342.96,1500.0
3.901697874069214,157,74,2641.5147169758493,1480,1475,1341.5999999999999,1500.0
3.9250710010528564,157,74,2641.5147169758493,1480,1475.0628332076071,1341.5999999999999,1500.0
3.948403835296631,156,75,2641.5147169758493,1480,1478.5848528302415,1338.96,1500.0
3.9717769622802734,156,77,2641.5147169758493,1480,1482.1068724528759,1332.24,1500.0
3.9951798915863037,155,78,2641.5147169758493,1480,1485.6288920755105,1325.28,1500.0
4.018375873565674,155,80,2641.5147169758493,1480,1489.1509116981449,1314.24,1500.0
4.041720867156982,155,81,2641.5147169758493,1480,1489.1509116981449,1302.96,1500.0
4.0651209354400635,154,82,2486.1314983302113,1480,1484.4894151387757,1293.04,1500.0
4.088275909423828,153,82,2486.1314983302113,1480,1481.381750765863,1289.9200000000001,1500.0
4.111593961715698,153,82,2486.1314983302113,1480,1478.2740863929503,1289.5999999999999,1500.0
4.134964942932129,153,82,2486.1314983302113,1480,1475.1664220200375,1294.8800000000001,1500.0
4.158207893371582,153,80,2486.1314983302113,1480,1475,1308.24,1500.0
4.181949853897095,152,79,2486.1314983302113,1480,1475.1664220200375,1323.28,1500.0
4.205322980880737,152,80,2348.0130817563104,1480,1475,1331.76,1500.0
4.228386878967285,152,80,2348.0130817563104,1480,1475,1340.0799999999999,1500.0
4.2516028881073,151,81,2348.0130817563104,1480,1475,1343.04,1500.0
4.274829864501953,151,82,2348.0130817563104,1480,1475.1664220200373,1337.5999999999999,1500.0
4.297996997833252,151,83,2348.0130817563104,1480,1475,1326.5599999999999,1500.0
4.321242809295654,151,85,2224.4334458743997,1480,1475,1314.24,1500.0
4.344529867172241,151,86,2224.4334458743997,1480,1475,1301.6800000000001,1500.0
4.367604970932007,150,86,2224.4334458743997,1480,1475,1293.1199999999999,1500.0
4.3906378746032715,150,85,2224.4334458743997,1482.665,1475,1292.72,1500.0
4.413975954055786,150,85,2113.2117735806796,1482.635,1475,1295.28,1500.0
4.437124967575073,150,85,2113.2117735806796,1482.605,1475,1302.0799999999999,1500.0
4.460271835327148,150,86,2113.2117735806796,1482.575,1475,1309.04,1500.0
4.483464002609253,150,86,2113.2117735806796,1485.3599999999999,1475,1315.8399999999999,1500.0
4.506610870361328,149,86,2113.2117735806796,1485.1300000000001,1475,1318.48,1500.0
4.529793977737427,149,86,2113.2117735806796,1485.0999999999999,1475,1319.76,1500.0
4.55297589302063,149,86,2113.2117735806796,1485.0699999999999,1477.19458192657,1318.3199999999999,1500.0
4.576215982437134,149,86,2113.2117735806796,1485.04,1479.4190153724444,1318.3199999999999,1500.0
4.5994648933410645,149,86,2012.5826415054091,1482.2249999999999,1478.6245748560607,1318.3199999999999,1500.0
4.622706890106201,149,86,2012.5826415054091,1485.01,1478.8364256604295,1319.6800000000001,1500.0
4.645954847335815,150,86,2012.5826415054091,1490.8099999999999,1476.8238430189242,1321.04,1500.0
4.669188022613525,149,86,2012.5826415054091,1493.395,1475,1322.4000000000001,1500.0
4.692345857620239,150,86,2012.5826415054091,1499.1949999999999,1475,1322.4000000000001,1500.0
4.71550989151001,150,85,2012.5826415054091,1504.7950000000001,1475,1325.04,1500.0
4.738693952560425,150,85,2012.5826415054091,1507.6099999999999,1476.8238430189244,1326.48,1500.0
4.762020826339722,150,85,2012.5826415054091,1504.825,1478.8364256604295,1327.9200000000001,1500.0
4.785282850265503,151,86,2012.5826415054091,1510.655,1480.8490083019351,1326.72,1500.0
4.808498859405518,151,86,2012.5826415054091,1510.6849999999999,1482.8615909434404,1326.72,1500.0
4.831888914108276,152,86,2012.5826415054091,1513.73,1482.8615909434404,1323.9200000000001,1500.0
4.85530686378479,152,86,2012.5826415054091,1516.575,1482.8615909434404,1321.1199999999999,1500.0
4.878554821014404,153,86,2012.5826415054091,1520,1482.8615909434404,1318.3199999999999,1500.0
4.90183687210083,152,85,2012.5826415054091,1520,1482.8615909434404,1320.96,1500.0
4.9251580238342285,153,84,2012.5826415054091,1520,1482.8615909434404,1325.04,1500.0
4.948380947113037,153,84,2012.5826415054091,1520,1482.8615909434404,1329.28,1500.0
4.971758842468262,154,83,2012.5826415054091,1520,1482.8615909434404,1336.1600000000001,1500.0
4.995160818099976,154,82,2012.5826415054091,1517.2750000000001,1482.8615909434404,1344.48,1500.0
5.018381834030151,155,82,2012.5826415054091,1520,1482.8615909434404,1347.4400000000001,1500.0
5.0416789054870605,156,81,2012.5826415054091,1520,1482.8615909434404,1350,1500.0
5.064949989318848,156,81,2012.5826415054091,1520,1482.8615909434404,1350,1500.0
5.088011026382446,157,80,2012.5826415054091,1520,1482.8615909434404,1350,1500.0
5.111225843429565,157,80,2012.5826415054091,1520,1482.8615909434404,1350,1500.0
5.134505033493042,158,80,2012.5826415054091,1520,1482.8615909434404,1349.52,1500.0
5.157670974731445,158,79,2012.5826415054091,1520,1482.8615909434404,1349.52,1500.0
5.180903911590576,159,79,2012.5826415054091,1520,1482.8615909434404,1348.3199999999999,1500.0
5.204270839691162,159,78,1921.1016123460724,1520,1480.1171600686603,1348.3199999999999,1500.0
5.227434873580933,160,77,1921.1016123460724,1520,1478.2875394854736,1350,1500.0
5.250778913497925,160,76,1921.1016123460724,1520,1476.4579189022868,1350,1500.0
5.274190902709961,160,76,1921.1016123460724,1520,1475,1350,1500.0
5.297124862670898,160,76,1837.5754552875476,1520,1475,1350,1500.0
5.320065021514893,160,76,1837.5754552875476,1520,1475,1350,1500.0
5.34303092956543,160,76,1837.5754552875476,1516.71,1475,1350,1500.0
5.366103887557983,160,77,1837.5754552875476,1511.1400000000001,1475,1348.0,1500.0
5.389245986938477,160,78,1837.5754552875476,1505.5699999999999,1475,1339.8399999999999,1500.0
5.412410020828247,160,80,1837.5754552875476,1502.7850000000001,1475,1327.5999999999999,1500.0
5.4355738162994385,160,81,1837.5754552875476,1500.0,1476.0999496577504,1316.48,1500.0
5.45880389213562,160,81,1761.0098113172328,1500.0,1475.4735034798116,1307.9200000000001,1500.0
5.482091903686523,160,81,1761.0098113172328,1500.0,1475.6127137415756,1303.52,1500.0
5.505319833755493,159,82,1761.0098113172328,1496.9849999999999,1475.7519240033398,1299.28,1500.0
5.528569936752319,159,82,1761.0098113172328,1494.1700000000001,1475,1301.8399999999999,1500.0
5.551931858062744,159,83,1690.5694188645434,1491.355,1475,1304.5599999999999,1500.0
5.575263023376465,159,85,1761.0098113172328,1488.54,1475,1303.2,1500.0
5.598416805267334,158,86,1761.0098113172328,1482.71,1475,1300.24,1500.0
5.621616840362549,158,86,1761.0098113172328,1482.6800000000001,1475.8744290336924,1299.9200000000001,1500.0
5.644917011260986,157,87,1761.0098113172328,1480,1477.4057419130986,1294.24,1500.0
5.668076038360596,157,87,1761.0098113172328,1480,1481.7546704906126,1291.2,1500.0
5.691361904144287,156,87,1761.0098113172328,1480,1481.7546704906124,1293.76,1500.0
5.714721918106079,156,87,1837.5754552875476,1480,1484.0516398097218,1299.1199999999999,1500.0
5.737919807434082,155,87,1837.5754552875476,1480,1485.5829526891282,1303.1199999999999,1500.0
5.761137962341309,155,87,1921.1016123460724,1480,1489.6200502802901,1309.9200000000001,1500.0
5.784361839294434,154,86,1921.1016123460724,1480,1491.4130784518131,1318.0,1500.0
5.807471990585327,153,86,1921.1016123460724,1480,1494.6149144723902,1322.1600000000001,1500.0
5.830614805221558,153,86,1921.1016123460724,1480,1494.7541247341544,1324.96,1500.0
5.853906869888306,152,85,1921.1016123460724,1480,1494.8933349959186,1330.4000000000001,1500.0
5.877064943313599,152,84,1921.1016123460724,1480,1491.6914989753418,1335.9200000000001,1500.0
5.900317907333374,151,82,2012.5826415054091,1480,1491.2340938295451,1342.72,1500.0
5.924001932144165,150,79,2012.5826415054091,1480,1489.8618783921549,1350,1500.0
5.947329998016357,150,78,2012.5826415054091,1480,1490.0209758341712,1350,1500.0
5.970494985580444,149,77,2012.5826415054091,1480,1490.1800732761874,1350,1500.0
5.993767023086548,149,76,2012.5826415054091,1480,1492.0096938593742,1350,1500.0
6.016865968704224,148,75,2012.5826415054091,1480,1490.1800732761874,1350,1500.0
6.039942026138306,148,75,2012.5826415054091,1480,1488.3504526930008,1350,1500.0
6.063014030456543,147,74,2012.5826415054091,1480,1486.5208321098139,1350,1500.0
6.08607292175293,146,74,2012.5826415054091,1480,1484.6912115266273,1350,1500.0
6.109131813049316,146,74,2012.5826415054091,1480,1482.8615909434404,1350,1500.0
6.132207870483398,144,73,2012.5826415054091,1480,1482.8615909434404,1350,1500.0
6.155290842056274,145,73,2012.5826415054091,1480,1482.8615909434404,1350,1500.0
6.1783528327941895,144,74,2012.5826415054091,1480,1482.8615909434404,1350,1500.0
6.201483964920044,144,74,2012.5826415054091,1480,1482.8615909434404,1349.9200000000001,1500.0
6.224723815917969,143,75,2012.5826415054091,1480,1482.8615909434404,1344.5599999999999,1500.0
6.2478718757629395,143,75,2012.5826415054091,1480,1482.8615909434404,1338.96,1500.0
6.27108097076416,143,76,2012.5826415054091,1480,1482.8615909434404,1330.72,1500.0
6.294304847717285,142,77,2012.5826415054091,1480,1482.8615909434404,1325.2,1500.0
6.317474842071533,142,78,2012.5826415054091,1480,1482.8615909434404,1318.24,1500.0
6.340641975402832,142,78,2012.5826415054091,1480,1482.8615909434404,1315.28,1500.0
6.364051818847656,142,78,2012.5826415054091,1480,1482.8615909434404,1313.6800000000001,1500.0
6.387533903121948,142,78,2012.5826415054091,1480,1482.8615909434404,1314.8800000000001,1500.0
6.410698890686035,142,78,2012.5826415054091,1480,1482.8615909434404,1317.52,1500.0
6.434005975723267,142,78,2012.5826415054091,1485.345,1482.8615909434404,1322.96,1500.0
6.457255840301514,142,78,2012.5826415054091,1488.1300000000001,1482.8615909434404,1327.04,1500.0
6.48055100440979,142,79,2113.2117735806796,1490.915,1485.8804649056985,1328.48,1500.0
6.503957986831665,142,79,2113.2117735806796,1493.7,1487.8930475472041,1329.76,1500.0
6.527179002761841,142,80,2113.2117735806796,1493.7,1489.9056301887094,1327.04,1500.0
6.550428867340088,142,80,2113.2117735806796,1493.7,1491.9182128302148,1324.1600000000001,1500.0
6.573817014694214,141,80,2224.4334458743997,1490.6849999999999,1497.2674456405318,1321.28,1500.0
6.5970778465271,141,81,2224.4334458743997,1487.8699999999999,1497.4792964449009,1318.5599999999999,1500.0
6.620321035385132,141,80,2224.4334458743997,1485.0550000000001,1497.6911472492698,1319.6800000000001,1500.0
6.643543004989624,141,80,2224.4334458743997,1482.24,1497.9029980536388,1322.4000000000001,1500.0
6.6667799949646,141,79,2224.4334458743997,1480,1498.1148488580079,1327.76,1500.0
6.689931869506836,142,79,2348.0130817563104,1485.2249999999999,1497.5852218470852,1331.9200000000001,1500.0
6.713183879852295,142,78,2348.0130817563104,1490.825,1497.8323811188493,1340.1600000000001,1500.0
6.736433982849121,143,77,2348.0130817563104,1499.4400000000001,1498.0795403906129,1347.04,1500.0
6.7596518993377686,143,76,2348.0130817563104,1507.855,1498.3266996623768,1350,1500.0
6.7828288078308105,144,76,2348.0130817563104,1519.2850000000001,1498.5738589341406,1350,1500.0
6.80597186088562,144,76,2348.0130817563104,1520,1496.1022662165024,1350,1500.0
6.829013824462891,145,76,2348.0130817563104,1520,1493.6306734988641,1350,1500.0
6.852062940597534,145,76,2348.0130817563104,1520,1491.1590807812261,1350,1500.0
6.87508487701416,145,76,2348.0130817563104,1520,1488.6874880635878,1350,1500.0
6.8981428146362305,145,76,2486.1314983302113,1520,1490.3594478431667,1346.5599999999999,1500.0
6.921376943588257,145,76,2486.1314983302113,1519.8150000000001,1493.1218161746447,1342.48,1500.0
6.944715976715088,145,77,2641.5147169758493,1511.46,1500.5456810654919,1337.1199999999999,1500.0
6.968021869659424,145,77,2641.5147169758493,1505.8900000000001,1506.4157137698826,1334.3199999999999,1500.0
6.991374969482422,145,78,2641.5147169758493,1500.3199999999999,1512.2857464742733,1330.24,1500.0
7.014715909957886,145,79,2641.5147169758493,1497.5350000000001,1512.631042515708,1324.72,1500.0
7.037958860397339,145,79,2641.5147169758493,1494.75,1512.9763385571428,1320.4000000000001,1500.0
7.0612359046936035,145,79,2641.5147169758493,1494.75,1507.106305852752,1318.8800000000001,1500.0
7.084550857543945,145,78,2641.5147169758493,1494.75,1501.2362731483613,1320.0,1500.0
7.107767820358276,145,77,2641.5147169758493,1494.75,1495.3662404439704,1325.3599999999999,1500.0
7.131120920181274,145,76,2641.5147169758493,1494.75,1492.2585760710576,1334.96,1500.0
7.1544859409332275,146,75,2641.5147169758493,1497.7650000000001,1489.1509116981449,1346.0,1500.0
7.177716016769409,147,74,2641.5147169758493,1503.595,1489.1509116981449,1350,1500.0
7.200875997543335,147,74,2641.5147169758493,1509.2249999999999,1489.1509116981449,1350,1500.0
7.224190950393677,146,74,2817.6156981075724,1511.8399999999999,1494.4339411320966,1350,1500.0
7.247380971908569,146,76,2817.6156981075724,1514.655,1497.955960754731,1350,1500.0
7.270553827285767,146,77,2817.6156981075724,1511.8699999999999,1501.4779803773656,1350,1500.0
7.293828010559082,146,79,2817.6156981075724,1503.4849999999999,1505.0,1334.8,1500.0
7.317081928253174,147,80,2817.6156981075724,1498.115,1508.5220196226344,1319.52,1500.0
7.340363025665283,147,80,2817.6156981075724,1498.145,1505.0,1306.8,1500.0
7.363878011703491,147,80,2817.6156981075724,1498.175,1501.4779803773656,1301.04,1500.0
7.38715386390686,147,80,2817.6156981075724,1500.99,1497.955960754731,1299.4400000000001,1500.0
7.410667896270752,147,79,2817.6156981075724,1506.5899999999999,1494.4339411320966,1307.4400000000001,1500.0
7.43408203125,147,79,2817.6156981075724,1506.5899999999999,1490.9119215094622,1317.04,1500.0
7.457348823547363,147,78,2817.6156981075724,1503.8050000000001,1490.9119215094622,1329.28,1500.0
7.480679988861084,148,78,2817.6156981075724,1504.0350000000001,1490.9119215094622,1337.5999999999999,1500.0
7.5041069984436035,147,78,2817.6156981075724,1501.05,1490.9119215094622,1344.5599999999999,1500.0
7.527370929718018,148,80,2817.6156981075724,1501.28,1490.9119215094622,1340.72,1500.0
7.550647020339966,147,81,2817.6156981075724,1501.0799999999999,1490.911921509462,1335.28,1500.0
7.574065923690796,147,82,2817.6156981075724,1501.0799999999999,1490.911921509462,1325.5999999999999,1500.0
7.597354888916016,147,83,2817.6156981075724,1495.48,1490.911921509462,1314.48,1500.0
7.6206018924713135,147,84,2817.6156981075724,1495.48,1490.911921509462,1301.9200000000001,1500.0
7.643967866897583,147,84,2817.6156981075724,1489.8800000000001,1490.911921509462,1297.52,1500.0
7.667234897613525,148,85,3018.8739622581134,1492.895,1496.9496694339784,1293.28,1500.0
7.690500974655151,148,85,3018.8739622581134,1495.71,1500.9748347169891,1294.4000000000001,1500.0
7.713909864425659,148,85,3018.8739622581134,1501.3099999999999,1505.0,1298.3199999999999,1500.0
7.73719596862793,148,85,3018.8739622581134,1504.125,1509.0251652830109,1305.04,1500.0
7.760422945022583,148,85,3018.8739622581134,1509.7249999999999,1513.0503305660216,1309.04,1500.0
7.783831834793091,149,85,3018.8739622581134,1509.9549999999999,1509.0251652830109,1314.48,1500.0
7.807091951370239,149,85,3018.8739622581134,1509.9849999999999,1505.0,1318.5599999999999,1500.0
7.830349922180176,149,84,3018.8739622581134,1510.0150000000001,1500.9748347169891,1323.9200000000001,1500.0
7.8537819385528564,149,84,3018.8739622581134,1510.0450000000001,1496.9496694339784,1326.72,1500.0
7.877091884613037,148,83,3018.8739622581134,1507.0599999999999,1492.9245041509676,1332.1600000000001,1500.0
7.900370836257935,149,82,3018.8739622581134,1504.4749999999999,1492.9245041509676,1337.6800000000001,1500.0
7.923786878585815,149,82,3018.8739622581134,1501.6900000000001,1492.9245041509676,1342.0,1500.0
7.947073936462402,148,82,3018.8739622581134,1495.8900000000001,1492.9245041509676,1343.52,1500.0
7.970369815826416,148,82,3018.8739622581134,1490.29,1492.9245041509676,1345.04,1500.0
7.993799924850464,148,82,3018.8739622581134,1490.29,1492.9245041509676,1343.76,1500.0
8.017112016677856,149,83,3018.8739622581134,1490.49,1492.9245041509676,1337.04,1500.0
8.040377855300903,148,84,3018.8739622581134,1487.4749999999999,1492.9245041509676,1328.8800000000001,1500.0
8.063905000686646,148,85,3018.8739622581134,1490.26,1492.9245041509676,1320.6400000000001,1500.0
8.087219953536987,149,85,3018.8739622581134,1496.0599999999999,1492.9245041509676,1313.5999999999999,1500.0
8.110482931137085,149,85,3018.8739622581134,1498.875,1492.9245041509676,1307.9200000000001,1500.0
8.133879899978638,148,84,3251.0950362779681,1495.8599999999999,1499.8911363715633,1309.04,1500.0
8.157176971435547,149,84,3251.0950362779681,1501.6600000000001,1504.5355578519602,1311.76,1500.0
8.180464029312134,149,84,3251.0950362779681,1504.4749999999999,1509.1799793323573,1317.28,1500.0
8.203889846801758,149,84,3251.0950362779681,1501.6900000000001,1513.8244008127544,1322.8,1500.0
8.227162837982178,149,84,3251.0950362779681,1498.905,1518.4688222931516,1328.3199999999999,1500.0
8.250458002090454,148,84,3018.8739622581134,1501.49,1506.8577685921589,1329.6800000000001,1500.0
8.273859977722168,148,84,3018.8739622581134,1495.8900000000001,1497.5689256313647,1329.6800000000001,1500.0
8.297123908996582,148,83,3251.0950362779681,1490.29,1495.246714891166,1330.96,1500.0
8.320400953292847,148,83,3251.0950362779681,1487.4749999999999,1490.6022934107691,1331.04,1500.0
8.3438138961792,147,82,3251.0950362779681,1481.645,1485.957871930372,1333.76,1500.0
8.367095947265625,147,81,3251.0950362779681,1480,1495.246714891166,1339.28,1500.0
8.390583038330078,147,81,3251.0950362779681,1480,1504.5355578519602,1343.5999999999999,1500.0
8.413944005966187,148,82,3251.0950362779681,1481.7850000000001,1504.5355578519602,1342.48,1500.0
8.437213897705078,148,82,3251.0950362779681,1484.5699999999999,1504.5355578519602,1342.5599999999999,1500.0
8.460474967956543,147,83,3251.0950362779681,1489.9400000000001,1504.5355578519602,1337.2,1500.0
8.483922958374023,147,84,3251.0950362779681,1492.7249999999999,1499.8911363715631,1327.5999999999999,1500.0
8.507202863693237,148,84,3251.0950362779681,1498.5250000000001,1495.2467148911662,1319.2,1500.0
8.530473947525024,148,84,3251.0950362779681,1498.5250000000001,1495.2467148911662,1314.96,1500.0
8.553890943527222,148,84,3251.0950362779681,1498.5250000000001,1495.2467148911662,1310.72,1500.0
8.577172994613647,147,83,3251.0950362779681,1498.325,1495.2467148911662,1313.28,1500.0
8.600504875183105,147,82,3251.0950362779681,1498.325,1495.246714891166,1321.4400000000001,1500.0
8.623924970626831,147,82,3251.0950362779681,1492.7249999999999,1495.246714891166,1328.4000000000001,1500.0
8.647198915481567,146,82,3251.0950362779681,1486.895,1495.246714891166,1334.0,1500.0
8.670471906661987,146,82,3251.0950362779681,1481.2650000000001,1495.246714891166,1339.5999999999999,1500.0
8.693851947784424,146,82,3251.0950362779681,1480,1495.246714891166,1341.04,1500.0
8.717053890228271,146,83,3251.0950362779681,1480,1495.2467148911662,1335.6800000000001,1500.0
8.740231037139893,145,84,3251.0950362779681,1480,1495.2467148911662,1328.8800000000001,1500.0
8.76339602470398,146,84,3251.0950362779681,1480,1495.2467148911662,1323.28,1500.0
8.786571025848389,146,84,3251.0950362779681,1483.9300000000001,1495.2467148911662,1317.6800000000001,1500.0
8.809818029403687,146,84,3251.0950362779681,1486.7149999999999,1495.2467148911662,1313.4400000000001,1500.0
8.8330979347229,145,84,3251.0950362779681,1486.4849999999999,1495.246714891166,1313.3599999999999,1500.0
8.856360912322998,145,84,3251.0950362779681,1492.0550000000001,1495.246714891166,1316.0799999999999,1500.0
8.879619836807251,145,84,3251.0950362779681,1489.24,1495.246714891166,1318.8,1500.0
8.902882814407349,145,84,3251.0950362779681,1486.425,1495.246714891166,1321.52,1500.0
8.926169872283936,144,84,3251.0950362779681,1480.595,1495.246714891166,1324.24,1500.0
8.949434995651245,144,84,3251.0950362779681,1480.5650000000001,1495.2467148911662,1325.5999999999999,1500.0
8.972725868225098,144,84,3251.0950362779681,1480,1495.2467148911662,1325.5999999999999,1500.0
8.995916843414307,143,84,3251.0950362779681,1480,1495.2467148911662,1325.5999999999999,1500.0
9.019083023071289,143,84,3251.0950362779681,1480,1495.2467148911662,1325.5999999999999,1500.0
9.042232036590576,143,84,3251.0950362779681,1480,1495.2467148911662,1325.5999999999999,1500.0
9.065400838851929,143,85,3251.0950362779681,1480,1495.246714891166,1322.96,1500.0
9.088544845581055,143,85,3251.0950362779681,1480,1495.246714891166,1321.52,1500.0
9.111753940582275,142,85,3251.0950362779681,1480,1495.246714891166,1320.0799999999999,1500.0
9.13503098487854,143,85,3251.0950362779681,1482.8800000000001,1495.246714891166,1318.6400000000001,1500.0
9.15829086303711,142,85,3251.0950362779681,1482.6500000000001,1495.246714891166,1317.2,1500.0
9.181603908538818,142,85,3251.0950362779681,1482.6199999999999,1495.2467148911662,1318.5599999999999,1500.0
9.204949855804443,142,85,3251.0950362779681,1482.5899999999999,1495.2467148911662,1319.9200000000001,1500.0
9.228212833404541,142,85,3251.0950362779681,1485.375,1495.2467148911662,1321.28,1500.0
9.251530885696411,142,85,3251.0950362779681,1482.5599999999999,1495.2467148911662,1322.6400000000001,1500.0
9.274865865707397,141,85,3251.0950362779681,1482.3299999999999,1495.2467148911662,1324.0,1500.0
9.298125982284546,141,85,3251.0950362779681,1482.3,1495.246714891166,1324.0,1500.0
9.321422815322876,141,85,3251.0950362779681,1482.27,1495.246714891166,1324.0,1500.0
9.344717025756836,141,84,3251.0950362779681,1480,1495.246714891166,1326.6400000000001,1500.0
9.371822834014893,141,84,3251.0950362779681,1480,1495.246714891166,1328.0799999999999,1500.0
9.395182847976685,141,84,3251.0950362779681,1482.21,1495.246714891166,1329.52,1500.0
9.418454885482788,141,84,3251.0950362779681,1484.9949999999999,1495.2467148911662,1330.96,1500.0
9.441818952560425,140,84,3251.0950362779681,1484.7650000000001,1495.2467148911662,1332.4000000000001,1500.0
9.465234994888306,141,84,3251.0950362779681,1487.75,1495.2467148911662,1331.04,1500.0
9.48851490020752,142,84,3251.0950362779681,1493.55,1495.2467148911662,1329.6800000000001,1500.0
9.511797904968262,141,83,3251.0950362779681,1493.3499999999999,1495.2467148911662,1330.96,1500.0
9.535128831863403,140,83,3018.8739622581134,1490.335,1488.2800826705704,1331.04,1500.0
9.558377027511597,140,82,3018.8739622581134,1493.1199999999999,1483.6356611901733,1333.76,1500.0
9.58168888092041,140,82,3018.8739622581134,1490.3050000000001,1478.9912397097762,1336.6400000000001,1500.0
9.605010986328125,140,82,3018.8739622581134,1481.8900000000001,1475,1339.52,1500.0
9.6281578540802,140,82,3018.8739622581134,1480,1475,1339.5999999999999,1500.0
9.65136981010437,141,82,3018.8739622581134,1484.875,1475,1339.6800000000001,1500.0
9.674806833267212,140,83,3018.8739622581134,1484.675,1478.9912397097762,1334.3199999999999,1500.0
9.698073863983154,140,84,3018.8739622581134,1487.46,1483.6356611901733,1327.52,1500.0
9.721393823623657,140,85,3018.8739622581134,1493.03,1488.2800826705704,1319.28,1500.0
9.744756937026978,140,87,3018.8739622581134,1495.8150000000001,1492.9245041509676,1308.3199999999999,1500.0
9.76801085472107,140,89,3018.8739622581134,1490.2149999999999,1492.9245041509676,1294.48,1500.0
9.791309833526611,140,89,3018.8739622581134,1490.2149999999999,1492.9245041509676,1287.2,1500.0
9.814623832702637,140,89,3018.8739622581134,1490.2149999999999,1492.9245041509676,1282.72,1500.0
9.837867021560669,141,88,3018.8739622581134,1493.23,1492.9245041509676,1283.6800000000001,1500.0
9.861182928085327,140,88,3018.8739622581134,1493.03,1492.9245041509676,1289.04,1500.0
9.88452696800232,140,87,3018.8739622581134,1495.8150000000001,1492.9245041509676,1302.6400000000001,1500.0
9.907796859741211,140,85,3251.0950362779681,1495.8150000000001,1499.8911363715631,1318.96,1500.0
9.931087017059326,141,85,3251.0950362779681,1498.8299999999999,1504.5355578519602,1331.52,1500.0
9.954463958740234,141,83,3251.0950362779681,1496.0450000000001,1509.1799793323573,1345.2,1500.0
9.977751016616821,141,83,3251.0950362779681,1498.8599999999999,1513.8244008127544,1350,1500.0
10.000922918319702,142,83,3251.0950362779681,1504.6900000000001,1518.4688222931516,1350,1500.0
10.024225950241089,142,83,3018.8739622581134,1510.3199999999999,1506.8577685921589,1350,1500.0
10.047406911849976,142,82,3018.8739622581134,1510.3499999999999,1497.5689256313647,1350,1500.0
10.070631980895996,141,81,3018.8739622581134,1510.1500000000001,1488.2800826705704,1350,1500.0
10.093937873840332,143,80,3018.8739622581134,1513.395,1478.9912397097762,1350,1500.0
10.117115020751953,143,78,3018.8739622581134,1510.6400000000001,1475,1350,1500.0
10.140192031860352,143,78,3018.8739622581134,1507.885,1475,1350,1500.0
10.163241863250732,144,78,3018.8739622581134,1510.9300000000001,1478.9912397097762,1350,1500.0
10.186403036117554,143,78,3018.8739622581134,1516.3599999999999,1483.6356611901733,1350,1500.0
10.209576845169067,144,80,3018.8739622581134,1513.8050000000001,1488.2800826705704,1350,1500.0
10.232760906219482,144,81,3018.8739622581134,1513.835,1492.9245041509676,1343.4400000000001,1500.0
10.256022930145264,144,83,3018.8739622581134,1513.865,1492.9245041509676,1327.04,1500.0
10.279284954071045,144,85,3018.8739622581134,1508.2950000000001,1492.9245041509676,1309.1199999999999,1500.0
10.302549839019775,145,86,3018.8739622581134,1508.5550000000001,1492.9245041509676,1292.3199999999999,1500.0
10.325798988342285,145,86,3018.8739622581134,1508.585,1492.9245041509676,1283.6800000000001,1500.0
10.349074840545654,145,85,3018.8739622581134,1508.615,1492.9245041509676,1283.2,1500.0
10.372339010238647,146,84,3018.8739622581134,1511.6600000000001,1492.9245041509676,1289.76,1500.0
10.395861864089966,146,83,3018.8739622581134,1517.29,1492.9245041509676,1303.3599999999999,1500.0
10.419143915176392,147,82,3018.8739622581134,1517.55,1492.9245041509676,1321.2,1500.0
10.442373037338257,147,81,3018.8739622581134,1520,1492.9245041509676,1337.76,1500.0
10.465564012527466,147,81,3018.8739622581134,1520,1492.9245041509676,1348.96,1500.0
10.48878002166748,148,81,3018.8739622581134,1520,1492.9245041509676,1350,1500.0
10.511883020401001,148,82,3018.8739622581134,1520,1492.9245041509676,1350,1500.0
10.535023927688599,148,82,3018.8739622581134,1520,1492.9245041509676,1346.72,1500.0
10.55817985534668,148,82,3018.8739622581134,1518.05,1492.9245041509676,1338.48,1500.0
10.58147382736206,149,81,3018.8739622581134,1518.3099999999999,1492.9245041509676,1334.24,1500.0
10.604787826538086,149,81,3018.8739622581134,1515.5550000000001,1492.9245041509676,1330.1600000000001,1500.0
10.628026962280273,149,81,3018.8739622581134,1512.8,1492.9245041509676,1330.24,1500.0
10.651341915130615,149,80,3018.8739622581134,1512.8299999999999,1492.9245041509676,1334.3199999999999,1500.0
10.674698829650879,149,80,2817.6156981075724,1512.8599999999999,1486.8867562264513,1338.5599999999999,1500.0
10.697958946228027,150,80,2817.6156981075724,1510.3050000000001,1482.8615909434407,1340.0,1500.0
10.721272945404053,150,79,2817.6156981075724,1510.335,1478.8364256604298,1344.0799999999999,1500.0
10.74462890625,150,79,2817.6156981075724,1510.365,1475,1345.5999999999999,1500.0
10.767767906188965,150,80,2817.6156981075724,1510.395,1475,1341.6800000000001,1500.0
10.790860891342163,150,80,2817.6156981075724,1510.425,1475,1338.96,1500.0
10.81412386894226,150,81,2817.6156981075724,1507.6400000000001,1478.8364256604295,1334.96,1500.0
10.837355852127075,150,83,2817.6156981075724,1504.855,1482.8615909434404,1324.0799999999999,1500.0
10.860689878463745,150,84,2817.6156981075724,1502.0699999999999,1486.8867562264513,1312.96,1500.0
10.884138822555542,150,85,2817.6156981075724,1499.2850000000001,1490.911921509462,1304.5599999999999,1500.0
10.907413959503174,150,86,2817.6156981075724,1496.5,1490.911921509462,1294.72,1500.0
10.930645942687988,150,86,2817.6156981075724,1496.5,1490.9119215094622,1288.8800000000001,1500.0
10.954063892364502,150,86,2817.6156981075724,1496.5,1490.9119215094622,1290.0,1500.0
10.977389812469482,150,85,2817.6156981075724,1496.5,1490.9119215094622,1296.5599999999999,1500.0
11.000662803649902,150,85,2817.6156981075724,1496.5,1490.9119215094622,1303.3599999999999,1500.0
11.024068832397461,150,83,2817.6156981075724,1496.5,1490.9119215094622,1318.24,1500.0
11.047324895858765,150,82,2817.6156981075724,1496.5,1490.911921509462,1332.0,1500.0
11.070603847503662,149,82,2817.6156981075724,1493.4849999999999,1490.911921509462,1341.8399999999999,1500.0
11.094012022018433,149,81,2817.6156981075724,1490.6700000000001,1490.911921509462,1350,1500.0
11.11722183227539,149,81,2817.6156981075724,1487.855,1490.911921509462,1350,1500.0
11.140398979187012,149,81,2817.6156981075724,1485.04,1490.911921509462,1350,1500.0
11.163883924484253,148,81,2817.6156981075724,1480,1490.9119215094622,1350,1500.0
11.18700885772705,148,81,2817.6156981075724,1480,1490.9119215094622,1346.72,1500.0
11.210219860076904,147,81,2817.6156981075724,1480,1490.9119215094622,1341.28,1500.0
11.233400821685791,147,80,2817.6156981075724,1480,1490.9119215094622,1338.48,1500.0
11.256564855575562,147,80,2817.6156981075724,1480,1490.9119215094622,1337.2,1500.0
11.279731035232544,147,79,2817.6156981075724,1480,1490.911921509462,1339.9200000000001,1500.0
11.302920818328857,146,79,2817.6156981075724,1480,1490.911921509462,1341.4400000000001,1500.0
11.326120853424072,146,78,2817.6156981075724,1480,1490.911921509462,1346.96,1500.0
11.349315881729126,146,78,2817.6156981075724,1480,1490.911921509462,1348.48,1500.0
11.372501850128174,145,77,2817.6156981075724,1480,1490.911921509462,1350,1500.0
11.395563840866089,144,77,2817.6156981075724,1480,1490.9119215094622,1350,1500.0
11.41863489151001,144,77,2817.6156981075724,1480,1490.9119215094622,1350,1500.0
11.442013025283813,143,77,2817.6156981075724,1480,1490.9119215094622,1350,1500.0
11.46514892578125,143,77,2817.6156981075724,1480,1490.9119215094622,1349.04,1500.0
11.488374948501587,142,77,2817.6156981075724,1480,1490.9119215094622,1344.96,1500.0
11.511618852615356,142,77,2817.6156981075724,1480,1490.911921509462,1342.24,1500.0
11.53488802909851,141,77,2817.6156981075724,1480,1490.911921509462,1339.52,1500.0
11.558079957962036,140,76,2817.6156981075724,1480,1490.911921509462,1340.8,1500.0
11.581301927566528,140,76,2817.6156981075724,1480,1490.911921509462,1340.8800000000001,1500.0
11.60454797744751,139,76,2817.6156981075724,1480,1490.911921509462,1342.3199999999999,1500.0
11.627729892730713,138,77,2817.6156981075724,1480,1490.9119215094622,1341.1199999999999,1500.0
11.650938034057617,138,77,2817.6156981075724,1480,1490.9119215094622,1341.1199999999999,1500.0
11.674257040023804,137,77,2817.6156981075724,1480,1490.9119215094622,1338.3199999999999,1500.0
11.697439908981323,137,77,2817.6156981075724,1480,1490.9119215094622,1335.52,1500.0
11.720613956451416,136,77,2641.5147169758493,1480,1485.6288920755105,1332.72,1500.0
11.743956804275513,136,77,2641.5147169758493,1480,1482.1068724528759,1332.72,1500.0
11.7671480178833,135,77,2641.5147169758493,1480,1478.5848528302415,1332.72,1500.0
11.790318012237549,135,77,2641.5147169758493,1480,1475.0628332076071,1334.0799999999999,1500.0
11.813468933105469,134,77,2641.5147169758493,1480,1475,1335.4400000000001,1500.0
11.83654499053955,134,78,2641.5147169758493,1480,1475.0628332076071,1334.1600000000001,1500.0
11.859716892242432,133,78,2641.5147169758493,1480,1478.5848528302415,1332.72,1500.0
11.882897853851318,134,79,2641.5147169758493,1480,1482.1068724528759,1328.6400000000001,1500.0
11.906092882156372,132,81,2641.5147169758493,1480,1485.6288920755105,1320.48,1500.0
11.929255962371826,132,82,2641.5147169758493,1480,1489.1509116981449,1312.0799999999999,1500.0
11.952464818954468,132,84,2641.5147169758493,1480,1489.1509116981449,1302.4000000000001,1500.0
11.975673913955688,131,84,2641.5147169758493,1480,1489.1509116981449,1295.1199999999999,1500.0
11.99884295463562,131,84,2641.5147169758493,1480,1489.1509116981449,1290.6400000000001,1500.0
12.02200984954834,132,84,2641.5147169758493,1480,1489.1509116981449,1291.76,1500.0
12.045142889022827,132,83,2641.5147169758493,1480,1489.1509116981449,1298.3199999999999,1500.0
12.068334817886353,131,82,2486.1314983302113,1480,1484.4894151387757,1310.5599999999999,1500.0
12.091583967208862,131,80,2486.1314983302113,1480,1481.381750765863,1326.8800000000001,1500.0
12.114923000335693,131,80,2486.1314983302113,1487.125,1478.2740863929503,1339.4400000000001,1500.0
12.138200998306274,132,80,2486.1314983302113,1487.325,1475.1664220200375,1349.28,1500.0
12.161515951156616,131,80,2486.1314983302113,1484.3099999999999,1475,1350,1500.0
12.184700012207031,131,81,2486.1314983302113,1487.095,1475.1664220200375,1350,1500.0
12.20787787437439,130,82,2486.1314983302113,1484.0799999999999,1478.2740863929503,1342.96,1500.0
12.231215000152588,130,83,2486.1314983302113,1481.2650000000001,1481.381750765863,1332.0,1500.0
12.254551887512207,130,85,2486.1314983302113,1480,1484.4894151387757,1316.96,1500.0
12.277740001678467,130,87,2486.1314983302113,1480,1487.5970795116884,1300.4000000000001,1500.0
12.300901889801025,131,87,2486.1314983302113,1480,1487.5970795116884,1290.4000000000001,1500.0
12.324195861816406,130,87,2486.1314983302113,1480,1487.5970795116884,1285.9200000000001,1500.0
12.347409009933472,132,87,2486.1314983302113,1487.2049999999999,1487.5970795116884,1284.24,1500.0
12.370680809020996,131,86,2486.1314983302113,1495.3900000000001,1487.5970795116884,1290.8,1500.0
12.3940908908844,131,85,2486.1314983302113,1500.99,1487.5970795116884,1304.4000000000001,1500.0
12.417346000671387,132,84,2486.1314983302113,1504.0050000000001,1487.5970795116884,1318.0799999999999,1500.0
12.440624952316284,133,83,2486.1314983302113,1512.6500000000001,1487.5970795116884,1331.8399999999999,1500.0
12.464486837387085,133,82,2486.1314983302113,1509.895,1487.5970795116884,1345.6800000000001,1500.0
12.487811803817749,133,82,2486.1314983302113,1512.74,1487.5970795116884,1350,1500.0
12.51097297668457,133,82,2486.1314983302113,1515.585,1487.5970795116884,1350,1500.0
12.534283876419067,133,83,2486.1314983302113,1515.615,1487.5970795116884,1350,1500.0
12.55751085281372,134,83,2486.1314983302113,1510.2750000000001,1487.5970795116884,1345.1199999999999,1500.0
12.580797910690308,134,83,2486.1314983302113,1510.3050000000001,1487.5970795116884,1336.8800000000001,1500.0
12.604199886322021,134,83,2486.1314983302113,1507.55,1487.5970795116884,1330.0,1500.0
12.62748098373413,134,83,2486.1314983302113,1504.7950000000001,1487.5970795116884,1324.48,1500.0
12.65074896812439,134,83,2486.1314983302113,1504.825,1487.5970795116884,1323.1199999999999,1500.0
12.674185991287231,135,83,2486.1314983302113,1505.0550000000001,1487.5970795116884,1323.1199999999999,1500.0
12.697449922561646,135,82,2486.1314983302113,1505.085,1487.5970795116884,1327.1199999999999,1500.0
12.72072982788086,135,82,2486.1314983302113,1505.115,1487.5970795116884,1329.9200000000001,1500.0
12.744156837463379,135,82,2486.1314983302113,1505.145,1487.5970795116884,1332.72,1500.0
12.767444849014282,136,82,2641.5147169758493,1508.1900000000001,1492.2585760710576,1334.1600000000001,1500.0
12.790714025497437,136,82,2641.5147169758493,1508.22,1495.3662404439704,1335.5999999999999,1500.0
12.814091920852661,136,82,2641.5147169758493,1508.25,1498.4739048168831,1334.24,1500.0
12.837340831756592,136,82,2641.5147169758493,1508.28,1501.5815691897958,1332.8800000000001,1500.0
12.860620021820068,136,82,2641.5147169758493,1508.3099999999999,1504.6892335627088,1331.52,1500.0
12.88403582572937,136,81,2641.5147169758493,1502.74,1501.5815691897958,1332.8,1500.0
12.907315015792847,136,81,2486.1314983302113,1499.9549999999999,1493.8124082575141,1332.8800000000001,1500.0
12.93058180809021,136,79,2486.1314983302113,1497.1700000000001,1487.5970795116884,1339.5999999999999,1500.0
12.954028844833374,136,77,2486.1314983302113,1494.385,1481.381750765863,1349.2,1500.0
12.9773428440094,136,76,2486.1314983302113,1491.5999999999999,1475.1664220200375,1350,1500.0
13.00051498413086,136,76,2486.1314983302113,1491.5999999999999,1475,1350,1500.0
13.023698806762695,136,76,2486.1314983302113,1491.5999999999999,1475.1664220200375,1350,1500.0
13.046819925308228,136,76,2486.1314983302113,1491.5999999999999,1478.2740863929503,1350,1500.0
13.069998979568481,136,78,2486.1314983302113,1491.5999999999999,1481.381750765863,1350,1500.0
13.093179941177368,135,79,2486.1314983302113,1488.585,1484.4894151387757,1346.6400000000001,1500.0
13.116463899612427,135,81,2486.1314983302113,1485.77,1487.5970795116884,1330.24,1500.0
13.139750957489014,135,84,2486.1314983302113,1482.9549999999999,1487.5970795116884,1308.3199999999999,1500.0
13.163022994995117,135,85,2486.1314983302113,1480.1400000000001,1487.5970795116884,1290.0799999999999,1500.0
13.186280965805054,134,85,2486.1314983302113,1480,1487.5970795116884,1281.3599999999999,1500.0
13.20944881439209,134,85,2486.1314983302113,1480,1487.5970795116884,1276.8,1500.0
13.23261284828186,134,84,2486.1314983302113,1480,1487.5970795116884,1280.48,1500.0
13.255769968032837,134,83,2486.1314983302113,1480,1487.5970795116884,1294.0,1500.0
13.278925895690918,134,82,2486.1314983302113,1480,1487.5970795116884,1311.76,1500.0
13.302079916000366,134,81,2348.0130817563104,1480,1483.4535270144715,1328.24,1500.0
13.325223922729492,133,81,2348.0130817563104,1480,1480.6911586829935,1342.1600000000001,1500.0
13.348376035690308,133,80,2348.0130817563104,1480,1477.9287903515155,1350,1500.0
13.371558904647827,133,80,2348.0130817563104,1480,1475.1664220200375,1350,1500.0
13.394709825515747,132,81,2348.0130817563104,1480,1475,1350,1500.0
13.417651891708374,132,81,2348.0130817563104,1480,1475.1664220200373,1346.8800000000001,1500.0
13.440806865692139,132,81,2348.0130817563104,1480,1477.9287903515155,1341.4400000000001,1500.0
13.46429181098938,132,82,2348.0130817563104,1480,1480.6911586829935,1331.9200000000001,1500.0
13.487836837768555,132,82,2348.0130817563104,1480,1483.4535270144715,1324.96,1500.0
13.511092901229858,131,84,2224.4334458743997,1480,1482.508506269492,1316.8800000000001,1500.0
13.534332036972046,131,85,2224.4334458743997,1480,1480.036913551854,1309.9200000000001,1500.0
13.557504892349243,130,85,2224.4334458743997,1480,1477.5653208342158,1304.1600000000001,1500.0
13.580749988555908,130,84,2224.4334458743997,1480,1475.0937281165775,1305.2,1500.0
13.604055881500244,131,84,2224.4334458743997,1480,1475,1305.04,1500.0
13.62712287902832,131,83,2224.4334458743997,1480,1475.0937281165777,1311.76,1500.0
13.650274991989136,131,83,2224.4334458743997,1480,1477.5653208342158,1320.0799999999999,1500.0
13.673454999923706,131,82,2224.4334458743997,1484.25,1480.036913551854,1331.04,1500.0
13.69670581817627,131,83,2113.2117735806796,1492.635,1479.1718561006805,1334.0,1500.0
13.719897031784058,131,83,2113.2117735806796,1495.4200000000001,1479.4190153724444,1338.1600000000001,1500.0
13.743160009384155,131,83,2113.2117735806796,1495.4200000000001,1477.19458192657,1336.8,1500.0
13.766402006149292,131,83,2113.2117735806796,1495.4200000000001,1475,1334.0799999999999,1500.0
13.789602994918823,130,83,2113.2117735806796,1489.6199999999999,1475,1328.5599999999999,1500.0
13.812795877456665,130,83,2113.2117735806796,1484.02,1475,1327.2,1500.0
13.83595085144043,130,83,2113.2117735806796,1481.2049999999999,1477.19458192657,1325.8399999999999,1500.0
13.8592050075531,130,84,2113.2117735806796,1480,1479.4190153724444,1323.2,1500.0
13.88237190246582,130,84,2113.2117735806796,1480,1481.6434488183188,1321.76,1500.0
13.90554690361023,130,84,2113.2117735806796,1480,1483.8678822641932,1321.6800000000001,1500.0
13.928711891174316,130,84,2113.2117735806796,1481.145,1483.8678822641932,1320.24,1500.0
13.952000856399536,130,83,2113.2117735806796,1483.9300000000001,1483.8678822641932,1321.4400000000001,1500.0
13.97531795501709,130,83,2113.2117735806796,1486.7149999999999,1483.8678822641932,1324.24,1500.0
13.99856686592102,130,83,2113.2117735806796,1489.5,1483.8678822641932,1327.04,1500.0
14.021849870681763,130,82,2113.2117735806796,1489.5,1483.8678822641932,1332.48,1500.0
14.045164823532104,131,81,2012.5826415054091,1492.5150000000001,1480.8490083019351,1339.3599999999999,1500.0
14.068413972854614,131,80,2012.5826415054091,1495.3299999999999,1478.8364256604295,1344.8800000000001,1500.0
14.091727018356323,131,80,2012.5826415054091,1498.145,1476.8238430189242,1347.8399999999999,1500.0
14.115028858184814,131,79,2012.5826415054091,1500.96,1475,1350,1500.0
14.138104915618896,131,79,2012.5826415054091,1503.7750000000001,1475,1350,1500.0
14.161232948303223,132,80,2012.5826415054091,1504.0050000000001,1475,1350,1500.0
14.184396028518677,131,80,2012.5826415054091,1501.02,1476.8238430189242,1347.1199999999999,1500.0
14.207661867141724,132,81,2012.5826415054091,1501.25,1478.8364256604298,1340.4000000000001,1500.0
14.230912923812866,132,81,2012.5826415054091,1501.28,1480.8490083019351,1332.0799999999999,1500.0
14.254312992095947,132,82,2012.5826415054091,1501.3099999999999,1482.8615909434404,1322.48,1500.0
14.277566909790039,132,82,2012.5826415054091,1498.5250000000001,1482.8615909434404,1318.24,1500.0
14.300787925720215,132,82,2012.5826415054091,1501.3399999999999,1482.8615909434404,1315.3599999999999,1500.0
14.324162006378174,132,81,2012.5826415054091,1498.5550000000001,1482.8615909434404,1317.9200000000001,1500.0
14.347453832626343,133,81,2012.5826415054091,1498.7850000000001,1482.8615909434404,1320.6400000000001,1500.0
14.37074089050293,133,80,2012.5826415054091,1498.8150000000001,1482.8615909434404,1328.8,1500.0
14.394152879714966,134,79,2012.5826415054091,1504.645,1482.8615909434404,1337.04,1500.0
14.417414903640747,134,79,2012.5826415054091,1507.49,1482.8615909434404,1344.0799999999999,1500.0
14.44067096710205,135,78,2012.5826415054091,1516.135,1482.8615909434404,1349.5999999999999,1500.0
14.464175939559937,135,78,2012.5826415054091,1518.98,1482.8615909434404,1350,1500.0
14.492516994476318,135,78,2012.5826415054091,1520,1482.8615909434404,1350,1500.0
14.515707969665527,135,78,2012.5826415054091,1519.0699999999999,1482.8615909434404,1350,1500.0
14.538920879364014,136,78,2012.5826415054091,1519.3299999999999,1482.8615909434404,1348.8,1500.0
14.562201976776123,136,79,2012.5826415054091,1513.79,1482.8615909434404,1342.0799999999999,1500.0
14.585466861724854,136,79,2012.5826415054091,1511.0350000000001,1482.8615909434404,1336.5599999999999,1500.0
14.608721017837524,136,79,2012.5826415054091,1508.28,1482.8615909434404,1332.4000000000001,1500.0
14.631961822509766,136,79,2012.5826415054091,1508.3099999999999,1482.8615909434404,1329.5999999999999,1500.0
14.65527892112732,136,79,1921.1016123460724,1502.74,1480.1171600686603,1326.8,1500.0
14.678406953811646,136,79,1921.1016123460724,1499.9549999999999,1478.2875394854736,1328.1600000000001,1500.0
14.701503038406372,136,78,1921.1016123460724,1497.1700000000001,1476.457918902287,1332.1600000000001,1500.0
14.724707841873169,137,79,1921.1016123460724,1497.4000000000001,1475,1332.3199999999999,1500.0
14.747658967971802,137,79,1921.1016123460724,1497.4300000000001,1475,1333.6800000000001,1500.0
14.770556926727295,136,79,1921.1016123460724,1497.23,1475,1335.04,1500.0
14.793726921081543,136,79,1921.1016123460724,1497.23,1476.4579189022868,1335.04,1500.0
14.816921949386597,137,79,1921.1016123460724,1500.2449999999999,1478.2875394854736,1332.24,1500.0
14.840266942977905,136,80,1921.1016123460724,1494.4449999999999,1480.1171600686603,1329.5999999999999,1500.0
14.863541841506958,136,80,1921.1016123460724,1488.845,1481.9467806518471,1328.1600000000001,1500.0
14.886811971664429,136,82,1921.1016123460724,1488.845,1481.9467806518471,1321.4400000000001,1500.0
14.910106897354126,136,82,1921.1016123460724,1488.845,1481.9467806518471,1317.1199999999999,1500.0
14.933382034301758,136,82,1921.1016123460724,1483.2449999999999,1481.9467806518471,1314.1600000000001,1500.0
14.956693887710571,136,82,1921.1016123460724,1486.03,1481.9467806518471,1312.6400000000001,1500.0
14.98000693321228,135,82,1921.1016123460724,1485.8,1481.9467806518471,1311.1199999999999,1500.0
15.00334882736206,136,81,1921.1016123460724,1486.0,1481.9467806518471,1317.8399999999999,1500.0
15.02681303024292,135,81,1921.1016123460724,1482.9849999999999,1481.9467806518471,1323.3599999999999,1500.0
15.050144910812378,135,80,1921.1016123460724,1482.9549999999999,1481.9467806518471,1331.52,1500.0
15.073448896408081,135,80,1921.1016123460724,1480.1400000000001,1481.9467806518471,1337.1199999999999,1500.0
