time,x,y,size_inv,roll,pitch,thrust,yaw
0.00046515464782714844,175,52,3251.0950362779681,1503.2249999999999,1505.0,1350,1500.0
0.022204160690307617,175,52,3251.0950362779681,1503.45,1505.0,1350,1500.0
0.043775081634521484,175,52,3251.0950362779681,1503.675,1505.0,1350,1500.0
0.06531810760498047,175,52,3251.0950362779681,1503.9000000000001,1505.0,1350,1500.0
0.08680319786071777,175,52,3251.0950362779681,1504.125,1505.0,1350,1500.0
0.10819602012634277,175,52,3251.0950362779681,1504.3499999999999,1505.0,1350,1500.0
0.12966704368591309,175,52,3251.0950362779681,1504.575,1505.0,1350,1500.0
0.15109014511108398,175,52,3251.0950362779681,1504.8,1505.0,1350,1500.0
0.17248320579528809,175,52,3251.0950362779681,1505.0250000000001,1505.0,1350,1500.0
0.19410419464111328,175,52,3251.0950362779681,1505.25,1505.0,1350,1500.0
0.21576404571533203,175,52,3251.0950362779681,1505.25,1505.0,1350,1500.0
0.23761510848999023,176,52,3251.0950362779681,1508.2650000000001,1505.0,1350,1500.0
0.25951313972473145,176,52,3251.0950362779681,1511.0799999999999,1505.0,1350,1500.0
0.281325101852417,175,52,3251.0950362779681,1510.8800000000001,1505.0,1350,1500.0
0.30320310592651367,175,52,3251.0950362779681,1510.8800000000001,1505.0,1350,1500.0
0.32512617111206055,175,52,3522.0196226344656,1510.8800000000001,1513.127737590695,1350,1500.0
0.34707212448120117,175,50,3522.0196226344656,1505.28,1518.5462293178248,1350,1500.0
0.3690152168273926,175,48,3522.0196226344656,1499.6800000000001,1523.9647210449548,1350,1500.0
0.39093017578125,175,47,3522.0196226344656,1499.6800000000001,1529.3832127720848,1350,1500.0
0.41281604766845703,175,47,3522.0196226344656,1499.6800000000001,1534.8017044992148,1350,1500.0
0.4346451759338379,174,49,3522.0196226344656,1496.665,1529.3832127720848,1350,1500.0
0.4565310478210449,174,50,3522.0196226344656,1496.635,1523.9647210449548,1350,1500.0
0.4783601760864258,175,50,3251.0950362779681,1499.6199999999999,1510.41849172713,1350,1500.0
0.5002470016479492,175,50,3522.0196226344656,1499.6199999999999,1507.709245863565,1350,1500.0
0.5222752094268799,176,49,3522.0196226344656,1502.635,1502.290754136435,1350,1500.0
0.5442051887512207,176,48,3522.0196226344656,1511.05,1502.290754136435,1350,1500.0
0.5660731792449951,176,48,3522.0196226344656,1519.4649999999999,1502.290754136435,1350,1500.0
0.5879011154174805,176,47,3522.0196226344656,1520,1513.127737590695,1350,1500.0
0.6096861362457275,176,47,3522.0196226344656,1520,1513.127737590695,1350,1500.0
0.6315751075744629,176,49,3522.0196226344656,1520,1513.127737590695,1350,1500.0
0.6533610820770264,175,51,3522.0196226344656,1513.7249999999999,1513.127737590695,1350,1500.0
0.675227165222168,176,54,3251.0950362779681,1508.355,1505.0,1350,1500.0
0.6970701217651367,175,56,3251.0950362779681,1502.5550000000001,1494.16301654574,1350,1500.0
0.7188870906829834,175,57,3251.0950362779681,1496.9549999999999,1488.7445248186102,1332.1600000000001,1500.0
0.7408251762390137,174,58,3251.0950362779681,1491.125,1483.3260330914802,1318.0,1500.0
0.7627301216125488,175,59,3018.8739622581134,1494.1099999999999,1475,1309.3599999999999,1500.0
0.7846381664276123,175,60,3018.8739622581134,1491.2950000000001,1475,1307.6800000000001,1500.0
0.8064801692962646,175,62,3018.8739622581134,1494.0799999999999,1475,1308.8800000000001,1500.0
0.8282840251922607,176,64,3018.8739622581134,1499.8800000000001,1475,1310.0,1500.0
0.8502311706542969,175,68,3018.8739622581134,1508.0650000000001,1475,1303.04,1500.0
0.8721292018890381,175,72,3018.8739622581134,1508.0650000000001,1484.1001033382131,1290.4000000000001,1500.0
0.893989086151123,175,76,3018.8739622581134,1510.8499999999999,1488.7445248186102,1270.72,1500.0
0.9159550666809082,175,79,3018.8739622581134,1510.8499999999999,1493.3889462990073,1250.8,1500.0
0.937873125076294,174,82,3018.8739622581134,1502.2349999999999,1498.0333677794044,1250,1500.0
0.9597489833831787,173,84,3018.8739622581134,1493.6199999999999,1502.6777892598016,1250,1500.0
0.9817061424255371,173,86,3018.8739622581134,1487.99,1502.6777892598016,1250,1500.0
1.003615140914917,172,87,3018.8739622581134,1480,1502.6777892598016,1250,1500.0
1.0256481170654297,172,87,3018.8739622581134,1480,1502.6777892598016,1250,1500.0
1.0475380420684814,171,87,3018.8739622581134,1480,1502.6777892598016,1250,1500.0
1.0693750381469727,171,87,3018.8739622581134,1480,1502.6777892598016,1265.1199999999999,1500.0
1.0913350582122803,170,87,3018.8739622581134,1480,1502.6777892598016,1282.72,1500.0
1.1132500171661377,170,88,3018.8739622581134,1480,1502.6777892598016,1295.04,1500.0
1.1350841522216797,169,89,3018.8739622581134,1480,1502.6777892598016,1301.8399999999999,1500.0
1.157034158706665,169,89,3018.8739622581134,1480,1502.6777892598016,1305.76,1500.0
1.178840160369873,169,90,3018.8739622581134,1480,1502.6777892598016,1304.3199999999999,1500.0
1.2007310390472412,168,91,3018.8739622581134,1480,1502.6777892598016,1298.72,1500.0
1.222560167312622,168,91,3018.8739622581134,1480,1502.6777892598016,1295.76,1500.0
1.2443480491638184,167,92,2817.6156981075724,1480,1496.6400413352853,1292.96,1500.0
1.266296148300171,167,92,2817.6156981075724,1480,1492.6148760522744,1291.3599999999999,1500.0
1.2881231307983398,167,92,2817.6156981075724,1480,1488.5897107692635,1292.5599999999999,1500.0
1.3100001811981201,166,92,2817.6156981075724,1480,1484.5645454862527,1296.5599999999999,1500.0
1.3319530487060547,166,92,2817.6156981075724,1480,1480.539380203242,1299.2,1500.0
1.3537871837615967,165,92,2817.6156981075724,1480,1484.5645454862527,1303.28,1500.0
1.3756840229034424,165,92,2817.6156981075724,1480,1488.5897107692635,1307.3599999999999,1500.0
1.397529125213623,164,93,2817.6156981075724,1480,1492.6148760522744,1307.4400000000001,1500.0
1.4194140434265137,164,94,2817.6156981075724,1480,1496.6400413352851,1304.72,1500.0
1.4413971900939941,163,95,2817.6156981075724,1480,1500.665206618296,1300.5599999999999,1500.0
1.463304042816162,162,97,2817.6156981075724,1480,1500.665206618296,1290.96,1500.0
1.485408067703247,162,97,2817.6156981075724,1480,1500.665206618296,1283.76,1500.0
1.507418155670166,161,97,2817.6156981075724,1480,1500.665206618296,1279.3599999999999,1500.0
1.5294520854949951,161,97,2817.6156981075724,1480,1500.665206618296,1277.76,1500.0
1.5515990257263184,161,96,2817.6156981075724,1480,1500.665206618296,1281.5999999999999,1500.0
1.5736021995544434,160,95,2817.6156981075724,1480,1500.665206618296,1292.48,1500.0
1.595616102218628,160,94,2641.5147169758493,1480,1495.3821771843443,1304.8,1500.0
1.6176321506500244,160,93,2641.5147169758493,1480,1491.8601575617099,1317.2,1500.0
1.6397130489349365,160,92,2641.5147169758493,1480,1488.3381379390755,1329.6800000000001,1500.0
1.6617121696472168,160,91,2641.5147169758493,1480.5050000000001,1484.8161183164409,1339.4400000000001,1500.0
1.683927059173584,159,91,2641.5147169758493,1483.0599999999999,1481.2940986938065,1342.48,1500.0
1.7059671878814697,159,91,2641.5147169758493,1485.8150000000001,1484.8161183164409,1342.72,1500.0
1.7280280590057373,159,91,2641.5147169758493,1485.7850000000001,1488.3381379390755,1340.1600000000001,1500.0
1.7504119873046875,159,92,2641.5147169758493,1485.7550000000001,1491.8601575617099,1332.1600000000001,1500.0
1.7729251384735107,158,93,2641.5147169758493,1482.71,1495.3821771843443,1321.28,1500.0
1.7949931621551514,158,94,2641.5147169758493,1482.6800000000001,1498.9041968069789,1310.3199999999999,1500.0
1.8171000480651855,158,95,2641.5147169758493,1482.6500000000001,1498.9041968069789,1299.28,1500.0
1.8392109870910645,158,95,2641.5147169758493,1482.6199999999999,1498.9041968069789,1290.8,1500.0
1.861335039138794,159,94,2641.5147169758493,1485.605,1498.9041968069787,1289.1199999999999,1500.0
1.8834311962127686,158,93,2641.5147169758493,1490.9749999999999,1498.9041968069787,1293.04,1500.0
1.9055171012878418,159,92,2641.5147169758493,1496.7750000000001,1498.9041968069787,1301.2,1500.0
1.9276080131530762,159,90,2641.5147169758493,1502.375,1498.9041968069787,1316.24,1500.0
1.949693202972412,159,89,2641.5147169758493,1507.9749999999999,1498.9041968069787,1331.52,1500.0
1.9719550609588623,159,88,2641.5147169758493,1507.9749999999999,1498.9041968069789,1344.0799999999999,1500.0
1.994493007659912,160,87,2641.5147169758493,1513.8050000000001,1498.9041968069789,1350,1500.0
2.016613006591797,160,86,2641.5147169758493,1513.835,1498.9041968069789,1350,1500.0
2.0387330055236816,160,85,2641.5147169758493,1513.865,1498.9041968069789,1350,1500.0
2.0612540245056152,160,85,2641.5147169758493,1513.895,1498.9041968069789,1350,1500.0
2.0851850509643555,160,84,2641.5147169758493,1516.71,1498.9041968069787,1350,1500.0
2.1091010570526123,161,84,2641.5147169758493,1514.155,1498.9041968069787,1350,1500.0
2.135711193084717,161,83,2641.5147169758493,1514.1849999999999,1498.9041968069787,1350,1500.0
2.160511016845703,161,83,2641.5147169758493,1514.2149999999999,1498.9041968069787,1348.6400000000001,1500.0
2.1846110820770264,162,82,2641.5147169758493,1517.26,1498.9041968069787,1348.72,1500.0
2.20841121673584,162,81,2817.6156981075724,1520,1504.1872262409306,1348.8,1500.0
2.232347011566162,162,81,2817.6156981075724,1520,1507.709245863565,1349.04,1500.0
2.256143093109131,162,80,2817.6156981075724,1520,1511.2312654861994,1350,1500.0
2.279794216156006,162,80,2817.6156981075724,1520,1514.753285108834,1350,1500.0
2.303807020187378,162,80,2817.6156981075724,1514.625,1518.2753047314684,1350,1500.0
2.327768087387085,163,78,2817.6156981075724,1512.0699999999999,1514.7532851088338,1350,1500.0
2.3517801761627197,163,78,2817.6156981075724,1512.0999999999999,1511.2312654861994,1350,1500.0
2.375498056411743,163,77,2817.6156981075724,1512.1300000000001,1507.709245863565,1350,1500.0
2.399240016937256,163,76,2817.6156981075724,1512.1600000000001,1504.1872262409306,1350,1500.0
2.4231581687927246,163,75,2817.6156981075724,1514.9749999999999,1500.665206618296,1350,1500.0
2.447205066680908,163,74,2817.6156981075724,1512.1900000000001,1500.665206618296,1350,1500.0
2.471189022064209,164,72,2817.6156981075724,1512.4200000000001,1500.665206618296,1350,1500.0
2.495162010192871,164,72,2817.6156981075724,1512.45,1500.665206618296,1350,1500.0
2.5188992023468018,164,73,2817.6156981075724,1512.48,1500.665206618296,1350,1500.0
2.542896032333374,164,73,2817.6156981075724,1512.51,1500.665206618296,1350,1500.0
2.566890001296997,164,74,2817.6156981075724,1515.325,1500.665206618296,1350,1500.0
2.5907142162323,164,74,2817.6156981075724,1512.54,1500.665206618296,1350,1500.0
2.614514112472534,165,75,2817.6156981075724,1512.77,1500.665206618296,1340.48,1500.0
2.6383161544799805,165,76,2817.6156981075724,1512.8,1500.665206618296,1330.8800000000001,1500.0
2.662137985229492,165,76,2817.6156981075724,1512.8299999999999,1500.665206618296,1323.8399999999999,1500.0
2.6860060691833496,165,76,2817.6156981075724,1512.8599999999999,1500.665206618296,1320.96,1500.0
2.7098801136016846,165,76,2817.6156981075724,1515.675,1500.665206618296,1320.8,1500.0
2.733969211578369,165,76,2641.5147169758493,1512.8900000000001,1495.3821771843443,1323.4400000000001,1500.0
2.7578651905059814,165,76,2641.5147169758493,1510.105,1491.8601575617099,1327.52,1500.0
2.7817561626434326,166,76,2641.5147169758493,1510.335,1488.3381379390755,1331.5999999999999,1500.0
2.8055431842803955,166,76,2641.5147169758493,1510.365,1484.8161183164409,1334.3199999999999,1500.0
2.829355001449585,166,76,2641.5147169758493,1510.395,1481.2940986938065,1337.04,1500.0
2.8535711765289307,166,77,2641.5147169758493,1513.21,1484.8161183164409,1335.76,1500.0
2.8773880004882812,166,77,2641.5147169758493,1516.0250000000001,1488.3381379390755,1334.3199999999999,1500.0
2.901233196258545,166,78,2641.5147169758493,1513.24,1491.8601575617099,1330.24,1500.0
2.924638032913208,165,81,2641.5147169758493,1507.4400000000001,1495.3821771843443,1319.4400000000001,1500.0
2.9479241371154785,165,82,2641.5147169758493,1501.8399999999999,1498.9041968069789,1309.5999999999999,1500.0
2.9711952209472656,165,83,2641.5147169758493,1496.24,1498.9041968069789,1301.1199999999999,1500.0
2.9944820404052734,166,84,2641.5147169758493,1493.655,1498.9041968069789,1291.2,1500.0
3.0178492069244385,164,84,2641.5147169758493,1487.625,1498.9041968069789,1285.28,1500.0
3.0414650440216064,165,84,2641.5147169758493,1490.6099999999999,1498.9041968069787,1287.76,1500.0
3.06484317779541,165,83,2641.5147169758493,1493.395,1498.9041968069787,1295.6800000000001,1500.0
3.088226079940796,164,82,2641.5147169758493,1493.165,1498.9041968069787,1306.48,1500.0
3.1115431785583496,164,82,2641.5147169758493,1487.5350000000001,1498.9041968069787,1318.8800000000001,1500.0
3.134878158569336,164,82,2641.5147169758493,1493.105,1498.9041968069787,1329.9200000000001,1500.0
3.158163070678711,164,82,2641.5147169758493,1490.29,1498.9041968069789,1336.8800000000001,1500.0
3.18146014213562,163,81,2641.5147169758493,1484.46,1498.9041968069789,1342.3199999999999,1500.0
3.2047669887542725,163,81,2641.5147169758493,1484.4300000000001,1498.9041968069789,1342.4000000000001,1500.0
3.228079080581665,163,81,2641.5147169758493,1487.1849999999999,1498.9041968069789,1341.1199999999999,1500.0
3.2514030933380127,162,81,2641.5147169758493,1481.355,1498.9041968069789,1339.8399999999999,1500.0
3.274712085723877,162,81,2486.1314983302113,1480,1494.2427002476097,1338.5599999999999,1500.0
3.297943115234375,162,81,2486.1314983302113,1481.2650000000001,1491.1350358746968,1335.8399999999999,1500.0
3.321272134780884,162,81,2486.1314983302113,1481.2349999999999,1488.027371501784,1334.48,1500.0
3.344560146331787,162,81,2486.1314983302113,1481.2049999999999,1484.9197071288713,1333.1199999999999,1500.0
3.367856025695801,161,81,2486.1314983302113,1483.76,1481.8120427559586,1331.76,1500.0
3.391195058822632,161,81,2486.1314983302113,1486.5150000000001,1484.9197071288713,1330.4000000000001,1500.0
3.4144790172576904,161,82,2486.1314983302113,1486.4849999999999,1488.027371501784,1327.76,1500.0
3.437751054763794,161,83,2486.1314983302113,1486.4549999999999,1491.135035874697,1323.6800000000001,1500.0
3.4611690044403076,161,84,2486.1314983302113,1486.425,1494.2427002476097,1318.1600000000001,1500.0
3.4846630096435547,160,85,2486.1314983302113,1486.1949999999999,1497.3503646205224,1311.2,1500.0
3.5079421997070312,160,86,2486.1314983302113,1486.165,1497.3503646205224,1302.8,1500.0
3.531205177307129,160,86,2486.1314983302113,1486.135,1497.3503646205224,1298.4000000000001,1500.0
3.554490089416504,160,86,2486.1314983302113,1486.105,1497.3503646205224,1296.8,1500.0
3.5777900218963623,160,86,2486.1314983302113,1486.075,1497.3503646205224,1298.0,1500.0
3.601201057434082,160,83,2486.1314983302113,1488.8599999999999,1497.3503646205224,1309.9200000000001,1500.0
3.6246721744537354,159,82,2486.1314983302113,1488.6300000000001,1497.3503646205224,1323.6800000000001,1500.0
3.6480062007904053,159,81,2486.1314983302113,1488.5999999999999,1497.3503646205224,1337.52,1500.0
3.6713340282440186,159,81,2486.1314983302113,1488.5699999999999,1497.3503646205224,1348.8,1500.0
3.6946442127227783,159,81,2486.1314983302113,1488.54,1497.3503646205224,1350,1500.0
3.7178192138671875,159,80,2486.1314983302113,1485.7249999999999,1497.3503646205224,1350,1500.0
3.7410662174224854,158,81,2486.1314983302113,1485.4949999999999,1497.3503646205224,1350,1500.0
3.7643070220947266,158,80,2348.0130817563104,1485.4649999999999,1493.2068121233053,1350,1500.0
3.787522077560425,158,80,2348.0130817563104,1485.4349999999999,1490.4444437918273,1346.8,1500.0
3.8108341693878174,158,80,2348.0130817563104,1485.405,1487.6820754603493,1341.4400000000001,1500.0
3.834172010421753,158,79,2348.0130817563104,1485.375,1484.9197071288713,1340.0,1500.0
3.857417106628418,158,79,2348.0130817563104,1488.1600000000001,1482.1573387973933,1341.52,1500.0
3.880833148956299,157,79,2348.0130817563104,1487.9300000000001,1484.9197071288713,1341.5999999999999,1500.0
3.904325008392334,157,79,2348.0130817563104,1487.9000000000001,1487.6820754603493,1341.6800000000001,1500.0
3.9276561737060547,157,80,2224.4334458743997,1487.8699999999999,1486.73705471537,1339.1199999999999,1500.0
3.9511120319366455,157,82,2224.4334458743997,1487.8399999999999,1487.0278303292098,1331.04,1500.0
3.974626064300537,157,83,2224.4334458743997,1485.0250000000001,1487.3186059430498,1321.3599999999999,1500.0
3.9979381561279297,157,84,2224.4334458743997,1487.8099999999999,1484.8470132254115,1311.5999999999999,1500.0
4.02154803276062,157,85,2348.0130817563104,1490.595,1486.0828095842305,1300.4000000000001,1500.0
4.044871091842651,157,85,2348.0130817563104,1493.3800000000001,1491.025995019507,1293.2,1500.0
4.068188190460205,157,85,2348.0130817563104,1496.165,1495.9691804547833,1292.96,1500.0
4.091556072235107,157,85,2348.0130817563104,1498.95,1500.9123658900598,1295.52,1500.0
4.114845037460327,157,86,2348.0130817563104,1498.95,1505.8555513253364,1298.24,1500.0
4.138167142868042,158,86,2224.4334458743997,1501.9649999999999,1502.1481622488789,1304.96,1500.0
4.161462068557739,158,85,2224.4334458743997,1504.78,1497.2049768136026,1312.96,1500.0
4.184754133224487,158,84,2224.4334458743997,1507.595,1492.2617913783261,1319.6800000000001,1500.0
4.208027124404907,158,83,2224.4334458743997,1510.4100000000001,1487.3186059430498,1326.48,1500.0
4.231300115585327,158,82,2224.4334458743997,1513.2249999999999,1482.3754205077732,1336.1600000000001,1500.0
4.254610061645508,159,81,2224.4334458743997,1513.4549999999999,1484.8470132254115,1345.9200000000001,1500.0
4.277943134307861,159,80,2224.4334458743997,1513.4849999999999,1487.3186059430498,1350,1500.0
4.301236152648926,160,80,2224.4334458743997,1516.53,1489.7901986606878,1350,1500.0
4.324624061584473,160,81,2224.4334458743997,1519.375,1492.2617913783261,1350,1500.0
4.348046064376831,161,82,2224.4334458743997,1520,1494.7333840959643,1350,1500.0
4.371214151382446,161,83,2224.4334458743997,1520,1494.7333840959643,1340.1600000000001,1500.0
4.39448618888855,161,83,2113.2117735806796,1520,1491.3967339271528,1329.04,1500.0
4.417699098587036,162,83,2113.2117735806796,1520,1489.1723004812784,1319.28,1500.0
4.441063165664673,162,83,2113.2117735806796,1520,1486.9478670354038,1313.6800000000001,1500.0
4.4644269943237305,163,81,2113.2117735806796,1520,1484.7234335895296,1317.52,1500.0
4.487650156021118,163,79,2113.2117735806796,1520,1482.4990001436552,1328.4000000000001,1500.0
4.511009216308594,164,79,2113.2117735806796,1520,1484.7234335895296,1338.24,1500.0
4.534358024597168,164,78,2113.2117735806796,1520,1486.947867035404,1350,1500.0
4.557465076446533,164,78,2113.2117735806796,1520,1489.1723004812782,1350,1500.0
4.5806660652160645,164,78,2113.2117735806796,1520,1491.3967339271526,1350,1500.0
4.60389518737793,164,78,2113.2117735806796,1520,1493.621167373027,1350,1500.0
4.626975059509277,164,79,2113.2117735806796,1518.1099999999999,1493.621167373027,1350,1500.0
4.650379180908203,165,80,2113.2117735806796,1515.5550000000001,1493.621167373027,1342.0799999999999,1500.0
4.6738409996032715,165,79,2113.2117735806796,1512.8,1493.6211673730272,1335.04,1500.0
4.697143077850342,165,78,2113.2117735806796,1512.8299999999999,1493.6211673730272,1332.1600000000001,1500.0
4.720679998397827,165,78,2113.2117735806796,1512.8599999999999,1493.6211673730272,1330.8,1500.0
4.744254112243652,165,77,2113.2117735806796,1515.675,1493.6211673730272,1334.8800000000001,1500.0
4.767606019973755,165,77,2012.5826415054091,1512.8900000000001,1490.6022934107691,1341.9200000000001,1500.0
4.791117191314697,165,77,2012.5826415054091,1510.105,1488.5897107692635,1346.1600000000001,1500.0
4.814597129821777,166,77,2012.5826415054091,1510.335,1486.5771281277582,1347.5999999999999,1500.0
4.837907075881958,166,77,2012.5826415054091,1510.365,1484.5645454862527,1349.04,1500.0
4.861219167709351,166,77,2012.5826415054091,1510.395,1482.5519628447473,1346.3199999999999,1500.0
4.8845741748809814,166,77,2012.5826415054091,1513.21,1484.5645454862527,1342.24,1500.0
4.907915115356445,166,78,2012.5826415054091,1516.0250000000001,1486.5771281277582,1336.8800000000001,1500.0
4.931265115737915,166,78,2012.5826415054091,1513.24,1488.5897107692635,1334.0799999999999,1500.0
4.954591989517212,166,79,2012.5826415054091,1510.4549999999999,1490.6022934107691,1328.6400000000001,1500.0
4.977930068969727,165,79,2012.5826415054091,1504.655,1492.6148760522744,1325.76,1500.0
5.00127911567688,164,80,1921.1016123460724,1496.04,1489.8704451774943,1320.24,1500.0
5.024852991104126,164,80,1921.1016123460724,1487.625,1488.0408245943077,1318.72,1500.0
5.048097133636475,163,80,1921.1016123460724,1480,1486.2112040111208,1317.2,1500.0
5.071277141571045,163,80,1837.5754552875476,1480,1481.8757987161785,1318.48,1500.0
5.094488143920898,162,80,1837.5754552875476,1480,1478.3756549918212,1319.76,1500.0
5.117666006088257,162,80,1837.5754552875476,1480,1478.5347524338374,1323.8399999999999,1500.0
5.141000032424927,162,80,1837.5754552875476,1480,1478.6938498758536,1326.5599999999999,1500.0
5.16438102722168,162,80,1837.5754552875476,1480,1478.8529473178698,1329.28,1500.0
5.1876060962677,162,80,1837.5754552875476,1480,1482.3530910422271,1330.6400000000001,1500.0
5.2108941078186035,161,81,1761.0098113172328,1480.9749999999999,1483.5562654474747,1329.3599999999999,1500.0
5.234302997589111,160,82,1761.0098113172328,1480.7149999999999,1483.6954757092392,1325.28,1500.0
5.257585048675537,160,84,1690.5694188645434,1480.655,1481.7214741974226,1317.1199999999999,1500.0
5.280894994735718,159,84,1690.5694188645434,1480,1480.451876610133,1311.3599999999999,1500.0
5.304201126098633,158,84,1690.5694188645434,1480,1477.511755881673,1305.5999999999999,1500.0
5.327454090118408,157,84,1690.5694188645434,1480,1477.6342609120254,1302.6400000000001,1500.0
5.350722074508667,157,83,1625.5475181389841,1480,1475.8061089206112,1305.1199999999999,1500.0
5.3740479946136475,156,83,1625.5475181389841,1480,1477.44579163456,1312.0,1500.0
5.39720606803894,155,82,1565.342054504207,1480,1477.2793104394657,1321.52,1500.0
5.420438051223755,155,82,1565.342054504207,1480,1477.7148838807191,1329.8399999999999,1500.0
5.443677186965942,154,82,1565.342054504207,1480,1476.619144442566,1336.8,1500.0
5.4668262004852295,154,81,1509.4369811290567,1480,1476.4471288321809,1342.24,1500.0
5.489960193634033,153,82,1509.4369811290567,1480,1475.4253561064936,1341.1199999999999,1500.0
5.513305187225342,151,82,1509.4369811290567,1480,1476.8118019261972,1338.4000000000001,1500.0
5.536434173583984,150,82,1509.4369811290567,1480,1478.198247745901,1335.6800000000001,1500.0
5.5596630573272705,150,81,1457.3874300556411,1480,1478.0232070334023,1335.5999999999999,1500.0
5.582998991012573,149,81,1457.3874300556411,1480,1479.3044267521325,1332.8800000000001,1500.0
5.606190204620361,148,80,1408.8078490537862,1480,1479.1282590408071,1335.5999999999999,1500.0
5.629389047622681,149,80,1408.8078490537862,1480,1478.2337778668048,1338.48,1500.0
5.652550220489502,148,80,1408.8078490537862,1480,1477.3392966928022,1341.3599999999999,1500.0
5.675737142562866,148,79,1408.8078490537862,1480,1478.5267975617364,1344.0799999999999,1500.0
5.698885202407837,147,79,1363.3624345681803,1480,1477.2328345285996,1346.96,1500.0
5.722048044204712,146,78,1363.3624345681803,1480,1478.3365088803928,1348.3199999999999,1500.0
5.74523401260376,147,78,1363.3624345681803,1480,1479.4401832321862,1348.48,1500.0
5.768370151519775,146,78,1363.3624345681803,1480,1480.5438575839794,1348.6400000000001,1500.0
5.791584014892578,146,78,1363.3624345681803,1480,1480.6065409143046,1347.3599999999999,1500.0
5.814819097518921,146,78,1363.3624345681803,1480,1482.4870408240538,1346.0799999999999,1500.0
5.838040113449097,145,78,1363.3624345681803,1480,1483.3959491137657,1343.3599999999999,1500.0
5.861258029937744,145,79,1363.3624345681803,1480,1484.3048574034779,1338.0,1500.0
5.884422063827515,145,79,1363.3624345681803,1480,1485.21376569319,1333.8399999999999,1500.0
5.907603025436401,145,79,1363.3624345681803,1480,1486.1226739829021,1331.04,1500.0
5.930870056152344,145,79,1363.3624345681803,1480,1486.1226739829021,1328.24,1500.0
5.954130172729492,145,79,1320.7573584879246,1480.825,1484.8445217004944,1326.8,1500.0
5.977400064468384,146,79,1280.7344082307147,1489.4100000000001,1482.791731671173,1328.1600000000001,1500.0
6.000715017318726,146,79,1280.7344082307147,1495.01,1481.1391711444237,1329.52,1500.0
6.024079084396362,146,79,1280.7344082307147,1500.6099999999999,1479.4866106176744,1330.8800000000001,1500.0
6.047352075576782,147,79,1280.7344082307147,1509.2249999999999,1477.8340500909251,1332.24,1500.0
6.070975065231323,148,79,1280.7344082307147,1517.8699999999999,1477.8856926073861,1333.5999999999999,1500.0
6.094354152679443,148,79,1280.7344082307147,1520,1479.5382531341354,1333.5999999999999,1500.0
6.1174890995025635,148,79,1280.7344082307147,1520,1481.1908136608847,1333.5999999999999,1500.0
6.140705108642578,149,80,1280.7344082307147,1520,1482.843374187634,1330.96,1500.0
6.16393518447876,149,80,1280.7344082307147,1520,1484.4959347143833,1329.52,1500.0
6.187117099761963,150,80,1280.7344082307147,1520,1485.2963937195275,1328.0799999999999,1500.0
6.210339069366455,150,81,1320.7573584879246,1520,1486.4970822272437,1324.0,1500.0
6.233550071716309,152,81,1320.7573584879246,1520,1487.2975412323879,1321.1199999999999,1500.0
6.256718158721924,153,81,1320.7573584879246,1520,1488.0980002375322,1321.04,1500.0
6.279884099960327,154,80,1363.3624345681803,1520,1490.1766115250839,1323.5999999999999,1500.0
6.3031980991363525,154,80,1408.8078490537862,1520,1493.1925344864014,1324.96,1500.0
6.326418161392212,155,79,1408.8078490537862,1520,1494.1530852925746,1331.76,1500.0
6.34955620765686,155,79,1408.8078490537862,1520,1495.1136360987475,1337.3599999999999,1500.0
6.372959136962891,156,78,1408.8078490537862,1520,1496.0741869049205,1344.24,1500.0
6.396166086196899,157,77,1408.8078490537862,1520,1495.3305346678833,1349.76,1500.0
6.419328212738037,158,76,1457.3874300556411,1520,1494.2264532814777,1350,1500.0
6.442385196685791,158,75,1457.3874300556411,1520,1493.4370350901975,1350,1500.0
6.4654271602630615,159,75,1457.3874300556411,1520,1492.6476168989175,1350,1500.0
6.488507986068726,159,74,1457.3874300556411,1520,1491.8581987076373,1350,1500.0
6.511574983596802,159,73,1457.3874300556411,1520,1491.9208820379622,1350,1500.0
6.53459906578064,160,73,1457.3874300556411,1520,1490.9492904179251,1350,1500.0
6.557669162750244,160,73,1457.3874300556411,1520,1489.977698797888,1350,1500.0
6.580838203430176,160,73,1457.3874300556411,1520,1489.0061071778509,1350,1500.0
6.60399317741394,161,73,1457.3874300556411,1520,1488.0345155578138,1350,1500.0
6.6270670890808105,161,73,1457.3874300556411,1520,1487.0629239377768,1350,1500.0
6.650224208831787,161,74,1509.4369811290567,1520,1488.6244104699792,1347.3599999999999,1500.0
6.673570156097412,161,74,1509.4369811290567,1519.8150000000001,1489.6654014914475,1343.2,1500.0
6.69684100151062,161,75,1509.4369811290567,1519.845,1490.7063925129157,1336.4000000000001,1500.0
6.720095157623291,161,75,1509.4369811290567,1514.2750000000001,1491.747383534384,1332.1600000000001,1500.0
6.743499994277954,161,76,1509.4369811290567,1508.7049999999999,1492.7883745558524,1326.6400000000001,1500.0
6.7667951583862305,162,78,1509.4369811290567,1508.9349999999999,1491.7473835343842,1319.8399999999999,1500.0
6.790078163146973,162,78,1509.4369811290567,1508.9649999999999,1490.7063925129157,1315.4400000000001,1500.0
6.813484191894531,162,79,1509.4369811290567,1508.9949999999999,1489.6654014914475,1311.2,1500.0
6.836772203445435,162,79,1509.4369811290567,1511.8099999999999,1488.6244104699792,1308.1600000000001,1500.0
6.860035181045532,162,80,1509.4369811290567,1514.625,1487.583419448511,1305.28,1500.0
6.883441209793091,162,80,1509.4369811290567,1511.8399999999999,1487.583419448511,1307.8399999999999,1500.0
6.906758069992065,162,80,1565.342054504207,1509.0550000000001,1489.2605716497653,1310.4000000000001,1500.0
6.930167198181152,161,81,1565.342054504207,1503.2550000000001,1490.3786731172684,1311.76,1500.0
6.953552007675171,161,81,1565.342054504207,1497.655,1491.4967745847714,1314.3199999999999,1500.0
6.976839065551758,162,82,1625.5475181389841,1495.0699999999999,1494.4210399613178,1315.6800000000001,1500.0
7.000174045562744,161,82,1625.5475181389841,1492.0550000000001,1496.7432507015162,1315.52,1500.0
7.023526191711426,161,83,1625.5475181389841,1489.24,1496.8292585067088,1312.72,1500.0
7.046789169311523,161,83,1625.5475181389841,1492.0250000000001,1496.9152663119014,1312.5599999999999,1500.0
7.070183038711548,161,83,1625.5475181389841,1494.8099999999999,1497.001274117094,1312.4000000000001,1500.0
7.094078063964844,161,82,1690.5694188645434,1491.9949999999999,1496.6297203986621,1316.3199999999999,1500.0
7.117401123046875,160,82,1761.0098113172328,1491.7650000000001,1497.7211594465555,1319.04,1500.0
7.140743017196655,160,81,1761.0098113172328,1491.7349999999999,1499.2262960374248,1327.2,1500.0
7.164077997207642,160,80,1761.0098113172328,1488.9200000000001,1500.7314326282942,1335.4400000000001,1500.0
7.187353134155273,159,80,1761.0098113172328,1483.0899999999999,1502.2365692191636,1342.48,1500.0
7.210681200027466,159,79,1761.0098113172328,1480.2449999999999,1502.3449390537062,1348.0,1500.0
7.233957052230835,159,78,1837.5754552875476,1480.2149999999999,1501.9326625092508,1350,1500.0
7.257217168807983,159,77,1837.5754552875476,1480.1849999999999,1500.754729525092,1350,1500.0
7.280470132827759,159,76,1837.5754552875476,1480.155,1499.5767965409334,1350,1500.0
7.303768157958984,159,76,1837.5754552875476,1485.7249999999999,1498.3988635567746,1350,1500.0
7.327064037322998,159,76,1921.1016123460724,1491.2950000000001,1501.0271532988829,1350,1500.0
7.350353002548218,159,75,1921.1016123460724,1494.0799999999999,1501.1663635606474,1350,1500.0
7.373680114746094,158,75,1921.1016123460724,1493.8499999999999,1501.3055738224116,1350,1500.0
7.396862983703613,158,74,1921.1016123460724,1493.8199999999999,1501.4447840841756,1350,1500.0
7.420055150985718,158,74,1921.1016123460724,1491.0050000000001,1501.58399434594,1350,1500.0
7.4434239864349365,158,74,1921.1016123460724,1488.1900000000001,1498.382158325363,1350,1500.0
7.466661214828491,157,73,2012.5826415054091,1482.3599999999999,1499.4560660589725,1350,1500.0
7.489908218383789,156,73,2012.5826415054091,1480,1499.615163500989,1350,1500.0
7.513163089752197,156,73,2012.5826415054091,1480,1499.7742609430052,1350,1500.0
7.536267995834351,156,73,2012.5826415054091,1480,1499.9333583850214,1350,1500.0
7.559336185455322,155,74,2113.2117735806796,1480,1504.7818529304661,1350,1500.0
7.582441091537476,155,74,2113.2117735806796,1480,1504.9648149887848,1345.9200000000001,1500.0
7.605618000030518,155,74,2113.2117735806796,1480,1505.1477770471035,1341.76,1500.0
7.6287682056427,155,74,2113.2117735806796,1480,1505.3307391054223,1338.96,1500.0
7.651938199996948,155,75,2113.2117735806796,1480,1505.513701163741,1333.52,1500.0
7.675203084945679,155,75,2113.2117735806796,1484.325,1501.6714979390488,1332.0799999999999,1500.0
7.698504209518433,154,75,2113.2117735806796,1486.8800000000001,1499.6589152975434,1332.0,1500.0
7.721773147583008,154,75,2113.2117735806796,1486.8499999999999,1497.6463326560379,1331.9200000000001,1500.0
7.745038032531738,154,75,2113.2117735806796,1486.8199999999999,1495.6337500145326,1331.8399999999999,1500.0
7.768280982971191,154,74,2113.2117735806796,1486.79,1493.6211673730272,1337.2,1500.0
7.791539192199707,154,75,2113.2117735806796,1483.9749999999999,1493.6211673730272,1337.3599999999999,1500.0
7.814799070358276,153,75,2113.2117735806796,1483.7449999999999,1493.621167373027,1338.72,1500.0
7.838027000427246,153,76,2113.2117735806796,1483.7149999999999,1493.621167373027,1337.4400000000001,1500.0
7.8613440990448,153,76,2113.2117735806796,1483.6849999999999,1493.621167373027,1337.3599999999999,1500.0
7.8846001625061035,152,77,2113.2117735806796,1480.6400000000001,1493.621167373027,1330.48,1500.0
7.907855033874512,152,78,2113.2117735806796,1480,1493.621167373027,1324.96,1500.0
7.931068181991577,152,78,2224.4334458743997,1480,1496.9578175418387,1320.6400000000001,1500.0
7.95426607131958,151,79,2224.4334458743997,1480,1499.1822509877131,1316.48,1500.0
7.97751522064209,151,79,2224.4334458743997,1480,1501.4066844335875,1313.52,1500.0
8.00084400177002,151,80,2224.4334458743997,1480,1503.631117879462,1312.0799999999999,1500.0
8.024113178253174,151,81,2224.4334458743997,1480,1505.8555513253364,1310.6400000000001,1500.0
8.047288179397583,151,81,2224.4334458743997,1480,1503.631117879462,1310.4000000000001,1500.0
8.070528984069824,151,81,2224.4334458743997,1482.925,1501.4066844335875,1311.5999999999999,1500.0
8.094190120697021,150,81,2224.4334458743997,1485.48,1499.1822509877131,1312.8,1500.0
8.117477178573608,150,80,2224.4334458743997,1485.45,1496.9578175418387,1318.0799999999999,1500.0
8.140796184539795,150,80,2224.4334458743997,1485.4200000000001,1494.7333840959643,1323.5999999999999,1500.0
8.164131164550781,150,80,2224.4334458743997,1485.3900000000001,1494.7333840959643,1329.1199999999999,1500.0
8.18740200996399,150,80,2224.4334458743997,1482.575,1494.7333840959643,1333.28,1500.0
8.210746049880981,150,80,2224.4334458743997,1485.3599999999999,1494.7333840959643,1337.4400000000001,1500.0
8.234089136123657,149,80,2224.4334458743997,1485.1300000000001,1494.7333840959643,1337.4400000000001,1500.0
8.257364988327026,149,80,2224.4334458743997,1485.0999999999999,1494.7333840959643,1336.0799999999999,1500.0
8.280718088150024,150,81,2224.4334458743997,1488.085,1494.7333840959643,1332.0799999999999,1500.0
8.304060220718384,149,81,2224.4334458743997,1487.855,1494.7333840959643,1329.28,1500.0
8.327431201934814,149,81,2224.4334458743997,1485.04,1494.7333840959643,1326.48,1500.0
8.351070165634155,150,82,2224.4334458743997,1490.8399999999999,1494.7333840959643,1322.4000000000001,1500.0
8.374560117721558,150,82,2224.4334458743997,1496.4400000000001,1494.7333840959643,1319.52,1500.0
8.397868156433105,150,82,2224.4334458743997,1496.4400000000001,1494.7333840959643,1319.4400000000001,1500.0
8.421205043792725,150,82,2224.4334458743997,1502.04,1494.7333840959643,1319.3599999999999,1500.0
8.444504022598267,150,82,2224.4334458743997,1507.6400000000001,1494.7333840959643,1319.28,1500.0
8.467801094055176,150,82,2224.4334458743997,1504.855,1494.7333840959643,1322.0,1500.0
8.491117000579834,150,82,2348.0130817563104,1502.0699999999999,1498.4407731724216,1324.72,1500.0
8.514394998550415,150,82,2348.0130817563104,1502.0699999999999,1500.9123658900598,1326.0799999999999,1500.0
8.537657022476196,151,82,2348.0130817563104,1502.3,1503.3839586076981,1327.4400000000001,1500.0
8.560972213745117,151,82,2348.0130817563104,1502.3299999999999,1505.8555513253364,1328.8,1500.0
8.584310054779053,150,82,2348.0130817563104,1502.1300000000001,1508.3271440429744,1328.8,1500.0
8.607572078704834,151,81,2486.1314983302113,1505.145,1509.9991038225533,1331.4400000000001,1500.0
8.630890130996704,151,81,2486.1314983302113,1507.96,1510.2898794363932,1332.8800000000001,1500.0
8.654239177703857,152,81,2486.1314983302113,1508.1900000000001,1510.580655050233,1334.3199999999999,1500.0
8.677509069442749,152,80,2486.1314983302113,1508.22,1510.8714306640727,1338.4000000000001,1500.0
8.700806140899658,153,79,2486.1314983302113,1516.865,1511.1622062779124,1343.9200000000001,1500.0
8.724135160446167,153,79,2486.1314983302113,1519.71,1508.3998379464344,1345.4400000000001,1500.0
8.747404098510742,153,78,2486.1314983302113,1520,1505.6374696149564,1349.5999999999999,1500.0
8.770631074905396,153,77,2486.1314983302113,1520,1502.8751012834784,1350,1500.0
8.79377818107605,153,76,2486.1314983302113,1520,1500.1127329520004,1350,1500.0
8.816848039627075,153,76,2641.5147169758493,1514.26,1502.0118611798916,1350,1500.0
8.840043067932129,153,76,2641.5147169758493,1508.6900000000001,1505.1195255528044,1350,1500.0
8.863371133804321,154,76,2641.5147169758493,1506.135,1508.2271899257171,1350,1500.0
8.886547088623047,154,76,2641.5147169758493,1506.165,1511.3348542986298,1350,1500.0
8.909744024276733,154,76,2641.5147169758493,1506.1949999999999,1514.4425186715425,1350,1500.0
8.933115005493164,154,76,2817.6156981075724,1509.01,1516.6178837325815,1346.5599999999999,1500.0
8.956415176391602,155,76,2817.6156981075724,1514.8399999999999,1517.0322389823032,1342.48,1500.0
8.9796621799469,155,76,2817.6156981075724,1514.8699999999999,1517.4465942320248,1339.76,1500.0
9.003026008605957,155,76,2817.6156981075724,1514.9000000000001,1517.8609494817467,1338.4000000000001,1500.0
9.026353120803833,156,76,2817.6156981075724,1517.9449999999999,1518.2753047314684,1338.4000000000001,1500.0
9.049607992172241,156,74,2817.6156981075724,1520,1514.7532851088338,1343.6800000000001,1500.0
9.073346138000488,156,73,2817.6156981075724,1518.0350000000001,1511.2312654861994,1349.2,1500.0
9.096711158752441,156,73,2817.6156981075724,1518.0650000000001,1507.709245863565,1350,1500.0
9.119878053665161,156,72,2817.6156981075724,1518.095,1504.1872262409306,1350,1500.0
9.143195152282715,156,71,2817.6156981075724,1512.5250000000001,1500.665206618296,1350,1500.0
9.166396141052246,156,71,2817.6156981075724,1506.9549999999999,1500.665206618296,1350,1500.0
9.189588069915771,156,71,2817.6156981075724,1504.1700000000001,1500.665206618296,1350,1500.0
9.212906122207642,156,72,2817.6156981075724,1501.385,1500.665206618296,1350,1500.0
9.236093997955322,156,73,2817.6156981075724,1498.5999999999999,1500.665206618296,1350,1500.0
9.259322166442871,157,74,2817.6156981075724,1501.615,1500.665206618296,1345.04,1500.0
9.282725095748901,157,75,2817.6156981075724,1504.4300000000001,1500.665206618296,1334.0,1500.0
9.306164026260376,157,76,2817.6156981075724,1507.2449999999999,1500.665206618296,1322.8800000000001,1500.0
9.329438209533691,157,76,2817.6156981075724,1510.0599999999999,1500.665206618296,1315.76,1500.0
9.352703094482422,157,77,2817.6156981075724,1512.875,1500.665206618296,1310.1600000000001,1500.0
9.375980138778687,157,77,2817.6156981075724,1510.0899999999999,1500.665206618296,1309.9200000000001,1500.0
9.399245023727417,157,78,2817.6156981075724,1507.3050000000001,1500.665206618296,1309.8399999999999,1500.0
9.42245602607727,157,78,2817.6156981075724,1504.52,1500.665206618296,1313.76,1500.0
9.445780038833618,157,78,2817.6156981075724,1501.7349999999999,1500.665206618296,1316.3199999999999,1500.0
9.46909213066101,157,78,2817.6156981075724,1498.95,1500.665206618296,1320.3199999999999,1500.0
9.49241304397583,157,79,2817.6156981075724,1498.95,1500.665206618296,1320.3199999999999,1500.0
9.515752077102661,157,79,2817.6156981075724,1498.95,1500.665206618296,1322.96,1500.0
9.539024114608765,157,80,2817.6156981075724,1498.95,1500.665206618296,1321.5999999999999,1500.0
9.562331199645996,157,80,2817.6156981075724,1498.95,1500.665206618296,1321.4400000000001,1500.0
9.585606098175049,157,81,2817.6156981075724,1498.95,1500.665206618296,1317.28,1500.0
9.608834028244019,157,81,2817.6156981075724,1498.95,1500.665206618296,1317.1199999999999,1500.0
9.632156133651733,157,82,2817.6156981075724,1498.95,1500.665206618296,1312.96,1500.0
9.655408143997192,156,82,2817.6156981075724,1495.9349999999999,1500.665206618296,1312.8,1500.0
9.678709030151367,156,82,2817.6156981075724,1493.1199999999999,1500.665206618296,1312.6400000000001,1500.0
9.701999187469482,156,82,2817.6156981075724,1490.3050000000001,1500.665206618296,1315.28,1500.0
9.725263118743896,156,82,2641.5147169758493,1487.49,1495.3821771843443,1316.5599999999999,1500.0
9.748522996902466,155,81,2817.6156981075724,1481.6600000000001,1497.1431869956616,1323.28,1500.0
9.77176809310913,156,81,2817.6156981075724,1484.645,1497.1431869956616,1327.4400000000001,1500.0
9.79505705833435,155,81,2817.6156981075724,1484.415,1497.1431869956616,1331.5999999999999,1500.0
9.81832504272461,155,81,2817.6156981075724,1484.385,1497.1431869956616,1334.4000000000001,1500.0
9.841580152511597,155,82,2817.6156981075724,1484.355,1504.1872262409306,1334.5599999999999,1500.0
9.8648681640625,155,82,2817.6156981075724,1489.925,1504.1872262409306,1331.76,1500.0
9.888787984848022,155,82,2817.6156981075724,1487.1099999999999,1504.1872262409306,1328.96,1500.0
9.912984132766724,155,82,2817.6156981075724,1489.895,1504.1872262409304,1326.1600000000001,1500.0
9.936499118804932,154,82,2641.5147169758493,1489.665,1498.9041968069789,1323.3599999999999,1500.0
9.95986819267273,154,81,2641.5147169758493,1489.635,1491.8601575617099,1326.0,1500.0
9.98340106010437,154,81,2641.5147169758493,1486.8199999999999,1488.3381379390755,1328.8,1500.0
10.006700992584229,154,80,2641.5147169758493,1486.79,1484.8161183164409,1334.24,1500.0
10.029964208602905,154,80,2641.5147169758493,1483.9749999999999,1481.2940986938065,1338.48,1500.0
10.053378105163574,154,79,2641.5147169758493,1486.76,1484.8161183164409,1345.3599999999999,1500.0
10.077035188674927,153,80,2641.5147169758493,1486.53,1488.3381379390755,1344.24,1500.0
10.100382089614868,153,81,2641.5147169758493,1486.5,1491.8601575617099,1341.6800000000001,1500.0
10.123789072036743,152,82,2641.5147169758493,1483.4549999999999,1495.3821771843443,1334.8800000000001,1500.0
10.147050142288208,152,83,2641.5147169758493,1480.6099999999999,1498.9041968069789,1326.6400000000001,1500.0
10.170287132263184,152,85,2641.5147169758493,1480,1498.9041968069789,1311.52,1500.0
10.193493127822876,151,85,2641.5147169758493,1480,1498.9041968069789,1302.96,1500.0
10.216498136520386,151,85,2641.5147169758493,1480,1498.9041968069789,1297.2,1500.0
10.239399194717407,151,84,2641.5147169758493,1480,1498.9041968069789,1298.24,1500.0
10.262310028076172,151,83,2641.5147169758493,1480,1498.9041968069787,1303.52,1500.0
10.285226106643677,151,82,2486.1314983302113,1480,1494.2427002476097,1317.2,1500.0
10.30820608139038,151,81,2486.1314983302113,1482.925,1491.135035874697,1330.96,1500.0
10.331281185150146,150,81,2486.1314983302113,1485.48,1488.0273715017843,1342.1600000000001,1500.0
10.354243993759155,150,80,2486.1314983302113,1485.45,1484.9197071288713,1350,1500.0
10.377182006835938,150,80,2486.1314983302113,1485.4200000000001,1481.8120427559586,1350,1500.0
10.400411128997803,150,80,2486.1314983302113,1485.3900000000001,1484.9197071288713,1350,1500.0
10.423716068267822,150,80,2486.1314983302113,1482.575,1488.027371501784,1350,1500.0
10.446897983551025,150,82,2486.1314983302113,1485.3599999999999,1491.135035874697,1341.6800000000001,1500.0
10.470225095748901,150,83,2486.1314983302113,1488.145,1494.2427002476097,1330.72,1500.0
10.493591070175171,150,83,2486.1314983302113,1490.9300000000001,1497.3503646205224,1322.3199999999999,1500.0
10.516823053359985,149,84,2486.1314983302113,1490.7,1497.3503646205224,1312.6400000000001,1500.0
10.540019035339355,149,84,2348.0130817563104,1490.6700000000001,1493.2068121233053,1305.52,1500.0
10.56346321105957,150,84,2348.0130817563104,1490.8699999999999,1490.4444437918273,1304.0,1500.0
10.586777210235596,149,83,2348.0130817563104,1487.855,1487.6820754603493,1309.28,1500.0
10.610192060470581,150,81,2348.0130817563104,1488.0550000000001,1484.9197071288713,1318.6400000000001,1500.0
10.633563995361328,150,80,2348.0130817563104,1493.655,1482.1573387973933,1331.04,1500.0
10.656836032867432,150,80,2348.0130817563104,1499.2550000000001,1484.9197071288713,1342.24,1500.0
10.680097103118896,150,79,2348.0130817563104,1499.2550000000001,1487.6820754603493,1350,1500.0
10.703384160995483,150,79,2348.0130817563104,1504.855,1490.4444437918273,1350,1500.0
10.726571083068848,150,80,2348.0130817563104,1504.855,1493.2068121233053,1350,1500.0
10.749751091003418,150,81,2348.0130817563104,1502.0699999999999,1495.9691804547836,1348.5599999999999,1500.0
10.773288011550903,150,82,2348.0130817563104,1499.2850000000001,1495.9691804547836,1339.04,1500.0
10.796603202819824,150,82,2348.0130817563104,1499.2850000000001,1495.9691804547836,1327.9200000000001,1500.0
10.819841146469116,150,81,2348.0130817563104,1496.5,1495.9691804547836,1320.8,1500.0
10.843241214752197,150,80,2348.0130817563104,1496.5,1495.9691804547833,1320.6400000000001,1500.0
10.866513013839722,150,79,2348.0130817563104,1496.5,1495.9691804547833,1326.0799999999999,1500.0
10.889763116836548,150,78,2348.0130817563104,1496.5,1495.9691804547833,1335.76,1500.0
10.91316819190979,151,77,2348.0130817563104,1499.5150000000001,1495.9691804547833,1348.24,1500.0
10.936467170715332,151,76,2348.0130817563104,1502.3299999999999,1495.9691804547833,1350,1500.0
10.959684133529663,151,75,2348.0130817563104,1505.145,1495.9691804547836,1350,1500.0
10.983110189437866,151,74,2348.0130817563104,1507.96,1495.9691804547836,1350,1500.0
11.006409168243408,151,74,2348.0130817563104,1510.7750000000001,1495.9691804547836,1350,1500.0
11.029858112335205,151,74,2348.0130817563104,1507.99,1495.9691804547836,1350,1500.0
11.053220987319946,151,73,2348.0130817563104,1505.2049999999999,1495.9691804547836,1350,1500.0
11.076502084732056,152,73,2348.0130817563104,1505.4349999999999,1495.9691804547833,1350,1500.0
11.100008010864258,151,73,2348.0130817563104,1502.45,1495.9691804547833,1350,1500.0
11.123356103897095,151,72,2348.0130817563104,1499.665,1495.9691804547833,1350,1500.0
11.14654803276062,151,71,2348.0130817563104,1499.665,1495.9691804547833,1350,1500.0
11.169709205627441,151,71,2348.0130817563104,1499.665,1495.9691804547833,1350,1500.0
11.193037033081055,151,71,2348.0130817563104,1494.0650000000001,1495.9691804547836,1350,1500.0
11.21620512008667,151,70,2348.0130817563104,1494.0650000000001,1495.9691804547836,1350,1500.0
11.239363193511963,150,70,2348.0130817563104,1491.05,1495.9691804547836,1350,1500.0
11.262510061264038,150,70,2348.0130817563104,1488.2349999999999,1495.9691804547836,1350,1500.0
11.285686016082764,151,70,2348.0130817563104,1488.4349999999999,1495.9691804547836,1350,1500.0
11.308979988098145,150,70,2224.4334458743997,1488.2049999999999,1492.2617913783261,1350,1500.0
11.332181215286255,150,70,2224.4334458743997,1485.3900000000001,1489.7901986606878,1350,1500.0
11.35535216331482,150,69,2224.4334458743997,1488.175,1487.3186059430498,1350,1500.0
11.378547191619873,150,69,2224.4334458743997,1490.96,1484.8470132254115,1350,1500.0
11.401719093322754,150,69,2224.4334458743997,1488.145,1482.3754205077732,1350,1500.0
11.425124168395996,151,70,2224.4334458743997,1493.9449999999999,1484.8470132254115,1350,1500.0
11.448607206344604,151,70,2224.4334458743997,1499.5450000000001,1487.3186059430498,1350,1500.0
11.471872091293335,151,71,2224.4334458743997,1502.3599999999999,1489.7901986606878,1346.8800000000001,1500.0
11.495318174362183,151,73,2224.4334458743997,1505.175,1492.2617913783261,1337.3599999999999,1500.0
11.518831014633179,151,74,2113.2117735806796,1510.7750000000001,1491.3967339271526,1327.5999999999999,1500.0
11.542173147201538,150,75,2113.2117735806796,1504.9749999999999,1489.1723004812784,1319.2,1500.0
11.565443992614746,150,75,2113.2117735806796,1499.375,1486.947867035404,1312.0,1500.0
11.588709115982056,150,76,2113.2117735806796,1493.7750000000001,1484.7234335895296,1306.3199999999999,1500.0
11.612009048461914,150,76,2113.2117735806796,1488.175,1482.4990001436552,1307.4400000000001,1500.0
11.635277032852173,150,76,2113.2117735806796,1482.575,1484.7234335895296,1311.3599999999999,1500.0
11.65853500366211,150,75,2113.2117735806796,1485.3599999999999,1486.947867035404,1319.3599999999999,1500.0
11.681832075119019,150,75,2113.2117735806796,1488.145,1489.1723004812784,1326.1600000000001,1500.0
11.705141067504883,150,75,2113.2117735806796,1490.9300000000001,1491.3967339271528,1334.4000000000001,1500.0
11.728427171707153,150,76,2113.2117735806796,1493.7149999999999,1493.6211673730272,1337.28,1500.0
11.751728057861328,150,76,2113.2117735806796,1496.5,1493.6211673730272,1340.0,1500.0
11.774982213973999,150,77,2113.2117735806796,1496.5,1493.621167373027,1335.9200000000001,1500.0
11.798226118087769,150,78,2113.2117735806796,1496.5,1493.621167373027,1330.4000000000001,1500.0
11.821468114852905,150,78,2113.2117735806796,1496.5,1493.621167373027,1324.72,1500.0
11.844783067703247,150,78,2012.5826415054091,1496.5,1490.6022934107689,1321.8399999999999,1500.0
11.86805510520935,150,78,2012.5826415054091,1496.5,1488.5897107692635,1318.96,1500.0
11.891317129135132,150,77,2012.5826415054091,1496.5,1486.5771281277582,1322.8800000000001,1500.0
11.914578199386597,150,77,2012.5826415054091,1496.5,1484.5645454862529,1328.4000000000001,1500.0
11.93786907196045,150,77,2012.5826415054091,1496.5,1482.5519628447473,1333.9200000000001,1500.0
11.96117615699768,150,77,2012.5826415054091,1496.5,1484.5645454862529,1338.0799999999999,1500.0
11.984472036361694,151,77,2012.5826415054091,1499.5150000000001,1486.5771281277582,1342.24,1500.0
12.007748126983643,150,78,2012.5826415054091,1499.3150000000001,1488.5897107692635,1339.5999999999999,1500.0
12.031082153320312,151,79,1921.1016123460724,1502.3299999999999,1487.8578625359889,1334.1600000000001,1500.0
12.054413080215454,152,79,1921.1016123460724,1508.1600000000001,1488.0408245943077,1329.9200000000001,1500.0
12.078042030334473,151,80,1921.1016123460724,1510.7750000000001,1486.2112040111208,1323.04,1500.0
12.101325035095215,151,80,1921.1016123460724,1507.99,1484.3815834279342,1317.3599999999999,1500.0
12.12464714050293,151,80,1921.1016123460724,1510.8050000000001,1482.5519628447473,1315.8399999999999,1500.0
12.148112058639526,152,80,1921.1016123460724,1511.0350000000001,1484.3815834279342,1317.1199999999999,1500.0
12.171414136886597,152,80,1921.1016123460724,1505.4649999999999,1486.2112040111208,1318.4000000000001,1500.0
12.1947181224823,152,79,1921.1016123460724,1505.4949999999999,1488.0408245943077,1325.1199999999999,1500.0
12.217979192733765,152,79,1921.1016123460724,1508.3099999999999,1489.8704451774943,1330.6400000000001,1500.0
12.241243124008179,152,79,1921.1016123460724,1508.3399999999999,1491.7000657606811,1334.8,1500.0
12.264556169509888,152,79,1921.1016123460724,1505.5550000000001,1491.7000657606811,1337.5999999999999,1500.0
12.287842035293579,152,79,1921.1016123460724,1505.5550000000001,1491.7000657606811,1340.4000000000001,1500.0
12.311161994934082,152,78,1921.1016123460724,1502.77,1491.7000657606811,1341.6800000000001,1500.0
12.334432125091553,153,78,1921.1016123460724,1503.0,1491.7000657606811,1341.76,1500.0
12.357733011245728,153,77,1921.1016123460724,1503.03,1491.7000657606811,1344.48,1500.0
12.381097078323364,153,77,1921.1016123460724,1505.845,1491.7000657606811,1346.0,1500.0
12.40441608428955,153,76,1921.1016123460724,1508.6600000000001,1491.7000657606811,1350,1500.0
12.427614212036133,153,76,1921.1016123460724,1511.4749999999999,1491.7000657606811,1350,1500.0
12.45091199874878,153,75,1921.1016123460724,1508.6900000000001,1491.7000657606811,1350,1500.0
12.474237203598022,153,75,1921.1016123460724,1505.905,1491.7000657606811,1350,1500.0
12.49744200706482,153,75,1921.1016123460724,1503.1199999999999,1491.7000657606811,1350,1500.0
12.520691156387329,153,75,1921.1016123460724,1500.335,1491.7000657606811,1350,1500.0
12.543960094451904,153,75,1837.5754552875476,1497.55,1489.1942810489254,1350,1500.0
12.56716513633728,153,75,1837.5754552875476,1497.55,1487.5237579077548,1348.1600000000001,1500.0
12.590497016906738,153,75,1837.5754552875476,1497.55,1485.8532347665844,1345.4400000000001,1500.0
12.613829135894775,153,75,1837.5754552875476,1497.55,1484.1827116254137,1342.72,1500.0
12.637071132659912,153,74,1837.5754552875476,1497.55,1482.5121884842433,1344.0,1500.0
12.660401105880737,152,74,1837.5754552875476,1494.5350000000001,1484.1827116254137,1344.0799999999999,1500.0
12.683768033981323,152,75,1837.5754552875476,1491.72,1485.8532347665844,1342.8800000000001,1500.0
12.707025051116943,151,76,1837.5754552875476,1485.8900000000001,1487.5237579077548,1340.24,1500.0
12.73036813735962,152,77,1837.5754552875476,1483.2750000000001,1489.1942810489254,1336.1600000000001,1500.0
12.753732204437256,152,77,1837.5754552875476,1480.46,1490.8648041900958,1330.48,1500.0
12.777083158493042,152,78,1761.0098113172328,1483.2449999999999,1488.5678348709864,1322.1600000000001,1500.0
12.80044412612915,152,79,1761.0098113172328,1486.03,1487.0365219915802,1315.2,1500.0
12.823788166046143,151,79,1761.0098113172328,1491.4000000000001,1485.5052091121738,1312.24,1500.0
12.847065210342407,151,79,1761.0098113172328,1491.3699999999999,1483.9738962327674,1312.0799999999999,1500.0
12.870429992675781,151,79,1761.0098113172328,1491.3399999999999,1482.4425833533612,1313.28,1500.0
12.893809080123901,151,78,1761.0098113172328,1488.5250000000001,1483.9738962327674,1319.9200000000001,1500.0
12.917081117630005,151,78,1761.0098113172328,1485.71,1485.5052091121738,1326.8,1500.0
12.940407991409302,151,79,1761.0098113172328,1485.71,1487.03652199158,1329.6800000000001,1500.0
12.963755130767822,150,79,1761.0098113172328,1485.48,1488.5678348709862,1332.4000000000001,1500.0
12.987054109573364,150,80,1690.5694188645434,1485.45,1487.985935976812,1332.48,1500.0
13.010432004928589,150,80,1690.5694188645434,1485.4200000000001,1486.5771281277582,1329.5999999999999,1500.0
13.03377914428711,150,81,1690.5694188645434,1485.3900000000001,1485.1683202787044,1322.72,1500.0
13.0573570728302,150,81,1690.5694188645434,1482.575,1483.7595124296506,1319.8399999999999,1500.0
13.080770015716553,150,81,1690.5694188645434,1485.3599999999999,1482.3507045805968,1316.96,1500.0
13.104128122329712,150,81,1690.5694188645434,1488.145,1483.7595124296506,1316.8800000000001,1500.0
13.12740421295166,150,81,1625.5475181389841,1490.9300000000001,1483.2176632569376,1318.1600000000001,1500.0
13.15079116821289,149,81,1565.342054504207,1490.7,1481.5198691824369,1322.24,1500.0
13.174171209335327,149,81,1565.342054504207,1490.6700000000001,1480.4241297442838,1324.96,1500.0
13.19746208190918,149,81,1565.342054504207,1487.855,1479.328390306131,1327.6800000000001,1500.0
13.220823049545288,149,82,1565.342054504207,1485.04,1476.8238430189242,1326.4000000000001,1500.0
13.244168996810913,149,83,1565.342054504207,1482.2249999999999,1476.92017176074,1323.6800000000001,1500.0
13.267433166503906,149,83,1565.342054504207,1485.01,1479.4247190479466,1320.8,1500.0
13.290752172470093,149,84,1565.342054504207,1487.7950000000001,1481.9292663351534,1315.28,1500.0
13.314179182052612,149,84,1565.342054504207,1490.5799999999999,1484.43381362236,1310.96,1500.0
13.337470054626465,149,84,1565.342054504207,1493.365,1486.9383609095669,1309.4400000000001,1500.0
13.360812187194824,149,84,1565.342054504207,1496.1500000000001,1488.1424701822623,1310.72,1500.0
13.384152173995972,148,84,1509.4369811290567,1493.135,1486.465317981008,1312.0,1500.0
13.407413005828857,149,84,1509.4369811290567,1493.335,1485.3472165135049,1316.0799999999999,1500.0
13.430771112442017,149,83,1565.342054504207,1493.335,1485.9062672472562,1322.8,1500.0
13.454110145568848,149,83,1565.342054504207,1493.335,1485.9062672472562,1326.96,1500.0
13.477390050888062,149,82,1565.342054504207,1493.335,1485.9062672472562,1332.4000000000001,1500.0
13.50072717666626,149,82,1565.342054504207,1498.9349999999999,1488.1424701822623,1336.6400000000001,1500.0
13.524079084396362,149,81,1565.342054504207,1498.9349999999999,1490.3786731172684,1342.1600000000001,1500.0
13.547367095947266,149,81,1625.5475181389841,1498.9349999999999,1492.1848370263117,1343.6800000000001,1500.0
13.570706129074097,150,81,1625.5475181389841,1501.95,1493.3889462990073,1345.2,1500.0
13.594060182571411,150,80,1690.5694188645434,1504.7650000000001,1496.5437125934695,1346.5599999999999,1500.0
13.61731219291687,150,80,1690.5694188645434,1504.7950000000001,1497.9301584131733,1346.72,1500.0
13.6406090259552,150,80,1690.5694188645434,1507.6099999999999,1499.3166042328769,1344.0799999999999,1500.0
13.663960218429565,150,79,1690.5694188645434,1510.425,1499.4129329746927,1345.4400000000001,1500.0
13.687353134155273,150,79,1761.0098113172328,1507.6400000000001,1501.6224734900891,1345.5999999999999,1500.0
13.71071720123291,150,79,1761.0098113172328,1504.855,1500.526734051936,1344.3199999999999,1500.0
13.734086990356445,149,77,1761.0098113172328,1499.0550000000001,1499.430994613783,1348.3199999999999,1500.0
13.757376194000244,149,75,1837.5754552875476,1493.4549999999999,1500.6322244947396,1350,1500.0
13.78066110610962,150,74,1837.5754552875476,1490.8699999999999,1502.2719072086884,1350,1500.0
13.803951025009155,150,73,1837.5754552875476,1490.8699999999999,1501.0939742245298,1350,1500.0
13.827179193496704,150,73,1921.1016123460724,1490.8699999999999,1503.7222639666381,1350,1500.0
13.850524187088013,150,72,1921.1016123460724,1496.47,1505.5152921381612,1350,1500.0
13.873954057693481,151,72,1921.1016123460724,1505.085,1504.2456945508716,1350,1500.0
13.89717721939087,151,71,1921.1016123460724,1507.9000000000001,1502.976096963582,1350,1500.0
13.920481204986572,151,70,1921.1016123460724,1510.7149999999999,1503.1153072253462,1350,1500.0
13.943796157836914,151,70,1921.1016123460724,1513.53,1499.9134712047694,1350,1500.0
13.967012166976929,151,70,1921.1016123460724,1513.5599999999999,1496.7116351841926,1350,1500.0
13.990298986434937,151,70,1921.1016123460724,1507.99,1495.0411120430219,1350,1500.0
14.013593196868896,151,69,2012.5826415054091,1505.2049999999999,1496.1150197766317,1350,1500.0
14.037114143371582,151,69,2012.5826415054091,1502.4200000000001,1496.2741172186479,1350,1500.0
14.060417175292969,151,69,2012.5826415054091,1499.635,1498.1037378018345,1350,1500.0
14.08373212814331,151,69,2012.5826415054091,1496.8499999999999,1499.9333583850214,1350,1500.0
14.106963157653809,151,69,2012.5826415054091,1496.8499999999999,1501.762978968208,1350,1500.0
14.130264043807983,151,70,2113.2117735806796,1496.8499999999999,1502.9522323472795,1350,1500.0
14.15355110168457,152,69,2113.2117735806796,1499.865,1503.1351944055982,1350,1500.0
14.176760196685791,152,70,2113.2117735806796,1502.6800000000001,1503.3181564639167,1348.24,1500.0
14.20006012916565,152,70,2113.2117735806796,1505.4949999999999,1503.5011185222354,1345.4400000000001,1500.0
14.223511219024658,152,70,2113.2117735806796,1508.3099999999999,1503.6840805805541,1342.6400000000001,1500.0
14.2468101978302,153,70,2113.2117735806796,1514.1400000000001,1501.6714979390488,1344.0,1500.0
14.27022910118103,153,70,2113.2117735806796,1514.1700000000001,1499.6589152975434,1342.5599999999999,1500.0
14.293639183044434,153,70,2113.2117735806796,1514.2,1497.6463326560379,1343.9200000000001,1500.0
14.316987037658691,153,70,2113.2117735806796,1514.23,1495.6337500145326,1345.28,1500.0
14.340355157852173,153,70,2224.4334458743997,1514.26,1496.9578175418387,1346.6400000000001,1500.0
14.363741159439087,153,71,2224.4334458743997,1508.6900000000001,1499.1822509877131,1344.0,1500.0
14.387031078338623,153,71,2224.4334458743997,1505.905,1501.4066844335875,1343.9200000000001,1500.0
14.410398006439209,153,71,2224.4334458743997,1503.1199999999999,1503.631117879462,1342.48,1500.0
14.433801174163818,154,72,2224.4334458743997,1503.3499999999999,1505.8555513253364,1338.4000000000001,1500.0
14.45711612701416,154,72,2224.4334458743997,1503.3800000000001,1503.631117879462,1335.52,1500.0
14.480478048324585,154,73,2224.4334458743997,1506.1949999999999,1501.4066844335875,1332.8,1500.0
14.503846168518066,154,73,2224.4334458743997,1509.01,1499.1822509877131,1331.28,1500.0
14.527129173278809,155,73,2224.4334458743997,1514.8399999999999,1496.9578175418387,1329.76,1500.0
14.550530195236206,155,73,2224.4334458743997,1514.8699999999999,1494.7333840959643,1331.04,1500.0
14.57399320602417,155,74,2224.4334458743997,1514.9000000000001,1494.7333840959643,1329.6800000000001,1500.0
14.597307205200195,155,74,2224.4334458743997,1514.9300000000001,1494.7333840959643,1330.96,1500.0
14.620675086975098,155,75,2224.4334458743997,1514.96,1494.7333840959643,1329.5999999999999,1500.0
