time,x,y,size_inv,roll,pitch,thrust,yaw
0.00043702125549316406,133,42,0.005555555555555556,1480,1499.0,1350,1480
0.022223949432373047,133,42,0.005555555555555556,1480,1499.0,1350,1480
0.043730974197387695,133,42,0.005555555555555556,1480,1499.0,1350,1480
0.06525802612304688,133,42,0.005555555555555556,1480,1499.0,1350,1480
0.08667397499084473,133,42,0.005555555555555556,1480,1499.0,1350,1480
0.10805916786193848,133,42,0.005555555555555556,1480,1499.0,1350,1480
0.1295480728149414,133,42,0.005555555555555556,1480,1499.0,1350,1480
0.1510159969329834,133,42,0.005555555555555556,1480,1499.0,1350,1480
0.17258095741271973,133,42,0.005555555555555556,1480,1499.0,1350,1480
0.19398903846740723,133,42,0.005555555555555556,1480,1499.0,1350,1480
0.2155599594116211,133,42,0.005555555555555556,1480,1499.0,1350,1480
0.23738598823547363,133,42,0.005555555555555556,1480,1499.0,1350,1480
0.2592151165008545,133,42,0.005555555555555556,1480,1499.0,1350,1480
0.28099513053894043,134,42,0.005555555555555556,1480,1499.0,1350,1480
0.30291008949279785,135,42,0.005555555555555556,1480,1499.0,1350,1480
0.32469606399536133,137,43,0.005263157894736842,1480,1499.0,1350,1480
0.34645700454711914,142,43,0.006666666666666667,1480,1499.0,1350,1482.0
0.3683040142059326,144,43,0.007142857142857143,1480,1499.0,1350,1484.0
0.3901350498199463,147,44,0.0058823529411764705,1480,1499.0,1350,1487.0
0.4119429588317871,151,45,0.006060606060606061,1480,1499.0,1350,1491.0
0.4338200092315674,154,45,0.006666666666666667,1480,1499.0,1350,1494.0
0.455686092376709,156,46,0.0058823529411764705,1480,1499.0,1350,1496.0
0.47761011123657227,158,46,0.005555555555555556,1480,1499.0,1350,1498.0
0.49941110610961914,160,47,0.005555555555555556,1480,1499.0,1350,1500.0
0.521306037902832,163,48,0.004784688995215311,1480,1499.0,1350,1503.0
0.5432450771331787,164,48,0.005555555555555556,1480,1499.0,1350,1504.0
0.5650460720062256,166,48,0.005555555555555556,1480,1499.0,1350,1506.0
0.5869040489196777,168,49,0.005050505050505051,1503.0,1499.0,1350,1508.0
0.6087760925292969,169,50,0.005050505050505051,1520,1499.0,1350,1509.0
0.6305890083312988,170,51,0.005555555555555556,1520,1499.0,1350,1510.0
0.652454137802124,171,53,0.005555555555555556,1520,1499.0,1350,1511.0
0.6742420196533203,171,57,0.005555555555555556,1520,1499.0,1339.52,1511.0
0.696148157119751,171,59,0.005050505050505051,1520,1499.0,1326.8,1511.0
0.7180471420288086,172,60,0.006666666666666667,1520,1499.0,1315.28,1512.0
0.7398929595947266,170,61,0.005555555555555556,1520,1499.0,1303.76,1510.0
0.7618260383605957,169,63,0.005050505050505051,1520,1499.0,1293.76,1509.0
0.7836730480194092,168,64,0.005050505050505051,1520,1499.0,1294.72,1508.0
0.8055291175842285,167,64,0.005555555555555556,1520,1499.0,1301.1199999999999,1507.0
0.8274271488189697,167,65,0.005555555555555556,1520,1499.0,1306.3199999999999,1507.0
0.849308967590332,166,66,0.005555555555555556,1520,1499.0,1311.52,1506.0
0.8712790012359619,166,67,0.005555555555555556,1520,1499.0,1318.1600000000001,1506.0
0.8931951522827148,165,68,0.005555555555555556,1520,1499.0,1320.72,1505.0
0.9150841236114502,165,70,0.005050505050505051,1520,1499.0,1316.48,1505.0
0.9369659423828125,164,71,0.005555555555555556,1520,1499.0,1313.4400000000001,1504.0
0.9588401317596436,164,73,0.005050505050505051,1520,1499.0,1307.76,1504.0
0.9807491302490234,165,74,0.006666666666666667,1520,1499.0,1301.9200000000001,1505.0
1.0026919841766357,163,76,0.005050505050505051,1520,1499.0,1293.4400000000001,1503.0
1.0246269702911377,162,79,0.005050505050505051,1520,1499.0,1285.04,1502.0
1.04653000831604,161,80,0.005555555555555556,1520,1499.0,1279.04,1501.0
1.0683729648590088,161,82,0.005050505050505051,1520,1499.0,1273.2,1501.0
1.0902559757232666,161,83,0.005555555555555556,1520,1499.0,1268.5599999999999,1501.0
1.1120920181274414,161,85,0.005050505050505051,1520,1499.0,1264.0799999999999,1501.0
1.1340000629425049,160,86,0.005555555555555556,1520,1499.0,1265.04,1500.0
1.1559040546417236,160,88,0.005050505050505051,1518.0,1499.0,1263.3599999999999,1500.0
1.1778409481048584,160,89,0.005555555555555556,1514.0,1499.0,1264.3199999999999,1500.0
1.2000069618225098,160,91,0.005050505050505051,1509.0,1499.0,1262.6400000000001,1500.0
1.2219960689544678,160,93,0.005050505050505051,1506.0,1499.0,1260.96,1500.0
1.2439351081848145,160,94,0.005050505050505051,1504.0,1499.0,1257.76,1500.0
1.2659690380096436,161,96,0.006493506493506494,1506.0,1499.0,1254.72,1501.0
1.2879400253295898,160,97,0.005050505050505051,1503.0,1499.0,1251.52,1500.0
1.3099710941314697,161,98,0.006493506493506494,1505.0,1499.0,1251.1199999999999,1501.0
1.3319010734558105,161,99,0.007142857142857143,1505.0,1499.0,1252.1600000000001,1501.0
1.353844165802002,160,102,0.005050505050505051,1503.0,1499.0,1250,1500.0
1.3757619857788086,159,103,0.005050505050505051,1500.0,1499.0,1250,1499.0
1.3976120948791504,159,104,0.005050505050505051,1499.0,1499.0,1250,1499.0
1.419511079788208,159,105,0.005050505050505051,1498.0,1499.0,1250,1499.0
1.4415199756622314,160,106,0.006493506493506494,1500.0,1499.0,1250,1500.0
1.4635529518127441,160,107,0.006493506493506494,1500.0,1499.0,1250,1500.0
1.485422134399414,159,108,0.005050505050505051,1496.0,1499.0,1250,1499.0
1.5073060989379883,158,109,0.005050505050505051,1492.0,1499.0,1250,1498.0
1.529184103012085,158,109,0.005555555555555556,1489.0,1499.0,1250.72,1498.0
1.551138162612915,158,110,0.005050505050505051,1486.0,1499.0,1253.28,1498.0
1.5730931758880615,159,111,0.006493506493506494,1487.0,1499.0,1253.1199999999999,1499.0
1.5949881076812744,158,111,0.005050505050505051,1484.0,1499.0,1255.5999999999999,1498.0
1.616934061050415,158,112,0.005050505050505051,1483.0,1499.0,1256.8800000000001,1498.0
1.6388461589813232,159,112,0.006493506493506494,1485.0,1499.0,1258.0,1499.0
1.660830020904541,157,113,0.005050505050505051,1480,1499.0,1257.9200000000001,1497.0
1.6828811168670654,157,113,0.005050505050505051,1480,1499.0,1260.48,1497.0
1.7048029899597168,157,114,0.005050505050505051,1480,1499.0,1259.04,1497.0
1.7266809940338135,157,114,0.005050505050505051,1480,1499.0,1260.24,1497.0
1.7485201358795166,158,114,0.006493506493506494,1480,1499.0,1261.4400000000001,1498.0
1.7703931331634521,157,114,0.005050505050505051,1480,1499.0,1264.0799999999999,1497.0
1.7922611236572266,157,114,0.005050505050505051,1480,1499.0,1265.3599999999999,1497.0
1.8142509460449219,157,114,0.005050505050505051,1480,1499.0,1269.4400000000001,1497.0
1.8361380100250244,157,114,0.005050505050505051,1480,1499.0,1272.1600000000001,1497.0
1.858126163482666,157,114,0.005050505050505051,1480,1499.0,1274.8800000000001,1497.0
1.8800280094146729,157,113,0.004629629629629629,1480,1499.0,1278.8800000000001,1497.0
1.9019510746002197,158,113,0.0043859649122807015,1480,1499.0,1281.6800000000001,1498.0
1.92399001121521,159,113,0.0043859649122807015,1480,1499.0,1283.1199999999999,1499.0
1.9461510181427002,158,113,0.005050505050505051,1480,1499.0,1284.5599999999999,1498.0
1.9681320190429688,158,113,0.005050505050505051,1480,1499.0,1286.0,1498.0
1.990049123764038,158,113,0.005050505050505051,1480,1499.0,1284.6400000000001,1498.0
2.011993169784546,158,112,0.004629629629629629,1480,1499.0,1285.9200000000001,1498.0
2.033889055252075,158,112,0.004629629629629629,1480,1499.0,1286.0,1498.0
2.0558290481567383,159,112,0.0043859649122807015,1480,1499.0,1286.0799999999999,1499.0
2.0777039527893066,158,111,0.004629629629629629,1480,1499.0,1288.8,1498.0
2.099630117416382,158,111,0.004629629629629629,1480,1499.0,1291.6800000000001,1498.0
2.121623992919922,158,111,0.004629629629629629,1480,1499.0,1291.76,1498.0
2.143666982650757,158,111,0.005050505050505051,1480,1499.0,1291.8399999999999,1498.0
2.1655850410461426,158,110,0.004629629629629629,1480,1499.0,1294.5599999999999,1498.0
2.1875059604644775,158,110,0.004629629629629629,1480,1499.0,1293.28,1498.0
2.2094149589538574,158,110,0.004629629629629629,1480,1499.0,1292.0,1498.0
2.231328010559082,158,109,0.004629629629629629,1480,1499.0,1294.72,1498.0
2.253261089324951,158,109,0.004629629629629629,1480,1499.0,1296.24,1498.0
2.2750980854034424,159,109,0.004166666666666667,1480,1499.0,1294.96,1499.0
2.2972099781036377,158,108,0.004629629629629629,1480,1499.0,1297.6800000000001,1498.0
2.3191959857940674,159,108,0.004273504273504274,1480.0,1499.0,1299.2,1499.0
2.341233968734741,159,107,0.004629629629629629,1481.0,1499.0,1300.5599999999999,1499.0
2.3632349967956543,160,107,0.0038461538461538464,1485.0,1499.0,1300.72,1500.0
2.385154962539673,159,106,0.004629629629629629,1484.0,1499.0,1304.8800000000001,1499.0
2.4070379734039307,160,106,0.004166666666666667,1488.0,1499.0,1305.04,1500.0
2.4289891719818115,160,106,0.0038461538461538464,1490.0,1499.0,1305.2,1500.0
2.450875997543335,161,106,0.0038461538461538464,1495.0,1499.0,1303.9200000000001,1501.0
2.4730491638183594,160,105,0.004629629629629629,1495.0,1499.0,1305.28,1500.0
2.494966983795166,161,105,0.004166666666666667,1499.0,1499.0,1302.6400000000001,1501.0
2.516951084136963,161,105,0.004048582995951417,1502.0,1499.0,1301.3599999999999,1501.0
2.538862943649292,161,105,0.004048582995951417,1504.0,1499.0,1300.0799999999999,1501.0
2.5608129501342773,162,104,0.003968253968253968,1509.0,1499.0,1302.8,1502.0
2.582874059677124,162,104,0.003968253968253968,1511.0,1499.0,1301.52,1502.0
2.604802131652832,161,104,0.0038461538461538464,1511.0,1499.0,1301.5999999999999,1501.0
2.6267380714416504,162,103,0.003968253968253968,1515.0,1499.0,1304.3199999999999,1502.0
2.648682117462158,161,102,0.004629629629629629,1514.0,1499.0,1308.48,1501.0
2.6706600189208984,161,101,0.004629629629629629,1514.0,1499.0,1311.28,1501.0
2.6925361156463623,164,101,0.004629629629629629,1520,1499.0,1314.24,1504.0
2.714456081390381,163,101,0.003663003663003663,1520,1499.0,1317.2,1503.0
2.736307144165039,163,100,0.003968253968253968,1520,1499.0,1320.0,1503.0
2.7581770420074463,163,100,0.003968253968253968,1520,1499.0,1318.8,1503.0
2.7800731658935547,164,100,0.004629629629629629,1520,1499.0,1316.1600000000001,1504.0
2.8019371032714844,161,100,0.004629629629629629,1520,1499.0,1313.52,1501.0
2.823862075805664,161,100,0.004629629629629629,1520,1499.0,1310.8800000000001,1501.0
2.845747947692871,161,100,0.004166666666666667,1520,1499.0,1306.8,1501.0
2.867671012878418,161,99,0.0043859649122807015,1520,1499.0,1306.72,1501.0
2.889580011367798,162,99,0.003968253968253968,1520,1499.0,1306.8,1502.0
2.9116320610046387,162,99,0.003968253968253968,1520,1499.0,1306.8800000000001,1502.0
2.934201955795288,162,99,0.003968253968253968,1520,1499.0,1306.96,1502.0
2.957926034927368,162,98,0.003968253968253968,1520,1499.0,1311.04,1502.0
2.981577157974243,162,98,0.003968253968253968,1520,1499.0,1311.1199999999999,1502.0
3.0054149627685547,162,98,0.003968253968253968,1520.0,1499.0,1311.2,1502.0
3.0289740562438965,162,98,0.003968253968253968,1520,1499.0,1311.28,1502.0
3.052436113357544,161,98,0.003787878787878788,1519.0,1499.0,1311.3599999999999,1501.0
3.0759871006011963,161,98,0.0034965034965034965,1519.0,1499.0,1308.6400000000001,1501.0
3.0996129512786865,161,97,0.003787878787878788,1519.0,1499.0,1309.9200000000001,1501.0
3.1232590675354004,162,97,0.004629629629629629,1520,1499.0,1310.0,1502.0
3.146739959716797,161,97,0.003968253968253968,1518.0,1499.0,1310.0799999999999,1501.0
3.1702611446380615,160,97,0.003787878787878788,1514.0,1499.0,1310.1600000000001,1500.0
3.1938841342926025,160,97,0.003787878787878788,1512.0,1499.0,1311.5999999999999,1500.0
3.2175421714782715,160,97,0.003787878787878788,1510.0,1499.0,1310.24,1500.0
3.2413899898529053,160,97,0.003968253968253968,1508.0,1499.0,1308.8800000000001,1500.0
3.2652690410614014,159,98,0.0034965034965034965,1503.0,1499.0,1304.8800000000001,1499.0
3.2890219688415527,159,98,0.0034965034965034965,1501.0,1499.0,1302.0799999999999,1499.0
3.312725067138672,159,98,0.0034965034965034965,1499.0,1499.0,1299.28,1499.0
3.3362770080566406,159,98,0.003663003663003663,1497.0,1499.0,1297.8399999999999,1499.0
3.3599910736083984,158,98,0.0034965034965034965,1491.0,1499.0,1296.4000000000001,1498.0
3.3837461471557617,158,98,0.0034965034965034965,1488.0,1499.0,1297.76,1498.0
3.4074230194091797,158,98,0.003787878787878788,1486.0,1499.0,1299.1199999999999,1498.0
3.439258098602295,159,99,0.004273504273504274,1487.0,1499.0,1297.8399999999999,1499.0
3.4629809856414795,158,99,0.0034965034965034965,1483.0,1499.0,1297.76,1498.0
3.486521005630493,157,99,0.0034965034965034965,1480,1499.0,1297.6800000000001,1497.0
3.510035991668701,157,99,0.003787878787878788,1480,1499.0,1296.24,1497.0
3.5336999893188477,157,100,0.0034965034965034965,1480,1499.0,1292.1600000000001,1497.0
3.5571861267089844,157,100,0.0034965034965034965,1480,1499.0,1292.0799999999999,1497.0
3.5808680057525635,157,100,0.0034965034965034965,1480,1499.0,1292.0,1497.0
3.6044631004333496,157,100,0.0033444816053511705,1480,1499.0,1291.9200000000001,1497.0
3.6279361248016357,156,100,0.0034965034965034965,1480,1499.0,1291.8399999999999,1496.0
3.651561975479126,156,100,0.0034965034965034965,1480,1499.0,1294.5599999999999,1496.0
3.6753311157226562,156,100,0.0034965034965034965,1480,1499.0,1295.9200000000001,1496.0
3.6989381313323975,156,100,0.003246753246753247,1480,1499.0,1297.28,1496.0
3.7224271297454834,156,100,0.003246753246753247,1480,1499.0,1298.6400000000001,1496.0
3.745850086212158,156,101,0.0034965034965034965,1480,1499.0,1297.3599999999999,1496.0
3.7694129943847656,156,101,0.0034965034965034965,1480,1499.0,1295.9200000000001,1496.0
3.7930121421813965,156,101,0.0034965034965034965,1480,1499.0,1294.48,1496.0
3.8165030479431152,156,100,0.003246753246753247,1480,1499.0,1295.6800000000001,1496.0
3.8401379585266113,156,100,0.003246753246753247,1480,1499.0,1295.6800000000001,1496.0
3.864042043685913,157,100,0.003105590062111801,1480,1499.0,1298.48,1497.0
3.887714147567749,157,100,0.003105590062111801,1480,1499.0,1301.28,1497.0
3.9117541313171387,157,100,0.003105590062111801,1480,1499.0,1304.0799999999999,1497.0
3.9357471466064453,157,100,0.002777777777777778,1480,1499.0,1304.0799999999999,1497.0
3.9595751762390137,157,100,0.002898550724637681,1480,1499.0,1304.0799999999999,1497.0
3.9833381175994873,158,100,0.002898550724637681,1480,1499.0,1302.72,1498.0
4.007236003875732,157,100,0.0030303030303030303,1480,1499.0,1301.3599999999999,1497.0
4.031224966049194,157,100,0.0030303030303030303,1480,1499.0,1300.0,1497.0
4.0550501346588135,157,100,0.002898550724637681,1480,1499.0,1300.0,1497.0
4.078824043273926,157,100,0.002898550724637681,1480,1499.0,1300.0,1497.0
4.102518081665039,158,100,0.002898550724637681,1480,1499.0,1300.0,1498.0
4.1263439655303955,158,100,0.002777777777777778,1480,1499.0,1300.0,1498.0
4.15034294128418,157,99,0.0030303030303030303,1480,1499.0,1302.6400000000001,1497.0
4.174384117126465,157,99,0.0030303030303030303,1480,1499.0,1304.0799999999999,1497.0
4.198111057281494,157,99,0.0030303030303030303,1480,1499.0,1305.52,1497.0
4.221987962722778,158,99,0.002717391304347826,1480,1499.0,1306.96,1498.0
4.245882034301758,159,99,0.0026666666666666666,1480,1499.0,1308.4000000000001,1499.0
4.2697670459747314,159,99,0.0026666666666666666,1480,1499.0,1307.04,1499.0
4.293674945831299,159,99,0.002564102564102564,1480,1499.0,1305.6800000000001,1499.0
4.317513942718506,159,99,0.002564102564102564,1480,1499.0,1304.3199999999999,1499.0
4.341482162475586,160,99,0.0026666666666666666,1483.0,1499.0,1302.96,1500.0
4.365548133850098,160,99,0.0025,1485.0,1499.0,1301.5999999999999,1500.0
4.389378070831299,159,99,0.002403846153846154,1485.0,1499.0,1301.5999999999999,1499.0
4.413288116455078,160,99,0.0025,1490.0,1499.0,1301.5999999999999,1500.0
4.4371421337127686,160,99,0.0025,1493.0,1499.0,1301.5999999999999,1500.0
4.461038112640381,160,99,0.002403846153846154,1495.0,1499.0,1301.5999999999999,1500.0
4.485018968582153,162,99,0.002717391304347826,1502.0,1499.0,1301.5999999999999,1502.0
4.508766174316406,160,99,0.002403846153846154,1499.0,1499.0,1301.5999999999999,1500.0
4.532557964324951,160,99,0.002403846153846154,1500.0,1499.0,1301.5999999999999,1500.0
4.556391954421997,160,99,0.002403846153846154,1501.0,1499.0,1301.5999999999999,1500.0
4.5802459716796875,161,99,0.0023148148148148147,1504.0,1499.0,1301.5999999999999,1501.0
4.604439973831177,161,99,0.0023148148148148147,1505.0,1499.0,1301.5999999999999,1501.0
4.6285560131073,161,99,0.002403846153846154,1507.0,1499.0,1301.5999999999999,1501.0
4.652318000793457,161,99,0.002403846153846154,1508.0,1499.0,1301.5999999999999,1501.0
4.676038026809692,161,99,0.002403846153846154,1509.0,1499.0,1301.5999999999999,1501.0
4.6997270584106445,162,99,0.0023148148148148147,1513.0,1499.0,1301.5999999999999,1502.0
4.723803997039795,162,99,0.0023148148148148147,1513.0,1499.0,1301.5999999999999,1502.0
4.747771978378296,162,99,0.002403846153846154,1515.0,1499.0,1301.5999999999999,1502.0
4.771639108657837,162,99,0.002403846153846154,1517.0,1499.0,1301.5999999999999,1502.0
4.7955100536346436,162,99,0.002403846153846154,1519.0,1499.0,1301.5999999999999,1502.0
4.819231986999512,163,99,0.0023148148148148147,1520,1499.0,1301.5999999999999,1503.0
4.843022108078003,163,99,0.0023148148148148147,1520,1499.0,1301.5999999999999,1503.0
4.866804122924805,163,99,0.0023148148148148147,1520,1499.0,1301.5999999999999,1503.0
4.890597105026245,164,99,0.002840909090909091,1520,1499.0,1301.5999999999999,1504.0
4.914530038833618,165,99,0.002717391304347826,1520,1499.0,1301.5999999999999,1505.0
4.938284158706665,162,99,0.002403846153846154,1520,1499.0,1301.5999999999999,1502.0
4.962155103683472,162,99,0.002403846153846154,1520,1499.0,1301.5999999999999,1502.0
4.98600697517395,163,99,0.0023148148148148147,1520,1499.0,1301.5999999999999,1503.0
5.009832143783569,162,99,0.002403846153846154,1520,1499.0,1301.5999999999999,1502.0
5.033851146697998,162,99,0.002403846153846154,1520,1499.0,1301.5999999999999,1502.0
5.057801008224487,162,99,0.002403846153846154,1520,1499.0,1301.5999999999999,1502.0
5.081707954406738,162,99,0.002403846153846154,1520,1499.0,1301.5999999999999,1502.0
5.105587005615234,163,99,0.002840909090909091,1520,1499.0,1301.5999999999999,1503.0
5.129451036453247,162,99,0.002403846153846154,1520,1499.0,1301.5999999999999,1502.0
5.153279066085815,163,99,0.002840909090909091,1520,1499.0,1301.5999999999999,1503.0
5.1770920753479,163,99,0.00267379679144385,1520,1499.0,1301.5999999999999,1503.0
5.20085597038269,163,99,0.00267379679144385,1520,1499.0,1301.5999999999999,1503.0
5.224807024002075,163,99,0.00267379679144385,1520,1499.0,1301.5999999999999,1503.0
