time,frame,x,y,size_inv,roll,pitch,thrust,yaw
0.00035190582275390625,1,158,82,0.0022624434389140274,1499.45,1490.0,1379.5,1500
0.02204298973083496,2,158,82,0.0022624434389140274,1499.4000000000001,1490.0,1379.5,1500
0.04342389106750488,3,159,82,0.002178649237472767,1499.625,1488.7430869783811,1379.5,1500
0.06476593017578125,4,159,82,0.002178649237472767,1499.5999999999999,1488.7430869783811,1379.5,1500
0.08604788780212402,5,159,82,0.002178649237472767,1499.575,1488.7430869783811,1379.5,1500
0.10728597640991211,6,158,82,0.0022624434389140274,1499.2750000000001,1490.0,1379.5,1500
0.128525972366333,7,158,81,0.002403846153846154,1499.2249999999999,1492.1210407239819,1379.75,1500
0.14975595474243164,8,158,82,0.0022624434389140274,1499.175,1490.0,1379.5,1500
0.17116498947143555,9,158,82,0.0022624434389140274,1499.125,1490.0,1379.5,1500
0.19261884689331055,10,158,82,0.002178649237472767,1499.075,1488.7430869783811,1379.5,1500
0.21410298347473145,11,158,82,0.0021008403361344537,1499.075,1487.5759534583065,1379.5,1500
0.2357349395751953,12,158,82,0.0021008403361344537,1499.075,1487.5759534583065,1379.5,1500
0.2573549747467041,13,158,82,0.0023148148148148147,1499.05,1490.7855706385119,1379.5,1500
0.27901792526245117,14,158,82,0.002178649237472767,1499.0250000000001,1488.7430869783811,1379.5,1500
0.3005959987640381,15,158,82,0.0022624434389140274,1499.0,1490.0,1379.5,1500
0.32218480110168457,16,159,82,0.002178649237472767,1499.2750000000001,1488.7430869783811,1379.5,1500
0.3437650203704834,17,158,82,0.002403846153846154,1499.0250000000001,1492.1210407239819,1379.5,1500
0.3653838634490967,18,159,82,0.0023148148148148147,1499.3,1490.7855706385119,1379.5,1500
0.38698291778564453,19,159,82,0.0023148148148148147,1499.325,1490.7855706385119,1379.5,1500
0.4086928367614746,20,159,82,0.0023148148148148147,1499.3499999999999,1490.7855706385119,1379.5,1500
0.4302968978881836,21,159,82,0.0023148148148148147,1499.375,1490.7855706385119,1379.5,1500
0.4519319534301758,22,159,82,0.0023148148148148147,1499.4000000000001,1490.7855706385119,1379.5,1500
0.4735147953033447,23,159,82,0.0023148148148148147,1499.425,1490.7855706385119,1379.5,1500
0.4951767921447754,24,159,82,0.0023148148148148147,1499.45,1490.7855706385119,1379.5,1500
0.5167748928070068,25,159,82,0.0023148148148148147,1499.4749999999999,1490.7855706385119,1379.5,1500
0.5384089946746826,26,159,82,0.0023148148148148147,1499.4749999999999,1490.7855706385119,1379.5,1500
0.5600788593292236,27,159,82,0.0023148148148148147,1499.5,1490.7855706385119,1379.5,1500
0.5819299221038818,28,159,82,0.0023148148148148147,1499.5,1490.7855706385119,1379.5,1500
0.6035809516906738,29,159,82,0.0023148148148148147,1499.5,1490.7855706385119,1379.5,1500
0.6251959800720215,30,159,82,0.0023148148148148147,1499.5,1490.7855706385119,1379.5,1500
0.6467490196228027,31,159,82,0.0023148148148148147,1499.5,1490.7855706385119,1379.5,1500
0.6683659553527832,32,159,82,0.0023148148148148147,1499.5,1490.7855706385119,1379.5,1500
0.6899969577789307,33,159,82,0.0023148148148148147,1499.5,1490.7855706385119,1379.5,1500
0.7117068767547607,34,159,82,0.0023148148148148147,1499.5,1490.7855706385119,1379.5,1500
0.7332968711853027,35,159,82,0.0023148148148148147,1499.5,1490.7855706385119,1379.5,1500
0.7548840045928955,36,159,82,0.0023148148148148147,1499.5,1490.7855706385119,1379.5,1500
0.7764379978179932,37,159,82,0.0023148148148148147,1499.5,1490.7855706385119,1379.5,1500
0.7980878353118896,38,159,82,0.0023148148148148147,1499.5,1490.7855706385119,1379.5,1500
0.8198299407958984,39,159,82,0.0023148148148148147,1499.5,1490.7855706385119,1379.5,1500
0.8414778709411621,40,159,82,0.0023148148148148147,1499.5,1490.7855706385119,1379.5,1500
0.863029956817627,41,159,82,0.0023148148148148147,1499.5,1490.7855706385119,1379.5,1500
0.8846139907836914,42,159,82,0.0023148148148148147,1499.5,1490.7855706385119,1379.5,1500
0.9061520099639893,43,159,82,0.0023148148148148147,1499.5,1490.7855706385119,1379.5,1500
0.9277298450469971,44,159,82,0.0023148148148148147,1499.5,1490.7855706385119,1379.5,1500
0.9492759704589844,45,159,82,0.0023148148148148147,1499.5,1490.7855706385119,1379.5,1500
0.9710829257965088,46,159,82,0.0023148148148148147,1499.5,1490.7855706385119,1379.5,1500
0.992671012878418,47,159,82,0.0023148148148148147,1499.5,1490.7855706385119,1379.5,1500
1.014258861541748,48,159,82,0.0023148148148148147,1499.5,1490.7855706385119,1379.5,1500
1.0357999801635742,49,159,82,0.0023148148148148147,1499.5,1490.7855706385119,1379.5,1500
1.0574119091033936,50,159,82,0.0023148148148148147,1499.5,1490.7855706385119,1379.5,1500
1.0790009498596191,51,159,82,0.0023148148148148147,1499.5,1490.7855706385119,1379.5,1500
1.1005859375,52,159,82,0.0023148148148148147,1499.5,1490.7855706385119,1379.5,1500
1.1221308708190918,53,159,82,0.0023148148148148147,1499.5,1490.7855706385119,1379.5,1500
1.1436958312988281,54,159,82,0.0023148148148148147,1499.5,1490.7855706385119,1379.5,1500
1.165299892425537,55,159,82,0.0023148148148148147,1499.5,1490.7855706385119,1379.5,1500
1.1870818138122559,56,159,82,0.0023148148148148147,1499.5,1490.7855706385119,1379.5,1500
1.2088468074798584,57,159,82,0.0023148148148148147,1499.5,1490.7855706385119,1379.5,1500
1.2304439544677734,58,159,82,0.0023148148148148147,1499.5,1490.7855706385119,1379.5,1500
1.2520289421081543,59,159,82,0.0023148148148148147,1499.5,1490.7855706385119,1379.5,1500
1.2736108303070068,60,159,82,0.0023148148148148147,1499.5,1490.7855706385119,1379.5,1500
1.2951629161834717,61,159,82,0.0023148148148148147,1499.5,1490.7855706385119,1379.5,1500
1.316788911819458,62,159,82,0.0023148148148148147,1499.5,1490.7855706385119,1379.5,1500
1.3385310173034668,63,159,82,0.0023148148148148147,1499.5,1490.7855706385119,1379.5,1500
1.3601768016815186,64,159,82,0.0023148148148148147,1499.5,1490.7855706385119,1379.5,1500
1.3817529678344727,65,159,82,0.0023148148148148147,1499.5,1490.7855706385119,1379.5,1500
1.4033219814300537,66,159,82,0.0023148148148148147,1499.5,1490.7855706385119,1379.5,1500
1.4248619079589844,67,159,82,0.0023148148148148147,1499.5,1490.7855706385119,1379.5,1500
1.446448802947998,68,159,82,0.0023148148148148147,1499.5,1490.7855706385119,1379.5,1500
1.4680049419403076,69,159,82,0.0023148148148148147,1499.5,1490.7855706385119,1379.5,1500
1.4895730018615723,70,159,82,0.0023148148148148147,1499.5,1490.7855706385119,1379.5,1500
1.5111219882965088,71,159,82,0.0023148148148148147,1499.5,1490.7855706385119,1379.5,1500
1.5327188968658447,72,159,82,0.0023148148148148147,1499.5,1490.7855706385119,1379.5,1500
1.5542869567871094,73,159,82,0.0023148148148148147,1499.5,1490.7855706385119,1379.5,1500
1.5758869647979736,74,159,82,0.0023148148148148147,1499.5,1490.7855706385119,1379.5,1500
1.597463846206665,75,159,82,0.0023148148148148147,1499.5,1490.7855706385119,1379.5,1500
1.6190857887268066,76,159,82,0.0023148148148148147,1499.5,1490.7855706385119,1379.5,1500
1.6406400203704834,77,159,82,0.0023148148148148147,1499.5,1490.7855706385119,1379.5,1500
1.6622138023376465,78,159,82,0.0023148148148148147,1499.5,1490.7855706385119,1379.5,1500
1.6837859153747559,79,159,82,0.0023148148148148147,1499.5,1490.7855706385119,1379.5,1500
1.705353021621704,80,159,82,0.0023148148148148147,1499.5,1490.7855706385119,1379.5,1500
1.7268970012664795,81,159,82,0.0023148148148148147,1499.5,1490.7855706385119,1379.5,1500
1.7485649585723877,82,159,82,0.0023148148148148147,1499.5,1490.7855706385119,1379.5,1500
1.770155906677246,83,159,82,0.0023148148148148147,1499.5,1490.7855706385119,1379.5,1500
1.791747808456421,84,159,82,0.0023148148148148147,1499.5,1490.7855706385119,1379.5,1500
1.8132848739624023,85,159,82,0.0023148148148148147,1499.5,1490.7855706385119,1379.5,1500
1.8348419666290283,86,159,82,0.0023148148148148147,1499.5,1490.7855706385119,1379.5,1500
1.856374979019165,87,159,82,0.0023148148148148147,1499.5,1490.7855706385119,1379.5,1500
1.8779478073120117,88,159,82,0.0023148148148148147,1499.5,1490.7855706385119,1379.5,1500
1.8994898796081543,89,159,82,0.0023148148148148147,1499.5,1490.7855706385119,1379.5,1500
1.9210519790649414,90,159,82,0.0023148148148148147,1499.5,1490.7855706385119,1379.5,1500
1.9428188800811768,91,159,82,0.0023148148148148147,1499.5,1490.7855706385119,1379.5,1500
1.964411973953247,92,159,82,0.0023148148148148147,1499.5,1490.7855706385119,1379.5,1500
1.9859659671783447,93,159,82,0.0023148148148148147,1499.5,1490.7855706385119,1379.5,1500
2.00757098197937,94,159,82,0.0023148148148148147,1499.5,1490.7855706385119,1379.5,1500
2.0291779041290283,95,159,82,0.0023148148148148147,1499.5,1490.7855706385119,1379.5,1500
2.050748825073242,96,159,82,0.0023148148148148147,1499.5,1490.7855706385119,1379.5,1500
2.072293996810913,97,159,82,0.0023148148148148147,1499.5,1490.7855706385119,1379.5,1500
2.093963861465454,98,159,82,0.0023148148148148147,1499.5,1490.7855706385119,1379.5,1500
2.115691900253296,99,159,82,0.0023148148148148147,1499.5,1490.7855706385119,1379.5,1500
2.137341022491455,100,159,82,0.0023148148148148147,1499.5,1490.7855706385119,1379.5,1500
2.158939838409424,101,159,82,0.0023148148148148147,1499.5,1490.7855706385119,1379.5,1500
2.180510997772217,102,159,82,0.0023148148148148147,1499.5,1490.7855706385119,1379.5,1500
2.2020699977874756,103,159,82,0.0023148148148148147,1499.5,1490.7855706385119,1379.5,1500
2.2236318588256836,104,159,82,0.0023148148148148147,1499.5,1490.7855706385119,1379.5,1500
2.2451798915863037,105,159,82,0.0023148148148148147,1499.5,1490.7855706385119,1379.5,1500
2.2667508125305176,106,159,82,0.0023148148148148147,1499.5,1490.7855706385119,1379.5,1500
2.2883198261260986,107,159,82,0.0023148148148148147,1499.5,1490.7855706385119,1379.5,1500
2.309911012649536,108,159,82,0.0023148148148148147,1499.5,1490.7855706385119,1379.5,1500
2.3314437866210938,109,159,82,0.0023148148148148147,1499.5,1490.7855706385119,1379.5,1500
2.353015899658203,110,159,82,0.0023148148148148147,1499.5,1490.7855706385119,1379.5,1500
2.37454891204834,111,159,82,0.0023148148148148147,1499.5,1490.7855706385119,1379.5,1500
2.3961219787597656,112,159,82,0.0023148148148148147,1499.5,1490.7855706385119,1379.5,1500
2.4176650047302246,113,159,82,0.0023148148148148147,1499.5,1490.7855706385119,1379.5,1500
2.439262866973877,114,159,82,0.0023148148148148147,1499.5,1490.7855706385119,1379.5,1500
2.460801839828491,115,159,82,0.0023148148148148147,1499.5,1490.7855706385119,1379.5,1500
2.482381820678711,116,159,82,0.0023148148148148147,1499.5,1490.7855706385119,1379.5,1500
2.5039420127868652,117,159,82,0.0023148148148148147,1499.5,1490.7855706385119,1379.5,1500
2.5255308151245117,118,159,82,0.0023148148148148147,1499.5,1490.7855706385119,1379.5,1500
2.5471088886260986,119,159,82,0.0023148148148148147,1499.5,1490.7855706385119,1379.5,1500
2.5687568187713623,120,159,82,0.0023148148148148147,1499.5,1490.7855706385119,1379.5,1500
2.5903139114379883,121,159,82,0.0023148148148148147,1499.5,1490.7855706385119,1379.5,1500
2.6118857860565186,122,159,82,0.0023148148148148147,1499.5,1490.7855706385119,1379.5,1500
2.633448839187622,123,159,82,0.0023148148148148147,1499.5,1490.7855706385119,1379.5,1500
2.6550378799438477,124,159,82,0.0023148148148148147,1499.5,1490.7855706385119,1379.5,1500
2.6766037940979004,125,159,82,0.0023148148148148147,1499.5,1490.7855706385119,1379.5,1500
2.6981890201568604,126,159,82,0.0023148148148148147,1499.5,1490.7855706385119,1379.5,1500
2.719730854034424,127,159,82,0.0023148148148148147,1499.5,1490.7855706385119,1379.5,1500
2.741318941116333,128,159,82,0.0023148148148148147,1499.5,1490.7855706385119,1379.5,1500
2.76287579536438,129,159,82,0.0023148148148148147,1499.5,1490.7855706385119,1379.5,1500
2.7845029830932617,130,159,82,0.0023148148148148147,1499.5,1490.7855706385119,1379.5,1500
2.806088924407959,131,159,82,0.0023148148148148147,1499.5,1490.7855706385119,1379.5,1500
2.8276968002319336,132,159,82,0.0023148148148148147,1499.5,1490.7855706385119,1379.5,1500
2.849339008331299,133,159,82,0.0023148148148148147,1499.5,1490.7855706385119,1379.5,1500
2.871083974838257,134,159,82,0.0023148148148148147,1499.5,1490.7855706385119,1379.5,1500
2.8926799297332764,135,159,82,0.0023148148148148147,1499.5,1490.7855706385119,1379.5,1500
2.9142680168151855,136,159,82,0.0023148148148148147,1499.5,1490.7855706385119,1379.5,1500
2.93601393699646,137,159,82,0.0023148148148148147,1499.5,1490.7855706385119,1379.5,1500
2.957606792449951,138,159,82,0.0023148148148148147,1499.5,1490.7855706385119,1379.5,1500
2.979142904281616,139,159,82,0.0023148148148148147,1499.5,1490.7855706385119,1379.5,1500
3.0007078647613525,140,159,82,0.0023148148148148147,1499.5,1490.7855706385119,1379.5,1500
3.022247791290283,141,159,82,0.0023148148148148147,1499.5,1490.7855706385119,1379.5,1500
3.0438427925109863,142,159,82,0.0023148148148148147,1499.5,1490.7855706385119,1379.5,1500
3.0654280185699463,143,159,82,0.0023148148148148147,1499.5,1490.7855706385119,1379.5,1500
