time,x,y,size_inv,roll,pitch,thrust,yaw
0.0004379749298095703,156,40,0.002028397565922921,1488.0,1500.0,1342,1496.0
0.0222470760345459,155,38,0.0017857142857142857,1481.0,1500.0,1342,1495.0
0.04396700859069824,156,40,0.0021551724137931034,1480,1500.0,1342,1496.0
0.06537008285522461,155,35,0.0013227513227513227,1480,1500.0,1342,1495.0
0.08678603172302246,155,40,0.002232142857142857,1480,1500.0,1342,1495.0
0.10828399658203125,156,40,0.002028397565922921,1480,1500.0,1342,1496.0
0.12974810600280762,155,39,0.001984126984126984,1480,1500.0,1342,1495.0
0.15118193626403809,156,40,0.0021551724137931034,1480,1500.0,1342,1496.0
0.1726980209350586,155,34,0.0012755102040816326,1480,1500.0,1342,1495.0
0.1942429542541504,155,35,0.0013227513227513227,1480,1500.0,1342,1495.0
0.21585893630981445,155,35,0.0013227513227513227,1480,1500.0,1342,1495.0
0.23765110969543457,156,35,0.001277139208173691,1480,1500.0,1342,1496.0
0.2594170570373535,156,40,0.0022988505747126436,1480,1500.0,1342,1496.0
0.28118896484375,155,34,0.0013227513227513227,1480,1500.0,1342,1495.0
0.3030099868774414,156,36,0.0015527950310559005,1480,1500.0,1342,1496.0
0.3248250484466553,157,35,0.001277139208173691,1480,1500.0,1342,1497.0
0.3465859889984131,157,41,0.002232142857142857,1480,1500.0,1342,1497.0
0.36834001541137695,157,36,0.0012755102040816326,1480,1500.0,1342,1497.0
0.3900868892669678,159,38,0.001326259946949602,1480,1500.0,1342,1499.0
0.41187095642089844,161,40,0.0012755102040816326,1480,1500.0,1342,1501.0
0.4336709976196289,162,42,0.0012755102040816326,1480.0,1500.0,1342,1502.0
0.4554710388183594,163,43,0.0012755102040816326,1489.0,1500.0,1342,1503.0
0.4772670269012451,164,49,0.0018148820326678765,1499.0,1500.0,1342,1504.0
0.49907803535461426,165,46,0.001326259946949602,1511.0,1500.0,1342,1505.0
0.5208690166473389,164,46,0.0012755102040816326,1517.0,1500.0,1342,1504.0
0.5427560806274414,164,52,0.001984126984126984,1520,1500.0,1342,1504.0
0.564640998840332,165,49,0.0014367816091954023,1520,1500.0,1342,1505.0
0.5864379405975342,164,48,0.0012315270935960591,1520,1500.0,1342,1504.0
0.6082460880279541,164,53,0.0017241379310344827,1520,1500.0,1342,1504.0
0.6300458908081055,164,49,0.0011494252873563218,1520,1500.0,1342,1504.0
0.6518089771270752,164,54,0.001567398119122257,1520,1500.0,1342,1504.0
0.6735589504241943,163,52,0.0012315270935960591,1520,1500.0,1342,1503.0
0.6953349113464355,163,57,0.0016233766233766235,1520,1500.0,1342,1503.0
0.7170960903167725,163,59,0.0017006802721088435,1520,1500.0,1342,1503.0
0.7388410568237305,162,56,0.0012315270935960591,1520,1500.0,1342,1502.0
0.7606029510498047,162,57,0.0012315270935960591,1520,1500.0,1342,1502.0
0.7823851108551025,162,64,0.002232142857142857,1520,1500.0,1342,1502.0
0.8042099475860596,163,65,0.0021551724137931034,1520,1500.0,1342,1503.0
0.8260159492492676,162,64,0.001851851851851852,1520,1500.0,1342,1502.0
0.8477880954742432,162,60,0.001152073732718894,1520,1500.0,1342,1502.0
0.8695530891418457,162,62,0.0011111111111111111,1520,1500.0,1342,1502.0
0.8913381099700928,162,64,0.0011904761904761906,1520,1500.0,1342,1502.0
0.913093090057373,161,71,0.001984126984126984,1520,1500.0,1342,1501.0
0.9348580837249756,161,66,0.0011904761904761906,1520,1500.0,1342,1501.0
0.9566569328308105,161,67,0.0011160714285714285,1520.0,1500.0,1342,1501.0
0.9784789085388184,161,68,0.0011160714285714285,1519.0,1500.0,1342,1501.0
1.0003008842468262,161,76,0.001984126984126984,1518.0,1500.0,1342,1501.0
1.0221199989318848,161,77,0.002232142857142857,1516.0,1500.0,1342,1501.0
1.0440590381622314,161,71,0.0011947431302270011,1515.0,1500.0,1342,1501.0
1.0659000873565674,161,78,0.001984126984126984,1514.0,1500.0,1340.0,1501.0
1.0877399444580078,161,80,0.002178649237472767,1513.0,1500.0,1335.0999999999999,1501.0
1.1096000671386719,161,80,0.001851851851851852,1512.0,1500.0,1336.3,1501.0
1.1314868927001953,161,83,0.0017543859649122807,1512.0,1500.0,1330.3,1501.0
1.1533539295196533,161,84,0.0017543859649122807,1512.0,1500.0,1327.0999999999999,1501.0
1.1752080917358398,161,86,0.0018148820326678765,1512.0,1500.0,1323.55,1501.0
1.1972880363464355,161,87,0.0019157088122605363,1512.0,1500.0,1322.3,1501.0
1.2191710472106934,160,89,0.0017543859649122807,1509.0,1500.0,1317.55,1500.0
1.2410500049591064,160,90,0.0017543859649122807,1508.0,1500.0,1315.4000000000001,1500.0
1.2629830837249756,160,91,0.0019157088122605363,1507.0,1500.0,1314.3,1500.0
1.2849459648132324,159,93,0.00196078431372549,1503.0,1500.0,1310.45,1499.0
1.306792974472046,160,92,0.0015360983102918587,1504.0,1500.0,1312.75,1500.0
1.3286759853363037,159,87,0.0010416666666666667,1500.0,1500.0,1324.4000000000001,1499.0
1.3505470752716064,159,95,0.0018148820326678765,1498.0,1500.0,1308.7,1499.0
1.3724370002746582,158,96,0.001851851851851852,1493.0,1500.0,1307.0,1498.0
1.394347906112671,158,98,0.001851851851851852,1490.0,1500.0,1303.3,1498.0
1.4162089824676514,157,98,0.0017857142857142857,1484.0,1500.0,1303.1500000000001,1497.0
1.4380850791931152,157,99,0.0016666666666666668,1481.0,1500.0,1299.05,1497.0
1.459925889968872,157,99,0.0015151515151515152,1480,1500.0,1299.2,1497.0
1.4817450046539307,157,99,0.001282051282051282,1480,1500.0,1299.5,1497.0
1.5035679340362549,156,104,0.001851851851851852,1480,1500.0,1289.3499999999999,1496.0
1.5254020690917969,155,105,0.0018796992481203006,1480,1500.0,1287.2,1495.0
1.5472710132598877,156,105,0.001851851851851852,1480,1500.0,1288.0999999999999,1496.0
1.5692620277404785,156,106,0.001851851851851852,1480,1500.0,1285.6500000000001,1496.0
1.5911130905151367,156,106,0.0015360983102918587,1480,1500.0,1285.05,1496.0
1.6130120754241943,155,107,0.0016666666666666668,1480,1500.0,1283.5,1495.0
1.6348669528961182,155,108,0.0017543859649122807,1480,1500.0,1282.0999999999999,1495.0
1.656693935394287,155,109,0.0017543859649122807,1480,1500.0,1280.4000000000001,1495.0
1.6785199642181396,155,110,0.0018148820326678765,1480,1500.0,1278.8499999999999,1495.0
1.7003419399261475,155,109,0.0016129032258064516,1480,1500.0,1281.45,1495.0
1.7221519947052002,154,110,0.0017006802721088435,1480,1500.0,1279.45,1494.0
1.7441000938415527,154,110,0.0016666666666666668,1480,1500.0,1279.5999999999999,1494.0
1.765923023223877,154,111,0.0018148820326678765,1480,1500.0,1277.9000000000001,1494.0
1.7877578735351562,155,110,0.0016129032258064516,1480,1500.0,1280.5,1495.0
1.8095688819885254,155,110,0.0015873015873015873,1480,1500.0,1280.8,1495.0
1.8314099311828613,155,110,0.0016666666666666668,1480,1500.0,1281.25,1495.0
1.8532309532165527,155,109,0.0016666666666666668,1480,1500.0,1283.7,1495.0
1.8750510215759277,154,110,0.0017006802721088435,1480,1500.0,1282.1500000000001,1494.0
1.896873950958252,155,110,0.0016666666666666668,1480,1500.0,1282.1500000000001,1495.0
1.9186968803405762,155,110,0.0016420361247947454,1480,1500.0,1282.3,1495.0
1.9405100345611572,156,110,0.001697792869269949,1480,1500.0,1282.3,1496.0
1.9623680114746094,156,109,0.0016129032258064516,1480,1500.0,1284.1500000000001,1496.0
1.9842870235443115,156,109,0.0015360983102918587,1480,1500.0,1284.1500000000001,1496.0
2.0061020851135254,156,108,0.0016666666666666668,1480,1500.0,1286.45,1496.0
2.0279550552368164,157,108,0.0016129032258064516,1480,1500.0,1286.75,1497.0
2.0497679710388184,156,107,0.0016666666666666668,1480,1500.0,1289.2,1496.0
2.0715770721435547,157,107,0.0016420361247947454,1480,1500.0,1289.5,1497.0
2.0934009552001953,157,106,0.0015360983102918587,1480,1500.0,1291.8,1497.0
2.1152210235595703,157,105,0.0016666666666666668,1480,1500.0,1293.95,1497.0
2.1370460987091064,157,104,0.0015873015873015873,1480,1500.0,1296.25,1497.0
2.158874034881592,158,103,0.0015873015873015873,1480,1500.0,1298.4000000000001,1498.0
2.180720090866089,158,101,0.0016129032258064516,1480,1500.0,1303.0,1498.0
2.2025880813598633,159,100,0.0016129032258064516,1480,1500.0,1305.45,1499.0
2.2244749069213867,158,99,0.0015151515151515152,1480,1500.0,1307.9000000000001,1498.0
2.246304988861084,159,98,0.0015360983102918587,1480,1500.0,1310.2,1499.0
2.2681400775909424,159,97,0.0016129032258064516,1480,1500.0,1312.5,1499.0
2.2899410724639893,159,96,0.0015625,1480,1500.0,1314.3499999999999,1499.0
2.3120009899139404,160,95,0.0015360983102918587,1484.0,1500.0,1316.2,1500.0
2.3338561058044434,160,93,0.001402524544179523,1487.0,1500.0,1320.2,1500.0
2.355699062347412,160,93,0.0015360983102918587,1490.0,1500.0,1320.05,1500.0
2.377556085586548,160,92,0.0015360983102918587,1492.0,1500.0,1321.9000000000001,1500.0
2.3994269371032715,160,91,0.001488095238095238,1494.0,1500.0,1323.9000000000001,1500.0
2.421278953552246,160,85,0.001075268817204301,1495.0,1500.0,1336.6500000000001,1500.0
2.4431569576263428,160,89,0.0015873015873015873,1497.0,1500.0,1328.3499999999999,1500.0
2.4650120735168457,161,88,0.0016129032258064516,1501.0,1500.0,1330.3499999999999,1501.0
2.4869470596313477,160,87,0.0016666666666666668,1500.0,1500.0,1332.3499999999999,1500.0
2.508979082107544,161,79,0.0009765625,1504.0,1500.0,1342,1501.0
2.530848979949951,161,82,0.0014204545454545455,1505.0,1500.0,1342,1501.0
2.552772045135498,162,82,0.0015360983102918587,1509.0,1500.0,1342,1502.0
2.5746970176696777,162,80,0.0015360983102918587,1511.0,1500.0,1342,1502.0
2.596544027328491,162,73,0.0009765625,1513.0,1500.0,1342,1502.0
2.6184020042419434,162,77,0.0015625,1515.0,1500.0,1342,1502.0
2.6402158737182617,162,76,0.001488095238095238,1517.0,1500.0,1342,1502.0
2.6620240211486816,162,74,0.0015625,1519.0,1500.0,1342,1502.0
2.6838159561157227,162,74,0.001644736842105263,1520.0,1500.0,1342,1502.0
2.705627918243408,163,72,0.0015360983102918587,1520,1500.0,1342,1503.0
2.727389097213745,163,70,0.001466275659824047,1520,1500.0,1342,1503.0
2.7491469383239746,163,70,0.001697792869269949,1520,1500.0,1342,1503.0
2.770937919616699,163,69,0.001697792869269949,1520,1500.0,1342,1503.0
2.7928049564361572,162,68,0.001697792869269949,1520,1500.0,1342,1502.0
2.8146979808807373,162,66,0.001697792869269949,1520,1500.0,1342,1502.0
2.8364920616149902,162,65,0.001697792869269949,1520,1500.0,1342,1502.0
2.858293056488037,162,63,0.0017543859649122807,1520,1500.0,1342,1502.0
2.8800718784332275,161,62,0.001851851851851852,1520,1500.0,1342,1501.0
2.9018399715423584,162,61,0.001697792869269949,1520,1500.0,1342,1502.0
2.9235758781433105,161,60,0.0017543859649122807,1520,1500.0,1342,1501.0
2.945352077484131,161,59,0.001697792869269949,1520,1500.0,1342,1501.0
2.967150926589966,161,59,0.0018975332068311196,1519.0,1500.0,1342,1501.0
2.988970994949341,161,58,0.001697792869269949,1517.0,1500.0,1342,1501.0
3.010806083679199,161,57,0.0017921146953405018,1516.0,1500.0,1342,1501.0
3.0326809883117676,161,56,0.0017921146953405018,1515.0,1500.0,1342,1501.0
3.054543972015381,161,55,0.001851851851851852,1514.0,1500.0,1342,1501.0
3.0763659477233887,161,55,0.001644736842105263,1513.0,1500.0,1342,1501.0
3.0981879234313965,162,54,0.0017921146953405018,1516.0,1500.0,1342,1502.0
3.1199920177459717,162,53,0.0017921146953405018,1516.0,1500.0,1342,1502.0
3.1418070793151855,162,53,0.0017543859649122807,1517.0,1500.0,1342,1502.0
3.163606882095337,163,50,0.001466275659824047,1520,1500.0,1342,1503.0
3.185364007949829,163,51,0.001697792869269949,1520,1500.0,1342,1503.0
3.207127094268799,163,50,0.001851851851851852,1520,1500.0,1342,1503.0
3.228921890258789,163,49,0.001851851851851852,1520,1500.0,1342,1503.0
3.2506840229034424,164,50,0.0018975332068311196,1520,1500.0,1342,1504.0
3.2725000381469727,164,45,0.0011947431302270011,1520,1500.0,1342,1504.0
3.2943270206451416,164,50,0.0020161290322580645,1520,1500.0,1342,1504.0
3.3160970211029053,163,50,0.001953125,1520,1500.0,1342,1503.0
3.337857961654663,164,50,0.0020161290322580645,1520,1500.0,1342,1504.0
3.3596129417419434,164,50,0.0020161290322580645,1520,1500.0,1342,1504.0
3.3813769817352295,164,49,0.0017921146953405018,1520,1500.0,1342,1504.0
3.4031291007995605,164,49,0.001838235294117647,1520,1500.0,1342,1504.0
3.424910068511963,164,42,0.0011160714285714285,1520,1500.0,1342,1504.0
3.4466750621795654,164,47,0.0018975332068311196,1520,1500.0,1342,1504.0
3.4684391021728516,164,46,0.0020833333333333333,1520,1500.0,1342,1504.0
3.490199089050293,164,46,0.001838235294117647,1520,1500.0,1342,1504.0
3.5119659900665283,164,46,0.0020161290322580645,1520,1500.0,1342,1504.0
3.5340099334716797,164,46,0.0020161290322580645,1520,1500.0,1342,1504.0
3.555816888809204,164,46,0.0017921146953405018,1520,1500.0,1342,1504.0
3.578157901763916,163,42,0.0011494252873563218,1520,1500.0,1342,1503.0
3.601586103439331,163,48,0.0020161290322580645,1520,1500.0,1342,1503.0
3.6248788833618164,162,49,0.00196078431372549,1520,1500.0,1342,1502.0
3.6481029987335205,163,43,0.001152073732718894,1520,1500.0,1342,1503.0
3.6713368892669678,162,45,0.0013440860215053765,1520,1500.0,1342,1502.0
3.694554090499878,162,49,0.0018975332068311196,1520,1500.0,1342,1502.0
3.7178070545196533,161,48,0.0020833333333333333,1520,1500.0,1342,1501.0
3.741010904312134,161,48,0.0018975332068311196,1520,1500.0,1342,1501.0
3.7642829418182373,160,48,0.001838235294117647,1520,1500.0,1342,1500.0
3.7875258922576904,160,49,0.0018975332068311196,1517.0,1500.0,1342,1500.0
3.8108439445495605,159,49,0.0018975332068311196,1511.0,1500.0,1342,1499.0
3.834188938140869,159,50,0.0018975332068311196,1507.0,1500.0,1342,1499.0
3.8575029373168945,158,47,0.0013440860215053765,1501.0,1500.0,1342,1498.0
3.8808419704437256,157,51,0.001736111111111111,1493.0,1500.0,1342,1497.0
3.904186964035034,157,52,0.0017921146953405018,1488.0,1500.0,1342,1497.0
3.9274909496307373,157,53,0.0018975332068311196,1483.0,1500.0,1342,1497.0
3.950814962387085,157,52,0.0017921146953405018,1480,1500.0,1342,1497.0
3.9740819931030273,156,52,0.001736111111111111,1480,1500.0,1342,1496.0
3.9973158836364746,156,50,0.001358695652173913,1480,1500.0,1342,1496.0
4.020544052124023,156,53,0.001736111111111111,1480,1500.0,1342,1496.0
4.043765068054199,156,54,0.0018975332068311196,1480,1500.0,1342,1496.0
4.067034959793091,156,49,0.0011160714285714285,1480,1500.0,1342,1496.0
4.090271949768066,156,55,0.001736111111111111,1480,1500.0,1342,1496.0
4.1135289669036865,156,53,0.0011574074074074073,1480,1500.0,1342,1496.0
4.136775016784668,156,52,0.001075268817204301,1480,1500.0,1342,1496.0
4.159976959228516,156,59,0.0017921146953405018,1480,1500.0,1342,1496.0
4.183274984359741,155,53,0.0010416666666666667,1480,1500.0,1342,1495.0
4.206618070602417,155,60,0.0017921146953405018,1480,1500.0,1342,1495.0
4.229885101318359,155,54,0.0010080645161290322,1480,1500.0,1342,1495.0
4.2532799243927,155,61,0.001736111111111111,1480,1500.0,1342,1495.0
4.276655912399292,154,62,0.0017921146953405018,1480,1500.0,1342,1494.0
4.29991888999939,154,63,0.001697792869269949,1480,1500.0,1342,1494.0
4.323288917541504,154,63,0.001736111111111111,1480,1500.0,1342,1494.0
4.346688985824585,154,57,0.0009765625,1480,1500.0,1342,1494.0
4.3699400424957275,155,64,0.001443001443001443,1480,1500.0,1342,1495.0
4.393349885940552,154,66,0.001644736842105263,1480,1500.0,1342,1494.0
4.4167749881744385,153,62,0.0011160714285714285,1480,1500.0,1342,1493.0
4.440013885498047,153,63,0.0011123470522803114,1480,1500.0,1342,1493.0
4.4633660316467285,153,63,0.0009775171065493646,1480,1500.0,1342,1493.0
4.486716032028198,153,70,0.0014705882352941176,1480,1500.0,1342,1493.0
4.509926080703735,152,64,0.0009191176470588235,1480,1500.0,1342,1492.0
4.533287048339844,152,68,0.001152073732718894,1480,1500.0,1342,1492.0
4.556700944900513,152,67,0.0009765625,1480,1500.0,1342,1492.0
4.579973936080933,152,67,0.0008928571428571428,1480,1500.0,1342,1492.0
4.603413105010986,153,75,0.001443001443001443,1480,1500.0,1342,1493.0
4.626842975616455,152,68,0.0008680555555555555,1480,1500.0,1342,1492.0
4.6500959396362305,153,69,0.0008169934640522876,1480,1500.0,1342,1493.0
4.673485994338989,153,71,0.0008403361344537816,1480,1500.0,1342,1493.0
4.696901082992554,153,71,0.0007936507936507937,1480,1500.0,1342,1493.0
4.720113039016724,153,72,0.0007722007722007722,1480,1500.0,1342,1493.0
4.7435009479522705,153,73,0.0007936507936507937,1480,1500.0,1342,1493.0
4.76689600944519,153,74,0.0007716049382716049,1480,1500.0,1342,1493.0
4.790131092071533,153,75,0.0007936507936507937,1480,1500.0,1342,1493.0
4.813507080078125,153,78,0.0008163265306122449,1480,1500.0,1342,1493.0
4.836903095245361,153,76,0.0007518796992481203,1480,1500.0,1342,1493.0
4.860411882400513,153,82,0.0010204081632653062,1480,1500.0,1333.6500000000001,1493.0
4.883764028549194,153,78,0.0007309941520467836,1480,1500.0,1341.8,1493.0
4.907103061676025,153,79,0.0007309941520467836,1480,1500.0,1339.8,1493.0
4.930429935455322,153,81,0.0007936507936507937,1480,1500.0,1336.4000000000001,1493.0
4.95379900932312,153,88,0.001142857142857143,1480,1500.0,1321.2,1493.0
4.977112054824829,154,83,0.0007122507122507123,1480,1500.0,1332.4000000000001,1494.0
5.000475883483887,154,84,0.0007309941520467836,1480,1500.0,1330.0999999999999,1494.0
5.023829936981201,154,87,0.0008169934640522876,1480,1500.0,1323.5,1494.0
5.047122955322266,155,87,0.0007304601899196494,1480,1500.0,1323.05,1495.0
5.070487022399902,155,88,0.0007304601899196494,1480,1500.0,1322.8499999999999,1495.0
5.093873023986816,155,88,0.0007122507122507123,1480,1500.0,1322.25,1495.0
5.11722207069397,156,91,0.0007722007722007722,1480,1500.0,1316.0999999999999,1496.0
5.140538930892944,156,93,0.0008445945945945946,1480,1500.0,1312.4000000000001,1496.0
5.163877010345459,156,97,0.0010395010395010396,1480,1500.0,1303.8,1496.0
5.1872239112854,156,97,0.0009074410163339383,1480,1500.0,1302.45,1496.0
5.2105090618133545,156,99,0.0010683760683760685,1480,1500.0,1297.55,1496.0
5.233886957168579,157,100,0.0010395010395010396,1480,1500.0,1295.25,1497.0
5.257206916809082,157,101,0.001081081081081081,1480,1500.0,1292.95,1497.0
5.280523061752319,157,101,0.0010395010395010396,1480,1500.0,1293.8499999999999,1497.0
5.303893089294434,157,101,0.0010121457489878543,1480,1500.0,1294.5999999999999,1497.0
5.327217102050781,158,103,0.001001001001001001,1480,1500.0,1291.6500000000001,1498.0
5.350570917129517,158,103,0.001001001001001001,1480,1500.0,1292.55,1498.0
5.373900890350342,159,103,0.001001001001001001,1480,1500.0,1293.45,1499.0
5.397240877151489,160,103,0.000949667616334283,1480,1500.0,1293.75,1500.0
5.420541048049927,160,104,0.0010395010395010396,1480,1500.0,1291.9000000000001,1500.0
5.443892002105713,161,104,0.000949667616334283,1486.0,1500.0,1292.3499999999999,1501.0
5.467320919036865,161,104,0.0010395010395010396,1490.0,1500.0,1292.6500000000001,1501.0
5.490731954574585,162,105,0.000949667616334283,1497.0,1500.0,1290.6500000000001,1502.0
5.514172077178955,163,105,0.0009861932938856016,1505.0,1500.0,1290.6500000000001,1503.0
5.537574052810669,163,104,0.0009157509157509158,1511.0,1500.0,1293.0999999999999,1503.0
5.560960054397583,163,104,0.0009615384615384616,1516.0,1500.0,1293.25,1503.0
5.584390878677368,164,104,0.000949667616334283,1520,1500.0,1293.4000000000001,1504.0
5.6077799797058105,164,104,0.000949667616334283,1520,1500.0,1293.8499999999999,1504.0
5.631151914596558,164,103,0.000949667616334283,1520,1500.0,1296.45,1504.0
5.654834985733032,165,102,0.0009861932938856016,1520,1500.0,1298.75,1505.0
5.678416967391968,164,102,0.000949667616334283,1520,1500.0,1299.05,1504.0
5.702008962631226,164,101,0.000949667616334283,1520,1500.0,1301.5,1504.0
5.725766897201538,164,100,0.0009861932938856016,1520,1500.0,1303.95,1504.0
5.749382972717285,163,99,0.0009615384615384616,1520,1500.0,1306.25,1503.0
5.7731099128723145,163,99,0.0010256410256410256,1520,1500.0,1306.4000000000001,1503.0
5.796905994415283,163,98,0.0010256410256410256,1520,1500.0,1308.7,1503.0
5.820501089096069,162,97,0.001,1520,1500.0,1310.8499999999999,1502.0
5.844059944152832,161,96,0.0010526315789473684,1520,1500.0,1312.8499999999999,1501.0
5.867672920227051,160,95,0.0010526315789473684,1520,1500.0,1314.8499999999999,1500.0
5.891371965408325,160,94,0.001,1520,1500.0,1317.1500000000001,1500.0
5.915005922317505,159,93,0.0010121457489878543,1517.0,1500.0,1319.3,1499.0
5.938694953918457,159,91,0.0009157509157509158,1512.0,1500.0,1323.5999999999999,1499.0
5.962394952774048,158,88,0.0008620689655172414,1504.0,1500.0,1330.2,1498.0
5.986435890197754,157,89,0.0010416666666666667,1496.0,1500.0,1328.5,1497.0
6.010111093521118,156,87,0.0009615384615384616,1487.0,1500.0,1332.8,1496.0
6.033881902694702,156,86,0.0009861932938856016,1480.0,1500.0,1335.0999999999999,1496.0
6.057811975479126,155,86,0.001,1480,1500.0,1334.95,1495.0
6.081377983093262,155,81,0.0007575757575757576,1480,1500.0,1342,1495.0
6.104974985122681,155,82,0.0008410428931875525,1480,1500.0,1342,1495.0
6.128544092178345,155,80,0.0008710801393728223,1480,1500.0,1342,1495.0
6.152237892150879,155,75,0.0006968641114982578,1480,1500.0,1342,1495.0
6.176021099090576,155,77,0.0008710801393728223,1480,1500.0,1342,1495.0
6.199578046798706,156,75,0.0008410428931875525,1480,1500.0,1342,1496.0
6.223254919052124,156,72,0.0007621951219512195,1480,1500.0,1342,1496.0
6.246920108795166,156,72,0.0009157509157509158,1480,1500.0,1342,1496.0
6.270540952682495,156,70,0.000925925925925926,1480,1500.0,1342,1496.0
6.2941460609436035,157,67,0.0008710801393728223,1480,1500.0,1342,1497.0
6.3176538944244385,157,65,0.0008928571428571428,1480,1500.0,1342,1497.0
6.341212034225464,158,63,0.0007867820613690008,1480,1500.0,1342,1498.0
6.364808082580566,159,63,0.0008710801393728223,1480,1500.0,1342,1499.0
6.388334035873413,159,62,0.0008928571428571428,1480,1500.0,1342,1499.0
6.411829948425293,160,61,0.0009033423667570009,1480,1500.0,1342,1500.0
6.435600996017456,161,56,0.0007390983000739098,1481.0,1500.0,1342,1501.0
6.4592061042785645,162,54,0.0007173601147776184,1489.0,1500.0,1342,1502.0
6.4829370975494385,162,55,0.0008410428931875525,1495.0,1500.0,1342,1502.0
6.506700038909912,162,51,0.00078125,1501.0,1500.0,1342,1502.0
6.530251979827881,163,51,0.0008130081300813008,1509.0,1500.0,1342,1503.0
6.553828954696655,164,47,0.0007352941176470588,1518.0,1500.0,1342,1504.0
6.577433109283447,163,49,0.0008928571428571428,1520,1500.0,1342,1503.0
6.601072072982788,164,47,0.000925925925925926,1520,1500.0,1342,1504.0
6.624592065811157,164,40,0.0006756756756756757,1520,1500.0,1342,1504.0
6.648094892501831,163,38,0.0006578947368421052,1520,1500.0,1342,1503.0
6.6716039180755615,164,41,0.0007936507936507937,1520,1500.0,1342,1504.0
6.695174932479858,163,35,0.0006747638326585695,1520,1500.0,1342,1503.0
6.718645095825195,163,35,0.0006435006435006435,1520,1500.0,1342,1503.0
6.742130994796753,163,33,0.0006775067750677507,1520,1500.0,1342,1503.0
6.765927076339722,162,37,0.0010162601626016261,1520,1500.0,1342,1502.0
6.789427995681763,162,36,0.0010162601626016261,1520,1500.0,1342,1502.0
6.813042879104614,161,30,0.0006968641114982578,1520,1500.0,1342,1501.0
6.836706876754761,161,30,0.0006775067750677507,1520,1500.0,1342,1501.0
6.860214948654175,160,35,0.0010351966873706005,1520,1500.0,1342,1500.0
6.8837480545043945,160,30,0.0007867820613690008,1519.0,1500.0,1342,1500.0
6.907362937927246,160,28,0.0007621951219512195,1515.0,1500.0,1342,1500.0
6.930927038192749,159,28,0.0007867820613690008,1509.0,1500.0,1342,1499.0
6.954560041427612,159,27,0.0007390983000739098,1505.0,1500.0,1342,1499.0
6.978144884109497,159,26,0.0007390983000739098,1501.0,1500.0,1342,1499.0
7.001724004745483,159,25,0.0007390983000739098,1498.0,1500.0,1342,1499.0
7.02551794052124,159,23,0.0007621951219512195,1495.0,1500.0,1342,1499.0
7.0491180419921875,159,27,0.0010604453870625664,1493.0,1500.0,1342,1499.0
7.072869062423706,159,26,0.0010604453870625664,1491.0,1500.0,1342,1499.0
7.096640110015869,158,21,0.0007142857142857143,1487.0,1500.0,1342,1498.0
7.12023401260376,160,20,0.0007390983000739098,1491.0,1500.0,1342,1500.0
7.143796920776367,160,20,0.0007390983000739098,1491.0,1500.0,1342,1500.0
7.167375087738037,160,20,0.000744047619047619,1492.0,1500.0,1342,1500.0
7.190982103347778,160,19,0.0007215007215007215,1493.0,1500.0,1342,1500.0
7.214565992355347,160,22,0.0008818342151675485,1494.0,1500.0,1342,1500.0
7.238188982009888,160,19,0.000744047619047619,1495.0,1500.0,1342,1500.0
7.261744976043701,159,18,0.0007215007215007215,1493.0,1500.0,1342,1499.0
7.2856409549713135,159,19,0.0007680491551459293,1493.0,1500.0,1342,1499.0
7.309253931045532,159,17,0.0007047216349541931,1493.0,1500.0,1342,1499.0
7.332987070083618,158,18,0.0007680491551459293,1491.0,1500.0,1342,1498.0
7.356740951538086,158,17,0.0007936507936507937,1489.0,1500.0,1342,1498.0
7.383946895599365,157,19,0.0009157509157509158,1484.0,1500.0,1342,1497.0
7.407648086547852,157,18,0.0007501875468867217,1481.0,1500.0,1342,1497.0
7.431221961975098,156,18,0.0007936507936507937,1480,1500.0,1342,1496.0
7.454829931259155,156,20,0.0007751937984496124,1480,1500.0,1342,1496.0
7.478348016738892,156,21,0.0007267441860465116,1480,1500.0,1342,1496.0
7.501867055892944,155,20,0.0007102272727272727,1480,1500.0,1342,1495.0
7.525607109069824,156,19,0.0006734006734006734,1480,1500.0,1342,1496.0
7.549113988876343,156,17,0.0006839945280437756,1480,1500.0,1342,1496.0
7.572711944580078,155,19,0.0007331378299120235,1480,1500.0,1342,1495.0
7.596401929855347,155,21,0.0008547008547008547,1480,1500.0,1342,1495.0
7.619927883148193,154,19,0.0006944444444444445,1480,1500.0,1342,1494.0
7.643543004989624,153,21,0.0007496251874062968,1480,1500.0,1342,1493.0
7.667115926742554,153,19,0.0006393861892583121,1480,1500.0,1342,1493.0
7.690680980682373,152,24,0.0007763975155279503,1480,1500.0,1342,1492.0
7.714165925979614,152,22,0.0005875440658049354,1480,1500.0,1342,1492.0
7.737669944763184,153,20,0.0006172839506172839,1480,1500.0,1342,1493.0
7.761174917221069,153,22,0.0006648936170212766,1480,1500.0,1342,1493.0
7.7847349643707275,153,22,0.0005319148936170213,1480,1500.0,1342,1493.0
7.808248996734619,154,21,0.0005455537370430987,1480,1500.0,1342,1494.0
7.831748962402344,153,22,0.0005787037037037037,1480,1500.0,1342,1493.0
7.855511903762817,154,24,0.0005787037037037037,1480,1500.0,1342,1494.0
7.879014015197754,154,23,0.0005341880341880342,1480,1500.0,1342,1494.0
7.902677059173584,155,25,0.0005515719801434088,1480,1500.0,1342,1495.0
7.926332950592041,155,29,0.0006720430107526882,1480,1500.0,1342,1495.0
7.949846982955933,155,25,0.0005208333333333333,1480,1500.0,1342,1495.0
7.973488092422485,156,25,0.0005208333333333333,1480,1500.0,1342,1496.0
7.996959924697876,158,28,0.0005341880341880342,1480,1500.0,1342,1498.0
8.020464897155762,159,30,0.0005370569280343716,1480,1500.0,1342,1499.0
8.043977975845337,160,28,0.0004977600796416127,1480,1500.0,1342,1500.0
8.067462921142578,160,30,0.000496031746031746,1480,1500.0,1342,1500.0
8.090967893600464,161,31,0.00046382189239332097,1480,1500.0,1342,1501.0
8.114475011825562,161,32,0.00045351473922902497,1482.0,1500.0,1342,1501.0
8.138051986694336,161,36,0.0005830903790087463,1488.0,1500.0,1342,1501.0
8.161716938018799,162,38,0.0006583278472679394,1497.0,1500.0,1342,1502.0
8.18550992012024,163,33,0.00047460844803037496,1507.0,1500.0,1342,1503.0
8.20911192893982,164,36,0.00045351473922902497,1517.0,1500.0,1342,1504.0
8.232863903045654,163,36,0.00044444444444444447,1520.0,1500.0,1342,1503.0
8.256607055664062,164,35,0.0004472271914132379,1520,1500.0,1342,1504.0
8.280081987380981,165,42,0.0005941770647653001,1520,1500.0,1342,1505.0
8.303570985794067,165,43,0.0005602240896358543,1520,1500.0,1342,1505.0
8.32705807685852,164,38,0.00045599635202918376,1520,1500.0,1342,1504.0
8.350768089294434,163,42,0.0005197505197505198,1520,1500.0,1342,1503.0
8.374413013458252,163,45,0.0006325110689437065,1520,1500.0,1342,1503.0
8.397892951965332,163,45,0.00065359477124183,1520,1500.0,1342,1503.0
8.421396017074585,162,47,0.0005827505827505828,1520,1500.0,1342,1502.0
8.444981098175049,162,41,0.00042735042735042735,1520,1500.0,1342,1502.0
8.468497037887573,162,47,0.0006009615384615385,1520,1500.0,1342,1502.0
8.492067098617554,163,44,0.0004192872117400419,1520,1500.0,1342,1503.0
8.515629053115845,163,46,0.0004472271914132379,1520,1500.0,1342,1503.0
8.539127111434937,163,52,0.0006203473945409429,1520,1500.0,1342,1503.0
8.562769889831543,164,53,0.0005717552887364208,1520,1500.0,1342,1504.0
8.586448907852173,164,55,0.0005390835579514825,1520,1500.0,1342,1504.0
8.609976053237915,165,55,0.0005291005291005291,1520,1500.0,1342,1505.0
8.633572101593018,165,47,0.0003940110323089047,1520,1500.0,1342,1505.0
8.65708303451538,166,48,0.00037993920972644377,1520,1500.0,1342,1506.0
8.680572986602783,167,56,0.0005347593582887701,1520,1500.0,1342,1507.0
8.704070091247559,167,57,0.0005102040816326531,1520,1500.0,1342,1507.0
8.72785997390747,167,53,0.0003968253968253968,1520,1500.0,1342,1507.0
8.751381874084473,167,58,0.000496031746031746,1520,1500.0,1342,1507.0
8.774946928024292,167,58,0.000496031746031746,1520,1500.0,1342,1507.0
8.798707962036133,168,55,0.00041322314049586776,1520,1500.0,1342,1508.0
8.82265305519104,168,59,0.0004616805170821791,1520,1500.0,1342,1508.0
8.846572875976562,167,62,0.0005252100840336134,1520,1500.0,1342,1507.0
8.870044946670532,167,60,0.00043554006968641115,1520,1500.0,1342,1507.0
8.893647909164429,168,63,0.0005159958720330237,1520,1500.0,1342,1508.0
8.917131900787354,168,65,0.0005012531328320802,1520,1500.0,1342,1508.0
8.940638065338135,168,64,0.0004985044865403788,1520,1500.0,1342,1508.0
8.964154958724976,167,65,0.00048426150121065375,1520,1500.0,1342,1507.0
8.987685918807983,167,66,0.00047080979284369113,1520,1500.0,1342,1507.0
9.011164903640747,166,67,0.000462962962962963,1520,1500.0,1342,1506.0
9.034744024276733,166,60,0.0003205128205128205,1520,1500.0,1342,1506.0
9.058252096176147,166,69,0.00045045045045045046,1520,1500.0,1342,1506.0
9.08171796798706,166,69,0.00043591979075850045,1520,1500.0,1342,1506.0
9.105470895767212,166,70,0.00042444821731748726,1520,1500.0,1342,1506.0
9.12898302078247,166,72,0.000407000407000407,1520,1500.0,1342,1506.0
9.152628898620605,165,64,0.00027412280701754384,1520,1500.0,1342,1505.0
9.176277875900269,165,74,0.00041118421052631577,1520,1500.0,1342,1505.0
9.199759006500244,164,75,0.00040064102564102563,1520,1500.0,1342,1504.0
9.223402976989746,164,66,0.00026939655172413793,1520,1500.0,1342,1504.0
9.247054100036621,164,76,0.0003968253968253968,1520,1500.0,1342,1504.0
9.270582914352417,164,76,0.0003787878787878788,1520,1500.0,1342,1504.0
9.29410195350647,164,78,0.0003787878787878788,1520,1500.0,1342,1504.0
9.317600011825562,165,79,0.00037313432835820896,1520,1500.0,1341.0,1505.0
9.341177940368652,164,80,0.0003586800573888092,1520,1500.0,1336.3,1504.0
9.364758014678955,164,81,0.00036403349108117945,1520,1500.0,1334.1500000000001,1504.0
9.388369083404541,164,81,0.00035536602700781805,1520,1500.0,1335.2,1504.0
9.411962032318115,164,82,0.0003419972640218878,1520,1500.0,1333.2,1504.0
9.43578290939331,164,83,0.0003246753246753247,1520,1500.0,1331.2,1504.0
9.459372997283936,165,84,0.0003201024327784891,1520,1500.0,1330.7,1505.0
9.483081102371216,165,85,0.00031298904538341156,1520,1500.0,1328.8499999999999,1505.0
9.506854057312012,165,86,0.00030864197530864197,1520,1500.0,1326.8499999999999,1505.0
9.530433893203735,164,86,0.00030193236714975844,1520,1500.0,1326.8499999999999,1504.0
9.554020881652832,164,87,0.00030193236714975844,1520,1500.0,1324.8499999999999,1504.0
9.577639102935791,164,89,0.0002914602156805596,1520,1500.0,1320.7,1504.0
9.601260900497437,164,90,0.00027412280701754384,1520,1500.0,1318.55,1504.0
9.62497591972351,164,91,0.0002685284640171858,1520,1500.0,1316.55,1504.0
9.64855408668518,164,91,0.00027056277056277056,1520,1500.0,1316.4000000000001,1504.0
9.672144889831543,162,92,0.0002685284640171858,1520,1500.0,1314.25,1502.0
9.695990085601807,163,92,0.0002564102564102564,1520,1500.0,1314.55,1503.0
9.719595909118652,162,92,0.0002564102564102564,1520,1500.0,1315.0,1502.0
9.743309020996094,163,83,0.00017857142857142857,1520,1500.0,1334.95,1503.0
9.767059087753296,161,93,0.00024509803921568627,1520,1500.0,1315.4000000000001,1501.0
9.790689945220947,161,93,0.00023741690408357076,1520,1500.0,1316.0,1501.0
9.814244031906128,160,93,0.00023741690408357076,1520,1500.0,1316.3,1500.0
9.837857961654663,160,93,0.00022732439190725165,1520.0,1500.0,1316.45,1500.0
9.86152195930481,160,87,0.00018535681186283596,1516.0,1500.0,1326.6500000000001,1500.0
9.885286092758179,159,93,0.00022461814914645105,1509.0,1500.0,1314.95,1499.0
9.908966064453125,159,93,0.00022197558268590456,1506.0,1500.0,1315.0999999999999,1499.0
9.93278694152832,157,93,0.0002204585537918871,1496.0,1500.0,1315.25,1497.0
9.9567129611969,157,92,0.00021786492374727668,1491.0,1500.0,1317.55,1497.0
9.980594873428345,158,92,0.00021285653469561516,1488.0,1500.0,1317.4000000000001,1498.0
