time,x,y,size_inv,roll,pitch,thrust,yaw
0.0007770061492919922,175,53,0.004166666666666667,1503.1500000000001,1502.0,1350,1500.0
0.023949861526489258,175,54,0.004784688995215311,1503.3,1502.0,1350,1500.0
0.046692848205566406,175,53,0.005263157894736842,1503.45,1502.0,1350,1500.0
0.0692288875579834,175,53,0.004784688995215311,1503.5999999999999,1502.0,1350,1500.0
0.09169793128967285,175,54,0.004784688995215311,1503.75,1502.0,1350,1500.0
0.11415505409240723,175,53,0.0043859649122807015,1503.9000000000001,1502.0,1350,1500.0
0.13675785064697266,175,53,0.0043859649122807015,1504.05,1502.0,1350,1500.0
0.15914392471313477,175,54,0.005050505050505051,1504.2,1502.0,1350,1500.0
0.1814579963684082,175,53,0.005263157894736842,1504.3499999999999,1502.0,1350,1500.0
0.20383501052856445,175,53,0.004784688995215311,1504.5,1502.0,1350,1500.0
0.22663092613220215,175,53,0.004166666666666667,1504.5,1502.0,1350,1500.0
0.24989104270935059,175,53,0.004784688995215311,1504.5,1502.0,1350,1500.0
0.27306485176086426,175,53,0.004784688995215311,1504.5,1502.0,1350,1500.0
0.2963559627532959,174,54,0.005050505050505051,1503.0899999999999,1502.0,1350,1500.0
0.319551944732666,174,54,0.004784688995215311,1501.8800000000001,1502.0,1350,1500.0
0.3427619934082031,173,53,0.005263157894736842,1499.26,1502.0,1350,1500.0
0.36597394943237305,173,53,0.004784688995215311,1496.8399999999999,1502.0,1350,1500.0
0.3891489505767822,173,53,0.004784688995215311,1494.4200000000001,1502.0,1350,1500.0
0.4123220443725586,173,53,0.004784688995215311,1494.4000000000001,1502.0,1350,1500.0
0.4355130195617676,173,54,0.004784688995215311,1494.3800000000001,1502.0,1350,1500.0
0.45871496200561523,173,54,0.005263157894736842,1496.76,1502.0,1350,1500.0
0.48190903663635254,172,58,0.004784688995215311,1497.73,1502.0,1350,1500.0
0.5050919055938721,172,58,0.004784688995215311,1498.9000000000001,1502.0,1350,1500.0
0.5283448696136475,172,60,0.004784688995215311,1498.8800000000001,1502.0,1340.8,1500.0
0.5517950057983398,172,60,0.005263157894736842,1498.8599999999999,1502.0,1332.1600000000001,1500.0
0.5751910209655762,172,61,0.004784688995215311,1497.6500000000001,1502.0,1322.24,1500.0
0.5984828472137451,172,61,0.005555555555555556,1498.8399999999999,1502.0,1324.72,1500.0
0.6217780113220215,173,62,0.004784688995215311,1501.4400000000001,1502.0,1324.5599999999999,1500.0
0.645082950592041,173,62,0.004784688995215311,1503.8399999999999,1502.0,1331.2,1500.0
0.668367862701416,173,64,0.004784688995215311,1506.24,1502.0,1331.2,1500.0
0.6916229724884033,173,65,0.005263157894736842,1508.6400000000001,1502.0,1333.76,1500.0
0.7148909568786621,173,65,0.005263157894736842,1509.8499999999999,1502.0,1332.0799999999999,1500.0
0.7381730079650879,173,68,0.004784688995215311,1508.6600000000001,1502.0,1325.28,1500.0
0.7614438533782959,173,68,0.005263157894736842,1507.47,1502.0,1319.3599999999999,1500.0
0.7847318649291992,173,69,0.004784688995215311,1506.28,1502.0,1316.4000000000001,1500.0
0.8080129623413086,173,70,0.004784688995215311,1505.0899999999999,1502.0,1313.4400000000001,1500.0
0.8313000202178955,172,72,0.004784688995215311,1502.49,1502.0,1306.4000000000001,1500.0
0.8546228408813477,172,72,0.004784688995215311,1501.28,1502.0,1308.8,1500.0
0.877938985824585,172,74,0.005263157894736842,1500.0699999999999,1502.0,1305.9200000000001,1500.0
0.9012548923492432,172,76,0.004784688995215311,1498.8599999999999,1502.0,1300.24,1500.0
0.9245309829711914,172,77,0.004784688995215311,1497.6500000000001,1502.0,1295.76,1500.0
0.94781494140625,171,78,0.004784688995215311,1497.4300000000001,1502.0,1295.4400000000001,1500.0
0.9710888862609863,171,78,0.004784688995215311,1497.4100000000001,1502.0,1292.24,1500.0
0.9944169521331787,171,79,0.0043859649122807015,1497.3900000000001,1502.0,1292.0,1500.0
1.017732858657837,171,80,0.004784688995215311,1497.3699999999999,1502.0,1294.5599999999999,1500.0
1.0410280227661133,170,80,0.004166666666666667,1495.9400000000001,1502.0,1299.76,1500.0
1.0643868446350098,170,81,0.004784688995215311,1495.9200000000001,1502.0,1302.4000000000001,1500.0
1.0877230167388916,170,82,0.004784688995215311,1495.9000000000001,1502.0,1303.5999999999999,1500.0
1.1113338470458984,170,82,0.004784688995215311,1495.8800000000001,1502.0,1306.0799999999999,1500.0
1.1346359252929688,169,83,0.004166666666666667,1494.45,1502.0,1306.0,1500.0
1.1578929424285889,169,84,0.004784688995215311,1495.6199999999999,1502.0,1303.1199999999999,1500.0
1.1811950206756592,168,86,0.004545454545454545,1494.1900000000001,1502.0,1297.5999999999999,1500.0
1.2044808864593506,168,87,0.004545454545454545,1492.96,1502.0,1294.6400000000001,1500.0
1.2277450561523438,168,87,0.004545454545454545,1491.73,1502.0,1291.52,1500.0
1.2510180473327637,168,88,0.004784688995215311,1492.9000000000001,1502.0,1287.2,1500.0
1.2743299007415771,167,89,0.004784688995215311,1491.47,1502.0,1284.24,1500.0
1.2976679801940918,167,89,0.004784688995215311,1492.6400000000001,1502.0,1286.72,1500.0
1.3209378719329834,167,90,0.004784688995215311,1493.8099999999999,1502.0,1288.0,1500.0
1.3442740440368652,166,91,0.004784688995215311,1493.5699999999999,1502.0,1287.8399999999999,1500.0
1.3676118850708008,166,91,0.004784688995215311,1492.3399999999999,1502.0,1290.3199999999999,1500.0
1.390899896621704,166,91,0.0043859649122807015,1493.51,1502.0,1294.24,1500.0
1.4142649173736572,165,91,0.0043859649122807015,1492.0799999999999,1502.0,1295.4400000000001,1500.0
1.4376769065856934,165,91,0.0043859649122807015,1490.8499999999999,1502.0,1298.0799999999999,1500.0
1.4609580039978027,165,92,0.004784688995215311,1492.02,1502.0,1300.8800000000001,1500.0
1.484281063079834,164,92,0.0043859649122807015,1491.78,1502.0,1303.52,1500.0
1.507619857788086,163,92,0.0043859649122807015,1489.1400000000001,1502.0,1304.8,1500.0
1.5308949947357178,162,93,0.004166666666666667,1487.6900000000001,1502.0,1303.4400000000001,1500.0
1.5542399883270264,162,93,0.004166666666666667,1486.4400000000001,1502.0,1301.9200000000001,1500.0
1.577558994293213,161,94,0.004545454545454545,1482.5899999999999,1502.0,1299.2,1500.0
1.6008639335632324,161,94,0.0043859649122807015,1481.3399999999999,1502.0,1297.6800000000001,1500.0
1.6241979598999023,160,94,0.004166666666666667,1481.0799999999999,1502.0,1296.1600000000001,1500.0
1.647542953491211,160,94,0.004166666666666667,1482.23,1502.0,1297.4400000000001,1500.0
1.670793056488037,159,94,0.004166666666666667,1481.97,1502.0,1298.72,1500.0
1.6941139698028564,159,94,0.0043859649122807015,1484.3099999999999,1502.0,1301.4400000000001,1500.0
1.7174768447875977,159,94,0.0043859649122807015,1485.46,1502.0,1304.1600000000001,1500.0
1.740751028060913,158,94,0.0043859649122807015,1486.4100000000001,1502.0,1306.8800000000001,1500.0
1.7640628814697266,158,94,0.0043859649122807015,1486.3699999999999,1502.0,1308.24,1500.0
1.787390947341919,157,94,0.0043859649122807015,1487.3199999999999,1502.0,1309.5999999999999,1500.0
1.8106608390808105,157,94,0.0043859649122807015,1487.28,1502.0,1309.5999999999999,1500.0
1.8340349197387695,156,94,0.0043859649122807015,1485.8299999999999,1502.0,1309.5999999999999,1500.0
1.8574540615081787,156,94,0.0043859649122807015,1485.79,1502.0,1309.5999999999999,1500.0
1.8807759284973145,155,94,0.0038461538461538464,1484.3399999999999,1502.0,1309.5999999999999,1500.0
1.9041540622711182,155,93,0.0043859649122807015,1484.3,1502.0,1312.24,1500.0
1.9275000095367432,154,93,0.0043859649122807015,1482.8499999999999,1502.0,1313.6800000000001,1500.0
1.950786828994751,154,93,0.0043859649122807015,1484.0,1502.0,1315.1199999999999,1500.0
1.9740989208221436,154,93,0.0043859649122807015,1483.96,1502.0,1316.5599999999999,1500.0
1.9974298477172852,154,93,0.004048582995951417,1486.3199999999999,1502.0,1318.0,1500.0
2.020714044570923,153,92,0.0043859649122807015,1486.0799999999999,1502.0,1319.28,1500.0
2.0440728664398193,153,92,0.004048582995951417,1488.4400000000001,1502.0,1319.3599999999999,1500.0
2.0674190521240234,153,91,0.0043859649122807015,1489.6099999999999,1502.0,1322.0799999999999,1500.0
2.090721845626831,152,91,0.0043859649122807015,1489.3699999999999,1502.0,1323.5999999999999,1500.0
2.114135980606079,152,91,0.0043859649122807015,1488.1400000000001,1502.0,1325.1199999999999,1500.0
2.147469997406006,151,91,0.0038461538461538464,1487.9000000000001,1502.0,1325.2,1500.0
2.170881986618042,151,90,0.004166666666666667,1486.6700000000001,1502.0,1327.9200000000001,1500.0
2.1942248344421387,151,90,0.0043859649122807015,1485.4400000000001,1502.0,1326.6400000000001,1500.0
2.217573881149292,150,90,0.004166666666666667,1485.2,1502.0,1325.3599999999999,1500.0
2.2408599853515625,150,90,0.004166666666666667,1485.1600000000001,1502.0,1324.0799999999999,1500.0
2.2641868591308594,150,89,0.0043859649122807015,1486.3299999999999,1502.0,1326.8,1500.0
2.2875139713287354,150,89,0.004048582995951417,1487.5,1502.0,1325.52,1500.0
2.310732841491699,149,88,0.004166666666666667,1487.26,1502.0,1328.24,1500.0
2.3340508937835693,149,87,0.004629629629629629,1488.4300000000001,1502.0,1332.4000000000001,1500.0
2.3574278354644775,149,87,0.004166666666666667,1489.5999999999999,1502.0,1335.3599999999999,1500.0
2.380758047103882,149,86,0.004166666666666667,1489.5799999999999,1502.0,1338.1600000000001,1500.0
2.404099941253662,149,86,0.0043859649122807015,1489.5599999999999,1502.0,1341.1199999999999,1500.0
2.427459955215454,149,86,0.0043859649122807015,1491.9400000000001,1502.0,1341.28,1500.0
2.450718879699707,149,86,0.0038461538461538464,1493.1300000000001,1502.0,1338.6400000000001,1500.0
2.474045991897583,149,85,0.004166666666666667,1494.3199999999999,1502.0,1338.6400000000001,1500.0
2.497408866882324,148,85,0.004166666666666667,1494.0999999999999,1502.0,1336.0,1500.0
2.5206849575042725,148,85,0.004166666666666667,1494.0799999999999,1502.0,1333.3599999999999,1500.0
2.5440189838409424,149,85,0.003663003663003663,1494.28,1502.0,1332.0799999999999,1500.0
2.567368984222412,148,84,0.0043859649122807015,1492.8699999999999,1502.0,1334.8,1500.0
2.590656042098999,148,84,0.004166666666666667,1491.6600000000001,1502.0,1333.52,1500.0
2.614029884338379,148,84,0.0038461538461538464,1492.8499999999999,1502.0,1333.5999999999999,1500.0
2.637493848800659,149,83,0.0043859649122807015,1495.45,1502.0,1336.3199999999999,1500.0
2.660792827606201,149,82,0.0043859649122807015,1495.45,1502.0,1340.48,1500.0
2.6841259002685547,148,83,0.0038461538461538464,1496.4400000000001,1502.0,1338.0,1500.0
2.7074899673461914,149,82,0.004166666666666667,1499.04,1502.0,1340.72,1500.0
2.7307989597320557,148,82,0.004166666666666667,1498.8399999999999,1502.0,1342.24,1500.0
2.7541849613189697,148,82,0.004166666666666667,1496.4400000000001,1502.0,1340.96,1500.0
2.7775838375091553,149,82,0.003968253968253968,1496.6400000000001,1502.0,1336.8800000000001,1500.0
2.8008639812469482,148,82,0.004166666666666667,1496.4400000000001,1502.0,1336.96,1500.0
2.8242080211639404,148,82,0.004166666666666667,1494.04,1502.0,1334.24,1500.0
2.8476319313049316,149,82,0.004048582995951417,1495.45,1502.0,1331.52,1500.0
2.8709139823913574,149,81,0.004166666666666667,1497.8499999999999,1502.0,1332.8,1500.0
2.8942959308624268,149,81,0.004166666666666667,1497.8499999999999,1502.0,1334.24,1500.0
2.9176459312438965,149,81,0.004166666666666667,1499.0599999999999,1502.0,1334.3199999999999,1500.0
2.940943956375122,149,81,0.004166666666666667,1501.46,1502.0,1335.76,1500.0
2.9642930030822754,149,81,0.004166666666666667,1500.27,1502.0,1337.2,1500.0
2.9876089096069336,149,81,0.0043859649122807015,1499.0799999999999,1502.0,1335.8399999999999,1500.0
3.0109269618988037,149,81,0.0043859649122807015,1499.0799999999999,1502.0,1334.48,1500.0
3.034250020980835,149,81,0.0038461538461538464,1497.8900000000001,1502.0,1333.1199999999999,1500.0
3.0576059818267822,149,81,0.0038461538461538464,1496.7,1502.0,1331.76,1500.0
3.080857992172241,150,80,0.003968253968253968,1498.1099999999999,1502.0,1333.04,1500.0
3.1041948795318604,149,80,0.0038461538461538464,1497.9100000000001,1502.0,1334.48,1500.0
3.12756085395813,150,80,0.0038461538461538464,1499.3199999999999,1502.0,1335.9200000000001,1500.0
3.1508710384368896,149,79,0.004166666666666667,1499.1199999999999,1502.0,1340.0,1500.0
3.1742119789123535,149,80,0.0038461538461538464,1499.1199999999999,1502.0,1340.24,1500.0
3.1978578567504883,151,80,0.003968253968253968,1499.54,1502.0,1338.8800000000001,1500.0
3.221186876296997,150,80,0.0043859649122807015,1500.55,1502.0,1337.52,1500.0
3.244488000869751,150,80,0.0043859649122807015,1499.3599999999999,1502.0,1336.1600000000001,1500.0
3.267784833908081,151,80,0.003968253968253968,1501.98,1502.0,1332.0,1500.0
3.2910690307617188,151,80,0.003968253968253968,1504.4000000000001,1502.0,1330.6400000000001,1500.0
3.3144419193267822,150,80,0.004166666666666667,1501.8,1502.0,1330.6400000000001,1500.0
3.3378729820251465,150,80,0.004166666666666667,1500.6099999999999,1502.0,1330.6400000000001,1500.0
3.361198902130127,151,80,0.004166666666666667,1502.02,1502.0,1330.6400000000001,1500.0
3.384484052658081,151,80,0.004166666666666667,1499.6400000000001,1502.0,1332.0,1500.0
3.407762050628662,151,80,0.004166666666666667,1497.26,1502.0,1332.0,1500.0
3.4310109615325928,152,80,0.003663003663003663,1501.0699999999999,1502.0,1332.0,1500.0
3.4543440341949463,152,79,0.003968253968253968,1503.49,1502.0,1334.6400000000001,1500.0
3.477705955505371,152,79,0.004166666666666667,1503.51,1502.0,1336.0799999999999,1500.0
3.501008987426758,152,79,0.003968253968253968,1504.72,1502.0,1337.52,1500.0
3.524354934692383,152,79,0.0043859649122807015,1505.9300000000001,1502.0,1338.96,1500.0
3.547703981399536,152,79,0.0043859649122807015,1503.55,1502.0,1340.4000000000001,1500.0
3.5709969997406006,152,80,0.0043859649122807015,1501.1700000000001,1502.0,1336.4000000000001,1500.0
3.5943589210510254,153,80,0.003968253968253968,1501.3900000000001,1502.0,1333.5999999999999,1500.0
3.6177258491516113,153,80,0.003968253968253968,1501.4100000000001,1502.0,1330.8,1500.0
3.6410179138183594,153,81,0.003663003663003663,1501.4300000000001,1502.0,1325.3599999999999,1500.0
3.664381980895996,153,81,0.003663003663003663,1502.6400000000001,1502.0,1321.1199999999999,1500.0
3.6877479553222656,152,81,0.004048582995951417,1502.4400000000001,1502.0,1321.04,1500.0
3.7110538482666016,152,80,0.004166666666666667,1500.04,1502.0,1323.5999999999999,1500.0
3.734400987625122,152,80,0.004166666666666667,1497.6400000000001,1502.0,1324.96,1500.0
3.75774884223938,154,80,0.003663003663003663,1498.0599999999999,1502.0,1329.1199999999999,1500.0
3.7810559272766113,154,80,0.003663003663003663,1498.0799999999999,1502.0,1333.28,1500.0
3.8044028282165527,153,79,0.0043859649122807015,1499.0899999999999,1502.0,1338.72,1500.0
3.8277499675750732,154,79,0.003968253968253968,1502.9000000000001,1502.0,1340.1600000000001,1500.0
3.8510589599609375,154,79,0.003968253968253968,1506.51,1502.0,1341.5999999999999,1500.0
3.874433994293213,154,80,0.0038461538461538464,1505.3199999999999,1502.0,1339.04,1500.0
3.897857904434204,154,80,0.0034965034965034965,1504.1300000000001,1502.0,1337.6800000000001,1500.0
3.9211809635162354,154,80,0.0034965034965034965,1504.1500000000001,1502.0,1333.52,1500.0
3.9444918632507324,154,80,0.003787878787878788,1501.77,1502.0,1330.72,1500.0
3.9677698612213135,154,81,0.0034965034965034965,1499.3900000000001,1502.0,1325.28,1500.0
3.9910638332366943,154,81,0.0034965034965034965,1499.3900000000001,1502.0,1323.8399999999999,1500.0
4.014477968215942,154,81,0.0034965034965034965,1499.3900000000001,1502.0,1322.4000000000001,1500.0
4.037904977798462,154,80,0.0034965034965034965,1498.2,1502.0,1324.96,1500.0
4.061177015304565,154,80,0.0034965034965034965,1498.2,1502.0,1326.3199999999999,1500.0
4.084485054016113,154,80,0.0034965034965034965,1498.2,1502.0,1330.48,1500.0
4.107769966125488,154,80,0.0034965034965034965,1498.2,1502.0,1333.28,1500.0
4.131043910980225,154,80,0.0034965034965034965,1498.2,1502.0,1336.0799999999999,1500.0
4.15437388420105,154,80,0.0034965034965034965,1498.2,1502.0,1336.0799999999999,1500.0
4.177734851837158,154,81,0.0034965034965034965,1498.2,1502.0,1333.4400000000001,1500.0
4.201086044311523,154,81,0.0034965034965034965,1498.2,1502.0,1330.6400000000001,1500.0
4.224431037902832,154,81,0.0034965034965034965,1498.2,1502.0,1327.8399999999999,1500.0
4.247822999954224,154,81,0.0034965034965034965,1498.2,1502.0,1325.04,1500.0
4.271633863449097,154,81,0.0034965034965034965,1498.2,1502.0,1323.5999999999999,1500.0
4.294990062713623,154,81,0.003663003663003663,1498.2,1502.0,1324.96,1500.0
4.3182549476623535,154,81,0.003663003663003663,1498.2,1502.0,1326.3199999999999,1500.0
4.341562986373901,154,81,0.0034965034965034965,1498.2,1502.0,1327.6800000000001,1500.0
4.364841938018799,154,81,0.0034965034965034965,1498.2,1502.0,1329.04,1500.0
4.388109922409058,154,81,0.0034965034965034965,1498.2,1502.0,1330.4000000000001,1500.0
4.411393880844116,154,81,0.0033444816053511705,1498.2,1502.0,1330.4000000000001,1500.0
4.434669017791748,154,81,0.0033444816053511705,1498.2,1502.0,1330.4000000000001,1500.0
4.4579689502716064,153,81,0.0034965034965034965,1496.79,1502.0,1330.4000000000001,1500.0
4.481258869171143,153,81,0.0034965034965034965,1495.5799999999999,1502.0,1330.4000000000001,1500.0
4.504562854766846,154,82,0.003663003663003663,1495.78,1502.0,1327.76,1500.0
4.527869939804077,153,82,0.0034965034965034965,1494.3699999999999,1502.0,1326.3199999999999,1500.0
4.551177024841309,153,82,0.0034965034965034965,1493.1600000000001,1502.0,1324.8800000000001,1500.0
4.574465036392212,153,83,0.0034965034965034965,1494.3499999999999,1502.0,1320.8,1500.0
4.597743988037109,153,83,0.0034965034965034965,1495.54,1502.0,1317.9200000000001,1500.0
4.621007919311523,153,82,0.003246753246753247,1494.3299999999999,1502.0,1320.48,1500.0
4.644352912902832,153,82,0.003246753246753247,1495.52,1502.0,1321.8399999999999,1500.0
4.66772985458374,153,82,0.003246753246753247,1496.71,1502.0,1323.2,1500.0
4.69098687171936,153,82,0.003246753246753247,1496.71,1502.0,1327.3599999999999,1500.0
4.714380979537964,153,82,0.003105590062111801,1496.71,1502.0,1331.52,1500.0
4.7377870082855225,153,82,0.0033444816053511705,1497.9000000000001,1502.0,1331.52,1500.0
4.761052846908569,153,82,0.0034965034965034965,1497.9000000000001,1502.0,1331.52,1500.0
4.784411907196045,153,81,0.003105590062111801,1497.9000000000001,1502.0,1334.1600000000001,1500.0
4.807745933532715,153,81,0.003105590062111801,1497.9000000000001,1502.0,1334.24,1500.0
4.831029891967773,153,82,0.0033444816053511705,1497.9000000000001,1502.0,1331.6800000000001,1500.0
4.854423999786377,153,82,0.0033444816053511705,1497.9000000000001,1502.0,1331.6800000000001,1500.0
4.877835035324097,153,82,0.003105590062111801,1497.9000000000001,1502.0,1331.6800000000001,1500.0
4.9011549949646,152,82,0.003246753246753247,1496.49,1502.0,1328.8800000000001,1500.0
4.924440860748291,152,82,0.003246753246753247,1495.28,1502.0,1326.0799999999999,1500.0
4.947754859924316,152,82,0.003105590062111801,1494.0699999999999,1502.0,1326.0799999999999,1500.0
4.971037864685059,152,82,0.0033444816053511705,1492.8599999999999,1502.0,1326.0799999999999,1500.0
4.994384050369263,152,81,0.003105590062111801,1491.6500000000001,1502.0,1328.72,1500.0
5.017736911773682,152,81,0.003105590062111801,1492.8399999999999,1502.0,1331.52,1500.0
5.041019916534424,152,81,0.003105590062111801,1494.03,1502.0,1334.3199999999999,1500.0
5.064316987991333,152,81,0.003105590062111801,1495.22,1502.0,1335.76,1500.0
5.087679862976074,152,81,0.003105590062111801,1496.4100000000001,1502.0,1337.2,1500.0
5.110965967178345,152,81,0.003105590062111801,1497.5999999999999,1502.0,1335.8399999999999,1500.0
5.1343090534210205,152,81,0.003105590062111801,1497.5999999999999,1502.0,1334.48,1500.0
5.1576550006866455,152,81,0.003105590062111801,1497.5999999999999,1502.0,1333.1199999999999,1500.0
5.18093204498291,151,81,0.002976190476190476,1496.1900000000001,1502.0,1331.76,1500.0
5.204252004623413,151,81,0.003105590062111801,1494.98,1502.0,1330.4000000000001,1500.0
5.227591037750244,151,81,0.003105590062111801,1493.77,1502.0,1330.4000000000001,1500.0
5.250874042510986,150,81,0.002976190476190476,1491.1500000000001,1502.0,1330.4000000000001,1500.0
5.274209022521973,150,81,0.002976190476190476,1488.73,1502.0,1330.4000000000001,1500.0
5.297529935836792,150,81,0.002777777777777778,1488.71,1502.0,1330.4000000000001,1500.0
5.320797920227051,150,81,0.002777777777777778,1488.6900000000001,1502.0,1330.4000000000001,1500.0
5.344450950622559,150,80,0.002976190476190476,1488.6700000000001,1502.0,1333.04,1500.0
5.3677659034729,150,80,0.003105590062111801,1491.05,1502.0,1334.48,1500.0
5.391032934188843,150,80,0.002976190476190476,1493.4300000000001,1502.0,1335.9200000000001,1500.0
5.41441798210144,150,80,0.002976190476190476,1494.6199999999999,1502.0,1337.3599999999999,1500.0
5.4378509521484375,150,80,0.003105590062111801,1495.8099999999999,1502.0,1338.8,1500.0
5.461134910583496,150,80,0.002857142857142857,1497.0,1502.0,1337.4400000000001,1500.0
5.484408855438232,149,81,0.002777777777777778,1495.5899999999999,1502.0,1333.4400000000001,1500.0
5.507669925689697,149,81,0.002777777777777778,1494.3800000000001,1502.0,1330.6400000000001,1500.0
5.530885934829712,148,81,0.002777777777777778,1491.76,1502.0,1327.8399999999999,1500.0
