time,x,y,size_inv,roll,pitch,thrust,yaw
0.0007340908050537109,188,58,0.005050505050505051,1520,1494.0,1315,1520
0.023838043212890625,188,58,0.005050505050505051,1520,1494.0,1315,1520
0.04622197151184082,188,58,0.005050505050505051,1520,1494.0,1315,1520
0.06856489181518555,188,58,0.005050505050505051,1520,1494.0,1315,1520
0.09094405174255371,188,58,0.005050505050505051,1520,1494.0,1315,1520
0.1134328842163086,188,58,0.005050505050505051,1520,1494.0,1315,1520
0.1357889175415039,188,58,0.005050505050505051,1520,1494.0,1315,1520
0.1581258773803711,188,58,0.005050505050505051,1520,1494.0,1315,1520
0.18046903610229492,188,58,0.005050505050505051,1520,1494.0,1315,1520
0.20283293724060059,188,58,0.005050505050505051,1520,1494.0,1315,1520
0.22550702095031738,188,58,0.005050505050505051,1520,1494.0,1315,1520
0.24848103523254395,188,58,0.005050505050505051,1520,1494.0,1315,1520
0.2715330123901367,187,58,0.005555555555555556,1520,1494.0,1315,1520
0.2945880889892578,187,58,0.007142857142857143,1520,1494.0,1315,1520
0.3175530433654785,185,58,0.005555555555555556,1520,1494.0,1315,1520
0.340533971786499,184,58,0.006493506493506494,1520,1494.0,1315,1520
0.3635270595550537,182,56,0.006666666666666667,1520,1494.0,1315,1520
0.38652992248535156,178,56,0.005050505050505051,1520,1494.0,1315,1518.0
0.4096369743347168,177,56,0.006060606060606061,1520,1494.0,1315,1517.0
0.4327409267425537,170,58,0.005050505050505051,1520,1494.0,1315,1510.0
0.4558238983154297,167,59,0.007142857142857143,1520,1494.0,1315,1507.0
0.47890591621398926,164,61,0.006493506493506494,1520,1494.0,1315,1504.0
0.5020949840545654,162,62,0.006060606060606061,1520,1494.0,1315,1502.0
0.5253009796142578,158,62,0.005050505050505051,1520,1494.0,1315,1498.0
0.5483739376068115,157,62,0.006493506493506494,1520,1494.0,1315,1497.0
0.5715200901031494,156,62,0.006060606060606061,1520,1494.0,1315,1496.0
0.5946750640869141,153,62,0.005050505050505051,1520,1494.0,1315,1493.0
0.6177699565887451,150,63,0.005050505050505051,1494.0,1494.0,1315,1490.0
0.6409530639648438,149,64,0.005050505050505051,1480,1494.0,1315,1489.0
0.6641919612884521,150,65,0.006060606060606061,1480,1494.0,1315,1490.0
0.6873068809509277,149,66,0.0043859649122807015,1480,1494.0,1315,1489.0
0.7105119228363037,147,68,0.005050505050505051,1480,1494.0,1315,1487.0
0.7338769435882568,147,70,0.005050505050505051,1480,1494.0,1315,1487.0
0.7570638656616211,147,71,0.005050505050505051,1480,1494.0,1315,1487.0
0.7802069187164307,148,72,0.004784688995215311,1480,1494.0,1315,1488.0
0.803339958190918,149,73,0.005050505050505051,1480,1494.0,1315,1489.0
0.8265318870544434,149,73,0.005050505050505051,1480,1494.0,1315,1489.0
0.8496870994567871,151,73,0.006493506493506494,1480,1494.0,1315,1491.0
0.8728659152984619,150,73,0.005050505050505051,1480,1494.0,1315,1490.0
0.8960220813751221,152,74,0.006493506493506494,1480,1494.0,1315,1492.0
0.9191489219665527,151,75,0.005050505050505051,1480,1494.0,1315,1491.0
0.942302942276001,151,76,0.005050505050505051,1480,1494.0,1315,1491.0
0.9654099941253662,151,77,0.005050505050505051,1480,1494.0,1315,1491.0
0.9885079860687256,152,79,0.005050505050505051,1480,1494.0,1315,1492.0
1.0116698741912842,152,80,0.005050505050505051,1480,1494.0,1315,1492.0
1.0348808765411377,152,80,0.005050505050505051,1480,1494.0,1315,1492.0
1.0580320358276367,153,81,0.005050505050505051,1480,1494.0,1315,1493.0
1.0811400413513184,153,81,0.005050505050505051,1480,1494.0,1315,1493.0
1.104383945465088,153,81,0.005050505050505051,1480,1494.0,1315,1493.0
1.127500057220459,153,82,0.005050505050505051,1480,1494.0,1315,1493.0
1.150604009628296,153,82,0.005050505050505051,1480,1494.0,1315,1493.0
1.1737029552459717,154,83,0.005050505050505051,1480,1494.0,1315,1494.0
1.196800947189331,155,83,0.005952380952380952,1480,1494.0,1315,1495.0
1.219886064529419,154,84,0.005050505050505051,1480,1494.0,1315,1494.0
1.243006944656372,154,85,0.005050505050505051,1480,1494.0,1315,1494.0
1.2660980224609375,154,85,0.004629629629629629,1480,1494.0,1315,1494.0
1.2891850471496582,156,86,0.005555555555555556,1480,1494.0,1315,1496.0
1.3126020431518555,155,87,0.006493506493506494,1480,1494.0,1315,1495.0
1.3357429504394531,155,88,0.006493506493506494,1480,1494.0,1315,1495.0
1.3588340282440186,153,89,0.005050505050505051,1480,1494.0,1315,1493.0
1.3820009231567383,153,89,0.004629629629629629,1480,1494.0,1315,1493.0
1.4052040576934814,153,90,0.005050505050505051,1480,1494.0,1315,1493.0
1.428312063217163,153,91,0.005050505050505051,1480,1494.0,1313.98,1493.0
1.4515628814697266,153,91,0.004629629629629629,1480,1494.0,1312.8099999999999,1493.0
1.4748308658599854,153,92,0.005050505050505051,1480,1494.0,1310.74,1493.0
1.4980049133300781,153,92,0.004629629629629629,1480,1494.0,1309.5699999999999,1493.0
1.5211999416351318,154,93,0.0043859649122807015,1480,1494.0,1307.5,1494.0
1.544523000717163,154,94,0.0043859649122807015,1480,1494.0,1305.4300000000001,1494.0
1.567720890045166,153,95,0.004629629629629629,1480,1494.0,1303.1800000000001,1493.0
1.5909130573272705,153,95,0.004629629629629629,1480,1494.0,1302.0999999999999,1493.0
1.6142909526824951,153,96,0.004629629629629629,1480,1494.0,1299.8499999999999,1493.0
1.6375200748443604,155,96,0.005952380952380952,1480,1494.0,1298.77,1495.0
1.6607110500335693,155,97,0.0043859649122807015,1480,1494.0,1296.79,1495.0
1.684053897857666,154,97,0.004629629629629629,1480,1494.0,1295.8900000000001,1494.0
1.7072629928588867,154,98,0.004629629629629629,1480,1494.0,1293.9100000000001,1494.0
1.7304918766021729,155,98,0.0043859649122807015,1480,1494.0,1293.01,1495.0
1.7536730766296387,154,98,0.004629629629629629,1480,1494.0,1292.2,1494.0
1.776850938796997,155,99,0.0043859649122807015,1480,1494.0,1290.49,1495.0
1.8000240325927734,154,99,0.004629629629629629,1480,1494.0,1289.77,1494.0
1.8232240676879883,155,100,0.004166666666666667,1480,1494.0,1288.0599999999999,1495.0
1.846445083618164,155,100,0.004629629629629629,1480,1494.0,1287.3399999999999,1495.0
1.8696649074554443,155,100,0.004629629629629629,1480,1494.0,1286.6199999999999,1495.0
1.8929119110107422,155,101,0.004629629629629629,1480,1494.0,1285.0,1495.0
1.91611909866333,155,101,0.004629629629629629,1480,1494.0,1284.28,1495.0
1.9393398761749268,155,101,0.004629629629629629,1480,1494.0,1283.8299999999999,1495.0
1.9625239372253418,155,102,0.004629629629629629,1480,1494.0,1282.21,1495.0
1.9857089519500732,156,102,0.0043859649122807015,1480,1494.0,1281.49,1496.0
2.008877992630005,157,102,0.005208333333333333,1480,1494.0,1281.04,1497.0
2.032140016555786,157,102,0.005555555555555556,1480,1494.0,1280.5899999999999,1497.0
2.055432081222534,156,102,0.004629629629629629,1480,1494.0,1280.23,1496.0
2.0786430835723877,156,102,0.004629629629629629,1480,1494.0,1280.05,1496.0
2.1019749641418457,156,102,0.004629629629629629,1480,1494.0,1279.8699999999999,1496.0
2.125351905822754,156,102,0.004629629629629629,1480,1494.0,1279.78,1496.0
2.148547887802124,156,102,0.004629629629629629,1480,1494.0,1279.6900000000001,1496.0
2.1718108654022217,156,103,0.004273504273504274,1480,1494.0,1278.4300000000001,1496.0
2.195107936859131,157,102,0.0043859649122807015,1480,1494.0,1279.3299999999999,1497.0
2.2183098793029785,157,102,0.004629629629629629,1480,1494.0,1279.3299999999999,1497.0
2.2415759563446045,157,102,0.004629629629629629,1480,1494.0,1279.3299999999999,1497.0
2.264849901199341,158,102,0.004273504273504274,1480,1494.0,1279.3299999999999,1498.0
2.2880358695983887,158,101,0.004629629629629629,1480,1494.0,1280.6800000000001,1498.0
2.3112919330596924,159,101,0.0043859649122807015,1480,1494.0,1280.95,1499.0
2.334567070007324,159,101,0.004166666666666667,1480,1494.0,1281.22,1499.0
2.357745885848999,159,101,0.004629629629629629,1480,1494.0,1281.49,1499.0
2.3809120655059814,159,100,0.004629629629629629,1480,1494.0,1282.9300000000001,1499.0
2.40427303314209,160,100,0.0043859649122807015,1483.0,1494.0,1283.3800000000001,1500.0
2.427574872970581,159,99,0.004629629629629629,1483.0,1494.0,1284.9100000000001,1499.0
2.4508469104766846,160,99,0.004629629629629629,1488.0,1494.0,1285.54,1500.0
2.4742438793182373,162,98,0.005555555555555556,1497.0,1494.0,1287.3399999999999,1502.0
2.4978280067443848,160,98,0.004629629629629629,1495.0,1494.0,1288.0599999999999,1500.0
2.521138906478882,162,97,0.005208333333333333,1503.0,1494.0,1289.8599999999999,1502.0
2.544548988342285,160,96,0.004629629629629629,1500.0,1494.0,1291.75,1500.0
2.5678210258483887,161,96,0.004629629629629629,1504.0,1494.0,1292.74,1501.0
2.5910909175872803,160,95,0.004629629629629629,1503.0,1494.0,1294.72,1500.0
2.614490032196045,161,94,0.004629629629629629,1507.0,1494.0,1296.8800000000001,1501.0
2.6377599239349365,162,94,0.005555555555555556,1511.0,1494.0,1297.96,1502.0
2.6610159873962402,161,93,0.0043859649122807015,1511.0,1494.0,1299.9400000000001,1501.0
2.684443950653076,160,92,0.004629629629629629,1509.0,1494.0,1302.1900000000001,1500.0
2.7077159881591797,160,91,0.004629629629629629,1507.0,1494.0,1304.4400000000001,1500.0
2.7310118675231934,160,91,0.005050505050505051,1507.0,1494.0,1305.6099999999999,1500.0
2.754534959793091,161,90,0.004166666666666667,1508.0,1494.0,1307.8599999999999,1501.0
2.778059959411621,162,88,0.005952380952380952,1512.0,1494.0,1311.28,1502.0
2.801456928253174,162,88,0.006493506493506494,1513.0,1494.0,1312.72,1502.0
2.8248610496520996,161,87,0.005050505050505051,1512.0,1494.0,1315,1501.0
2.848068952560425,161,87,0.005050505050505051,1512.0,1494.0,1315,1501.0
2.871335983276367,161,86,0.005050505050505051,1511.0,1494.0,1315,1501.0
2.894680976867676,161,85,0.004629629629629629,1511.0,1494.0,1315,1501.0
2.9180850982666016,161,85,0.005050505050505051,1512.0,1494.0,1315,1501.0
2.9414119720458984,163,83,0.006060606060606061,1519.0,1494.0,1315,1503.0
2.9646880626678467,163,82,0.005952380952380952,1520,1494.0,1315,1503.0
2.987787961959839,162,82,0.005050505050505051,1520,1494.0,1315,1502.0
3.0108509063720703,162,81,0.005050505050505051,1520,1494.0,1315,1502.0
3.0340850353240967,163,80,0.006493506493506494,1520,1494.0,1315,1503.0
3.057202100753784,162,79,0.004784688995215311,1520,1494.0,1315,1502.0
3.080291986465454,161,78,0.005050505050505051,1520,1494.0,1315,1501.0
3.1033759117126465,161,77,0.005050505050505051,1520,1494.0,1315,1501.0
3.126460075378418,161,75,0.005050505050505051,1520,1494.0,1315,1501.0
3.1495308876037598,161,74,0.004629629629629629,1520,1494.0,1315,1501.0
3.172597885131836,161,73,0.004629629629629629,1519.0,1494.0,1315,1501.0
3.195775032043457,161,72,0.004629629629629629,1517.0,1494.0,1315,1501.0
3.2189629077911377,161,71,0.004629629629629629,1516.0,1494.0,1315,1501.0
3.2421960830688477,162,71,0.006493506493506494,1518.0,1494.0,1315,1502.0
3.265486001968384,160,70,0.005050505050505051,1511.0,1494.0,1315,1500.0
3.288655996322632,161,69,0.0043859649122807015,1512.0,1494.0,1315,1501.0
3.3119029998779297,160,69,0.005050505050505051,1509.0,1494.0,1315,1500.0
3.3351619243621826,160,68,0.004629629629629629,1508.0,1494.0,1315,1500.0
3.3583428859710693,159,68,0.004629629629629629,1504.0,1494.0,1315,1499.0
3.381584882736206,159,68,0.005050505050505051,1502.0,1494.0,1315,1499.0
3.4048500061035156,160,67,0.004166666666666667,1503.0,1494.0,1315,1500.0
3.4280409812927246,161,67,0.005555555555555556,1505.0,1494.0,1315,1501.0
3.4512839317321777,159,67,0.005050505050505051,1499.0,1494.0,1315,1499.0
3.4745559692382812,159,67,0.005050505050505051,1496.0,1494.0,1315,1499.0
3.4977469444274902,159,66,0.004629629629629629,1495.0,1494.0,1315,1499.0
3.5209310054779053,159,66,0.004629629629629629,1493.0,1494.0,1315,1499.0
3.544274091720581,160,66,0.006493506493506494,1495.0,1494.0,1315,1500.0
3.5674490928649902,159,65,0.005050505050505051,1492.0,1494.0,1315,1499.0
3.590622901916504,159,65,0.005050505050505051,1492.0,1494.0,1315,1499.0
3.6138100624084473,160,64,0.006493506493506494,1495.0,1494.0,1315,1500.0
3.6370089054107666,160,64,0.006493506493506494,1495.0,1494.0,1315,1500.0
3.6601860523223877,158,63,0.004629629629629629,1488.0,1494.0,1315,1498.0
3.683382987976074,158,63,0.005050505050505051,1487.0,1494.0,1315,1498.0
3.7065629959106445,158,63,0.005050505050505051,1486.0,1494.0,1315,1498.0
3.72973895072937,159,62,0.005555555555555556,1488.0,1494.0,1315,1499.0
3.759855031967163,157,62,0.005050505050505051,1482.0,1494.0,1315,1497.0
3.783176898956299,158,61,0.005050505050505051,1482.0,1494.0,1315,1498.0
3.806359052658081,158,61,0.005050505050505051,1481.0,1494.0,1315,1498.0
3.8295559883117676,158,61,0.005050505050505051,1480.0,1494.0,1315,1498.0
3.8527300357818604,158,62,0.005050505050505051,1480,1494.0,1315,1498.0
3.8758530616760254,158,62,0.005050505050505051,1480,1494.0,1315,1498.0
3.8989639282226562,158,63,0.005050505050505051,1480,1494.0,1315,1498.0
3.922122001647949,159,63,0.006493506493506494,1480,1494.0,1315,1499.0
3.945328950881958,158,63,0.005050505050505051,1480,1494.0,1315,1498.0
3.9684300422668457,158,62,0.004784688995215311,1480,1494.0,1315,1498.0
3.9915928840637207,158,62,0.005050505050505051,1480,1494.0,1315,1498.0
4.014769077301025,158,62,0.005050505050505051,1480,1494.0,1315,1498.0
4.037887096405029,158,62,0.004629629629629629,1480,1494.0,1315,1498.0
4.061002969741821,158,63,0.005050505050505051,1480,1494.0,1315,1498.0
4.08424186706543,158,63,0.005050505050505051,1480,1494.0,1315,1498.0
4.10738205909729,159,63,0.004784688995215311,1480.0,1494.0,1315,1499.0
4.130549907684326,158,63,0.005050505050505051,1480,1494.0,1315,1498.0
4.153650999069214,158,63,0.005050505050505051,1480,1494.0,1315,1498.0
4.176743030548096,158,63,0.004629629629629629,1480,1494.0,1315,1498.0
4.199833869934082,158,64,0.005050505050505051,1480,1494.0,1315,1498.0
4.222935914993286,158,65,0.005050505050505051,1480,1494.0,1315,1498.0
4.246037006378174,158,66,0.005050505050505051,1480,1494.0,1315,1498.0
4.269106864929199,160,66,0.005555555555555556,1483.0,1494.0,1315,1500.0
4.292258977890015,158,67,0.005050505050505051,1480,1494.0,1315,1498.0
4.315353870391846,158,67,0.005050505050505051,1480,1494.0,1315,1498.0
4.338458061218262,158,66,0.004629629629629629,1480,1494.0,1315,1498.0
4.361617088317871,158,66,0.0043859649122807015,1480,1494.0,1315,1498.0
4.384769916534424,157,67,0.005050505050505051,1480,1494.0,1315,1497.0
4.407841920852661,158,67,0.004166666666666667,1480,1494.0,1315,1498.0
4.430950880050659,160,68,0.005050505050505051,1483.0,1494.0,1315,1500.0
4.454251050949097,157,68,0.004629629629629629,1480,1494.0,1315,1497.0
4.477344036102295,157,68,0.004629629629629629,1480,1494.0,1315,1497.0
4.500428915023804,159,69,0.005208333333333333,1480,1494.0,1315,1499.0
4.5235230922698975,157,70,0.004629629629629629,1480,1494.0,1315,1497.0
4.5466248989105225,157,70,0.0043859649122807015,1480,1494.0,1315,1497.0
4.569699048995972,158,71,0.004166666666666667,1480,1494.0,1315,1498.0
4.592778921127319,159,71,0.005555555555555556,1480,1494.0,1315,1499.0
4.61585807800293,158,72,0.0043859649122807015,1480,1494.0,1315,1498.0
4.638982057571411,160,72,0.004629629629629629,1482.0,1494.0,1315,1500.0
4.662185907363892,158,73,0.004166666666666667,1480,1494.0,1315,1498.0
4.68535590171814,157,73,0.004629629629629629,1480,1494.0,1315,1497.0
4.708443880081177,158,73,0.0043859649122807015,1480,1494.0,1315,1498.0
4.731611013412476,159,74,0.004166666666666667,1480,1494.0,1315,1499.0
4.754771947860718,158,74,0.0043859649122807015,1480,1494.0,1315,1498.0
4.777853965759277,158,74,0.004629629629629629,1480,1494.0,1315,1498.0
4.800940990447998,159,75,0.0043859649122807015,1482.0,1494.0,1315,1499.0
4.824480056762695,161,75,0.004629629629629629,1488.0,1494.0,1315,1501.0
4.847718000411987,158,75,0.004629629629629629,1482.0,1494.0,1315,1498.0
4.870918035507202,160,75,0.003968253968253968,1486.0,1494.0,1315,1500.0
4.894257068634033,160,76,0.003663003663003663,1488.0,1494.0,1315,1500.0
4.917466878890991,161,76,0.003968253968253968,1494.0,1494.0,1315,1501.0
4.94067907333374,161,77,0.003663003663003663,1497.0,1494.0,1315,1501.0
4.963973045349121,160,77,0.004048582995951417,1496.0,1494.0,1315,1500.0
4.987153053283691,161,77,0.003968253968253968,1501.0,1494.0,1315,1501.0
5.010318040847778,161,78,0.003663003663003663,1504.0,1494.0,1315,1501.0
5.033514022827148,161,78,0.003968253968253968,1506.0,1494.0,1315,1501.0
5.056717872619629,161,78,0.003968253968253968,1506.0,1494.0,1315,1501.0
5.080193042755127,161,79,0.003968253968253968,1509.0,1494.0,1315,1501.0
5.103405952453613,161,80,0.003968253968253968,1510.0,1494.0,1315,1501.0
5.126617908477783,161,80,0.003968253968253968,1511.0,1494.0,1315,1501.0
5.14982795715332,161,80,0.003968253968253968,1511.0,1494.0,1315,1501.0
5.173045873641968,161,80,0.003968253968253968,1511.0,1494.0,1315,1501.0
5.196345090866089,161,81,0.003663003663003663,1512.0,1494.0,1315,1501.0
5.219783067703247,161,81,0.003968253968253968,1512.0,1494.0,1315,1501.0
5.243048906326294,161,81,0.003968253968253968,1512.0,1494.0,1315,1501.0
5.266284942626953,161,82,0.003663003663003663,1512.0,1494.0,1315,1501.0
5.289460897445679,161,82,0.003968253968253968,1512.0,1494.0,1315,1501.0
5.3126280307769775,161,82,0.003968253968253968,1512.0,1494.0,1315,1501.0
5.335830926895142,159,83,0.004629629629629629,1506.0,1494.0,1315,1499.0
5.3590779304504395,160,83,0.0043859649122807015,1507.0,1494.0,1315,1500.0
5.382281064987183,160,83,0.004629629629629629,1506.0,1494.0,1315,1500.0
5.405474901199341,160,83,0.004629629629629629,1505.0,1494.0,1315,1500.0
5.42868709564209,163,84,0.004629629629629629,1513.0,1494.0,1315,1503.0
5.451930999755859,162,84,0.003968253968253968,1512.0,1494.0,1315,1502.0
5.475185871124268,162,84,0.003968253968253968,1513.0,1494.0,1315,1502.0
5.498355865478516,163,85,0.004629629629629629,1517.0,1494.0,1315,1503.0
5.521596908569336,164,85,0.004629629629629629,1520,1494.0,1315,1504.0
5.544780969619751,160,85,0.004629629629629629,1513.0,1494.0,1315,1500.0
5.567960977554321,162,85,0.003968253968253968,1520.0,1494.0,1315,1502.0
5.591130971908569,162,85,0.003968253968253968,1520,1494.0,1315,1502.0
5.614351987838745,163,85,0.004629629629629629,1520,1494.0,1315,1503.0
5.637434959411621,163,85,0.004629629629629629,1520,1494.0,1315,1503.0
5.660516977310181,163,86,0.004273504273504274,1520,1494.0,1315,1503.0
5.683618068695068,159,86,0.004629629629629629,1519.0,1494.0,1315,1499.0
5.706769943237305,161,86,0.003968253968253968,1520,1494.0,1315,1501.0
5.7298760414123535,161,86,0.003968253968253968,1520.0,1494.0,1315,1501.0
5.753062009811401,162,87,0.004273504273504274,1520.0,1494.0,1315,1502.0
5.776208877563477,162,87,0.004273504273504274,1520,1494.0,1315,1502.0
5.799313068389893,160,87,0.0034965034965034965,1516.0,1494.0,1315,1500.0
5.822499990463257,160,87,0.003663003663003663,1514.0,1494.0,1315,1500.0
5.845679998397827,160,87,0.003663003663003663,1511.0,1494.0,1315,1500.0
5.868864059448242,161,87,0.004273504273504274,1511.0,1494.0,1315,1501.0
5.892140865325928,159,87,0.0034965034965034965,1503.0,1494.0,1315,1499.0
5.915415048599243,159,87,0.0034965034965034965,1503.0,1494.0,1315,1499.0
5.938647985458374,159,87,0.0034965034965034965,1501.0,1494.0,1315,1499.0
5.961906909942627,159,87,0.0034965034965034965,1499.0,1494.0,1315,1499.0
5.985173940658569,159,87,0.003787878787878788,1496.0,1494.0,1315,1499.0
6.008352041244507,159,87,0.003787878787878788,1493.0,1494.0,1315,1499.0
6.031584024429321,159,87,0.003968253968253968,1492.0,1494.0,1315,1499.0
6.054848909378052,159,87,0.003968253968253968,1491.0,1494.0,1315,1499.0
6.078010082244873,159,87,0.003968253968253968,1490.0,1494.0,1315,1499.0
6.1011669635772705,160,87,0.004629629629629629,1491.0,1494.0,1315,1500.0
6.124579906463623,160,87,0.004629629629629629,1492.0,1494.0,1315,1500.0
6.147756099700928,158,87,0.003787878787878788,1487.0,1494.0,1315,1498.0
6.170929908752441,158,87,0.003787878787878788,1486.0,1494.0,1315,1498.0
6.194262981414795,158,87,0.003787878787878788,1485.0,1494.0,1315,1498.0
6.217437982559204,159,87,0.004629629629629629,1487.0,1494.0,1315,1499.0
6.240624904632568,159,87,0.004629629629629629,1487.0,1494.0,1315,1499.0
6.263810873031616,159,87,0.004629629629629629,1487.0,1494.0,1315,1499.0
6.287003040313721,157,87,0.003787878787878788,1481.0,1494.0,1315,1497.0
6.310153961181641,157,87,0.003787878787878788,1480,1494.0,1315,1497.0
6.333252906799316,157,87,0.003787878787878788,1480,1494.0,1315,1497.0
6.35632586479187,157,88,0.0034965034965034965,1480,1494.0,1315,1497.0
6.379690885543823,158,88,0.004273504273504274,1480,1494.0,1315,1498.0
6.402796030044556,157,88,0.0034965034965034965,1480,1494.0,1315,1497.0
6.425886869430542,157,87,0.003787878787878788,1480,1494.0,1315,1497.0
6.4489710330963135,157,87,0.0034965034965034965,1480,1494.0,1315,1497.0
6.472130060195923,157,87,0.0034965034965034965,1480,1494.0,1315,1497.0
6.495301961898804,157,87,0.0034965034965034965,1480,1494.0,1315,1497.0
6.518410921096802,157,87,0.0034965034965034965,1480,1494.0,1315,1497.0
6.541563987731934,157,86,0.0034965034965034965,1480,1494.0,1315,1497.0
6.56473708152771,156,86,0.0034965034965034965,1480,1494.0,1315,1496.0
6.587850093841553,156,86,0.0034965034965034965,1480,1494.0,1315,1496.0
6.610949993133545,156,86,0.0034965034965034965,1480,1494.0,1315,1496.0
6.634187936782837,157,85,0.003105590062111801,1480,1494.0,1315,1497.0
6.657278060913086,156,85,0.0034965034965034965,1480,1494.0,1315,1496.0
6.680382966995239,156,85,0.0034965034965034965,1480,1494.0,1315,1496.0
6.703496932983398,157,84,0.0034965034965034965,1480,1494.0,1315,1497.0
6.726578950881958,157,84,0.0034965034965034965,1480,1494.0,1315,1497.0
6.749654054641724,157,84,0.0034965034965034965,1480,1494.0,1315,1497.0
6.772722959518433,157,83,0.003246753246753247,1480,1494.0,1315,1497.0
6.795799970626831,157,83,0.003246753246753247,1480,1494.0,1315,1497.0
6.818871974945068,157,83,0.003246753246753247,1480,1494.0,1315,1497.0
6.842061996459961,159,83,0.003968253968253968,1480,1494.0,1315,1499.0
6.865292072296143,158,83,0.003246753246753247,1480,1494.0,1315,1498.0
6.888429880142212,158,83,0.0034965034965034965,1480,1494.0,1315,1498.0
6.911612033843994,158,82,0.003246753246753247,1480,1494.0,1315,1498.0
6.934798955917358,158,82,0.0034965034965034965,1480,1494.0,1315,1498.0
6.9578940868377686,158,81,0.003246753246753247,1480,1494.0,1315,1498.0
6.980962038040161,158,81,0.003246753246753247,1480,1494.0,1315,1498.0
7.004180908203125,159,80,0.003105590062111801,1480,1494.0,1315,1499.0
7.027294874191284,159,80,0.003246753246753247,1480.0,1494.0,1315,1499.0
7.050461053848267,159,80,0.003246753246753247,1482.0,1494.0,1315,1499.0
7.073652029037476,159,79,0.003246753246753247,1482.0,1494.0,1315,1499.0
7.0968101024627686,159,79,0.003246753246753247,1483.0,1494.0,1315,1499.0
7.119992971420288,160,79,0.003105590062111801,1487.0,1494.0,1315,1500.0
7.143157958984375,160,79,0.003246753246753247,1489.0,1494.0,1315,1500.0
7.166316032409668,161,79,0.003105590062111801,1494.0,1494.0,1315,1501.0
7.189478874206543,160,79,0.0030303030303030303,1494.0,1494.0,1315,1500.0
7.2126359939575195,160,78,0.003246753246753247,1496.0,1494.0,1315,1500.0
7.235817909240723,161,78,0.003105590062111801,1500.0,1494.0,1315,1501.0
7.258972883224487,160,77,0.003246753246753247,1499.0,1494.0,1315,1500.0
7.282191038131714,161,77,0.003105590062111801,1503.0,1494.0,1315,1501.0
7.305438995361328,160,76,0.003246753246753247,1502.0,1494.0,1315,1500.0
7.328633069992065,160,76,0.003246753246753247,1503.0,1494.0,1315,1500.0
7.351876974105835,162,75,0.0037593984962406013,1509.0,1494.0,1315,1502.0
7.375137090682983,160,75,0.003246753246753247,1505.0,1494.0,1315,1500.0
7.398313045501709,160,74,0.003246753246753247,1504.0,1494.0,1315,1500.0
7.421531915664673,160,74,0.003246753246753247,1504.0,1494.0,1315,1500.0
7.444792032241821,160,74,0.003246753246753247,1504.0,1494.0,1315,1500.0
7.467966079711914,160,74,0.003246753246753247,1503.0,1494.0,1315,1500.0
7.491127014160156,160,74,0.003246753246753247,1503.0,1494.0,1315,1500.0
7.514443874359131,160,74,0.003246753246753247,1502.0,1494.0,1315,1500.0
7.537678003311157,160,74,0.003246753246753247,1502.0,1494.0,1315,1500.0
7.560905933380127,160,74,0.0034965034965034965,1502.0,1494.0,1315,1500.0
7.5842649936676025,160,73,0.003246753246753247,1500.0,1494.0,1315,1500.0
7.607490062713623,160,73,0.0034965034965034965,1500.0,1494.0,1315,1500.0
7.630704879760742,160,72,0.003246753246753247,1500.0,1494.0,1315,1500.0
7.654026031494141,160,72,0.003246753246753247,1500.0,1494.0,1315,1500.0
7.677202939987183,160,71,0.003246753246753247,1500.0,1494.0,1315,1500.0
7.700671911239624,160,71,0.003246753246753247,1500.0,1494.0,1315,1500.0
7.724104881286621,160,71,0.003246753246753247,1500.0,1494.0,1315,1500.0
7.747406959533691,160,70,0.003246753246753247,1500.0,1494.0,1315,1500.0
7.770835876464844,161,70,0.003105590062111801,1503.0,1494.0,1315,1501.0
7.7943079471588135,161,70,0.003105590062111801,1504.0,1494.0,1315,1501.0
7.817516088485718,163,69,0.0037593984962406013,1511.0,1494.0,1315,1503.0
7.840748071670532,161,69,0.003246753246753247,1508.0,1494.0,1315,1501.0
7.864161968231201,161,69,0.0034965034965034965,1509.0,1494.0,1315,1501.0
7.887392997741699,161,68,0.003246753246753247,1510.0,1494.0,1315,1501.0
7.910595893859863,163,67,0.0037593984962406013,1517.0,1494.0,1315,1503.0
7.93383002281189,162,67,0.004273504273504274,1517.0,1494.0,1315,1502.0
7.957025051116943,160,66,0.0034965034965034965,1513.0,1494.0,1315,1500.0
7.980190992355347,160,65,0.003246753246753247,1513.0,1494.0,1315,1500.0
8.003345966339111,162,64,0.002857142857142857,1518.0,1494.0,1315,1502.0
8.026522874832153,160,64,0.003246753246753247,1513.0,1494.0,1315,1500.0
8.049700021743774,161,64,0.002777777777777778,1513.0,1494.0,1315,1501.0
8.07290506362915,159,63,0.003246753246753247,1507.0,1494.0,1315,1499.0
8.096078872680664,159,62,0.003246753246753247,1505.0,1494.0,1315,1499.0
8.119247913360596,161,62,0.0026666666666666666,1509.0,1494.0,1315,1501.0
8.142436981201172,161,61,0.002857142857142857,1507.0,1494.0,1315,1501.0
8.165610074996948,161,60,0.002857142857142857,1506.0,1494.0,1315,1501.0
8.188791036605835,161,60,0.002857142857142857,1507.0,1494.0,1315,1501.0
8.21202802658081,161,60,0.0026666666666666666,1508.0,1494.0,1315,1501.0
8.235276937484741,161,59,0.002857142857142857,1507.0,1494.0,1315,1501.0
8.258526086807251,160,59,0.003703703703703704,1505.0,1494.0,1315,1500.0
8.282041072845459,160,58,0.003968253968253968,1504.0,1494.0,1315,1500.0
8.305365085601807,160,58,0.0026666666666666666,1505.0,1494.0,1315,1500.0
8.328567028045654,161,57,0.003246753246753247,1509.0,1494.0,1315,1501.0
8.351775884628296,161,57,0.003246753246753247,1509.0,1494.0,1315,1501.0
8.374998092651367,160,57,0.002857142857142857,1506.0,1494.0,1315,1500.0
8.398165941238403,159,58,0.002564102564102564,1502.0,1494.0,1315,1499.0
8.42140507698059,159,58,0.0026666666666666666,1500.0,1494.0,1315,1499.0
8.444664001464844,160,58,0.0030303030303030303,1501.0,1494.0,1315,1500.0
8.467844009399414,160,58,0.003246753246753247,1500.0,1494.0,1315,1500.0
8.491002082824707,158,59,0.0026666666666666666,1494.0,1494.0,1315,1498.0
8.514338970184326,158,58,0.0026666666666666666,1492.0,1494.0,1315,1498.0
8.537539005279541,158,58,0.0026666666666666666,1490.0,1494.0,1315,1498.0
8.560712099075317,157,58,0.002564102564102564,1484.0,1494.0,1315,1497.0
8.584030866622925,157,57,0.002564102564102564,1480.0,1494.0,1315,1497.0
8.60719895362854,157,57,0.002564102564102564,1480,1494.0,1315,1497.0
8.630275964736938,157,56,0.002564102564102564,1480,1494.0,1315,1497.0
8.653361082077026,157,56,0.002564102564102564,1480,1494.0,1315,1497.0
8.676459074020386,159,55,0.0030303030303030303,1480,1494.0,1315,1499.0
8.69956088066101,158,55,0.0026666666666666666,1480,1494.0,1315,1498.0
8.722656965255737,158,54,0.0027472527472527475,1480,1494.0,1315,1498.0
8.745769023895264,158,54,0.0027472527472527475,1480,1494.0,1315,1498.0
8.768853902816772,158,54,0.002564102564102564,1480,1494.0,1315,1498.0
8.792005062103271,158,54,0.002564102564102564,1480,1494.0,1315,1498.0
8.815160036087036,158,54,0.002564102564102564,1480,1494.0,1315,1498.0
8.83826208114624,158,54,0.002564102564102564,1480,1494.0,1315,1498.0
8.861430883407593,160,54,0.002898550724637681,1482.0,1494.0,1315,1500.0
8.884839057922363,158,54,0.002564102564102564,1480,1494.0,1315,1498.0
8.908116102218628,158,54,0.002564102564102564,1480,1494.0,1315,1498.0
8.931309938430786,158,54,0.002564102564102564,1480,1494.0,1315,1498.0
8.954493045806885,157,54,0.002564102564102564,1480,1494.0,1315,1497.0
8.977601051330566,158,54,0.0026455026455026454,1480,1494.0,1315,1498.0
9.001079082489014,157,55,0.002564102564102564,1480,1494.0,1315,1497.0
9.024462938308716,157,55,0.002564102564102564,1480,1494.0,1315,1497.0
9.04758906364441,157,54,0.002564102564102564,1480,1494.0,1315,1497.0
9.070707082748413,157,53,0.002403846153846154,1480,1494.0,1315,1497.0
9.093961954116821,157,53,0.002564102564102564,1480,1494.0,1315,1497.0
9.117073059082031,157,53,0.002564102564102564,1480,1494.0,1315,1497.0
9.140188932418823,158,53,0.0024691358024691358,1480,1494.0,1315,1498.0
9.163290977478027,158,53,0.0023148148148148147,1480,1494.0,1315,1498.0
9.186389923095703,157,53,0.002403846153846154,1480,1494.0,1315,1497.0
9.20947790145874,158,53,0.0023148148148148147,1480,1494.0,1315,1498.0
9.2325758934021,158,53,0.0024691358024691358,1480,1494.0,1315,1498.0
9.255668878555298,158,53,0.0024691358024691358,1480,1494.0,1315,1498.0
9.278757095336914,158,52,0.0023148148148148147,1480,1494.0,1315,1498.0
9.301944017410278,158,52,0.0023148148148148147,1480,1494.0,1315,1498.0
9.32517695426941,158,52,0.002403846153846154,1480,1494.0,1315,1498.0
9.348267078399658,159,52,0.0023148148148148147,1480,1494.0,1315,1499.0
9.371495008468628,159,52,0.0023148148148148147,1480,1494.0,1315,1499.0
9.394860029220581,160,51,0.002178649237472767,1483.0,1494.0,1315,1500.0
9.41809892654419,159,50,0.002403846153846154,1483.0,1494.0,1315,1499.0
9.441382884979248,159,50,0.002403846153846154,1484.0,1494.0,1315,1499.0
9.46466588973999,160,50,0.0023148148148148147,1488.0,1494.0,1315,1500.0
9.487834930419922,160,51,0.002178649237472767,1490.0,1494.0,1315,1500.0
9.511010885238647,160,51,0.0023148148148148147,1492.0,1494.0,1315,1500.0
9.53430700302124,160,52,0.002178649237472767,1494.0,1494.0,1315,1500.0
9.55746603012085,160,52,0.0023148148148148147,1496.0,1494.0,1315,1500.0
9.580627918243408,160,53,0.0023148148148148147,1497.0,1494.0,1315,1500.0
9.603808879852295,160,54,0.0021008403361344537,1498.0,1494.0,1315,1500.0
9.627007007598877,160,54,0.0021008403361344537,1498.0,1494.0,1315,1500.0
9.650177001953125,160,54,0.002178649237472767,1499.0,1494.0,1315,1500.0
9.673350095748901,159,54,0.002403846153846154,1497.0,1494.0,1315,1499.0
9.696517944335938,159,54,0.002403846153846154,1496.0,1494.0,1315,1499.0
9.719682931900024,159,55,0.002178649237472767,1495.0,1494.0,1315,1499.0
9.742868900299072,159,55,0.0023148148148148147,1494.0,1494.0,1315,1499.0
9.766057014465332,160,56,0.002028397565922921,1496.0,1494.0,1315,1500.0
9.789207935333252,160,56,0.00196078431372549,1496.0,1494.0,1315,1500.0
9.812368869781494,161,56,0.0021551724137931034,1499.0,1494.0,1315,1501.0
9.835543870925903,161,56,0.0021551724137931034,1500.0,1494.0,1315,1501.0
9.858701944351196,161,56,0.0021551724137931034,1501.0,1494.0,1315,1501.0
9.881936073303223,161,56,0.0020833333333333333,1502.0,1494.0,1315,1501.0
9.905234098434448,161,56,0.0020833333333333333,1504.0,1494.0,1315,1501.0
9.928467988967896,161,57,0.00196078431372549,1506.0,1494.0,1315,1501.0
9.951699018478394,161,57,0.00196078431372549,1508.0,1494.0,1315,1501.0
9.974950075149536,161,57,0.00196078431372549,1510.0,1494.0,1315,1501.0
9.99811601638794,161,57,0.00196078431372549,1511.0,1494.0,1315,1501.0
10.021329879760742,161,57,0.00196078431372549,1512.0,1494.0,1315,1501.0
10.044589042663574,161,56,0.0020833333333333333,1512.0,1494.0,1315,1501.0
10.0677969455719,161,57,0.00196078431372549,1512.0,1494.0,1315,1501.0
10.09097409248352,161,57,0.00196078431372549,1512.0,1494.0,1315,1501.0
10.114289999008179,161,57,0.00196078431372549,1512.0,1494.0,1315,1501.0
10.137479066848755,161,57,0.00196078431372549,1512.0,1494.0,1315,1501.0
10.160644054412842,161,57,0.00196078431372549,1512.0,1494.0,1315,1501.0
10.183818101882935,161,57,0.00196078431372549,1512.0,1494.0,1315,1501.0
10.207004070281982,161,57,0.001851851851851852,1512.0,1494.0,1315,1501.0
10.230196952819824,161,57,0.001851851851851852,1512.0,1494.0,1315,1501.0
10.2533860206604,161,57,0.001851851851851852,1512.0,1494.0,1315,1501.0
10.276563882827759,161,57,0.001851851851851852,1512.0,1494.0,1315,1501.0
10.299730062484741,161,57,0.001851851851851852,1512.0,1494.0,1315,1501.0
10.323242902755737,161,57,0.001851851851851852,1512.0,1494.0,1315,1501.0
10.346482038497925,161,56,0.001851851851851852,1512.0,1494.0,1315,1501.0
10.369651079177856,162,56,0.0017921146953405018,1515.0,1494.0,1315,1502.0
10.392819881439209,161,56,0.001851851851851852,1513.0,1494.0,1315,1501.0
10.41601300239563,161,56,0.001851851851851852,1513.0,1494.0,1315,1501.0
10.439203023910522,161,56,0.001851851851851852,1513.0,1494.0,1315,1501.0
10.462385892868042,161,56,0.001851851851851852,1513.0,1494.0,1315,1501.0
10.485557079315186,161,56,0.0017921146953405018,1513.0,1494.0,1315,1501.0
10.508728981018066,160,56,0.001851851851851852,1510.0,1494.0,1315,1500.0
10.531970977783203,162,56,0.001949317738791423,1515.0,1494.0,1315,1502.0
10.555212020874023,162,56,0.001949317738791423,1516.0,1494.0,1315,1502.0
10.578404903411865,160,56,0.001644736842105263,1511.0,1494.0,1315,1500.0
10.601675033569336,160,56,0.001644736842105263,1509.0,1494.0,1315,1500.0
10.624980926513672,160,55,0.0015625,1508.0,1494.0,1315,1500.0
10.648142099380493,161,55,0.001949317738791423,1510.0,1494.0,1315,1501.0
10.671396017074585,158,55,0.0017543859649122807,1501.0,1494.0,1315,1498.0
10.694663047790527,158,54,0.0016666666666666668,1498.0,1494.0,1315,1498.0
10.717848062515259,158,54,0.001697792869269949,1495.0,1494.0,1315,1498.0
10.741014003753662,158,54,0.001644736842105263,1493.0,1494.0,1315,1498.0
10.764326095581055,158,53,0.0015625,1489.0,1494.0,1315,1498.0
10.78748607635498,157,53,0.0017543859649122807,1482.0,1494.0,1315,1497.0
10.810657978057861,157,52,0.0016666666666666668,1480,1494.0,1315,1497.0
10.83378005027771,158,51,0.001644736842105263,1480,1494.0,1315,1498.0
10.857003927230835,161,50,0.0017241379310344827,1486.0,1494.0,1315,1501.0
10.88044810295105,159,50,0.0020242914979757085,1480.0,1494.0,1315,1499.0
10.903702020645142,160,50,0.001594896331738437,1484.0,1494.0,1315,1500.0
10.926929950714111,160,49,0.0015151515151515152,1486.0,1494.0,1315,1500.0
10.950129985809326,161,49,0.0017543859649122807,1491.0,1494.0,1315,1501.0
10.973315954208374,159,49,0.0015479876160990713,1488.0,1494.0,1315,1499.0
10.996509075164795,159,49,0.0015479876160990713,1489.0,1494.0,1315,1499.0
11.019697904586792,159,49,0.001594896331738437,1491.0,1494.0,1315,1499.0
11.042891025543213,159,48,0.0015151515151515152,1493.0,1494.0,1315,1499.0
11.066102027893066,158,48,0.0015479876160990713,1491.0,1494.0,1315,1498.0
11.089269876480103,158,48,0.0015479876160990713,1488.0,1494.0,1315,1498.0
11.112441062927246,158,47,0.0015151515151515152,1487.0,1494.0,1315,1498.0
11.135605096817017,157,47,0.0015479876160990713,1482.0,1494.0,1315,1497.0
11.158784866333008,157,47,0.0015479876160990713,1480,1494.0,1315,1497.0
11.181952953338623,157,46,0.0014285714285714286,1480,1494.0,1315,1497.0
11.20515489578247,156,46,0.0014705882352941176,1480,1494.0,1315,1496.0
11.22824501991272,156,46,0.0014705882352941176,1480,1494.0,1315,1496.0
11.251384973526001,156,46,0.0014705882352941176,1480,1494.0,1315,1496.0
11.274553060531616,156,46,0.0014705882352941176,1480,1494.0,1315,1496.0
11.297643899917603,156,46,0.0014705882352941176,1480,1494.0,1315,1496.0
11.320739984512329,156,46,0.0014705882352941176,1480,1494.0,1315,1496.0
11.343976974487305,156,46,0.0015479876160990713,1480,1494.0,1315,1496.0
11.367099046707153,156,45,0.0014705882352941176,1480,1494.0,1315,1496.0
11.390201091766357,157,44,0.0014285714285714286,1480,1494.0,1315,1497.0
