time,frame,x,y,size_inv,roll,pitch,thrust,yaw
0,0,,,,1500.0,1500.0,1420.0,1500
0.05,0,,,,1500.0,1500.0,1420.0,1500
0.1,0,,,,1500.0,1500.0,1420.0,1500
0.15000000000000002,0,,,,1500.0,1500.0,1420.0,1500
0.2,0,,,,1500.0,1500.0,1420.0,1500
0.25,0,,,,1500.0,1500.0,1420.0,1500
0.3,0,,,,1500.0,1500.0,1420.0,1500
0.35,0,,,,1500.0,1500.0,1420.0,1500
0.39999999999999997,0,,,,1500.0,1500.0,1420.0,1500
0.44999999999999996,0,,,,1500.0,1500.0,1420.0,1500
0.49999999999999994,0,,,,1500.0,1500.0,1420.0,1500
0.5499999999999999,0,,,,1500.0,1500.0,1420.0,1500
0.6,0,,,,1500.0,1500.0,1420.0,1500
0.65,0,,,,1500.0,1500.0,1420.0,1500
0.7000000000000001,0,,,,1500.0,1500.0,1420.0,1500
0.7500000000000001,0,,,,1500.0,1500.0,1420.0,1500
0.8000000000000002,0,,,,1500.0,1500.0,1420.0,1500
0.8500000000000002,0,,,,1500.0,1500.0,1420.0,1500
0.9000000000000002,0,,,,1500.0,1500.0,1420.0,1500
0.9500000000000003,0,,,,1500.0,1500.0,1420.0,1500
1.0000000000000002,0,,,,1500.0,1500.0,1420.0,1500
1.0500000000000003,0,,,,1500.0,1500.0,1420.0,1500
1.1000000000000003,0,,,,1500.0,1500.0,1420.0,1500
1.1500000000000004,0,,,,1500.0,1500.0,1420.0,1500
1.2000000000000004,0,,,,1500.0,1500.0,1420.0,1500
1.2500000000000004,0,,,,1500.0,1500.0,1420.0,1500
1.3000000000000005,0,,,,1500.0,1500.0,1420.0,1500
1.3500000000000005,0,,,,1500.0,1500.0,1420.0,1500
1.4000000000000006,0,,,,1500.0,1500.0,1420.0,1500
1.4500000000000006,0,,,,1500.0,1500.0,1420.0,1500
1.5000000000000007,0,,,,1500.0,1500.0,1420.0,1500
1.5500000000000007,0,,,,1500.0,1500.0,1420.0,1500
1.6000000000000008,0,,,,1500.0,1500.0,1420.0,1500
1.6500000000000008,0,,,,1500.0,1500.0,1420.0,1500
1.7000000000000008,0,,,,1500.0,1500.0,1420.0,1500
1.7500000000000009,0,,,,1500.0,1500.0,1420.0,1500
1.800000000000001,0,,,,1500.0,1500.0,1420.0,1500
1.850000000000001,0,,,,1500.0,1500.0,1420.0,1500
1.900000000000001,0,,,,1500.0,1500.0,1420.0,1500
1.950000000000001,0,,,,1500.0,1500.0,1420.0,1500
2.000000000000001,0,,,,1500.0,1500.0,1420.0,1500
2.0500000000000007,0,,,,1500.0,1500.0,1420.0,1500
2.1000000000000005,0,,,,1500.0,1500.0,1420.0,1500
2.1500000000000004,0,,,,1500.0,1500.0,1420.0,1500
2.2,0,,,,1500.0,1500.0,1420.0,1500
2.25,0,,,,1500.0,1500.0,1420.0,1500
2.3,0,,,,1500.0,1500.0,1420.0,1500
2.3499999999999996,0,,,,1500.0,1500.0,1420.0,1500
2.3999999999999995,0,,,,1500.0,1500.0,1420.0,1500
2.4499999999999993,0,,,,1500.0,1500.0,1420.0,1500
2.499999999999999,0,,,,1500.0,1500.0,1420.0,1500
2.549999999999999,0,,,,1500.0,1500.0,1420.0,1500
2.5999999999999988,0,,,,1500.0,1500.0,1420.0,1500
2.6499999999999986,0,,,,1500.0,1500.0,1420.0,1500
2.6999999999999984,0,,,,1500.0,1500.0,1420.0,1500
2.7499999999999982,0,,,,1500.0,1500.0,1420.0,1500
2.799999999999998,0,,,,1500.0,1500.0,1420.0,1500
2.849999999999998,0,,,,1500.0,1500.0,1420.0,1500
2.8999999999999977,0,,,,1500.0,1500.0,1420.0,1500
2.9499999999999975,0,,,,1500.0,1500.0,1420.0,1500
2.9999999999999973,0,,,,1500.0,1500.0,1420.0,1500
3.049999999999997,0,,,,1500.0,1500.0,1420.0,1500
3.099999999999997,0,,,,1500.0,1500.0,1420.0,1500
3.149999999999997,0,,,,1500.0,1500.0,1420.0,1500
3.1999999999999966,0,,,,1500.0,1500.0,1420.0,1500
3.2499999999999964,0,,,,1500.0,1500.0,1420.0,1500
3.2999999999999963,0,,,,1500.0,1500.0,1420.0,1500
3.349999999999996,0,,,,1500.0,1500.0,1420.0,1500
3.399999999999996,0,,,,1500.0,1500.0,1420.0,1500
3.4499999999999957,0,,,,1500.0,1500.0,1420.0,1500
3.4999999999999956,0,,,,1500.0,1500.0,1420.0,1500
3.5499999999999954,0,,,,1500.0,1500.0,1420.0,1500
3.599999999999995,0,,,,1500.0,1500.0,1420.0,1500
3.649999999999995,0,,,,1500.0,1500.0,1420.0,1500
3.699999999999995,0,,,,1500.0,1500.0,1420.0,1500
3.7499999999999947,0,,,,1500.0,1500.0,1420.0,1500
3.7999999999999945,0,,,,1500.0,1500.0,1420.0,1500
3.8499999999999943,0,,,,1500.0,1500.0,1420.0,1500
3.899999999999994,0,,,,1500.0,1500.0,1420.0,1500
3.949999999999994,0,,,,1500.0,1500.0,1420.0,1500
3.999999999999994,0,,,,1500.0,1500.0,1420.0,1500
4.049999999999994,1,200,141,0.00034831069313827936,1504.0,1500.465168930686,1379.0,1500
4.099999999999993,2,189,136,0.00029120559114735004,1502.9,1500.4708794408853,1384.0,1500
4.149999999999993,3,180,132,0.0002554931016862545,1502.0,1500.4744506898314,1388.0,1500
4.199999999999993,4,170,127,0.00025,1501.0,1500.475,1393.0,1500
4.249999999999993,5,163,124,0.00022361359570661896,1500.3,1500.4776386404294,1396.0,1500
4.299999999999993,6,160,120,0.00019425019425019425,1500.0,1500.480574980575,1400.0,1500
4.3499999999999925,7,155,117,0.00017473353136466887,1499.5,1500.4825266468636,1403.0,1500
4.399999999999992,8,154,114,0.000169061707523246,1499.4,1500.4830938292478,1406.0,1500
4.449999999999992,9,153,111,0.000169061707523246,1499.3,1500.4830938292478,1409.0,1500
4.499999999999992,10,152,109,0.00017556179775280898,1499.2,1500.4824438202247,1411.0,1500
4.549999999999992,11,152,108,0.00017834849295523454,1499.2,1500.4821651507045,1412.0,1500
4.599999999999992,12,153,107,0.00019157088122605365,1499.3,1500.4808429118773,1413.0,1500
4.6499999999999915,13,154,107,0.00019157088122605365,1499.4,1500.4808429118773,1413.0,1500
4.699999999999991,14,155,107,0.00019708316909735908,1499.5,1500.4802916830902,1413.0,1500
4.749999999999991,15,157,107,0.00019940179461615153,1499.7,1500.4800598205384,1413.0,1500
4.799999999999991,16,157,107,0.0002077274615704196,1499.7,1500.479227253843,1413.0,1500
4.849999999999991,17,157,107,0.0002077274615704196,1499.7,1500.479227253843,1413.0,1500
4.899999999999991,18,158,107,0.0002232142857142857,1499.8,1500.4776785714287,1413.0,1500
4.94999999999999,19,159,108,0.00022727272727272727,1499.9,1500.4772727272727,1412.0,1500
4.99999999999999,20,159,109,0.00024189646831156264,1499.9,1500.4758103531688,1411.0,1500
5.04999999999999,21,160,109,0.0002564102564102564,1500.0,1500.474358974359,1411.0,1500
5.09999999999999,22,161,110,0.00025303643724696357,1500.1,1500.4746963562752,1410.0,1500
5.14999999999999,23,161,111,0.0002723311546840959,1500.1,1500.4727668845317,1409.0,1500
5.1999999999999895,24,161,112,0.0002874389192296637,1500.1,1500.4712561080771,1408.0,1500
5.249999999999989,25,161,112,0.0002874389192296637,1500.1,1500.4712561080771,1408.0,1500
5.299999999999989,26,159,113,0.00031289111389236547,1499.9,1500.4687108886108,1407.0,1500
5.349999999999989,27,159,112,0.0003244646333549643,1499.9,1500.4675535366646,1408.0,1500
5.399999999999989,28,157,113,0.00034722222222222224,1499.7,1500.4652777777778,1407.0,1500
5.449999999999989,29,157,113,0.0003527336860670194,1499.7,1500.4647266313932,1407.0,1500
5.4999999999999885,30,156,112,0.00036075036075036075,1499.6,1500.463924963925,1408.0,1500
5.549999999999988,31,155,112,0.00038402457757296467,1499.5,1500.4615975422428,1408.0,1500
5.599999999999988,32,154,112,0.00041339396444811904,1499.4,1500.4586606035552,1408.0,1500
5.649999999999988,33,154,112,0.00041339396444811904,1499.4,1500.4586606035552,1408.0,1500
5.699999999999988,34,153,112,0.0004420866489832007,1499.3,1500.4557913351016,1408.0,1500
5.749999999999988,35,152,111,0.0004464285714285714,1499.2,1500.455357142857,1409.0,1500
5.799999999999987,36,152,111,0.0004662004662004662,1499.2,1500.45337995338,1409.0,1500
5.849999999999987,37,151,111,0.0004784688995215311,1499.1,1500.452153110048,1409.0,1500
5.899999999999987,38,150,111,0.0004873294346978557,1499.0,1500.4512670565302,1409.0,1500
5.949999999999987,39,150,111,0.0004965243296921549,1499.0,1500.4503475670308,1409.0,1500
5.999999999999987,40,149,112,0.0005197505197505198,1498.9,1500.448024948025,1408.0,1500
6.0499999999999865,41,149,112,0.0005299417064122947,1498.9,1500.4470058293587,1408.0,1500
6.099999999999986,42,149,112,0.0005602240896358543,1498.9,1500.4439775910364,1408.0,1500
6.149999999999986,43,148,112,0.0005714285714285715,1498.8,1500.442857142857,1408.0,1500
6.199999999999986,44,148,112,0.0006313131313131314,1498.8,1500.4368686868686,1408.0,1500
6.249999999999986,45,148,111,0.0006127450980392157,1498.8,1500.438725490196,1409.0,1500
6.299999999999986,46,148,111,0.0006648936170212766,1498.8,1500.4335106382978,1409.0,1500
6.349999999999985,47,149,111,0.0006648936170212766,1498.9,1500.4335106382978,1409.0,1500
6.399999999999985,48,148,112,0.0007168458781362007,1498.8,1500.4283154121863,1408.0,1500
6.449999999999985,49,148,112,0.0007331378299120235,1498.8,1500.4266862170089,1408.0,1500
6.499999999999985,50,148,112,0.0007331378299120235,1498.8,1500.4266862170089,1408.0,1500
6.549999999999985,51,148,112,0.0007501875468867217,1498.8,1500.4249812453113,1408.0,1500
6.5999999999999845,52,148,112,0.0007867820613690008,1498.8,1500.4213217938632,1408.0,1500
6.649999999999984,53,148,112,0.0008410428931875525,1498.8,1500.4158957106813,1408.0,1500
6.699999999999984,54,147,112,0.0008620689655172414,1498.7,1500.4137931034484,1408.0,1500
6.749999999999984,55,148,112,0.0009033423667570009,1498.8,1500.4096657633243,1408.0,1500
6.799999999999984,56,147,111,0.0009157509157509158,1498.7,1500.4084249084249,1409.0,1500
6.849999999999984,57,147,111,0.0009157509157509158,1498.7,1500.4084249084249,1409.0,1500
6.8999999999999835,58,147,111,0.0010121457489878543,1498.7,1500.3987854251013,1409.0,1500
6.949999999999983,59,146,111,0.0010121457489878543,1498.6,1500.3987854251013,1409.0,1500
6.999999999999983,60,146,111,0.0010395010395010396,1498.6,1500.3960498960498,1409.0,1500
7.049999999999983,61,145,111,0.0010683760683760685,1498.5,1500.3931623931624,1409.0,1500
7.099999999999983,62,146,111,0.001098901098901099,1498.6,1500.39010989011,1409.0,1500
7.149999999999983,63,146,111,0.001142857142857143,1498.6,1500.3857142857144,1409.0,1500
7.199999999999982,64,146,111,0.001142857142857143,1498.6,1500.3857142857144,1409.0,1500
7.249999999999982,65,146,111,0.0012254901960784314,1498.6,1500.3774509803923,1409.0,1500
7.299999999999982,66,146,111,0.0012254901960784314,1498.6,1500.3774509803923,1409.0,1500
7.349999999999982,67,146,111,0.0012254901960784314,1498.6,1500.3774509803923,1409.0,1500
7.399999999999982,68,146,111,0.001358695652173913,1498.6,1500.3641304347825,1409.0,1500
7.4499999999999815,69,147,111,0.0013175230566534915,1498.7,1500.3682476943347,1409.0,1500
7.499999999999981,70,147,111,0.001358695652173913,1498.7,1500.3641304347825,1409.0,1500
7.549999999999981,71,147,110,0.001358695652173913,1498.7,1500.3641304347825,1410.0,1500
7.599999999999981,72,147,110,0.0013020833333333333,1498.7,1500.3697916666667,1410.0,1500
7.649999999999981,73,148,110,0.001466275659824047,1498.8,1500.3533724340175,1410.0,1500
7.699999999999981,74,148,110,0.0013440860215053765,1498.8,1500.3655913978494,1410.0,1500
7.7499999999999805,75,148,110,0.0014204545454545455,1498.8,1500.3579545454545,1410.0,1500
7.79999999999998,76,148,110,0.001402524544179523,1498.8,1500.359747545582,1410.0,1500
7.84999999999998,77,148,110,0.001466275659824047,1498.8,1500.3533724340175,1410.0,1500
7.89999999999998,78,148,110,0.0014204545454545455,1498.8,1500.3579545454545,1410.0,1500
7.94999999999998,79,148,110,0.001466275659824047,1498.8,1500.3533724340175,1410.0,1500
7.99999999999998,80,147,109,0.0014204545454545455,1498.7,1500.3579545454545,1411.0,1500
8.04999999999998,81,147,110,0.001466275659824047,1498.7,1500.3533724340175,1410.0,1500
8.09999999999998,82,147,110,0.001402524544179523,1498.7,1500.359747545582,1410.0,1500
8.14999999999998,83,147,110,0.0014204545454545455,1498.7,1500.3579545454545,1410.0,1500
8.199999999999982,84,147,110,0.001402524544179523,1498.7,1500.359747545582,1410.0,1500
8.249999999999982,85,146,110,0.0015873015873015873,1498.6,1500.3412698412699,1410.0,1500
8.299999999999983,86,146,110,0.0015873015873015873,1498.6,1500.3412698412699,1410.0,1500
8.349999999999984,87,146,110,0.0015873015873015873,1498.6,1500.3412698412699,1410.0,1500
8.399999999999984,88,147,110,0.0017241379310344827,1498.7,1500.3275862068965,1410.0,1500
8.449999999999985,89,147,110,0.0016420361247947454,1498.7,1500.3357963875205,1410.0,1500
8.499999999999986,90,147,110,0.0015873015873015873,1498.7,1500.3412698412699,1410.0,1500
8.549999999999986,91,148,110,0.0016420361247947454,1498.8,1500.3357963875205,1410.0,1500
8.599999999999987,92,147,109,0.0017857142857142857,1498.7,1500.3214285714287,1411.0,1500
8.649999999999988,93,148,110,0.001851851851851852,1498.8,1500.3148148148148,1410.0,1500
8.699999999999989,94,148,110,0.001949317738791423,1498.8,1500.305068226121,1410.0,1500
8.74999999999999,95,148,110,0.0020242914979757085,1498.8,1500.2975708502024,1410.0,1500
8.79999999999999,96,148,110,0.0019230769230769232,1498.8,1500.3076923076924,1410.0,1500
8.84999999999999,97,149,110,0.002136752136752137,1498.9,1500.2863247863247,1410.0,1500
8.899999999999991,98,149,110,0.002136752136752137,1498.9,1500.2863247863247,1410.0,1500
8.949999999999992,99,149,111,0.0022624434389140274,1498.9,1500.2737556561085,1409.0,1500
8.999999999999993,100,150,111,0.002352941176470588,1499.0,1500.264705882353,1409.0,1500
9.049999999999994,101,150,111,0.002352941176470588,1499.0,1500.264705882353,1409.0,1500
9.099999999999994,102,149,111,0.00267379679144385,1498.9,1500.2326203208556,1409.0,1500
9.149999999999995,103,150,111,0.0025575447570332483,1499.0,1500.2442455242967,1409.0,1500
9.199999999999996,104,150,110,0.002717391304347826,1499.0,1500.2282608695652,1410.0,1500
9.249999999999996,105,151,110,0.002352941176470588,1499.1,1500.264705882353,1410.0,1500
9.299999999999997,106,150,110,0.0024509803921568627,1499.0,1500.2549019607843,1410.0,1500
9.349999999999998,107,150,110,0.0024509803921568627,1499.0,1500.2549019607843,1410.0,1500
9.399999999999999,108,150,109,0.002717391304347826,1499.0,1500.2282608695652,1411.0,1500
9.45,109,149,109,0.002840909090909091,1498.9,1500.215909090909,1411.0,1500
9.5,110,149,110,0.0030303030303030303,1498.9,1500.1969696969697,1410.0,1500
9.55,111,149,110,0.0030303030303030303,1498.9,1500.1969696969697,1410.0,1500
9.600000000000001,112,149,110,0.0030303030303030303,1498.9,1500.1969696969697,1410.0,1500
9.650000000000002,113,149,110,0.0030303030303030303,1498.9,1500.1969696969697,1410.0,1500
9.700000000000003,114,149,110,0.0030303030303030303,1498.9,1500.1969696969697,1410.0,1500
9.750000000000004,115,149,110,0.0035087719298245615,1498.9,1500.1491228070176,1410.0,1500
9.800000000000004,116,149,110,0.0035087719298245615,1498.9,1500.1491228070176,1410.0,1500
9.850000000000005,117,150,109,0.003401360544217687,1499.0,1500.1598639455783,1411.0,1500
9.900000000000006,118,149,110,0.003703703703703704,1498.9,1500.1296296296296,1410.0,1500
9.950000000000006,119,151,110,0.0031746031746031746,1499.1,1500.1825396825398,1410.0,1500
10.000000000000007,120,151,110,0.003401360544217687,1499.1,1500.1598639455783,1410.0,1500
10.050000000000008,121,151,109,0.0037593984962406013,1499.1,1500.124060150376,1411.0,1500
10.100000000000009,122,151,110,0.0035714285714285713,1499.1,1500.142857142857,1410.0,1500
10.15000000000001,123,151,110,0.0035087719298245615,1499.1,1500.1491228070176,1410.0,1500
10.20000000000001,124,151,110,0.003968253968253968,1499.1,1500.1031746031747,1410.0,1500
10.25000000000001,125,152,110,0.0035714285714285713,1499.2,1500.142857142857,1410.0,1500
10.300000000000011,126,153,110,0.0037593984962406013,1499.3,1500.124060150376,1410.0,1500
10.350000000000012,127,152,110,0.004273504273504274,1499.2,1500.0726495726497,1410.0,1500
10.400000000000013,128,152,109,0.003968253968253968,1499.2,1500.1031746031747,1411.0,1500
10.450000000000014,129,153,110,0.0037593984962406013,1499.3,1500.124060150376,1410.0,1500
10.500000000000014,130,152,110,0.004273504273504274,1499.2,1500.0726495726497,1410.0,1500
10.550000000000015,131,152,110,0.004273504273504274,1499.2,1500.0726495726497,1410.0,1500
10.600000000000016,132,152,110,0.004273504273504274,1499.2,1500.0726495726497,1410.0,1500
10.650000000000016,133,153,110,0.004048582995951417,1499.3,1500.0951417004048,1410.0,1500
10.700000000000017,134,153,110,0.0038461538461538464,1499.3,1500.1153846153845,1410.0,1500
10.750000000000018,135,153,110,0.004273504273504274,1499.3,1500.0726495726497,1410.0,1500
10.800000000000018,136,153,110,0.004273504273504274,1499.3,1500.0726495726497,1410.0,1500
10.85000000000002,137,153,110,0.005050505050505051,1499.3,1499.9949494949494,1410.0,1500
10.90000000000002,138,154,110,0.0043859649122807015,1499.4,1500.061403508772,1410.0,1500
10.95000000000002,139,154,110,0.004524886877828055,1499.4,1500.0475113122172,1410.0,1500
11.000000000000021,140,154,109,0.004629629629629629,1499.4,1500.037037037037,1411.0,1500
11.050000000000022,141,154,109,0.004629629629629629,1499.4,1500.037037037037,1411.0,1500
11.100000000000023,142,154,110,0.004273504273504274,1499.4,1500.0726495726497,1410.0,1500
11.150000000000023,143,155,110,0.0053475935828877,1499.5,1499.9652406417113,1410.0,1500
11.200000000000024,144,155,110,0.004901960784313725,1499.5,1500.0098039215686,1410.0,1500
11.250000000000025,145,154,111,0.006060606060606061,1499.4,1499.8939393939395,1409.0,1500
11.300000000000026,146,154,110,0.006060606060606061,1499.4,1499.8939393939395,1410.0,1500
11.350000000000026,147,155,110,0.004901960784313725,1499.5,1500.0098039215686,1410.0,1500
11.400000000000027,148,155,110,0.0053475935828877,1499.5,1499.9652406417113,1410.0,1500
11.450000000000028,149,155,110,0.004901960784313725,1499.5,1500.0098039215686,1410.0,1500
11.500000000000028,150,153,110,0.006493506493506494,1499.3,1499.8506493506493,1410.0,1500
11.55000000000003,151,155,110,0.0053475935828877,1499.5,1499.9652406417113,1410.0,1500
11.60000000000003,152,155,110,0.0053475935828877,1499.5,1499.9652406417113,1410.0,1500
11.65000000000003,153,154,109,0.005555555555555556,1499.4,1499.9444444444443,1411.0,1500
11.700000000000031,154,155,109,0.004901960784313725,1499.5,1500.0098039215686,1411.0,1500
11.750000000000032,155,154,109,0.005555555555555556,1499.4,1499.9444444444443,1411.0,1500
11.800000000000033,156,155,109,0.004901960784313725,1499.5,1500.0098039215686,1411.0,1500
11.850000000000033,157,153,109,0.005952380952380952,1499.3,1499.904761904762,1411.0,1500
11.900000000000034,158,155,109,0.004901960784313725,1499.5,1500.0098039215686,1411.0,1500
11.950000000000035,159,153,110,0.006493506493506494,1499.3,1499.8506493506493,1410.0,1500
12.000000000000036,160,154,109,0.005555555555555556,1499.4,1499.9444444444443,1411.0,1500
12.050000000000036,161,153,109,0.005952380952380952,1499.3,1499.904761904762,1411.0,1500
12.100000000000037,162,153,109,0.005952380952380952,1499.3,1499.904761904762,1411.0,1500
12.150000000000038,163,155,109,0.004901960784313725,1499.5,1500.0098039215686,1411.0,1500
12.200000000000038,164,155,109,0.004901960784313725,1499.5,1500.0098039215686,1411.0,1500
12.250000000000039,165,154,109,0.005555555555555556,1499.4,1499.9444444444443,1411.0,1500
12.30000000000004,166,154,109,0.005555555555555556,1499.4,1499.9444444444443,1411.0,1500
12.35000000000004,167,155,110,0.0053475935828877,1499.5,1499.9652406417113,1410.0,1500
12.400000000000041,168,154,110,0.005681818181818182,1499.4,1499.9318181818182,1410.0,1500
12.450000000000042,169,154,110,0.006060606060606061,1499.4,1499.8939393939395,1410.0,1500
12.500000000000043,170,154,112,0.009523809523809525,1499.4,1499.547619047619,1408.0,1500
12.550000000000043,171,155,110,0.0053475935828877,1499.5,1499.9652406417113,1410.0,1500
12.600000000000044,172,155,109,0.004901960784313725,1499.5,1500.0098039215686,1411.0,1500
12.650000000000045,173,154,110,0.006060606060606061,1499.4,1499.8939393939395,1410.0,1500
12.700000000000045,174,155,109,0.004901960784313725,1499.5,1500.0098039215686,1411.0,1500
12.750000000000046,175,155,109,0.004901960784313725,1499.5,1500.0098039215686,1411.0,1500
12.800000000000047,176,155,109,0.004901960784313725,1499.5,1500.0098039215686,1411.0,1500
12.850000000000048,177,153,109,0.005952380952380952,1499.3,1499.904761904762,1411.0,1500
12.900000000000048,178,155,109,0.004901960784313725,1499.5,1500.0098039215686,1411.0,1500
12.950000000000049,179,155,110,0.0053475935828877,1499.5,1499.9652406417113,1410.0,1500
13.00000000000005,180,155,109,0.004901960784313725,1499.5,1500.0098039215686,1411.0,1500
13.05000000000005,181,155,110,0.0053475935828877,1499.5,1499.9652406417113,1410.0,1500
13.100000000000051,182,155,109,0.004901960784313725,1499.5,1500.0098039215686,1411.0,1500
13.150000000000052,183,155,109,0.004901960784313725,1499.5,1500.0098039215686,1411.0,1500
13.200000000000053,184,154,110,0.006060606060606061,1499.4,1499.8939393939395,1410.0,1500
13.250000000000053,185,155,110,0.0053475935828877,1499.5,1499.9652406417113,1410.0,1500
13.300000000000054,186,155,110,0.0053475935828877,1499.5,1499.9652406417113,1410.0,1500
13.350000000000055,187,154,109,0.005555555555555556,1499.4,1499.9444444444443,1411.0,1500
13.400000000000055,188,155,110,0.0053475935828877,1499.5,1499.9652406417113,1410.0,1500
13.450000000000056,189,155,110,0.0053475935828877,1499.5,1499.9652406417113,1410.0,1500
13.500000000000057,190,155,109,0.004901960784313725,1499.5,1500.0098039215686,1411.0,1500
13.550000000000058,191,155,109,0.004901960784313725,1499.5,1500.0098039215686,1411.0,1500
13.600000000000058,192,155,110,0.0053475935828877,1499.5,1499.9652406417113,1410.0,1500
13.650000000000059,193,155,109,0.004901960784313725,1499.5,1500.0098039215686,1411.0,1500
13.70000000000006,194,155,109,0.004901960784313725,1499.5,1500.0098039215686,1411.0,1500
13.75000000000006,195,155,109,0.004901960784313725,1499.5,1500.0098039215686,1411.0,1500
13.800000000000061,196,155,109,0.004629629629629629,1499.5,1500.037037037037,1411.0,1500
13.850000000000062,197,155,109,0.004901960784313725,1499.5,1500.0098039215686,1411.0,1500
13.900000000000063,198,155,109,0.004901960784313725,1499.5,1500.0098039215686,1411.0,1500
13.950000000000063,199,155,110,0.0053475935828877,1499.5,1499.9652406417113,1410.0,1500
14.000000000000064,200,155,109,0.004629629629629629,1499.5,1500.037037037037,1411.0,1500
14.050000000000065,201,155,110,0.0053475935828877,1499.5,1499.9652406417113,1410.0,1500
14.100000000000065,202,155,109,0.004901960784313725,1499.5,1500.0098039215686,1411.0,1500
14.150000000000066,203,155,110,0.0053475935828877,1499.5,1499.9652406417113,1410.0,1500
14.200000000000067,204,155,109,0.004901960784313725,1499.5,1500.0098039215686,1411.0,1500
14.250000000000068,205,154,110,0.006060606060606061,1499.4,1499.8939393939395,1410.0,1500
14.300000000000068,206,155,109,0.004901960784313725,1499.5,1500.0098039215686,1411.0,1500
14.350000000000069,207,155,109,0.004901960784313725,1499.5,1500.0098039215686,1411.0,1500
14.40000000000007,208,155,109,0.004901960784313725,1499.5,1500.0098039215686,1411.0,1500
14.45000000000007,209,155,109,0.004901960784313725,1499.5,1500.0098039215686,1411.0,1500
14.500000000000071,210,155,109,0.004901960784313725,1499.5,1500.0098039215686,1411.0,1500
14.550000000000072,211,155,110,0.0053475935828877,1499.5,1499.9652406417113,1410.0,1500
14.600000000000072,212,155,109,0.004901960784313725,1499.5,1500.0098039215686,1411.0,1500
14.650000000000073,213,155,109,0.004901960784313725,1499.5,1500.0098039215686,1411.0,1500
14.700000000000074,214,155,110,0.0053475935828877,1499.5,1499.9652406417113,1410.0,1500
14.750000000000075,215,155,109,0.004901960784313725,1499.5,1500.0098039215686,1411.0,1500
14.800000000000075,216,154,109,0.005208333333333333,1499.4,1499.9791666666667,1411.0,1500
14.850000000000076,217,154,109,0.005555555555555556,1499.4,1499.9444444444443,1411.0,1500
14.900000000000077,218,155,109,0.004901960784313725,1499.5,1500.0098039215686,1411.0,1500
14.950000000000077,219,155,109,0.004901960784313725,1499.5,1500.0098039215686,1411.0,1500
15.000000000000078,220,155,109,0.004901960784313725,1499.5,1500.0098039215686,1411.0,1500
15.050000000000079,221,155,109,0.004901960784313725,1499.5,1500.0098039215686,1411.0,1500
15.10000000000008,222,155,109,0.004901960784313725,1499.5,1500.0098039215686,1411.0,1500
15.15000000000008,223,155,110,0.0053475935828877,1499.5,1499.9652406417113,1410.0,1500
15.200000000000081,224,154,109,0.005555555555555556,1499.4,1499.9444444444443,1411.0,1500
15.250000000000082,225,155,109,0.004901960784313725,1499.5,1500.0098039215686,1411.0,1500
15.300000000000082,226,155,109,0.004901960784313725,1499.5,1500.0098039215686,1411.0,1500
15.350000000000083,227,155,109,0.004901960784313725,1499.5,1500.0098039215686,1411.0,1500
15.400000000000084,228,154,109,0.005208333333333333,1499.4,1499.9791666666667,1411.0,1500
15.450000000000085,229,155,109,0.004901960784313725,1499.5,1500.0098039215686,1411.0,1500
15.500000000000085,230,155,109,0.005208333333333333,1499.5,1499.9791666666667,1411.0,1500
15.550000000000086,231,155,109,0.005555555555555556,1499.5,1499.9444444444443,1411.0,1500
15.600000000000087,232,155,109,0.005555555555555556,1499.5,1499.9444444444443,1411.0,1500
15.650000000000087,233,154,109,0.005952380952380952,1499.4,1499.904761904762,1411.0,1500
15.700000000000088,234,155,109,0.004901960784313725,1499.5,1500.0098039215686,1411.0,1500
15.750000000000089,235,155,109,0.005555555555555556,1499.5,1499.9444444444443,1411.0,1500
15.80000000000009,236,154,109,0.005952380952380952,1499.4,1499.904761904762,1411.0,1500
15.85000000000009,237,155,109,0.005555555555555556,1499.5,1499.9444444444443,1411.0,1500
15.900000000000091,238,154,109,0.005952380952380952,1499.4,1499.904761904762,1411.0,1500
15.950000000000092,239,155,109,0.005555555555555556,1499.5,1499.9444444444443,1411.0,1500
16.000000000000092,240,155,109,0.005208333333333333,1499.5,1499.9791666666667,1411.0,1500
16.050000000000093,241,154,110,0.006493506493506494,1499.4,1499.8506493506493,1410.0,1500
16.100000000000094,242,155,109,0.005555555555555556,1499.5,1499.9444444444443,1411.0,1500
16.150000000000095,243,155,109,0.005208333333333333,1499.5,1499.9791666666667,1411.0,1500
16.200000000000095,244,155,109,0.005208333333333333,1499.5,1499.9791666666667,1411.0,1500
16.250000000000096,245,155,109,0.005555555555555556,1499.5,1499.9444444444443,1411.0,1500
16.300000000000097,246,156,109,0.004901960784313725,1499.6,1500.0098039215686,1411.0,1500
16.350000000000097,247,156,109,0.004901960784313725,1499.6,1500.0098039215686,1411.0,1500
16.400000000000098,248,156,109,0.004901960784313725,1499.6,1500.0098039215686,1411.0,1500
16.4500000000001,249,155,109,0.005681818181818182,1499.5,1499.9318181818182,1411.0,1500
16.5000000000001,250,155,109,0.005681818181818182,1499.5,1499.9318181818182,1411.0,1500
16.5500000000001,251,155,109,0.005555555555555556,1499.5,1499.9444444444443,1411.0,1500
16.6000000000001,252,156,109,0.004901960784313725,1499.6,1500.0098039215686,1411.0,1500
16.6500000000001,253,156,109,0.004901960784313725,1499.6,1500.0098039215686,1411.0,1500
16.700000000000102,254,155,109,0.005555555555555556,1499.5,1499.9444444444443,1411.0,1500
16.750000000000103,255,156,109,0.0053475935828877,1499.6,1499.9652406417113,1411.0,1500
16.800000000000104,256,156,109,0.004901960784313725,1499.6,1500.0098039215686,1411.0,1500
16.850000000000104,257,154,109,0.005208333333333333,1499.4,1499.9791666666667,1411.0,1500
16.900000000000105,258,155,109,0.005555555555555556,1499.5,1499.9444444444443,1411.0,1500
16.950000000000106,259,154,109,0.006493506493506494,1499.4,1499.8506493506493,1411.0,1500
17.000000000000107,260,154,109,0.006493506493506494,1499.4,1499.8506493506493,1411.0,1500
17.050000000000107,261,154,109,0.005681818181818182,1499.4,1499.9318181818182,1411.0,1500
17.100000000000108,262,156,109,0.004901960784313725,1499.6,1500.0098039215686,1411.0,1500
17.15000000000011,263,155,109,0.005555555555555556,1499.5,1499.9444444444443,1411.0,1500
17.20000000000011,264,154,109,0.005952380952380952,1499.4,1499.904761904762,1411.0,1500
17.25000000000011,265,154,109,0.006060606060606061,1499.4,1499.8939393939395,1411.0,1500
17.30000000000011,266,155,109,0.006060606060606061,1499.5,1499.8939393939395,1411.0,1500
17.35000000000011,267,155,109,0.004901960784313725,1499.5,1500.0098039215686,1411.0,1500
17.400000000000112,268,155,109,0.005208333333333333,1499.5,1499.9791666666667,1411.0,1500
17.450000000000113,269,156,109,0.0053475935828877,1499.6,1499.9652406417113,1411.0,1500
17.500000000000114,270,154,109,0.005555555555555556,1499.4,1499.9444444444443,1411.0,1500
17.550000000000114,271,154,109,0.005952380952380952,1499.4,1499.904761904762,1411.0,1500
17.600000000000115,272,156,109,0.0053475935828877,1499.6,1499.9652406417113,1411.0,1500
17.650000000000116,273,155,109,0.004901960784313725,1499.5,1500.0098039215686,1411.0,1500
17.700000000000117,274,155,109,0.005208333333333333,1499.5,1499.9791666666667,1411.0,1500
17.750000000000117,275,156,109,0.0053475935828877,1499.6,1499.9652406417113,1411.0,1500
17.800000000000118,276,154,109,0.006493506493506494,1499.4,1499.8506493506493,1411.0,1500
17.85000000000012,277,155,109,0.005208333333333333,1499.5,1499.9791666666667,1411.0,1500
17.90000000000012,278,154,109,0.006060606060606061,1499.4,1499.8939393939395,1411.0,1500
17.95000000000012,279,156,109,0.004901960784313725,1499.6,1500.0098039215686,1411.0,1500
18.00000000000012,280,154,109,0.005952380952380952,1499.4,1499.904761904762,1411.0,1500
18.05000000000012,281,155,109,0.005555555555555556,1499.5,1499.9444444444443,1411.0,1500
18.100000000000122,282,155,109,0.005681818181818182,1499.5,1499.9318181818182,1411.0,1500
18.150000000000123,283,154,109,0.005208333333333333,1499.4,1499.9791666666667,1411.0,1500
18.200000000000124,284,156,109,0.004901960784313725,1499.6,1500.0098039215686,1411.0,1500
18.250000000000124,285,155,109,0.005208333333333333,1499.5,1499.9791666666667,1411.0,1500
18.300000000000125,286,155,109,0.005681818181818182,1499.5,1499.9318181818182,1411.0,1500
18.350000000000126,287,155,109,0.006060606060606061,1499.5,1499.8939393939395,1411.0,1500
18.400000000000126,288,156,109,0.004901960784313725,1499.6,1500.0098039215686,1411.0,1500
18.450000000000127,289,156,109,0.004901960784313725,1499.6,1500.0098039215686,1411.0,1500
18.500000000000128,290,156,109,0.004901960784313725,1499.6,1500.0098039215686,1411.0,1500
18.55000000000013,291,155,109,0.005555555555555556,1499.5,1499.9444444444443,1411.0,1500
18.60000000000013,292,156,109,0.004901960784313725,1499.6,1500.0098039215686,1411.0,1500
18.65000000000013,293,156,109,0.004901960784313725,1499.6,1500.0098039215686,1411.0,1500
18.70000000000013,294,155,109,0.005208333333333333,1499.5,1499.9791666666667,1411.0,1500
18.75000000000013,295,156,109,0.0053475935828877,1499.6,1499.9652406417113,1411.0,1500
18.800000000000132,296,155,109,0.006060606060606061,1499.5,1499.8939393939395,1411.0,1500
18.850000000000133,297,155,109,0.005555555555555556,1499.5,1499.9444444444443,1411.0,1500
18.900000000000134,298,155,109,0.005208333333333333,1499.5,1499.9791666666667,1411.0,1500
18.950000000000134,299,154,109,0.006493506493506494,1499.4,1499.8506493506493,1411.0,1500
19.000000000000135,300,155,109,0.005208333333333333,1499.5,1499.9791666666667,1411.0,1500
19.050000000000136,301,156,109,0.004901960784313725,1499.6,1500.0098039215686,1411.0,1500
19.100000000000136,302,156,109,0.004901960784313725,1499.6,1500.0098039215686,1411.0,1500
19.150000000000137,303,156,109,0.004901960784313725,1499.6,1500.0098039215686,1411.0,1500
19.200000000000138,304,156,109,0.0053475935828877,1499.6,1499.9652406417113,1411.0,1500
19.25000000000014,305,155,109,0.006060606060606061,1499.5,1499.8939393939395,1411.0,1500
19.30000000000014,306,156,109,0.0053475935828877,1499.6,1499.9652406417113,1411.0,1500
19.35000000000014,307,155,109,0.005208333333333333,1499.5,1499.9791666666667,1411.0,1500
19.40000000000014,308,154,109,0.005952380952380952,1499.4,1499.904761904762,1411.0,1500
19.45000000000014,309,156,109,0.004901960784313725,1499.6,1500.0098039215686,1411.0,1500
19.500000000000142,310,156,109,0.0053475935828877,1499.6,1499.9652406417113,1411.0,1500
19.550000000000143,311,155,109,0.005555555555555556,1499.5,1499.9444444444443,1411.0,1500
19.600000000000144,312,155,109,0.006060606060606061,1499.5,1499.8939393939395,1411.0,1500
19.650000000000144,313,155,109,0.005555555555555556,1499.5,1499.9444444444443,1411.0,1500
19.700000000000145,314,154,109,0.006493506493506494,1499.4,1499.8506493506493,1411.0,1500
19.750000000000146,315,156,109,0.0053475935828877,1499.6,1499.9652406417113,1411.0,1500
19.800000000000146,316,156,109,0.004901960784313725,1499.6,1500.0098039215686,1411.0,1500
19.850000000000147,317,154,109,0.005952380952380952,1499.4,1499.904761904762,1411.0,1500
19.900000000000148,318,154,109,0.005952380952380952,1499.4,1499.904761904762,1411.0,1500
19.95000000000015,319,154,109,0.005952380952380952,1499.4,1499.904761904762,1411.0,1500
20.00000000000015,320,155,109,0.005208333333333333,1499.5,1499.9791666666667,1411.0,1500
20.05000000000015,321,154,109,0.006493506493506494,1499.4,1499.8506493506493,1411.0,1500
20.10000000000015,322,155,109,0.005555555555555556,1499.5,1499.9444444444443,1411.0,1500
20.15000000000015,323,156,109,0.004901960784313725,1499.6,1500.0098039215686,1411.0,1500
20.200000000000152,324,155,109,0.005555555555555556,1499.5,1499.9444444444443,1411.0,1500
20.250000000000153,325,155,109,0.005208333333333333,1499.5,1499.9791666666667,1411.0,1500
20.300000000000153,326,155,109,0.005555555555555556,1499.5,1499.9444444444443,1411.0,1500
20.350000000000154,327,156,109,0.004901960784313725,1499.6,1500.0098039215686,1411.0,1500
20.400000000000155,328,155,109,0.005681818181818182,1499.5,1499.9318181818182,1411.0,1500
20.450000000000156,329,156,109,0.004901960784313725,1499.6,1500.0098039215686,1411.0,1500
20.500000000000156,330,156,109,0.004901960784313725,1499.6,1500.0098039215686,1411.0,1500
20.550000000000157,331,156,110,0.0053475935828877,1499.6,1499.9652406417113,1410.0,1500
20.600000000000158,332,155,110,0.005681818181818182,1499.5,1499.9318181818182,1410.0,1500
20.65000000000016,333,154,110,0.006493506493506494,1499.4,1499.8506493506493,1410.0,1500
20.70000000000016,334,156,110,0.0053475935828877,1499.6,1499.9652406417113,1410.0,1500
20.75000000000016,335,154,110,0.006060606060606061,1499.4,1499.8939393939395,1410.0,1500
20.80000000000016,336,154,110,0.006060606060606061,1499.4,1499.8939393939395,1410.0,1500
20.85000000000016,337,154,110,0.006060606060606061,1499.4,1499.8939393939395,1410.0,1500
20.900000000000162,338,154,110,0.005208333333333333,1499.4,1499.9791666666667,1410.0,1500
20.950000000000163,339,154,110,0.005208333333333333,1499.4,1499.9791666666667,1410.0,1500
21.000000000000163,340,155,109,0.004901960784313725,1499.5,1500.0098039215686,1411.0,1500
21.050000000000164,341,155,110,0.0053475935828877,1499.5,1499.9652406417113,1410.0,1500
21.100000000000165,342,153,109,0.005952380952380952,1499.3,1499.904761904762,1411.0,1500
21.150000000000166,343,155,109,0.004901960784313725,1499.5,1500.0098039215686,1411.0,1500
21.200000000000166,344,155,109,0.004901960784313725,1499.5,1500.0098039215686,1411.0,1500
21.250000000000167,345,155,110,0.0053475935828877,1499.5,1499.9652406417113,1410.0,1500
21.300000000000168,346,154,110,0.0053475935828877,1499.4,1499.9652406417113,1410.0,1500
21.35000000000017,347,154,110,0.0053475935828877,1499.4,1499.9652406417113,1410.0,1500
21.40000000000017,348,154,110,0.0053475935828877,1499.4,1499.9652406417113,1410.0,1500
21.45000000000017,349,154,110,0.0053475935828877,1499.4,1499.9652406417113,1410.0,1500
21.50000000000017,350,153,110,0.006060606060606061,1499.3,1499.8939393939395,1410.0,1500
21.55000000000017,351,154,110,0.0053475935828877,1499.4,1499.9652406417113,1410.0,1500
21.600000000000172,352,154,110,0.0053475935828877,1499.4,1499.9652406417113,1410.0,1500
21.650000000000173,353,154,110,0.0053475935828877,1499.4,1499.9652406417113,1410.0,1500
21.700000000000173,354,154,109,0.004901960784313725,1499.4,1500.0098039215686,1411.0,1500
21.750000000000174,355,154,110,0.0053475935828877,1499.4,1499.9652406417113,1410.0,1500
21.800000000000175,356,154,110,0.0053475935828877,1499.4,1499.9652406417113,1410.0,1500
21.850000000000176,357,154,110,0.0053475935828877,1499.4,1499.9652406417113,1410.0,1500
21.900000000000176,358,154,110,0.0053475935828877,1499.4,1499.9652406417113,1410.0,1500
21.950000000000177,359,153,110,0.006060606060606061,1499.3,1499.8939393939395,1410.0,1500
22.000000000000178,360,154,110,0.0053475935828877,1499.4,1499.9652406417113,1410.0,1500
22.05000000000018,361,154,110,0.0053475935828877,1499.4,1499.9652406417113,1410.0,1500
22.10000000000018,362,154,110,0.0053475935828877,1499.4,1499.9652406417113,1410.0,1500
22.15000000000018,363,154,109,0.004901960784313725,1499.4,1500.0098039215686,1411.0,1500
22.20000000000018,364,154,110,0.0053475935828877,1499.4,1499.9652406417113,1410.0,1500
22.25000000000018,365,153,110,0.006060606060606061,1499.3,1499.8939393939395,1410.0,1500
22.300000000000182,366,153,110,0.006060606060606061,1499.3,1499.8939393939395,1410.0,1500
22.350000000000183,367,154,110,0.0053475935828877,1499.4,1499.9652406417113,1410.0,1500
22.400000000000183,368,154,110,0.0053475935828877,1499.4,1499.9652406417113,1410.0,1500
22.450000000000184,369,153,109,0.005208333333333333,1499.3,1499.9791666666667,1411.0,1500
22.500000000000185,370,154,110,0.005050505050505051,1499.4,1499.9949494949494,1410.0,1500
22.550000000000185,371,155,110,0.0053475935828877,1499.5,1499.9652406417113,1410.0,1500
22.600000000000186,372,153,110,0.006493506493506494,1499.3,1499.8506493506493,1410.0,1500
22.650000000000187,373,153,110,0.005681818181818182,1499.3,1499.9318181818182,1410.0,1500
22.700000000000188,374,154,110,0.005050505050505051,1499.4,1499.9949494949494,1410.0,1500
22.75000000000019,375,154,110,0.005050505050505051,1499.4,1499.9949494949494,1410.0,1500
22.80000000000019,376,155,109,0.004901960784313725,1499.5,1500.0098039215686,1411.0,1500
22.85000000000019,377,153,110,0.006493506493506494,1499.3,1499.8506493506493,1410.0,1500
22.90000000000019,378,155,110,0.0053475935828877,1499.5,1499.9652406417113,1410.0,1500
22.95000000000019,379,154,109,0.004629629629629629,1499.4,1500.037037037037,1411.0,1500
23.000000000000192,380,154,110,0.006060606060606061,1499.4,1499.8939393939395,1410.0,1500
23.050000000000193,381,154,110,0.005681818181818182,1499.4,1499.9318181818182,1410.0,1500
23.100000000000193,382,153,109,0.005952380952380952,1499.3,1499.904761904762,1411.0,1500
23.150000000000194,383,154,110,0.005050505050505051,1499.4,1499.9949494949494,1410.0,1500
23.200000000000195,384,155,109,0.004901960784313725,1499.5,1500.0098039215686,1411.0,1500
23.250000000000195,385,153,110,0.006060606060606061,1499.3,1499.8939393939395,1410.0,1500
23.300000000000196,386,153,110,0.005681818181818182,1499.3,1499.9318181818182,1410.0,1500
23.350000000000197,387,154,110,0.0053475935828877,1499.4,1499.9652406417113,1410.0,1500
23.400000000000198,388,153,110,0.005681818181818182,1499.3,1499.9318181818182,1410.0,1500
23.4500000000002,389,154,110,0.0053475935828877,1499.4,1499.9652406417113,1410.0,1500
23.5000000000002,390,154,110,0.0053475935828877,1499.4,1499.9652406417113,1410.0,1500
23.5500000000002,391,154,110,0.005050505050505051,1499.4,1499.9949494949494,1410.0,1500
23.6000000000002,392,154,110,0.0053475935828877,1499.4,1499.9652406417113,1410.0,1500
23.6500000000002,393,154,109,0.004901960784313725,1499.4,1500.0098039215686,1411.0,1500
23.700000000000202,394,153,110,0.006060606060606061,1499.3,1499.8939393939395,1410.0,1500
23.750000000000203,395,155,110,0.0053475935828877,1499.5,1499.9652406417113,1410.0,1500
23.800000000000203,396,155,109,0.004901960784313725,1499.5,1500.0098039215686,1411.0,1500
23.850000000000204,397,155,110,0.0053475935828877,1499.5,1499.9652406417113,1410.0,1500
23.900000000000205,398,155,109,0.004901960784313725,1499.5,1500.0098039215686,1411.0,1500
23.950000000000205,399,155,110,0.0053475935828877,1499.5,1499.9652406417113,1410.0,1500
24.000000000000206,400,153,110,0.006493506493506494,1499.3,1499.8506493506493,1410.0,1500
24.050000000000207,401,155,110,0.0053475935828877,1499.5,1499.9652406417113,1410.0,1500
24.100000000000207,402,155,110,0.0053475935828877,1499.5,1499.9652406417113,1410.0,1500
24.150000000000208,403,155,109,0.004901960784313725,1499.5,1500.0098039215686,1411.0,1500
24.20000000000021,404,154,110,0.005681818181818182,1499.4,1499.9318181818182,1410.0,1500
24.25000000000021,405,155,109,0.004901960784313725,1499.5,1500.0098039215686,1411.0,1500
24.30000000000021,406,155,110,0.0053475935828877,1499.5,1499.9652406417113,1410.0,1500
24.35000000000021,407,155,110,0.0053475935828877,1499.5,1499.9652406417113,1410.0,1500
24.40000000000021,408,155,110,0.004784688995215311,1499.5,1500.0215311004786,1410.0,1500
24.450000000000212,409,155,110,0.0053475935828877,1499.5,1499.9652406417113,1410.0,1500
24.500000000000213,410,155,110,0.0053475935828877,1499.5,1499.9652406417113,1410.0,1500
24.550000000000214,411,155,109,0.004901960784313725,1499.5,1500.0098039215686,1411.0,1500
24.600000000000215,412,155,109,0.004901960784313725,1499.5,1500.0098039215686,1411.0,1500
24.650000000000215,413,155,109,0.005050505050505051,1499.5,1499.9949494949494,1411.0,1500
24.700000000000216,414,155,109,0.0053475935828877,1499.5,1499.9652406417113,1411.0,1500
24.750000000000217,415,155,109,0.0053475935828877,1499.5,1499.9652406417113,1411.0,1500
24.800000000000217,416,155,109,0.006060606060606061,1499.5,1499.8939393939395,1411.0,1500
24.850000000000218,417,154,109,0.006493506493506494,1499.4,1499.8506493506493,1411.0,1500
24.90000000000022,418,154,109,0.006493506493506494,1499.4,1499.8506493506493,1411.0,1500
24.95000000000022,419,155,109,0.006060606060606061,1499.5,1499.8939393939395,1411.0,1500
25.00000000000022,420,155,108,0.005555555555555556,1499.5,1499.9444444444443,1412.0,1500
25.05000000000022,421,155,108,0.005208333333333333,1499.5,1499.9791666666667,1412.0,1500
25.10000000000022,422,155,109,0.005681818181818182,1499.5,1499.9318181818182,1411.0,1500
25.150000000000222,423,155,108,0.005555555555555556,1499.5,1499.9444444444443,1412.0,1500
25.200000000000223,424,155,108,0.006666666666666667,1499.5,1499.8333333333333,1412.0,1500
25.250000000000224,425,155,109,0.006060606060606061,1499.5,1499.8939393939395,1411.0,1500
25.300000000000225,426,155,108,0.006060606060606061,1499.5,1499.8939393939395,1412.0,1500
25.350000000000225,427,155,109,0.005681818181818182,1499.5,1499.9318181818182,1411.0,1500
25.400000000000226,428,156,109,0.006060606060606061,1499.6,1499.8939393939395,1411.0,1500
25.450000000000227,429,156,109,0.005681818181818182,1499.6,1499.9318181818182,1411.0,1500
25.500000000000227,430,156,108,0.00625,1499.6,1499.875,1412.0,1500
25.550000000000228,431,156,109,0.006060606060606061,1499.6,1499.8939393939395,1411.0,1500
25.60000000000023,432,157,109,0.006060606060606061,1499.7,1499.8939393939395,1411.0,1500
25.65000000000023,433,156,109,0.006493506493506494,1499.6,1499.8506493506493,1411.0,1500
25.70000000000023,434,156,109,0.005681818181818182,1499.6,1499.9318181818182,1411.0,1500
25.75000000000023,435,156,109,0.005681818181818182,1499.6,1499.9318181818182,1411.0,1500
25.80000000000023,436,157,109,0.006060606060606061,1499.7,1499.8939393939395,1411.0,1500
25.850000000000232,437,156,109,0.007142857142857143,1499.6,1499.7857142857142,1411.0,1500
25.900000000000233,438,156,109,0.006493506493506494,1499.6,1499.8506493506493,1411.0,1500
25.950000000000234,439,156,109,0.007142857142857143,1499.6,1499.7857142857142,1411.0,1500
26.000000000000234,440,156,109,0.007142857142857143,1499.6,1499.7857142857142,1411.0,1500
26.050000000000235,441,157,109,0.006060606060606061,1499.7,1499.8939393939395,1411.0,1500
26.100000000000236,442,156,109,0.007142857142857143,1499.6,1499.7857142857142,1411.0,1500
26.150000000000237,443,156,111,0.009523809523809525,1499.6,1499.547619047619,1409.0,1500
26.200000000000237,444,156,109,0.006666666666666667,1499.6,1499.8333333333333,1411.0,1500
26.250000000000238,445,156,109,0.00625,1499.6,1499.875,1411.0,1500
26.30000000000024,446,156,109,0.006060606060606061,1499.6,1499.8939393939395,1411.0,1500
26.35000000000024,447,156,109,0.005681818181818182,1499.6,1499.9318181818182,1411.0,1500
26.40000000000024,448,156,109,0.00625,1499.6,1499.875,1411.0,1500
26.45000000000024,449,156,109,0.006493506493506494,1499.6,1499.8506493506493,1411.0,1500
26.50000000000024,450,156,109,0.00625,1499.6,1499.875,1411.0,1500
26.550000000000242,451,157,109,0.006666666666666667,1499.7,1499.8333333333333,1411.0,1500
26.600000000000243,452,157,109,0.006060606060606061,1499.7,1499.8939393939395,1411.0,1500
26.650000000000244,453,157,109,0.006666666666666667,1499.7,1499.8333333333333,1411.0,1500
26.700000000000244,454,156,109,0.006493506493506494,1499.6,1499.8506493506493,1411.0,1500
26.750000000000245,455,157,108,0.006666666666666667,1499.7,1499.8333333333333,1412.0,1500
26.800000000000246,456,157,108,0.006666666666666667,1499.7,1499.8333333333333,1412.0,1500
26.850000000000247,457,157,109,0.005681818181818182,1499.7,1499.9318181818182,1411.0,1500
26.900000000000247,458,157,109,0.007936507936507936,1499.7,1499.7063492063492,1411.0,1500
26.950000000000248,459,157,109,0.007142857142857143,1499.7,1499.7857142857142,1411.0,1500
27.00000000000025,460,157,109,0.007142857142857143,1499.7,1499.7857142857142,1411.0,1500
27.05000000000025,461,157,109,0.007142857142857143,1499.7,1499.7857142857142,1411.0,1500
27.10000000000025,462,157,109,0.007142857142857143,1499.7,1499.7857142857142,1411.0,1500
27.15000000000025,463,158,109,0.006666666666666667,1499.8,1499.8333333333333,1411.0,1500
27.20000000000025,464,157,109,0.007142857142857143,1499.7,1499.7857142857142,1411.0,1500
27.250000000000252,465,157,109,0.007936507936507936,1499.7,1499.7063492063492,1411.0,1500
27.300000000000253,466,157,109,0.007407407407407408,1499.7,1499.7592592592594,1411.0,1500
27.350000000000254,467,158,108,0.006666666666666667,1499.8,1499.8333333333333,1412.0,1500
27.400000000000254,468,157,109,0.007407407407407408,1499.7,1499.7592592592594,1411.0,1500
27.450000000000255,469,158,109,0.007407407407407408,1499.8,1499.7592592592594,1411.0,1500
27.500000000000256,470,157,109,0.007936507936507936,1499.7,1499.7063492063492,1411.0,1500
27.550000000000257,471,157,109,0.007936507936507936,1499.7,1499.7063492063492,1411.0,1500
27.600000000000257,472,158,109,0.006666666666666667,1499.8,1499.8333333333333,1411.0,1500
27.650000000000258,473,157,109,0.007142857142857143,1499.7,1499.7857142857142,1411.0,1500
27.70000000000026,474,157,109,0.007142857142857143,1499.7,1499.7857142857142,1411.0,1500
27.75000000000026,475,157,109,0.007142857142857143,1499.7,1499.7857142857142,1411.0,1500
27.80000000000026,476,157,109,0.007142857142857143,1499.7,1499.7857142857142,1411.0,1500
27.85000000000026,477,158,109,0.007407407407407408,1499.8,1499.7592592592594,1411.0,1500
27.90000000000026,478,158,109,0.007407407407407408,1499.8,1499.7592592592594,1411.0,1500
27.950000000000262,479,157,109,0.007936507936507936,1499.7,1499.7063492063492,1411.0,1500
28.000000000000263,480,158,108,0.007692307692307693,1499.8,1499.7307692307693,1412.0,1500
28.050000000000264,481,158,108,0.007692307692307693,1499.8,1499.7307692307693,1412.0,1500
28.100000000000264,482,159,108,0.006666666666666667,1499.9,1499.8333333333333,1412.0,1500
28.150000000000265,483,158,108,0.007936507936507936,1499.8,1499.7063492063492,1412.0,1500
28.200000000000266,484,159,108,0.006666666666666667,1499.9,1499.8333333333333,1412.0,1500
28.250000000000266,485,159,108,0.006666666666666667,1499.9,1499.8333333333333,1412.0,1500
28.300000000000267,486,159,108,0.006666666666666667,1499.9,1499.8333333333333,1412.0,1500
28.350000000000268,487,158,108,0.007936507936507936,1499.8,1499.7063492063492,1412.0,1500
28.40000000000027,488,159,108,0.008547008547008548,1499.9,1499.645299145299,1412.0,1500
28.45000000000027,489,159,108,0.008547008547008548,1499.9,1499.645299145299,1412.0,1500
28.50000000000027,490,159,108,0.007407407407407408,1499.9,1499.7592592592594,1412.0,1500
28.55000000000027,491,158,108,0.007936507936507936,1499.8,1499.7063492063492,1412.0,1500
28.60000000000027,492,159,108,0.007407407407407408,1499.9,1499.7592592592594,1412.0,1500
28.650000000000272,493,158,108,0.007936507936507936,1499.8,1499.7063492063492,1412.0,1500
28.700000000000273,494,159,108,0.007407407407407408,1499.9,1499.7592592592594,1412.0,1500
28.750000000000274,495,158,108,0.007936507936507936,1499.8,1499.7063492063492,1412.0,1500
28.800000000000274,496,158,108,0.007936507936507936,1499.8,1499.7063492063492,1412.0,1500
28.850000000000275,497,159,109,0.01098901098901099,1499.9,1499.401098901099,1411.0,1500
28.900000000000276,498,159,108,0.008547008547008548,1499.9,1499.645299145299,1412.0,1500
28.950000000000276,499,159,108,0.009615384615384616,1499.9,1499.5384615384614,1412.0,1500
29.000000000000277,500,159,108,0.007936507936507936,1499.9,1499.7063492063492,1412.0,1500
29.050000000000278,501,159,106,0.015384615384615385,1499.9,1498.9615384615386,1414.0,1500
29.10000000000028,502,159,108,0.008547008547008548,1499.9,1499.645299145299,1412.0,1500
29.15000000000028,503,159,108,0.007936507936507936,1499.9,1499.7063492063492,1412.0,1500
29.20000000000028,504,159,108,0.008547008547008548,1499.9,1499.645299145299,1412.0,1500
29.25000000000028,505,159,106,0.014285714285714285,1499.9,1499.0714285714287,1414.0,1500
29.30000000000028,506,159,108,0.007936507936507936,1499.9,1499.7063492063492,1412.0,1500
29.350000000000282,507,159,108,0.007936507936507936,1499.9,1499.7063492063492,1412.0,1500
29.400000000000283,508,158,105,0.01818181818181818,1499.8,1498.6818181818182,1415.0,1500
29.450000000000284,509,159,107,0.007936507936507936,1499.9,1499.7063492063492,1413.0,1500
29.500000000000284,510,159,107,0.007142857142857143,1499.9,1499.7857142857142,1413.0,1500
29.550000000000285,511,159,107,0.007936507936507936,1499.9,1499.7063492063492,1413.0,1500
29.600000000000286,512,159,107,0.007142857142857143,1499.9,1499.7857142857142,1413.0,1500
29.650000000000286,513,158,108,0.009259259259259259,1499.8,1499.5740740740741,1412.0,1500
29.700000000000287,514,159,108,0.008547008547008548,1499.9,1499.645299145299,1412.0,1500
29.750000000000288,515,159,108,0.008547008547008548,1499.9,1499.645299145299,1412.0,1500
29.80000000000029,516,159,108,0.008547008547008548,1499.9,1499.645299145299,1412.0,1500
29.85000000000029,517,159,108,0.008547008547008548,1499.9,1499.645299145299,1412.0,1500
29.90000000000029,518,159,108,0.007936507936507936,1499.9,1499.7063492063492,1412.0,1500
29.95000000000029,519,159,108,0.008547008547008548,1499.9,1499.645299145299,1412.0,1500
30.00000000000029,520,159,108,0.008547008547008548,1499.9,1499.645299145299,1412.0,1500
30.050000000000292,521,159,108,0.008547008547008548,1499.9,1499.645299145299,1412.0,1500
30.100000000000293,522,159,108,0.008547008547008548,1499.9,1499.645299145299,1412.0,1500
30.150000000000293,523,159,108,0.008547008547008548,1499.9,1499.645299145299,1412.0,1500
30.200000000000294,524,159,108,0.008547008547008548,1499.9,1499.645299145299,1412.0,1500
30.250000000000295,525,159,108,0.008547008547008548,1499.9,1499.645299145299,1412.0,1500
30.300000000000296,526,159,108,0.008547008547008548,1499.9,1499.645299145299,1412.0,1500
30.350000000000296,527,159,108,0.008547008547008548,1499.9,1499.645299145299,1412.0,1500
30.400000000000297,528,158,108,0.007936507936507936,1499.8,1499.7063492063492,1412.0,1500
30.450000000000298,529,158,108,0.007936507936507936,1499.8,1499.7063492063492,1412.0,1500
30.5000000000003,530,159,108,0.008547008547008548,1499.9,1499.645299145299,1412.0,1500
30.5500000000003,531,159,105,0.019230769230769232,1499.9,1498.576923076923,1415.0,1500
30.6000000000003,532,159,108,0.008547008547008548,1499.9,1499.645299145299,1412.0,1500
30.6500000000003,533,159,108,0.008547008547008548,1499.9,1499.645299145299,1412.0,1500
30.7000000000003,534,159,108,0.008547008547008548,1499.9,1499.645299145299,1412.0,1500
30.750000000000302,535,158,108,0.007936507936507936,1499.8,1499.7063492063492,1412.0,1500
30.800000000000303,536,159,108,0.007936507936507936,1499.9,1499.7063492063492,1412.0,1500
30.850000000000303,537,159,108,0.008547008547008548,1499.9,1499.645299145299,1412.0,1500
30.900000000000304,538,159,108,0.008547008547008548,1499.9,1499.645299145299,1412.0,1500
30.950000000000305,539,159,108,0.008547008547008548,1499.9,1499.645299145299,1412.0,1500
31.000000000000306,540,159,108,0.008547008547008548,1499.9,1499.645299145299,1412.0,1500
31.050000000000306,541,159,108,0.007692307692307693,1499.9,1499.7307692307693,1412.0,1500
31.100000000000307,542,159,108,0.009615384615384616,1499.9,1499.5384615384614,1412.0,1500
31.150000000000308,543,159,107,0.009615384615384616,1499.9,1499.5384615384614,1413.0,1500
31.20000000000031,544,159,109,0.007936507936507936,1499.9,1499.7063492063492,1411.0,1500
31.25000000000031,545,159,108,0.007692307692307693,1499.9,1499.7307692307693,1412.0,1500
31.30000000000031,546,159,108,0.007692307692307693,1499.9,1499.7307692307693,1412.0,1500
31.35000000000031,547,159,108,0.01020408163265306,1499.9,1499.4795918367347,1412.0,1500
31.40000000000031,548,159,109,0.009615384615384616,1499.9,1499.5384615384614,1411.0,1500
31.450000000000312,549,158,110,0.007936507936507936,1499.8,1499.7063492063492,1410.0,1500
31.500000000000313,550,158,110,0.007936507936507936,1499.8,1499.7063492063492,1410.0,1500
31.550000000000313,551,158,110,0.007142857142857143,1499.8,1499.7857142857142,1410.0,1500
31.600000000000314,552,158,111,0.007936507936507936,1499.8,1499.7063492063492,1409.0,1500
31.650000000000315,553,159,111,0.007407407407407408,1499.9,1499.7592592592594,1409.0,1500
31.700000000000315,554,158,111,0.007142857142857143,1499.8,1499.7857142857142,1409.0,1500
31.750000000000316,555,158,112,0.007407407407407408,1499.8,1499.7592592592594,1408.0,1500
31.800000000000317,556,157,112,0.007936507936507936,1499.7,1499.7063492063492,1408.0,1500
31.850000000000318,557,157,112,0.007936507936507936,1499.7,1499.7063492063492,1408.0,1500
31.90000000000032,558,157,111,0.007142857142857143,1499.7,1499.7857142857142,1409.0,1500
31.95000000000032,559,157,111,0.007142857142857143,1499.7,1499.7857142857142,1409.0,1500
32.00000000000032,560,157,111,0.006666666666666667,1499.7,1499.8333333333333,1409.0,1500
32.05000000000032,561,157,111,0.00625,1499.7,1499.875,1409.0,1500
32.100000000000314,562,156,110,0.007142857142857143,1499.6,1499.7857142857142,1410.0,1500
32.15000000000031,563,156,110,0.007142857142857143,1499.6,1499.7857142857142,1410.0,1500
32.20000000000031,564,156,110,0.007407407407407408,1499.6,1499.7592592592594,1410.0,1500
32.250000000000306,565,155,110,0.007936507936507936,1499.5,1499.7063492063492,1410.0,1500
32.3000000000003,566,155,109,0.007142857142857143,1499.5,1499.7857142857142,1411.0,1500
32.3500000000003,567,155,109,0.007142857142857143,1499.5,1499.7857142857142,1411.0,1500
32.4000000000003,568,155,109,0.006060606060606061,1499.5,1499.8939393939395,1411.0,1500
32.450000000000294,569,154,109,0.006493506493506494,1499.4,1499.8506493506493,1411.0,1500
32.50000000000029,570,154,109,0.007142857142857143,1499.4,1499.7857142857142,1411.0,1500
32.55000000000029,571,154,109,0.006666666666666667,1499.4,1499.8333333333333,1411.0,1500
32.600000000000286,572,154,110,0.005681818181818182,1499.4,1499.9318181818182,1410.0,1500
32.65000000000028,573,153,110,0.007142857142857143,1499.3,1499.7857142857142,1410.0,1500
32.70000000000028,574,154,110,0.006666666666666667,1499.4,1499.8333333333333,1410.0,1500
32.75000000000028,575,153,110,0.006060606060606061,1499.3,1499.8939393939395,1410.0,1500
32.800000000000274,576,152,110,0.007142857142857143,1499.2,1499.7857142857142,1410.0,1500
32.85000000000027,577,152,110,0.007142857142857143,1499.2,1499.7857142857142,1410.0,1500
32.90000000000027,578,152,110,0.006060606060606061,1499.2,1499.8939393939395,1410.0,1500
32.950000000000266,579,152,110,0.006666666666666667,1499.2,1499.8333333333333,1410.0,1500
33.00000000000026,580,152,111,0.006060606060606061,1499.2,1499.8939393939395,1409.0,1500
33.05000000000026,581,152,111,0.005681818181818182,1499.2,1499.9318181818182,1409.0,1500
33.10000000000026,582,151,112,0.006493506493506494,1499.1,1499.8506493506493,1408.0,1500
33.150000000000254,583,152,112,0.005555555555555556,1499.2,1499.9444444444443,1408.0,1500
33.20000000000025,584,153,113,0.0053475935828877,1499.3,1499.9652406417113,1407.0,1500
33.25000000000025,585,153,113,0.005681818181818182,1499.3,1499.9318181818182,1407.0,1500
33.300000000000246,586,152,113,0.005952380952380952,1499.2,1499.904761904762,1407.0,1500
33.35000000000024,587,154,113,0.0053475935828877,1499.4,1499.9652406417113,1407.0,1500
33.40000000000024,588,154,113,0.005681818181818182,1499.4,1499.9318181818182,1407.0,1500
33.45000000000024,589,154,112,0.005555555555555556,1499.4,1499.9444444444443,1408.0,1500
33.500000000000234,590,154,112,0.005681818181818182,1499.4,1499.9318181818182,1408.0,1500
33.55000000000023,591,154,111,0.005555555555555556,1499.4,1499.9444444444443,1409.0,1500
33.60000000000023,592,155,111,0.004901960784313725,1499.5,1500.0098039215686,1409.0,1500
33.650000000000226,593,155,110,0.004629629629629629,1499.5,1500.037037037037,1410.0,1500
33.70000000000022,594,156,110,0.004901960784313725,1499.6,1500.0098039215686,1410.0,1500
33.75000000000022,595,155,110,0.004629629629629629,1499.5,1500.037037037037,1410.0,1500
33.80000000000022,596,156,110,0.004901960784313725,1499.6,1500.0098039215686,1410.0,1500
33.850000000000215,597,156,110,0.0043859649122807015,1499.6,1500.061403508772,1410.0,1500
33.90000000000021,598,155,110,0.004629629629629629,1499.5,1500.037037037037,1410.0,1500
33.95000000000021,599,155,111,0.005050505050505051,1499.5,1499.9949494949494,1409.0,1500
34.000000000000206,600,155,110,0.004629629629629629,1499.5,1500.037037037037,1410.0,1500
34.0500000000002,601,155,110,0.004629629629629629,1499.5,1500.037037037037,1410.0,1500
34.1000000000002,602,154,110,0.004629629629629629,1499.4,1500.037037037037,1410.0,1500
34.1500000000002,603,154,110,0.004629629629629629,1499.4,1500.037037037037,1410.0,1500
34.200000000000195,604,154,109,0.004629629629629629,1499.4,1500.037037037037,1411.0,1500
34.25000000000019,605,154,109,0.0043859649122807015,1499.4,1500.061403508772,1411.0,1500
34.30000000000019,606,153,109,0.004629629629629629,1499.3,1500.037037037037,1411.0,1500
34.350000000000186,607,153,109,0.004273504273504274,1499.3,1500.0726495726497,1411.0,1500
34.40000000000018,608,153,109,0.004273504273504274,1499.3,1500.0726495726497,1411.0,1500
