time,x,y,size_inv,roll,pitch,thrust,yaw
0.00043582916259765625,187,61,0.006172839506172839,1520,1502.0,1348.3599999999999,1520
0.02221083641052246,187,61,0.006172839506172839,1520,1502.0,1349.9200000000001,1520
0.043580055236816406,187,61,0.006172839506172839,1520,1502.0,1350,1520
0.06484389305114746,187,61,0.006172839506172839,1520,1502.0,1350,1520
0.08619284629821777,188,61,0.006535947712418301,1520,1502.0,1350,1520
0.10744404792785645,187,61,0.006172839506172839,1520,1502.0,1350,1520
0.12871599197387695,187,61,0.006172839506172839,1520,1502.0,1350,1520
0.15008997917175293,187,61,0.006172839506172839,1520,1502.0,1350,1520
0.1714189052581787,187,61,0.006172839506172839,1520,1502.0,1350,1520
0.19272589683532715,188,61,0.006535947712418301,1520,1502.0,1350,1520
0.21421384811401367,188,61,0.006535947712418301,1520,1502.0,1350,1520
0.23587584495544434,188,61,0.006535947712418301,1520,1502.0,1350,1520
0.2575228214263916,186,61,0.005555555555555556,1520,1502.0,1350,1520
0.27917003631591797,185,62,0.007407407407407408,1520,1502.0,1350,1520
0.3008110523223877,184,62,0.006535947712418301,1520,1502.0,1350,1520
0.32245397567749023,181,62,0.007407407407407408,1520,1502.0,1350,1520
0.344113826751709,178,60,0.007407407407407408,1520,1502.0,1350,1518.0
0.3657999038696289,177,58,0.0058823529411764705,1520,1502.0,1350,1517.0
0.3875148296356201,173,58,0.007407407407407408,1520,1502.0,1350,1513.0
0.40921497344970703,170,58,0.006666666666666667,1520,1502.0,1350,1510.0
0.43092894554138184,166,59,0.007142857142857143,1520,1502.0,1350,1506.0
0.45262598991394043,166,59,0.007142857142857143,1520,1502.0,1350,1506.0
0.4743030071258545,162,61,0.0058823529411764705,1520,1502.0,1350,1502.0
0.49599504470825195,159,62,0.00625,1520,1502.0,1350,1499.0
0.5177040100097656,157,64,0.005050505050505051,1520,1502.0,1346.5599999999999,1497.0
0.5394518375396729,156,64,0.0058823529411764705,1520,1502.0,1335.28,1496.0
0.5611939430236816,154,65,0.00625,1520,1502.0,1324.0799999999999,1494.0
0.5829570293426514,152,67,0.005555555555555556,1499.0,1502.0,1317.1199999999999,1492.0
0.6047890186309814,150,69,0.005555555555555556,1480,1502.0,1310.0799999999999,1490.0
0.626641035079956,150,70,0.0058823529411764705,1480,1502.0,1308.4000000000001,1490.0
0.6484248638153076,150,70,0.0058823529411764705,1480,1502.0,1306.5599999999999,1490.0
0.6701798439025879,148,73,0.00625,1480,1502.0,1299.5999999999999,1488.0
0.6919119358062744,149,75,0.005050505050505051,1480,1502.0,1293.8399999999999,1489.0
0.7136569023132324,149,75,0.005555555555555556,1480,1502.0,1294.72,1489.0
0.7354538440704346,149,76,0.005555555555555556,1480,1502.0,1293.04,1489.0
0.757321834564209,150,77,0.005050505050505051,1480,1502.0,1289.9200000000001,1490.0
0.7790899276733398,151,77,0.0058823529411764705,1480,1502.0,1295.04,1491.0
0.8008599281311035,151,78,0.005555555555555556,1480,1502.0,1300.4000000000001,1491.0
0.8226199150085449,152,79,0.0053475935828877,1480,1502.0,1301.5999999999999,1492.0
0.8443598747253418,151,79,0.00625,1480,1502.0,1305.4400000000001,1491.0
0.8660979270935059,151,79,0.00625,1480,1502.0,1312.0799999999999,1491.0
0.8878459930419922,152,82,0.005555555555555556,1480,1502.0,1306.72,1492.0
0.9095768928527832,152,83,0.005555555555555556,1480,1502.0,1302.4000000000001,1492.0
0.9313230514526367,153,84,0.0058823529411764705,1480,1502.0,1299.4400000000001,1493.0
0.9530749320983887,153,85,0.0058823529411764705,1480,1502.0,1293.6800000000001,1493.0
0.9748258590698242,153,87,0.005555555555555556,1480,1502.0,1282.48,1493.0
0.9967379570007324,154,88,0.0058823529411764705,1480,1502.0,1279.4400000000001,1494.0
1.0186939239501953,154,89,0.0058823529411764705,1480,1502.0,1276.4000000000001,1494.0
1.0405240058898926,154,90,0.0058823529411764705,1480,1502.0,1273.3599999999999,1494.0
1.0623149871826172,154,91,0.0058823529411764705,1480,1502.0,1271.6800000000001,1494.0
1.0840868949890137,154,91,0.0058823529411764705,1480,1502.0,1276.8,1494.0
1.1058409214019775,154,92,0.005555555555555556,1480,1502.0,1278.0,1494.0
1.1275629997253418,154,92,0.0058823529411764705,1480,1502.0,1281.8399999999999,1494.0
1.1495540142059326,154,93,0.0058823529411764705,1480,1502.0,1284.48,1494.0
1.1713528633117676,154,94,0.005555555555555556,1480,1502.0,1287.1199999999999,1494.0
1.1931419372558594,154,95,0.0058823529411764705,1480,1502.0,1285.5999999999999,1494.0
1.2149229049682617,154,96,0.0058823529411764705,1480,1502.0,1284.0799999999999,1494.0
1.2368049621582031,154,96,0.0058823529411764705,1480,1502.0,1282.4000000000001,1494.0
1.2585489749908447,154,98,0.0058823529411764705,1480,1502.0,1276.8800000000001,1494.0
1.2803308963775635,154,99,0.005555555555555556,1480,1502.0,1272.5599999999999,1494.0
1.302083969116211,154,100,0.005555555555555556,1480,1502.0,1269.5999999999999,1494.0
1.3238508701324463,153,101,0.006060606060606061,1480,1502.0,1266.6400000000001,1493.0
1.3456189632415771,154,101,0.0058823529411764705,1480,1502.0,1264.8800000000001,1494.0
1.3673558235168457,154,102,0.0058823529411764705,1480,1502.0,1264.72,1494.0
1.3890979290008545,154,102,0.005555555555555556,1480,1502.0,1267.2,1494.0
1.4108359813690186,154,103,0.005050505050505051,1480,1502.0,1268.48,1494.0
1.4326069355010986,154,103,0.005555555555555556,1480,1502.0,1272.4000000000001,1494.0
1.454361915588379,154,103,0.005555555555555556,1480,1502.0,1276.3199999999999,1494.0
1.476088047027588,154,104,0.005555555555555556,1480,1502.0,1277.6800000000001,1494.0
1.497856855392456,154,105,0.005050505050505051,1480,1502.0,1276.24,1494.0
1.5196058750152588,155,106,0.0053475935828877,1480,1502.0,1274.8,1495.0
1.5413589477539062,155,106,0.0053475935828877,1480,1502.0,1273.2,1495.0
1.5631089210510254,155,106,0.0053475935828877,1480,1502.0,1271.5999999999999,1495.0
1.5848469734191895,155,107,0.0053475935828877,1480,1502.0,1268.8,1495.0
1.6066880226135254,154,107,0.006060606060606061,1480,1502.0,1270.0,1494.0
1.6284480094909668,155,107,0.0058823529411764705,1480,1502.0,1272.6400000000001,1495.0
1.650230884552002,155,107,0.005050505050505051,1480,1502.0,1275.28,1495.0
1.672071933746338,155,107,0.005050505050505051,1480,1502.0,1277.9200000000001,1495.0
1.6939949989318848,155,107,0.005050505050505051,1480,1502.0,1282.0,1495.0
1.7161450386047363,156,108,0.0053475935828877,1480,1502.0,1282.0799999999999,1496.0
1.7394449710845947,155,108,0.005050505050505051,1480,1502.0,1282.0,1495.0
1.7626569271087646,155,108,0.005050505050505051,1480,1502.0,1281.9200000000001,1495.0
1.7859008312225342,156,109,0.005050505050505051,1480,1502.0,1279.2,1496.0
1.809140920639038,155,109,0.005681818181818182,1480,1502.0,1276.3199999999999,1495.0
1.8323578834533691,157,109,0.0053475935828877,1480,1502.0,1276.24,1497.0
1.8556358814239502,156,109,0.005050505050505051,1480,1502.0,1276.1600000000001,1496.0
1.8788979053497314,157,109,0.005050505050505051,1480,1502.0,1276.0799999999999,1497.0
1.90208101272583,157,109,0.005050505050505051,1480,1502.0,1278.8,1497.0
1.9253380298614502,158,108,0.0053475935828877,1480,1502.0,1284.1600000000001,1498.0
1.9486110210418701,158,108,0.0053475935828877,1480,1502.0,1286.96,1498.0
1.9717960357666016,158,108,0.0053475935828877,1480,1502.0,1289.76,1498.0
1.9950218200683594,158,107,0.005050505050505051,1480,1502.0,1295.2,1498.0
2.0182909965515137,158,107,0.005050505050505051,1480,1502.0,1298.0799999999999,1498.0
2.041515827178955,158,107,0.006060606060606061,1480,1502.0,1298.1600000000001,1498.0
2.064703941345215,158,108,0.005681818181818182,1480,1502.0,1295.5999999999999,1498.0
2.088019847869873,159,107,0.005555555555555556,1480,1502.0,1296.8800000000001,1499.0
2.1113109588623047,159,108,0.0053475935828877,1480,1502.0,1291.52,1499.0
2.134690999984741,159,107,0.005050505050505051,1481.0,1502.0,1290.0,1499.0
2.1581199169158936,159,107,0.005050505050505051,1482.0,1502.0,1288.6400000000001,1499.0
2.181421995162964,159,107,0.005050505050505051,1483.0,1502.0,1290.0799999999999,1499.0
2.2047009468078613,160,106,0.005555555555555556,1487.0,1502.0,1291.3599999999999,1500.0
2.2281370162963867,160,106,0.005050505050505051,1489.0,1502.0,1295.5999999999999,1500.0
2.2514548301696777,160,105,0.005050505050505051,1491.0,1502.0,1299.6800000000001,1500.0
2.2750649452209473,161,105,0.005050505050505051,1496.0,1502.0,1302.5599999999999,1501.0
2.298434019088745,161,104,0.005050505050505051,1499.0,1502.0,1306.72,1501.0
2.321707010269165,161,104,0.005050505050505051,1501.0,1502.0,1308.24,1501.0
2.3449549674987793,161,104,0.005050505050505051,1503.0,1502.0,1308.4000000000001,1501.0
2.3684208393096924,161,104,0.005050505050505051,1505.0,1502.0,1307.1199999999999,1501.0
2.391990900039673,162,104,0.005050505050505051,1510.0,1502.0,1305.8399999999999,1502.0
2.415550947189331,162,103,0.005555555555555556,1513.0,1502.0,1304.4000000000001,1502.0
2.4389939308166504,162,103,0.005555555555555556,1515.0,1502.0,1303.1199999999999,1502.0
2.4622528553009033,163,103,0.0053475935828877,1520.0,1502.0,1301.8399999999999,1503.0
2.485558032989502,163,102,0.004784688995215311,1520,1502.0,1304.5599999999999,1503.0
2.5088748931884766,163,102,0.005050505050505051,1520,1502.0,1306.0799999999999,1503.0
2.5320799350738525,163,102,0.005050505050505051,1520,1502.0,1306.1600000000001,1503.0
2.555323839187622,163,101,0.005050505050505051,1520,1502.0,1308.8800000000001,1503.0
2.5785698890686035,164,100,0.0053475935828877,1520,1502.0,1313.04,1504.0
2.6017818450927734,163,99,0.005555555555555556,1520,1502.0,1315.8399999999999,1503.0
2.625092029571533,163,99,0.005555555555555556,1520,1502.0,1317.4400000000001,1503.0
2.648406982421875,164,99,0.0053475935828877,1520,1502.0,1320.4000000000001,1504.0
2.6715939044952393,163,98,0.005555555555555556,1520,1502.0,1323.2,1503.0
2.6947789192199707,163,98,0.005555555555555556,1520,1502.0,1322.0,1503.0
2.718111038208008,164,98,0.0053475935828877,1520,1502.0,1319.3599999999999,1504.0
2.741384983062744,163,97,0.005555555555555556,1520,1502.0,1319.3599999999999,1503.0
2.764612913131714,163,97,0.005050505050505051,1520,1502.0,1318.1600000000001,1503.0
2.787919044494629,163,96,0.005555555555555556,1520,1502.0,1318.1600000000001,1503.0
2.811115026473999,163,96,0.005050505050505051,1520,1502.0,1318.3199999999999,1503.0
2.8343310356140137,163,96,0.005050505050505051,1520,1502.0,1319.8399999999999,1503.0
2.857517957687378,163,96,0.005050505050505051,1520,1502.0,1318.5599999999999,1503.0
2.8806588649749756,163,95,0.005050505050505051,1520,1502.0,1319.9200000000001,1503.0
2.903830051422119,163,95,0.005050505050505051,1520,1502.0,1318.6400000000001,1503.0
2.927031993865967,163,95,0.005050505050505051,1520,1502.0,1317.3599999999999,1503.0
2.9502220153808594,163,94,0.005555555555555556,1520,1502.0,1318.72,1503.0
2.9733829498291016,163,94,0.005050505050505051,1520,1502.0,1320.24,1503.0
2.996551990509033,163,94,0.004784688995215311,1520,1502.0,1318.96,1503.0
3.019753932952881,162,93,0.005050505050505051,1520,1502.0,1321.6800000000001,1502.0
3.0429389476776123,162,93,0.005050505050505051,1520,1502.0,1323.2,1502.0
3.0661849975585938,162,93,0.005050505050505051,1520,1502.0,1321.9200000000001,1502.0
3.089625835418701,162,93,0.005050505050505051,1520,1502.0,1320.6400000000001,1502.0
3.112859010696411,162,93,0.004784688995215311,1520,1502.0,1320.72,1502.0
3.1360678672790527,162,93,0.004784688995215311,1520,1502.0,1318.0,1502.0
3.1592438220977783,162,93,0.004784688995215311,1520,1502.0,1315.28,1502.0
3.182405948638916,161,93,0.005050505050505051,1520,1502.0,1313.9200000000001,1501.0
3.2056519985198975,161,93,0.004784688995215311,1520,1502.0,1312.5599999999999,1501.0
3.228955030441284,161,92,0.0043859649122807015,1519.0,1502.0,1313.8399999999999,1501.0
3.252295970916748,161,92,0.004784688995215311,1518.0,1502.0,1315.28,1501.0
3.27571702003479,161,92,0.004784688995215311,1517.0,1502.0,1316.72,1501.0
3.2990219593048096,160,91,0.005050505050505051,1513.0,1502.0,1320.8,1500.0
3.322298049926758,160,91,0.004784688995215311,1511.0,1502.0,1323.6800000000001,1500.0
3.3456368446350098,160,91,0.004784688995215311,1509.0,1502.0,1323.76,1500.0
3.3689768314361572,160,91,0.005050505050505051,1507.0,1502.0,1323.8399999999999,1500.0
3.392242908477783,160,91,0.005050505050505051,1505.0,1502.0,1323.9200000000001,1500.0
3.4155850410461426,160,91,0.0043859649122807015,1504.0,1502.0,1321.2,1500.0
3.4393129348754883,160,92,0.004784688995215311,1503.0,1502.0,1315.8399999999999,1500.0
3.462625026702881,159,92,0.0043859649122807015,1499.0,1502.0,1313.04,1499.0
3.4859399795532227,159,92,0.0043859649122807015,1497.0,1502.0,1310.24,1499.0
3.509268045425415,159,92,0.004784688995215311,1495.0,1502.0,1307.4400000000001,1499.0
3.5325560569763184,159,92,0.004784688995215311,1494.0,1502.0,1306.0,1499.0
3.555866003036499,159,92,0.004784688995215311,1493.0,1502.0,1307.3599999999999,1499.0
3.5791900157928467,159,91,0.0043859649122807015,1492.0,1502.0,1311.3599999999999,1499.0
3.6024668216705322,159,91,0.0043859649122807015,1491.0,1502.0,1314.1600000000001,1499.0
3.6258490085601807,158,91,0.0043859649122807015,1487.0,1502.0,1316.96,1498.0
3.6492538452148438,158,92,0.004784688995215311,1485.0,1502.0,1317.1199999999999,1498.0
3.6725358963012695,158,92,0.004784688995215311,1483.0,1502.0,1317.1199999999999,1498.0
3.6958658695220947,158,92,0.004784688995215311,1482.0,1502.0,1314.3199999999999,1498.0
3.719230890274048,158,93,0.004784688995215311,1481.0,1502.0,1308.8800000000001,1498.0
3.742583990097046,158,93,0.004784688995215311,1480.0,1502.0,1304.6400000000001,1498.0
3.7659809589385986,157,93,0.0043859649122807015,1480,1502.0,1303.2,1497.0
3.7892448902130127,157,93,0.0043859649122807015,1480,1502.0,1301.76,1497.0
3.812408924102783,157,94,0.004784688995215311,1480,1502.0,1299.04,1497.0
3.8356869220733643,157,94,0.004784688995215311,1480,1502.0,1300.3199999999999,1497.0
3.8589799404144287,157,94,0.004784688995215311,1480,1502.0,1301.5999999999999,1497.0
3.8821890354156494,157,94,0.004784688995215311,1480,1502.0,1301.52,1497.0
3.9054088592529297,157,94,0.004784688995215311,1480,1502.0,1301.4400000000001,1497.0
3.9286608695983887,157,94,0.004784688995215311,1480,1502.0,1304.1600000000001,1497.0
3.951871871948242,157,94,0.004784688995215311,1480,1502.0,1305.52,1497.0
3.9750969409942627,157,94,0.004784688995215311,1480,1502.0,1306.8800000000001,1497.0
3.9983248710632324,157,94,0.0043859649122807015,1480,1502.0,1308.24,1497.0
4.021544933319092,156,94,0.0043859649122807015,1480,1502.0,1309.5999999999999,1496.0
4.044735908508301,156,94,0.0043859649122807015,1480,1502.0,1309.5999999999999,1496.0
4.068037033081055,156,95,0.004545454545454545,1480,1502.0,1306.96,1496.0
4.091231822967529,157,95,0.004784688995215311,1480,1502.0,1305.52,1497.0
4.114403009414673,156,95,0.004784688995215311,1480,1502.0,1304.0799999999999,1496.0
4.1378278732299805,156,95,0.004784688995215311,1480,1502.0,1302.6400000000001,1496.0
4.161027908325195,156,94,0.004629629629629629,1480,1502.0,1303.8399999999999,1496.0
4.184224843978882,157,94,0.0043859649122807015,1480,1502.0,1306.6400000000001,1497.0
4.207428932189941,157,94,0.0043859649122807015,1480,1502.0,1309.4400000000001,1497.0
4.230609893798828,156,95,0.004545454545454545,1480,1502.0,1309.5999999999999,1496.0
4.253824949264526,157,95,0.0043859649122807015,1480,1502.0,1310.96,1497.0
4.277000904083252,157,95,0.0043859649122807015,1480,1502.0,1309.52,1497.0
4.300161838531494,157,95,0.0043859649122807015,1480,1502.0,1306.72,1497.0
4.323338031768799,157,96,0.0038461538461538464,1480,1502.0,1301.28,1497.0
4.346526861190796,157,96,0.0043859649122807015,1480,1502.0,1299.8399999999999,1497.0
4.369752883911133,157,96,0.0043859649122807015,1480,1502.0,1298.4000000000001,1497.0
4.392911911010742,157,96,0.0038461538461538464,1480,1502.0,1298.3199999999999,1497.0
4.416074991226196,158,96,0.0043859649122807015,1480,1502.0,1298.24,1498.0
4.4392900466918945,158,96,0.004048582995951417,1480,1502.0,1300.96,1498.0
4.462468862533569,158,96,0.004048582995951417,1480,1502.0,1302.3199999999999,1498.0
4.485713958740234,158,95,0.004166666666666667,1480,1502.0,1306.3199999999999,1498.0
4.508960008621216,159,96,0.004048582995951417,1480,1502.0,1306.48,1499.0
4.532132863998413,159,95,0.0043859649122807015,1480,1502.0,1310.48,1499.0
4.5553858280181885,159,96,0.0038461538461538464,1480,1502.0,1309.28,1499.0
4.578639030456543,160,96,0.004048582995951417,1483.0,1502.0,1309.28,1500.0
4.6021928787231445,160,96,0.0043859649122807015,1486.0,1502.0,1306.48,1500.0
4.625607013702393,160,96,0.0043859649122807015,1489.0,1502.0,1306.48,1500.0
4.648982048034668,160,96,0.0043859649122807015,1491.0,1502.0,1303.6800000000001,1500.0
4.672256946563721,160,96,0.0043859649122807015,1493.0,1502.0,1303.6800000000001,1500.0
4.695582866668701,161,96,0.0043859649122807015,1498.0,1502.0,1303.6800000000001,1501.0
4.7189249992370605,161,96,0.003968253968253968,1501.0,1502.0,1305.04,1501.0
4.742262840270996,161,96,0.0043859649122807015,1503.0,1502.0,1305.04,1501.0
4.765600919723511,161,96,0.0043859649122807015,1505.0,1502.0,1306.4000000000001,1501.0
4.788941860198975,161,96,0.004048582995951417,1507.0,1502.0,1306.4000000000001,1501.0
4.812204837799072,162,96,0.003663003663003663,1511.0,1502.0,1306.4000000000001,1502.0
4.835561990737915,162,96,0.003663003663003663,1513.0,1502.0,1306.4000000000001,1502.0
4.858929872512817,162,96,0.003663003663003663,1515.0,1502.0,1306.4000000000001,1502.0
