time,x,y,size_inv,roll,pitch,thrust,yaw
0.0004448890686035156,249,65,0.006666666666666667,1520,1502.0,1343.4000000000001,1500.0
0.02225804328918457,248,65,0.007936507936507936,1520,1502.0,1344.8,1500.0
0.043740034103393555,248,65,0.007142857142857143,1520,1502.0,1346.2,1500.0
0.06518101692199707,248,65,0.007936507936507936,1520,1502.0,1347.5999999999999,1500.0
0.08663296699523926,249,65,0.006666666666666667,1520,1502.0,1349.0,1500.0
0.10805511474609375,248,65,0.007407407407407408,1520,1502.0,1350,1500.0
0.1294269561767578,248,65,0.007407407407407408,1520,1502.0,1350,1500.0
0.15079402923583984,248,65,0.00625,1520,1502.0,1350,1500.0
0.1722240447998047,248,65,0.007936507936507936,1520,1502.0,1350,1500.0
0.19360589981079102,248,65,0.007407407407407408,1520,1502.0,1350,1500.0
0.2151041030883789,248,65,0.007407407407407408,1520,1502.0,1350,1500.0
0.23681092262268066,248,65,0.007407407407407408,1520,1502.0,1350,1500.0
0.2586350440979004,249,65,0.006666666666666667,1520,1502.0,1350,1500.0
0.28045201301574707,248,65,0.007936507936507936,1520,1502.0,1350,1500.0
0.3022780418395996,248,65,0.007936507936507936,1520,1502.0,1350,1500.0
0.32407188415527344,248,63,0.008333333333333333,1520,1502.0,1350,1500.0
0.34581589698791504,248,61,0.01020408163265306,1520,1502.0,1350,1500.0
0.3675680160522461,249,59,0.007407407407407408,1520,1502.0,1350,1500.0
0.3893160820007324,249,58,0.007407407407407408,1520,1502.0,1350,1500.0
0.4110550880432129,249,59,0.006944444444444444,1520,1502.0,1350,1500.0
0.43282198905944824,249,59,0.007407407407407408,1520,1502.0,1350,1500.0
0.4545929431915283,248,60,0.008928571428571428,1520,1502.0,1350,1500.0
0.47632408142089844,248,61,0.007407407407407408,1520,1502.0,1350,1500.0
0.4980909824371338,248,61,0.008333333333333333,1520,1502.0,1350,1500.0
0.5198459625244141,248,62,0.007407407407407408,1520,1502.0,1350,1500.0
0.5415849685668945,248,62,0.007407407407407408,1520,1502.0,1347.52,1500.0
0.5634820461273193,248,62,0.007936507936507936,1520,1502.0,1343.28,1500.0
0.5853080749511719,248,62,0.007407407407407408,1520,1502.0,1344.5599999999999,1500.0
0.607125997543335,247,63,0.006944444444444444,1520,1502.0,1344.5599999999999,1500.0
0.6289739608764648,247,64,0.007407407407407408,1520,1502.0,1344.5599999999999,1500.0
0.6507740020751953,247,65,0.007407407407407408,1520,1502.0,1343.1199999999999,1500.0
0.6725850105285645,247,66,0.007407407407407408,1520,1502.0,1338.8800000000001,1500.0
0.6943850517272949,246,67,0.006944444444444444,1520,1502.0,1331.8399999999999,1500.0
0.7161819934844971,246,69,0.007407407407407408,1520,1502.0,1323.52,1500.0
0.7379889488220215,246,70,0.007407407407407408,1520,1502.0,1316.4000000000001,1500.0
0.7597849369049072,245,71,0.006944444444444444,1520,1502.0,1310.6400000000001,1500.0
0.7815799713134766,246,72,0.007407407407407408,1520,1502.0,1306.24,1500.0
0.8034539222717285,245,72,0.006666666666666667,1520,1502.0,1305.8399999999999,1500.0
0.8252699375152588,245,73,0.007407407407407408,1520,1502.0,1307.04,1500.0
0.84710693359375,244,74,0.007407407407407408,1520,1502.0,1308.24,1500.0
0.8689210414886475,244,74,0.006666666666666667,1520,1502.0,1312.0799999999999,1500.0
0.8907420635223389,244,75,0.006666666666666667,1520,1502.0,1314.72,1500.0
0.9125659465789795,244,76,0.006666666666666667,1520,1502.0,1314.5599999999999,1500.0
0.9343729019165039,243,77,0.006666666666666667,1520,1502.0,1313.04,1500.0
0.956171989440918,241,80,0.007407407407407408,1520,1502.0,1306.24,1500.0
0.977963924407959,240,82,0.006944444444444444,1520,1502.0,1296.4000000000001,1500.0
0.9997680187225342,240,83,0.007407407407407408,1520,1502.0,1287.76,1500.0
1.0215590000152588,239,84,0.006944444444444444,1520,1502.0,1280.48,1500.0
1.0434300899505615,238,85,0.00625,1520,1502.0,1273.2,1500.0
1.0652780532836914,238,86,0.006666666666666667,1520,1502.0,1271.52,1500.0
1.0872728824615479,237,87,0.006666666666666667,1520,1502.0,1274.0,1500.0
1.1094059944152832,236,88,0.00625,1520,1502.0,1276.48,1500.0
1.1312980651855469,235,89,0.006666666666666667,1520,1502.0,1278.96,1500.0
1.1531269550323486,235,90,0.006666666666666667,1520,1502.0,1281.4400000000001,1500.0
1.1752049922943115,233,91,0.006944444444444444,1520,1502.0,1281.2,1500.0
1.1970601081848145,232,92,0.00625,1520,1502.0,1279.5999999999999,1500.0
1.2188730239868164,232,93,0.007407407407407408,1520,1502.0,1278.0,1500.0
1.2406840324401855,230,93,0.00625,1520,1502.0,1279.04,1500.0
1.2625141143798828,229,94,0.00625,1520,1502.0,1278.8800000000001,1500.0
1.284316062927246,229,95,0.006666666666666667,1520,1502.0,1278.72,1500.0
1.3061389923095703,226,97,0.00625,1520,1502.0,1275.9200000000001,1500.0
1.327929973602295,225,98,0.00625,1520,1502.0,1274.3199999999999,1500.0
1.3497300148010254,224,99,0.00625,1520,1502.0,1269.9200000000001,1500.0
1.3715291023254395,223,100,0.007407407407407408,1520,1502.0,1265.52,1500.0
1.3934259414672852,222,100,0.006666666666666667,1520,1502.0,1263.76,1500.0
1.4152450561523438,221,101,0.005681818181818182,1520,1502.0,1263.5999999999999,1500.0
1.4370570182800293,219,101,0.00625,1520,1502.0,1266.0799999999999,1500.0
1.4588890075683594,218,102,0.006666666666666667,1520,1502.0,1268.72,1500.0
1.4806830883026123,217,103,0.006666666666666667,1520,1502.0,1271.3599999999999,1500.0
1.5024819374084473,216,104,0.006666666666666667,1520,1502.0,1271.2,1500.0
1.5242838859558105,215,105,0.006666666666666667,1520,1502.0,1269.6800000000001,1500.0
1.5460810661315918,213,106,0.00625,1520,1502.0,1265.3599999999999,1500.0
1.5678749084472656,212,107,0.006666666666666667,1520,1502.0,1261.04,1500.0
1.5896849632263184,210,108,0.005681818181818182,1520,1502.0,1256.72,1500.0
1.611475944519043,209,108,0.006666666666666667,1520,1502.0,1256.4000000000001,1500.0
1.633268117904663,208,108,0.006666666666666667,1520,1502.0,1257.52,1500.0
1.655102014541626,206,108,0.006666666666666667,1520,1502.0,1261.4400000000001,1500.0
1.6768879890441895,203,108,0.00625,1520,1502.0,1266.8,1500.0
1.6986980438232422,202,109,0.006060606060606061,1520,1502.0,1270.96,1500.0
1.7204880714416504,201,109,0.00625,1520,1502.0,1274.96,1500.0
1.7423129081726074,199,110,0.005681818181818182,1520,1502.0,1274.96,1500.0
1.7641570568084717,197,110,0.006666666666666667,1520,1502.0,1274.8,1500.0
1.7859539985656738,196,110,0.006666666666666667,1520,1502.0,1273.28,1500.0
1.8077430725097656,194,111,0.006060606060606061,1520,1502.0,1270.5599999999999,1500.0
1.8295390605926514,193,111,0.0053475935828877,1520,1502.0,1269.04,1500.0
1.851377010345459,191,111,0.006666666666666667,1520,1502.0,1270.3199999999999,1500.0
1.873194932937622,190,111,0.0053475935828877,1520,1502.0,1271.5999999999999,1500.0
1.895015001296997,188,110,0.006666666666666667,1520,1502.0,1275.52,1500.0
1.916835069656372,186,110,0.006666666666666667,1520,1502.0,1279.6800000000001,1500.0
1.9386351108551025,185,110,0.005050505050505051,1520,1502.0,1283.8399999999999,1500.0
1.960433006286621,183,109,0.006666666666666667,1520,1502.0,1289.28,1500.0
1.9822819232940674,182,109,0.0058823529411764705,1520,1502.0,1293.52,1500.0
2.0041210651397705,180,109,0.00625,1520,1502.0,1294.96,1500.0
2.0259299278259277,177,109,0.0053475935828877,1520,1502.0,1295.04,1500.0
2.0477540493011475,174,109,0.005681818181818182,1520,1502.0,1295.1199999999999,1500.0
2.0695700645446777,173,109,0.005050505050505051,1520,1502.0,1292.4000000000001,1500.0
2.091403007507324,172,109,0.0053475935828877,1520,1502.0,1289.6800000000001,1500.0
2.113226890563965,170,109,0.0053475935828877,1520.0,1502.0,1288.3199999999999,1500.0
2.135077953338623,168,108,0.0058823529411764705,1516.0,1502.0,1289.5999999999999,1500.0
2.1569321155548096,165,108,0.006060606060606061,1510.0,1502.0,1289.6800000000001,1500.0
2.178802013397217,164,107,0.0058823529411764705,1508.0,1502.0,1293.76,1500.0
2.2007179260253906,161,106,0.006666666666666667,1502.0,1502.0,1299.28,1500.0
2.222559928894043,160,106,0.006060606060606061,1500.0,1502.0,1303.5999999999999,1500.0
2.2444019317626953,157,105,0.006666666666666667,1494.0,1502.0,1307.76,1500.0
2.266242027282715,155,104,0.006666666666666667,1490.0,1502.0,1313.3599999999999,1500.0
2.2881019115448,153,104,0.006666666666666667,1486.0,1502.0,1314.96,1500.0
2.310173988342285,151,104,0.006060606060606061,1482.0,1502.0,1313.76,1500.0
2.3320960998535156,149,103,0.006666666666666667,1480,1502.0,1315.2,1500.0
2.353971004486084,147,103,0.007142857142857143,1480,1502.0,1314.0,1500.0
2.3757710456848145,144,102,0.0058823529411764705,1480,1502.0,1312.6400000000001,1500.0
2.3975770473480225,141,102,0.006666666666666667,1480,1502.0,1311.4400000000001,1500.0
2.4193859100341797,139,101,0.006666666666666667,1480,1502.0,1314.24,1500.0
2.4412059783935547,138,101,0.006535947712418301,1480,1502.0,1313.04,1500.0
2.4630019664764404,135,100,0.006666666666666667,1480,1502.0,1315.8399999999999,1500.0
2.48482608795166,133,99,0.006666666666666667,1480,1502.0,1318.6400000000001,1500.0
2.5066308975219727,131,98,0.007142857142857143,1480,1502.0,1322.8800000000001,1500.0
2.5284199714660645,129,97,0.006666666666666667,1480,1502.0,1325.76,1500.0
2.550240993499756,127,96,0.006666666666666667,1480,1502.0,1331.4400000000001,1500.0
2.5720770359039307,126,95,0.006666666666666667,1480,1502.0,1335.76,1500.0
2.5938971042633057,123,95,0.007407407407407408,1480,1502.0,1337.4400000000001,1500.0
2.6157259941101074,121,94,0.006666666666666667,1480,1502.0,1338.96,1500.0
2.637547016143799,121,94,0.006666666666666667,1480,1502.0,1337.8399999999999,1500.0
2.6593639850616455,117,93,0.006666666666666667,1480,1502.0,1336.5599999999999,1500.0
2.681178092956543,115,93,0.007407407407407408,1480,1502.0,1332.6400000000001,1500.0
2.7029809951782227,113,92,0.006666666666666667,1480,1502.0,1332.72,1500.0
2.7247838973999023,111,92,0.006944444444444444,1480,1502.0,1330.1600000000001,1500.0
2.746598958969116,108,90,0.006666666666666667,1480,1502.0,1334.24,1500.0
2.768407106399536,106,90,0.007936507936507936,1480,1502.0,1334.48,1500.0
2.7901980876922607,106,90,0.007936507936507936,1480,1502.0,1336.0799999999999,1500.0
2.81200909614563,102,88,0.007407407407407408,1480,1502.0,1340.1600000000001,1500.0
2.8338510990142822,100,87,0.007936507936507936,1480,1502.0,1345.8399999999999,1500.0
2.8556768894195557,99,86,0.006666666666666667,1480,1502.0,1347.3599999999999,1500.0
2.8774850368499756,97,86,0.007936507936507936,1480,1502.0,1349.04,1500.0
2.8992929458618164,95,85,0.007936507936507936,1480,1502.0,1350,1500.0
2.921065092086792,95,85,0.007936507936507936,1480,1502.0,1350,1500.0
2.942807912826538,92,84,0.007936507936507936,1480,1502.0,1350,1500.0
2.964564085006714,90,84,0.007936507936507936,1480,1502.0,1348.4000000000001,1500.0
2.9863719940185547,89,83,0.007692307692307693,1480,1502.0,1348.48,1500.0
3.0081839561462402,87,83,0.007936507936507936,1480,1502.0,1344.5599999999999,1500.0
3.0299808979034424,87,83,0.007936507936507936,1480,1502.0,1343.3599999999999,1500.0
3.051788091659546,83,83,0.007936507936507936,1480,1502.0,1340.72,1500.0
3.073654890060425,82,83,0.007936507936507936,1480,1502.0,1339.4400000000001,1500.0
3.095468044281006,80,82,0.010101010101010102,1480,1502.0,1338.0,1500.0
3.1177940368652344,77,81,0.008333333333333333,1480,1502.0,1339.3599999999999,1500.0
3.141170024871826,77,81,0.008333333333333333,1480,1502.0,1339.52,1500.0
3.164454936981201,75,81,0.008547008547008548,1480,1502.0,1341.04,1500.0
3.187796115875244,73,81,0.010101010101010102,1480,1502.0,1342.5599999999999,1500.0
3.211091995239258,71,80,0.008333333333333333,1480,1502.0,1345.28,1500.0
3.234431028366089,71,80,0.008333333333333333,1480,1502.0,1344.0,1500.0
3.257714033126831,68,81,0.009259259259259259,1480,1502.0,1340.0799999999999,1500.0
3.2810139656066895,67,81,0.009259259259259259,1480,1502.0,1337.3599999999999,1500.0
3.3044400215148926,66,82,0.010101010101010102,1480,1502.0,1332.0,1500.0
3.3279459476470947,63,82,0.010101010101010102,1480,1502.0,1326.4000000000001,1500.0
3.3513240814208984,62,82,0.009259259259259259,1480,1502.0,1322.1600000000001,1500.0
3.3747661113739014,61,81,0.009259259259259259,1480,1502.0,1323.3599999999999,1500.0
3.3980839252471924,60,81,0.010101010101010102,1480,1502.0,1323.3599999999999,1500.0
3.4214279651641846,160,99,1.557632398753894e-05,1500.0,1502.0,1278.6400000000001,1500.0
3.4453439712524414,160,99,1.557632398753894e-05,1500.0,1502.0,1256.8800000000001,1500.0
3.4687581062316895,160,99,1.557632398753894e-05,1500.0,1502.0,1250,1500.0
3.492110013961792,160,99,1.557632398753894e-05,1500.0,1502.0,1250,1500.0
3.51547908782959,160,99,1.557632398753894e-05,1500.0,1502.0,1250,1500.0
3.5388200283050537,160,99,1.557632398753894e-05,1500.0,1502.0,1250,1500.0
