time,x,y,size_inv,roll,pitch,thrust,yaw
0.0008521080017089844,198,43,0.003787878787878788,1519.0,1502.0,1350,1500.0
0.024010181427001953,198,43,0.003787878787878788,1519.0,1502.0,1350,1500.0
0.047213077545166016,199,43,0.003968253968253968,1519.5,1502.0,1350,1500.0
0.07005000114440918,198,43,0.003787878787878788,1519.0,1502.0,1350,1500.0
0.0928800106048584,198,43,0.003787878787878788,1519.0,1502.0,1350,1500.0
0.11568117141723633,198,43,0.003787878787878788,1519.0,1502.0,1350,1500.0
0.1384429931640625,198,43,0.003787878787878788,1519.0,1502.0,1350,1500.0
0.16155004501342773,198,43,0.003787878787878788,1519.0,1502.0,1350,1500.0
0.1843881607055664,198,43,0.003787878787878788,1519.0,1502.0,1350,1500.0
0.2074120044708252,198,43,0.003787878787878788,1519.0,1502.0,1350,1500.0
0.23060297966003418,198,43,0.003787878787878788,1519.0,1502.0,1350,1500.0
0.25412797927856445,198,43,0.003787878787878788,1519.0,1502.0,1350,1500.0
0.27767014503479004,198,43,0.0034965034965034965,1519.0,1502.0,1350,1500.0
0.30127811431884766,197,43,0.0043859649122807015,1518.5,1502.0,1350,1500.0
0.3248450756072998,197,44,0.003787878787878788,1518.5,1502.0,1350,1500.0
0.3483719825744629,196,43,0.004329004329004329,1518.0,1502.0,1350,1500.0
0.3721179962158203,195,42,0.004132231404958678,1517.5,1502.0,1350,1500.0
0.39565300941467285,195,41,0.003968253968253968,1517.5,1502.0,1350,1500.0
0.4193391799926758,194,42,0.004132231404958678,1517.0,1502.0,1350,1500.0
0.44300317764282227,192,43,0.004629629629629629,1516.0,1502.0,1350,1500.0
0.46651315689086914,193,45,0.003968253968253968,1516.5,1502.0,1350,1500.0
0.4900369644165039,193,45,0.003968253968253968,1516.5,1502.0,1350,1500.0
0.5135459899902344,192,50,0.0034965034965034965,1516.0,1502.0,1350,1500.0
0.5370931625366211,192,51,0.0033444816053511705,1516.0,1502.0,1350,1500.0
0.5606420040130615,192,51,0.0033444816053511705,1516.0,1502.0,1337.28,1500.0
0.5842599868774414,191,51,0.003787878787878788,1515.5,1502.0,1331.3599999999999,1500.0
0.6078841686248779,191,52,0.0034965034965034965,1515.5,1502.0,1324.1600000000001,1500.0
0.631723165512085,191,53,0.0034965034965034965,1515.5,1502.0,1330.8800000000001,1500.0
0.6553201675415039,191,53,0.0034965034965034965,1515.5,1502.0,1340.24,1500.0
0.6791059970855713,191,58,0.0036231884057971015,1515.5,1502.0,1335.04,1500.0
0.7029380798339844,190,60,0.0034965034965034965,1515.0,1502.0,1327.8399999999999,1500.0
0.7265501022338867,190,62,0.0033444816053511705,1515.0,1502.0,1320.5599999999999,1500.0
0.7501661777496338,190,63,0.0033444816053511705,1515.0,1502.0,1309.04,1500.0
0.7737650871276855,190,63,0.0033444816053511705,1515.0,1502.0,1297.3599999999999,1500.0
0.797368049621582,189,65,0.0033444816053511705,1514.5,1502.0,1294.4000000000001,1500.0
0.8210651874542236,188,66,0.0034965034965034965,1514.0,1502.0,1296.8,1500.0
0.8447020053863525,187,68,0.0034965034965034965,1513.5,1502.0,1299.3599999999999,1500.0
0.8683249950408936,187,68,0.0034965034965034965,1513.5,1502.0,1305.76,1500.0
0.8922450542449951,186,72,0.0034965034965034965,1513.0,1502.0,1301.5999999999999,1500.0
0.9157330989837646,186,74,0.0033444816053511705,1513.0,1502.0,1295.76,1500.0
0.9394991397857666,185,75,0.003246753246753247,1512.5,1502.0,1289.76,1500.0
0.9632620811462402,184,77,0.0034965034965034965,1512.0,1502.0,1282.5599999999999,1500.0
0.9868850708007812,183,80,0.0033444816053511705,1511.5,1502.0,1268.48,1500.0
1.0104820728302002,182,81,0.0033444816053511705,1511.0,1502.0,1266.5599999999999,1500.0
1.0341160297393799,181,82,0.003105590062111801,1510.5,1502.0,1266.0799999999999,1500.0
1.0577280521392822,180,83,0.003105590062111801,1510.0,1502.0,1265.5999999999999,1500.0
1.0815691947937012,180,83,0.003105590062111801,1510.0,1502.0,1269.2,1500.0
1.1051750183105469,178,85,0.0033444816053511705,1509.0,1502.0,1275.9200000000001,1500.0
1.1289420127868652,177,86,0.003246753246753247,1508.5,1502.0,1279.76,1500.0
1.1527280807495117,176,88,0.003105590062111801,1508.0,1502.0,1279.5999999999999,1500.0
1.1763460636138916,176,88,0.003105590062111801,1508.0,1502.0,1283.28,1500.0
1.2002570629119873,174,91,0.0034965034965034965,1507.0,1502.0,1276.3199999999999,1500.0
1.2238810062408447,173,92,0.0034965034965034965,1506.5,1502.0,1271.8399999999999,1500.0
1.2474830150604248,173,93,0.0033444816053511705,1506.5,1502.0,1267.3599999999999,1500.0
1.271183967590332,172,93,0.003105590062111801,1506.0,1502.0,1268.3199999999999,1500.0
1.2947750091552734,170,95,0.0033444816053511705,1505.0,1502.0,1262.6400000000001,1500.0
1.31837797164917,169,95,0.0033444816053511705,1504.5,1502.0,1267.76,1500.0
1.3422331809997559,167,95,0.003246753246753247,1503.5,1502.0,1272.96,1500.0
1.3658549785614014,167,95,0.003246753246753247,1503.5,1502.0,1279.5999999999999,1500.0
1.3895461559295654,165,95,0.003105590062111801,1502.5,1502.0,1283.52,1500.0
1.4131431579589844,164,96,0.0033444816053511705,1502.0,1502.0,1290.4000000000001,1500.0
1.4367601871490479,163,96,0.003105590062111801,1501.5,1502.0,1294.4000000000001,1500.0
1.4603781700134277,162,97,0.0033444816053511705,1501.0,1502.0,1294.4000000000001,1500.0
1.4840071201324463,159,98,0.0033444816053511705,1499.5,1502.0,1291.5999999999999,1500.0
1.5076301097869873,158,98,0.003105590062111801,1499.0,1502.0,1290.0,1500.0
1.5312981605529785,157,99,0.0033444816053511705,1498.5,1502.0,1285.8399999999999,1500.0
1.5549311637878418,155,99,0.003105590062111801,1497.5,1502.0,1282.8800000000001,1500.0
1.578732967376709,155,99,0.003105590062111801,1497.5,1502.0,1282.72,1500.0
1.6024951934814453,152,99,0.003105590062111801,1496.0,1502.0,1285.3599999999999,1500.0
1.6261329650878906,150,99,0.0033444816053511705,1495.0,1502.0,1288.0,1500.0
1.6497180461883545,150,99,0.0033444816053511705,1495.0,1502.0,1292.0799999999999,1500.0
1.6732981204986572,147,98,0.003105590062111801,1493.5,1502.0,1298.8,1500.0
1.696882963180542,145,98,0.0033444816053511705,1492.5,1502.0,1302.96,1500.0
1.7205860614776611,143,98,0.0034965034965034965,1491.5,1502.0,1305.76,1500.0
1.744204044342041,142,97,0.003105590062111801,1491.0,1502.0,1311.2,1500.0
1.767786979675293,140,97,0.003246753246753247,1490.0,1502.0,1314.0799999999999,1500.0
1.7916340827941895,137,97,0.0034965034965034965,1488.5,1502.0,1314.1600000000001,1500.0
1.815230131149292,136,96,0.003105590062111801,1488.0,1502.0,1316.8800000000001,1500.0
1.838973045349121,134,96,0.0034965034965034965,1487.0,1502.0,1318.4000000000001,1500.0
1.862652063369751,133,96,0.0033444816053511705,1486.5,1502.0,1317.1199999999999,1500.0
1.8862881660461426,131,95,0.003246753246753247,1485.5,1502.0,1318.48,1500.0
1.9099230766296387,129,95,0.0034965034965034965,1484.5,1502.0,1320.0,1500.0
1.9335319995880127,127,94,0.0033444816053511705,1483.5,1502.0,1321.3599999999999,1500.0
1.9571540355682373,125,93,0.003246753246753247,1482.5,1502.0,1324.1600000000001,1500.0
1.9807770252227783,124,93,0.0034965034965034965,1482.0,1502.0,1327.1199999999999,1500.0
2.0044031143188477,122,92,0.003246753246753247,1481.0,1502.0,1329.9200000000001,1500.0
2.028012990951538,121,91,0.003246753246753247,1480.5,1502.0,1334.1600000000001,1500.0
2.0518290996551514,119,91,0.0034965034965034965,1480,1502.0,1335.76,1500.0
2.0753650665283203,116,90,0.0034965034965034965,1480,1502.0,1337.2,1500.0
2.099079132080078,115,90,0.003663003663003663,1480,1502.0,1337.4400000000001,1500.0
2.122774124145508,114,89,0.003401360544217687,1480,1502.0,1338.8800000000001,1500.0
2.146296977996826,112,89,0.003246753246753247,1480,1502.0,1336.3199999999999,1500.0
2.1698169708251953,111,89,0.003246753246753247,1480,1502.0,1335.1199999999999,1500.0
2.1933469772338867,110,89,0.003663003663003663,1480,1502.0,1332.48,1500.0
2.216900110244751,108,88,0.003246753246753247,1480,1502.0,1332.48,1500.0
2.2404589653015137,106,88,0.003401360544217687,1480,1502.0,1329.8399999999999,1500.0
2.264000177383423,104,88,0.004048582995951417,1480,1502.0,1328.5599999999999,1500.0
2.2875289916992188,103,87,0.003401360544217687,1480,1502.0,1329.9200000000001,1500.0
2.311138153076172,102,87,0.004048582995951417,1480,1502.0,1331.4400000000001,1500.0
2.3346691131591797,100,86,0.0035714285714285713,1480,1502.0,1332.8,1500.0
2.35846209526062,99,86,0.0037593984962406013,1480,1502.0,1334.3199999999999,1500.0
2.382301092147827,96,84,0.0035714285714285713,1480,1502.0,1341.1199999999999,1500.0
2.4058539867401123,95,84,0.0035714285714285713,1480,1502.0,1342.72,1500.0
2.4295270442962646,94,84,0.0035714285714285713,1480,1502.0,1344.3199999999999,1500.0
2.453212022781372,93,84,0.003968253968253968,1480,1502.0,1344.48,1500.0
2.4767119884490967,92,84,0.0037593984962406013,1480,1502.0,1344.6400000000001,1500.0
2.500236988067627,91,84,0.0037593984962406013,1480,1502.0,1339.2,1500.0
2.5238091945648193,89,85,0.0038461538461538464,1480,1502.0,1332.48,1500.0
2.5473711490631104,87,85,0.0038461538461538464,1480,1502.0,1326.96,1500.0
2.5709941387176514,86,85,0.0038461538461538464,1480,1502.0,1322.8,1500.0
2.5945401191711426,85,84,0.0035714285714285713,1480,1502.0,1321.28,1500.0
2.618077039718628,84,85,0.0038461538461538464,1480,1502.0,1318.6400000000001,1500.0
2.641822099685669,84,84,0.0037593984962406013,1480,1502.0,1322.6400000000001,1500.0
2.6653740406036377,83,84,0.0037593984962406013,1480,1502.0,1325.4400000000001,1500.0
2.6889891624450684,82,84,0.0035714285714285713,1480,1502.0,1328.24,1500.0
2.712623119354248,80,84,0.0035714285714285713,1480,1502.0,1328.24,1500.0
2.7361550331115723,79,84,0.0038461538461538464,1480,1502.0,1331.04,1500.0
2.7597780227661133,79,83,0.0037593984962406013,1480,1502.0,1332.3199999999999,1500.0
2.783316135406494,78,83,0.0035714285714285713,1480,1502.0,1332.4000000000001,1500.0
2.806871175765991,76,83,0.0035714285714285713,1480,1502.0,1332.48,1500.0
2.830386161804199,76,84,0.0035714285714285713,1480,1502.0,1331.28,1500.0
2.8539299964904785,75,84,0.0035714285714285713,1480,1502.0,1329.9200000000001,1500.0
2.8774871826171875,74,84,0.0037593984962406013,1480,1502.0,1327.1199999999999,1500.0
2.9011120796203613,73,84,0.0035714285714285713,1480,1502.0,1324.3199999999999,1500.0
