time,x,y,size_inv,roll,pitch,thrust,yaw
0.0007960796356201172,158,50.0,5283.0294339516986,1499.54,1495.0,1350,1499.992
0.02346205711364746,158,49.9295,5283.0294339516986,1499.48,1495.0,1350,1499.992
0.04557609558105469,158,49.9295,5283.0294339516986,1499.4200000000001,1495.0,1350,1499.992
0.06758809089660645,158,49.9295,5283.0294339516986,1499.3599999999999,1495.0,1350,1499.992
0.08959603309631348,158,49.9295,5283.0294339516986,1499.3,1495.0,1350,1499.992
0.11157917976379395,158,49.9295,5283.0294339516986,1499.24,1495.0,1350,1499.992
0.13355517387390137,158,49.9295,5283.0294339516986,1499.1800000000001,1495.0,1350,1499.992
0.15553808212280273,158,49.9295,5283.0294339516986,1499.1199999999999,1495.0,1350,1499.992
0.17751502990722656,158,49.9295,5283.0294339516986,1499.0599999999999,1495.0,1350,1499.992
0.19949603080749512,158,49.9295,5283.0294339516986,1499.0,1495.0,1350,1499.992
0.22168707847595215,158,49.9295,5283.0294339516986,1499.0,1495.0,1350,1499.992
0.24407219886779785,158,49.953,5283.0294339516986,1499.0,1495.0,1350,1499.992
0.266402006149292,159,49.9765,5283.0294339516986,1501.4300000000001,1495.0,1350,1499.9960000000001
0.28873705863952637,158,50.9765,5283.0294339516986,1501.23,1495.0,1350,1499.992
0.31115221977233887,158,51.0235,5283.0294339516986,1501.23,1495.0,1350,1499.992
0.3336191177368164,159,52.047,5283.0294339516986,1503.6600000000001,1495.0,1350,1499.9960000000001
0.3559582233428955,159,53.141,5283.0294339516986,1505.8900000000001,1495.0,1350,1499.9960000000001
0.37828707695007324,159,55.235,5283.0294339516986,1503.72,1495.0,1350,1499.9960000000001
0.40062403678894043,160,57.329,5283.0294339516986,1508.3800000000001,1495.0,1345.2088799999999,1500.0
0.42320919036865234,160,59.376,5283.0294339516986,1512.8399999999999,1495.0,1332.21272,1500.0
0.4457380771636963,161,60.3995,5283.0294339516986,1515.3299999999999,1495.0,1321.83672,1500.0039999999999
0.46814799308776855,161,61.376,5283.0294339516986,1517.6199999999999,1495.0,1313.1422,1500.0039999999999
0.4905281066894531,161,61.3525,5283.0294339516986,1520,1495.0,1311.5127600000001,1500.0039999999999
0.5128641128540039,161,61.329,5283.0294339516986,1519.97,1495.0,1314.4203600000001,1500.0039999999999
0.5352151393890381,162,61.329,5283.0294339516986,1520,1495.0,1322.9674400000001,1500.008
0.5575301647186279,162,61.282,5283.0294339516986,1518.1800000000001,1495.0,1333.1124400000001,1500.008
0.5799081325531006,162,62.2585,5283.0294339516986,1516.0699999999999,1495.0,1341.8694399999999,1500.008
0.6023051738739014,162,62.2585,5224.3291069077914,1513.96,1495.0,1348.8846000000001,1500.008
0.6246650218963623,161,63.282,5224.3291069077914,1511.5899999999999,1495.0,1350,1500.0039999999999
0.6470081806182861,161,64.3055,5165.6287798638832,1505.02,1495.0,1347.4258,1500.0039999999999
0.6693980693817139,162,65.329,5106.928452819976,1503.05,1495.0,1341.5701200000001,1500.008
0.6917850971221924,161,67.3525,5106.928452819976,1498.45,1495.0,1333.00676,1500.0039999999999
0.7141611576080322,161,68.376,5106.928452819976,1494.05,1495.0,1324.2015200000001,1500.0039999999999
0.7365250587463379,161,69.376,5106.928452819976,1494.05,1495.0,1316.8822399999999,1500.0039999999999
0.7589070796966553,161,69.329,5048.2281257760678,1496.22,1495.0,1313.7528400000001,1500.0039999999999
0.7813889980316162,161,69.282,4989.5277987321606,1493.99,1495.0,1313.6208399999998,1500.0039999999999
0.8038761615753174,160,70.2585,4989.5277987321606,1493.73,1495.0,1315.1922399999999,1500.0
0.8262481689453125,160,70.2115,5048.2281257760678,1493.6700000000001,1495.0,1320.9253200000001,1500.0
0.8486330509185791,160,70.188,4989.5277987321606,1491.4400000000001,1495.0,1328.0720799999999,1500.0
0.8710370063781738,161,70.1645,4989.5277987321606,1491.6400000000001,1495.0,1333.72912,1500.0039999999999
0.8934600353240967,160,71.1645,5048.2281257760678,1491.3800000000001,1495.0,1335.1944000000001,1500.0
0.9158380031585693,159,72.1645,5048.2281257760678,1491.1199999999999,1495.0,1335.20192,1499.9960000000001
0.9382321834564209,159,72.1645,4989.5277987321606,1491.0599999999999,1495.0,1334.88588,1499.9960000000001
0.9608561992645264,158,73.188,4930.8274716882534,1488.5699999999999,1495.0,1330.442,1499.992
0.9834880828857422,159,75.2115,4989.5277987321606,1484.3099999999999,1495.0,1321.8824,1499.9960000000001
1.005873203277588,157,76.235,5048.2281257760678,1480,1495.0,1315.9128800000001,1499.9880000000001
1.0282130241394043,156,78.2585,5048.2281257760678,1480,1495.0,1307.3014800000001,1499.9839999999999
1.0506401062011719,156,79.282,5048.2281257760678,1480,1495.0,1298.4801600000001,1499.9839999999999
1.0732531547546387,155,80.282,5106.928452819976,1480,1495.0,1291.1448,1499.98
1.0956151485443115,156,81.282,5165.6287798638832,1480,1495.0,1288.0672,1499.9839999999999
1.1179580688476562,155,81.282,5165.6287798638832,1480,1495.0,1287.6954000000001,1499.98
1.140282154083252,154,82.2585,5165.6287798638832,1480,1495.0,1289.0514400000002,1499.9760000000001
1.162607192993164,154,82.235,5224.3291069077914,1480,1495.0,1294.50712,1499.9760000000001
1.1849370002746582,154,82.2115,5283.0294339516986,1480,1495.0,1301.4046800000001,1499.9760000000001
1.2072770595550537,153,82.2115,5224.3291069077914,1480,1495.0,1308.3220800000001,1499.972
1.229628086090088,153,83.2115,5224.3291069077914,1480,1495.0,1311.2075199999999,1499.972
1.2519891262054443,153,83.2115,5224.3291069077914,1480,1495.0,1315.2752,1499.972
1.274320125579834,152,85.235,5224.3291069077914,1480,1495.0,1312.5430799999999,1499.9680000000001
1.29665207862854,151,86.282,5224.3291069077914,1480,1495.0,1308.04928,1499.9639999999999
1.3189740180969238,151,87.3055,5224.3291069077914,1480,1495.0,1300.7498399999999,1499.9639999999999
1.3414020538330078,150,87.3055,5224.3291069077914,1480,1495.0,1297.4786000000001,1499.96
1.3638341426849365,150,88.329,5224.3291069077914,1480,1495.0,1290.1772800000001,1499.96
1.3861570358276367,149,89.329,5224.3291069077914,1480,1495.0,1287.16192,1499.9559999999999
1.4085981845855713,149,89.329,5224.3291069077914,1480,1495.0,1288.3101200000001,1499.9559999999999
1.4311280250549316,149,89.3055,5224.3291069077914,1480,1495.0,1292.38616,1499.9559999999999
1.4535372257232666,148,89.3055,5165.6287798638832,1480,1495.0,1295.0740000000001,1499.952
1.4758691787719727,148,89.3055,5106.928452819976,1480,1495.0,1300.6276399999999,1499.952
1.498185157775879,148,89.282,5048.2281257760678,1480,1495.0,1306.2913599999999,1499.952
1.5205152034759521,147,90.2585,5048.2281257760678,1480,1495.0,1307.925,1499.9480000000001
1.5428450107574463,147,90.2585,5048.2281257760678,1480,1495.0,1309.27268,1499.9480000000001
1.565181016921997,146,90.282,4989.5277987321606,1480,1495.0,1310.5583200000001,1499.944
1.587515115737915,147,91.282,4989.5277987321606,1480,1495.0,1307.8402000000001,1499.9480000000001
1.6098301410675049,146,91.3055,4930.8274716882534,1480,1495.0,1304.8342399999999,1499.944
1.6321630477905273,145,92.329,4930.8274716882534,1480,1495.0,1301.8886400000001,1499.9400000000001
1.6544880867004395,146,92.329,4930.8274716882534,1480,1495.0,1300.2031999999999,1499.944
1.6768372058868408,145,92.329,4930.8274716882534,1480,1495.0,1298.58356,1499.9400000000001
1.699186086654663,145,93.329,4989.5277987321606,1480,1495.0,1297.12392,1499.9400000000001
1.7215921878814697,144,93.3055,5048.2281257760678,1480,1495.0,1297.0240800000001,1499.9359999999999
1.7440080642700195,145,92.3055,4989.5277987321606,1480,1495.0,1301.0738000000001,1499.9400000000001
1.7663462162017822,145,92.282,4930.8274716882534,1480,1495.0,1303.9855600000001,1499.9400000000001
1.7886991500854492,143,92.282,4930.8274716882534,1480,1495.0,1306.83716,1499.932
1.8111510276794434,144,92.282,4872.1271446443452,1480,1495.0,1311.1287600000001,1499.9359999999999
1.8345320224761963,143,92.282,4872.1271446443452,1480.95,1495.0,1315.3226,1499.932
1.8588712215423584,143,93.3055,4872.1271446443452,1480,1495.0,1312.6224400000001,1499.932
1.8831171989440918,144,93.3055,4930.8274716882534,1480,1495.0,1311.0846799999999,1499.9359999999999
1.9073941707611084,144,93.329,4930.8274716882534,1483.2,1495.0,1309.48488,1499.9359999999999
1.9319510459899902,144,93.3525,4872.1271446443452,1485.3699999999999,1495.0,1306.4912400000001,1499.9359999999999
1.9568331241607666,144,93.3525,4813.426817600438,1489.77,1495.0,1303.5577599999999,1499.9359999999999
1.9813661575317383,144,93.3525,4813.426817600438,1496.3399999999999,1495.0,1304.8500799999999,1499.9359999999999
2.005911111831665,144,93.3525,4813.426817600438,1498.51,1495.0,1306.17436,1499.9359999999999
2.0302600860595703,144,93.329,4813.426817600438,1496.3399999999999,1495.0,1307.6264799999999,1499.9359999999999
2.054957151412964,144,93.329,4813.426817600438,1496.3399999999999,1495.0,1309.1161999999999,1499.9359999999999
2.0795280933380127,142,93.329,4872.1271446443452,1489.3099999999999,1495.0,1310.60592,1499.9280000000001
2.103888988494873,144,93.329,4872.1271446443452,1487.54,1495.0,1310.7036800000001,1499.9359999999999
2.1281590461730957,143,93.329,4872.1271446443452,1485.1099999999999,1495.0,1310.8014400000002,1499.932
2.1525371074676514,144,93.3525,4930.8274716882534,1485.3099999999999,1495.0,1310.7393999999999,1499.9359999999999
2.1769351959228516,144,93.3525,4930.8274716882534,1485.3099999999999,1495.0,1310.6736000000001,1499.9359999999999
2.201482057571411,144,93.3525,4930.8274716882534,1494.1099999999999,1495.0,1310.6078,1499.9359999999999
2.2260801792144775,145,93.3525,4989.5277987321606,1496.54,1495.0,1310.5419999999999,1499.9400000000001
2.2508671283721924,145,93.376,5048.2281257760678,1503.1700000000001,1495.0,1310.4141599999998,1499.9400000000001
2.2758121490478516,144,93.3525,5106.928452819976,1502.97,1495.0,1310.47432,1499.9359999999999
2.3004910945892334,145,92.3525,5106.928452819976,1505.4000000000001,1495.0,1313.1462799999999,1499.9400000000001
2.3252830505371094,145,92.3525,5106.928452819976,1503.29,1495.0,1314.61824,1499.9400000000001
2.3499341011047363,144,92.329,5106.928452819976,1498.6900000000001,1495.0,1316.1522399999999,1499.9359999999999
2.3745720386505127,146,91.329,5048.2281257760678,1496.98,1495.0,1320.36384,1499.944
2.399212121963501,145,91.329,5048.2281257760678,1499.01,1495.0,1323.2776800000001,1499.9400000000001
2.423861026763916,146,91.3055,5106.928452819976,1499.27,1495.0,1323.4535600000002,1499.944
2.4485301971435547,146,89.282,5106.928452819976,1499.3299999999999,1495.0,1328.9432800000002,1499.944
2.4731810092926025,148,88.235,5048.2281257760678,1510.8199999999999,1495.0,1334.70308,1499.952
2.4978229999542236,148,88.235,5048.2281257760678,1513.1099999999999,1495.0,1336.3745200000001,1499.952
2.522555112838745,147,88.235,5048.2281257760678,1515.2,1495.0,1338.0779199999999,1499.9480000000001
2.547243118286133,148,88.282,5106.928452819976,1517.6900000000001,1495.0,1340.95144,1499.952
2.572052001953125,148,88.3055,5048.2281257760678,1519.98,1495.0,1338.1535200000001,1499.952
2.596832036972046,148,88.329,4989.5277987321606,1511.3,1495.0,1332.4221199999999,1499.952
2.621628999710083,150,89.376,5048.2281257760678,1511.8199999999999,1495.0,1325.31484,1499.96
2.6464271545410156,149,89.3995,5048.2281257760678,1511.74,1495.0,1319.40192,1499.9559999999999
2.671243190765381,151,88.376,4989.5277987321606,1514.49,1495.0,1316.3828000000001,1499.9639999999999
2.696078062057495,149,87.3525,4989.5277987321606,1511.98,1495.0,1317.6552799999999,1499.9559999999999
2.7207281589508057,149,86.329,4989.5277987321606,1514.21,1495.0,1321.89132,1499.9559999999999
2.74556303024292,150,85.282,4930.8274716882534,1510.0699999999999,1495.0,1330.59484,1499.96
2.770212173461914,150,84.235,4872.1271446443452,1507.96,1495.0,1340.87184,1499.96
2.7950990200042725,150,83.2115,4813.426817600438,1499.22,1495.0,1349.6647600000001,1499.96
2.81974720954895,150,81.1645,4813.426817600438,1499.28,1495.0,1350,1499.96
2.8443140983581543,149,81.1645,4813.426817600438,1496.9100000000001,1495.0,1350,1499.9559999999999
2.8688621520996094,149,81.188,4754.7264905565298,1494.6800000000001,1495.0,1350,1499.9559999999999
2.893416166305542,151,81.235,4754.7264905565298,1495.1400000000001,1495.0,1350,1499.9639999999999
2.917992115020752,151,81.2585,4754.7264905565298,1499.54,1495.0,1350,1499.9639999999999
2.942589044570923,150,81.282,4754.7264905565298,1497.1700000000001,1495.0,1349.1392000000001,1499.96
2.967670202255249,152,81.3055,4813.426817600438,1504.26,1495.0,1341.8842400000001,1499.9680000000001
2.992436170578003,152,80.3055,4813.426817600438,1513.1199999999999,1495.0,1338.7872,1499.9680000000001
3.0171260833740234,153,80.282,4872.1271446443452,1515.6099999999999,1495.0,1336.10772,1499.972
3.0418481826782227,151,79.2585,4872.1271446443452,1513.04,1495.0,1337.5598400000001,1499.9639999999999
3.066575050354004,151,78.2585,4872.1271446443452,1515.27,1495.0,1343.2734800000001,1499.9639999999999
3.0912652015686035,153,78.235,4930.8274716882534,1511.3900000000001,1495.0,1347.9149600000001,1499.972
3.115974187850952,153,78.235,4989.5277987321606,1507.1099999999999,1495.0,1349.6962800000001,1499.972
3.140625,153,77.235,4930.8274716882534,1502.77,1495.0,1350,1499.972
3.165302038192749,153,77.2115,4930.8274716882534,1507.23,1495.0,1350,1499.972
3.1898670196533203,151,77.2115,4989.5277987321606,1504.6600000000001,1495.0,1350,1499.9639999999999
3.2145299911499023,153,76.2115,4930.8274716882534,1502.8900000000001,1495.0,1350,1499.972
3.2388391494750977,153,76.188,4930.8274716882534,1500.72,1495.0,1350,1499.972
3.263115167617798,153,76.188,4930.8274716882534,1500.72,1495.0,1349.1012000000001,1499.972
3.287452220916748,153,76.188,4989.5277987321606,1496.3800000000001,1495.0,1347.7911200000001,1499.972
3.311885118484497,152,75.188,4989.5277987321606,1498.4100000000001,1495.0,1350,1499.9680000000001
3.3362810611724854,152,75.1645,4930.8274716882534,1496.1800000000001,1495.0,1349.26496,1499.9680000000001
3.3606410026550293,150,75.1645,4930.8274716882534,1489.0899999999999,1495.0,1347.95488,1499.96
3.3851521015167236,150,75.1645,4989.5277987321606,1482.4000000000001,1495.0,1348.0047999999999,1499.96
3.4094982147216797,151,75.1645,4989.5277987321606,1480,1495.0,1348.0866799999999,1499.9639999999999
3.4337542057037354,151,75.188,4930.8274716882534,1480,1495.0,1345.3065199999999,1499.9639999999999
3.4580070972442627,151,76.188,4989.5277987321606,1480,1495.0,1341.20876,1499.9639999999999
3.48232102394104,151,76.2115,5048.2281257760678,1482.4200000000001,1495.0,1338.2809199999999,1499.9639999999999
3.5067050457000732,151,76.2115,5048.2281257760678,1491.1600000000001,1495.0,1335.3812800000001,1499.9639999999999
3.5311200618743896,151,76.2115,5048.2281257760678,1495.5,1495.0,1332.48164,1499.9639999999999
3.5555620193481445,151,76.188,5106.928452819976,1497.6700000000001,1495.0,1331.0698399999999,1499.9639999999999
3.5799291133880615,150,76.188,5106.928452819976,1497.4100000000001,1495.0,1332.4618,1499.96
3.6042540073394775,150,76.188,5048.2281257760678,1493.01,1495.0,1333.91956,1499.96
3.6285970211029053,149,76.2115,4989.5277987321606,1486.1800000000001,1495.0,1335.31528,1499.9559999999999
3.6529481410980225,149,77.2115,5048.2281257760678,1481.72,1495.0,1334.0991999999999,1499.9559999999999
3.677281141281128,148,77.235,5048.2281257760678,1480,1495.0,1333.9233200000001,1499.952
3.7016119956970215,147,78.235,4989.5277987321606,1480,1495.0,1329.7756400000001,1499.9480000000001
3.7259809970855713,147,78.235,4930.8274716882534,1480,1495.0,1326.796,1499.9480000000001
3.7502431869506836,147,78.2115,4872.1271446443452,1480,1495.0,1323.9441999999999,1499.9480000000001
3.7744791507720947,146,78.188,4872.1271446443452,1480,1495.0,1323.92624,1499.944
3.7987160682678223,146,77.1645,4813.426817600438,1480,1495.0,1326.6798799999999,1499.944
3.8229939937591553,146,78.188,4766.4665559653122,1480,1495.0,1328.3032799999999,1499.944
3.8472800254821777,145,79.2115,4766.4665559653122,1480,1495.0,1328.4528399999999,1499.9400000000001
3.871591091156006,145,79.235,4766.4665559653122,1480,1495.0,1329.6708000000001,1499.9400000000001
3.8959221839904785,144,80.235,4707.766228921404,1480,1495.0,1326.8511600000002,1499.9359999999999
3.920201063156128,144,80.235,4707.766228921404,1480,1495.0,1322.3337600000002,1499.9359999999999
3.944500207901001,144,80.235,4707.766228921404,1480,1495.0,1319.3221600000002,1499.9359999999999
3.9687340259552,143,80.188,4707.766228921404,1480,1495.0,1319.30044,1499.932
3.9932570457458496,143,80.1645,4660.8059672862782,1480,1495.0,1319.38212,1499.932
4.017528057098389,143,80.1645,4555.1453786072443,1480,1495.0,1322.26756,1499.932
4.041810989379883,143,80.1645,4508.1851169721176,1480,1495.0,1326.5449599999999,1499.932
4.066140174865723,143,80.188,4555.1453786072434,1480,1495.0,1329.3683599999999,1499.932
4.0904130935668945,143,81.2115,4508.1851169721176,1480.6500000000001,1495.0,1327.9943599999999,1499.932
4.114906072616577,143,82.235,4461.2248553369918,1484.99,1495.0,1325.0487599999999,1499.932
4.139242172241211,143,82.2585,4461.2248553369918,1487.1600000000001,1495.0,1321.90932,1499.932
4.163572072982788,143,83.3055,4461.2248553369918,1489.3299999999999,1495.0,1316.0340000000001,1499.932
4.187920093536377,143,84.3055,4414.264593701866,1491.5,1495.0,1308.84088,1499.932
4.212379217147827,143,84.3055,4367.3043320667402,1491.5,1495.0,1305.77748,1499.932
4.236867189407349,144,84.3055,4414.264593701866,1493.9300000000001,1495.0,1305.61184,1499.9359999999999
4.26126503944397,144,84.282,4461.2248553369918,1496.1600000000001,1495.0,1305.57404,1499.9359999999999
4.2856831550598145,144,84.2585,4508.1851169721176,1498.3900000000001,1495.0,1308.5016800000001,1499.9359999999999
4.310010194778442,145,84.2585,4508.1851169721176,1503.05,1495.0,1314.1691599999999,1499.9400000000001
4.334381103515625,145,84.2585,4555.1453786072434,1507.51,1495.0,1318.4446800000001,1499.9400000000001
4.358750104904175,145,85.2585,4555.1453786072434,1507.5699999999999,1495.0,1318.68824,1499.9400000000001
4.383068084716797,145,85.282,4555.1453786072434,1507.6300000000001,1495.0,1319.972,1499.9400000000001
4.407381057739258,145,85.282,4555.1453786072434,1507.6900000000001,1495.0,1319.7942399999999,1499.9400000000001
4.431774139404297,145,86.3055,4555.1453786072434,1503.3499999999999,1495.0,1315.5544400000001,1499.9400000000001
4.456204175949097,146,86.329,4602.1056402423692,1501.4400000000001,1495.0,1312.4808,1499.944
4.480530023574829,146,87.329,4555.1453786072434,1501.5,1495.0,1309.59536,1499.944
4.505021095275879,146,87.329,4555.1453786072434,1501.5599999999999,1495.0,1308.0076799999999,1499.944
4.529362201690674,146,87.329,4555.1453786072434,1501.6199999999999,1495.0,1306.4519600000001,1499.944
4.553699016571045,146,87.329,4555.1453786072434,1503.8499999999999,1495.0,1307.7620400000001,1499.944
4.578021049499512,146,87.3525,4555.1453786072434,1501.6800000000001,1495.0,1309.0758800000001,1499.944
4.602426052093506,146,88.3525,4555.1453786072434,1499.51,1495.0,1309.21792,1499.944
4.626829147338867,147,88.376,4555.1453786072434,1499.77,1495.0,1310.46596,1499.9480000000001
4.651240110397339,147,89.376,4508.1851169721176,1499.8299999999999,1495.0,1309.1022,1499.9480000000001
4.675668001174927,148,89.3995,4508.1851169721176,1502.3199999999999,1495.0,1307.4844399999999,1499.952
4.700001001358032,148,89.3995,4508.1851169721176,1506.78,1495.0,1305.9287199999999,1499.952
4.724342107772827,148,89.423,4555.1453786072434,1511.24,1495.0,1305.7509599999998,1499.952
4.7487030029296875,148,89.423,4555.1453786072434,1511.3,1495.0,1305.6672000000001,1499.952
4.77304220199585,148,89.4465,4555.1453786072434,1511.3599999999999,1495.0,1308.3214,1499.952
4.79737401008606,148,89.423,4555.1453786072434,1507.02,1495.0,1311.1316400000001,1499.952
4.821760177612305,149,88.3995,4555.1453786072434,1505.1099999999999,1495.0,1316.58376,1499.9559999999999
4.846204996109009,149,88.376,4555.1453786072434,1503.0,1495.0,1319.5755200000001,1499.9559999999999
4.870524168014526,149,87.3525,4555.1453786072434,1503.0599999999999,1495.0,1325.2091599999999,1499.9559999999999
4.895040035247803,148,87.3525,4555.1453786072434,1500.6900000000001,1495.0,1328.3204000000001,1499.952
4.919432163238525,148,87.3525,4555.1453786072434,1500.6900000000001,1495.0,1331.3338799999999,1499.952
4.943825006484985,148,87.3525,4508.1851169721176,1496.29,1495.0,1331.4815599999999,1499.952
4.968151092529297,149,87.376,4461.2248553369918,1494.3199999999999,1495.0,1331.4694400000001,1499.9559999999999
4.992789030075073,149,87.376,4414.264593701866,1492.1500000000001,1495.0,1328.6197199999999,1499.9559999999999
5.017147064208984,149,86.3995,4414.264593701866,1494.3800000000001,1495.0,1328.316,1499.9559999999999
5.041551113128662,148,86.3995,4367.3043320667402,1494.1800000000001,1495.0,1326.8724400000001,1499.952
5.065983057022095,149,86.3995,4320.3440704316145,1498.78,1495.0,1326.8208400000001,1499.9559999999999
5.090315103530884,149,85.376,4367.3043320667402,1498.78,1495.0,1329.5690400000001,1499.9559999999999
5.114782094955444,149,85.3525,4320.3440704316145,1498.78,1495.0,1332.54304,1499.9559999999999
5.1391520500183105,149,84.3525,4320.3440704316145,1496.6099999999999,1495.0,1335.39464,1499.9559999999999
5.163475036621094,149,83.3055,4320.3440704316145,1498.8399999999999,1495.0,1339.81032,1499.9559999999999
5.18778920173645,149,82.282,4367.3043320667402,1496.6700000000001,1495.0,1345.67164,1499.9559999999999
5.212241172790527,148,82.282,4367.3043320667402,1494.24,1495.0,1347.4069999999999,1499.952
5.236744165420532,149,82.282,4367.3043320667402,1494.4400000000001,1495.0,1349.07656,1499.9559999999999
5.261167049407959,149,82.3055,4320.3440704316145,1494.4400000000001,1495.0,1349.2121200000001,1499.9559999999999
5.285628080368042,148,82.3055,4320.3440704316145,1489.8399999999999,1495.0,1346.4442800000002,1499.952
5.309959173202515,148,82.329,4320.3440704316145,1487.6099999999999,1495.0,1340.7486000000001,1499.952
5.334342002868652,148,82.329,4273.3838087964887,1489.78,1495.0,1336.47308,1499.952
5.358717203140259,147,82.329,4273.3838087964887,1485.1199999999999,1495.0,1332.2295200000001,1499.9480000000001
5.383074998855591,147,81.329,4320.3440704316145,1480.6600000000001,1495.0,1332.0517600000001,1499.9480000000001
5.407389163970947,147,81.3055,4320.3440704316145,1480.5999999999999,1495.0,1332.15996,1499.9480000000001
5.431793212890625,147,80.3055,4320.3440704316145,1480.54,1495.0,1336.33772,1499.9480000000001
5.456202030181885,147,80.282,4367.3043320667402,1480,1495.0,1339.37752,1499.9480000000001
5.480439186096191,147,80.282,4367.3043320667402,1482.6500000000001,1495.0,1342.38912,1499.9480000000001
5.5048980712890625,147,80.282,4367.3043320667402,1486.99,1495.0,1342.5687599999999,1499.9480000000001
5.529235124588013,148,79.282,4414.264593701866,1491.5899999999999,1495.0,1345.3226,1499.952
5.553591012954712,148,79.282,4461.2248553369918,1495.99,1495.0,1344.04448,1499.952
5.577916145324707,148,80.3055,4461.2248553369918,1500.3900000000001,1495.0,1339.9985200000001,1499.952
5.6023101806640625,149,80.329,4461.2248553369918,1505.05,1495.0,1337.1187199999999,1499.9559999999999
5.626735210418701,149,80.376,4414.264593701866,1509.51,1495.0,1335.5030400000001,1499.9559999999999
5.6511571407318115,149,81.3995,4414.264593701866,1509.5699999999999,1495.0,1328.4736800000001,1499.9559999999999
5.675610065460205,150,81.423,4367.3043320667402,1512.0599999999999,1495.0,1323.97048,1499.96
5.699947118759155,150,81.423,4320.3440704316145,1514.3499999999999,1495.0,1322.3932399999999,1499.96
5.724297046661377,150,81.423,4320.3440704316145,1512.24,1495.0,1320.8817999999999,1499.96
5.748624086380005,150,81.3995,4320.3440704316145,1510.1300000000001,1495.0,1319.5640000000001,1499.96
5.772983074188232,151,80.3995,4320.3440704316145,1512.6199999999999,1495.0,1325.0837999999999,1499.9639999999999
5.797344207763672,151,81.423,4273.3838087964887,1510.51,1495.0,1326.7673600000001,1499.9639999999999
5.821745157241821,152,81.423,4273.3838087964887,1510.8299999999999,1495.0,1328.2871600000001,1499.9680000000001
5.846189022064209,152,81.4465,4273.3838087964887,1513.1199999999999,1495.0,1329.7129600000001,1499.9680000000001
5.8705360889434814,152,81.4465,4273.3838087964887,1515.4100000000001,1495.0,1331.0372399999999,1499.9680000000001
5.895021200180054,153,81.423,4273.3838087964887,1515.73,1495.0,1328.2316000000001,1499.972
5.919403076171875,153,81.3995,4273.3838087964887,1518.02,1495.0,1328.2936399999999,1499.972
5.94382905960083,154,80.3995,4273.3838087964887,1518.3399999999999,1495.0,1330.96748,1499.9760000000001
5.968502044677734,154,80.376,4273.3838087964887,1518.46,1495.0,1332.56916,1499.9760000000001
5.992850065231323,154,80.376,4273.3838087964887,1518.5799999999999,1495.0,1334.1746000000001,1499.9760000000001
6.0171990394592285,155,79.376,4188.001514914441,1518.9000000000001,1495.0,1339.71424,1499.98
6.041617155075073,155,79.376,4149.5794826675201,1519.02,1495.0,1342.5961199999999,1499.98
6.066076040267944,155,79.3995,4111.1574504205983,1516.9100000000001,1495.0,1342.6159599999999,1499.98
6.090440034866333,155,79.3995,4072.7354181736773,1514.8,1495.0,1342.5662400000001,1499.98
6.1149210929870605,156,79.3995,4034.3133859267559,1515.1199999999999,1495.0,1342.5165199999999,1499.9839999999999
6.139277219772339,156,79.3995,3995.8913536798345,1513.01,1495.0,1339.69876,1499.9839999999999
6.163638114929199,156,79.3995,3957.4693214329136,1510.9000000000001,1495.0,1336.9129599999999,1499.9839999999999
6.187991142272949,157,78.376,3919.0472891859922,1513.3900000000001,1495.0,1338.2550000000001,1499.9880000000001
6.212468147277832,158,78.3525,3880.6252569390708,1518.1099999999999,1495.0,1338.4628400000001,1499.992
6.237001180648804,157,78.329,3880.6252569390708,1515.8,1495.0,1338.70452,1499.9880000000001
6.261421203613281,158,78.329,3919.0472891859922,1518.29,1495.0,1340.278,1499.992
6.285835027694702,158,77.3055,3919.0472891859922,1520,1495.0,1344.5535200000002,1499.992
6.310105085372925,158,77.3055,3919.0472891859922,1518.47,1495.0,1344.70308,1499.992
6.334479093551636,157,77.3055,3919.0472891859922,1509.53,1495.0,1344.78684,1499.9880000000001
6.358830213546753,157,77.3055,3957.4693214329136,1507.3599999999999,1495.0,1344.8048000000001,1499.9880000000001
6.383166074752808,157,77.329,3995.8913536798345,1500.79,1495.0,1344.76072,1499.9880000000001
6.40749716758728,156,77.329,4034.3133859267559,1491.79,1495.0,1341.87904,1499.9839999999999
6.431910037994385,156,77.3525,4034.3133859267559,1485.1600000000001,1495.0,1340.32728,1499.9839999999999
6.456358194351196,155,77.376,4034.3133859267559,1482.6700000000001,1495.0,1338.7736399999999,1499.98
6.480707168579102,155,77.376,3995.8913536798345,1480,1495.0,1337.28016,1499.98
6.505101203918457,155,77.376,3957.4693214329136,1480,1495.0,1335.85248,1499.98
6.529361009597778,154,76.3525,3957.4693214329136,1480,1495.0,1338.5187999999998,1499.9760000000001
6.55363917350769,154,76.3055,3957.4693214329136,1480,1495.0,1340.1468,1499.9760000000001
6.577899217605591,153,75.2585,3995.8913536798345,1480,1495.0,1344.54828,1499.972
6.602208137512207,153,74.235,3957.4693214329136,1480,1495.0,1350,1499.972
6.626428127288818,153,74.235,3919.0472891859922,1480,1495.0,1350,1499.972
6.6505961418151855,152,74.2585,3880.6252569390708,1480,1495.0,1350,1499.9680000000001
6.67487907409668,152,75.282,3919.0472891859922,1480,1495.0,1350,1499.9680000000001
6.699057102203369,152,75.282,3957.4693214329136,1480,1495.0,1350,1499.9680000000001
6.723229169845581,151,75.2585,3995.8913536798345,1480,1495.0,1346.8321599999999,1499.9639999999999
6.747493028640747,151,74.235,3995.8913536798345,1480,1495.0,1343.7885999999999,1499.9639999999999
6.771789073944092,150,74.2115,4034.3133859267559,1480,1495.0,1341.03664,1499.96
6.796110153198242,150,73.1645,4034.3133859267559,1480,1495.0,1343.95028,1499.96
6.8203630447387695,150,73.1645,4034.3133859267559,1480,1495.0,1347.03144,1499.96
6.844773054122925,150,73.141,4072.7354181736773,1480,1495.0,1350,1499.96
6.868929147720337,149,73.141,4111.1574504205983,1480,1495.0,1350,1499.9559999999999
6.893079996109009,148,73.1645,4111.1574504205983,1480,1495.0,1350,1499.952
6.917271137237549,148,74.1645,4111.1574504205983,1480,1495.0,1348.97192,1499.952
6.941630125045776,148,74.188,4072.7354181736773,1480,1495.0,1344.5900799999999,1499.952
6.9660069942474365,148,75.235,4072.7354181736773,1480,1495.0,1337.4385199999999,1499.952
6.990276098251343,148,76.2585,4072.7354181736773,1480,1495.0,1330.2332799999999,1499.952
7.014561176300049,147,77.2585,4072.7354181736773,1480,1495.0,1321.7140000000002,1499.9480000000001
7.0388360023498535,147,77.2585,4072.7354181736773,1480,1495.0,1318.6186400000001,1499.9480000000001
7.063398122787476,147,77.235,4034.3133859267559,1480.5999999999999,1495.0,1315.65112,1499.9480000000001
7.087764024734497,147,77.2115,4034.3133859267559,1482.71,1495.0,1315.681,1499.9480000000001
7.112279176712036,147,77.188,4034.3133859267559,1482.6500000000001,1495.0,1318.61052,1499.9480000000001
7.136818170547485,147,76.1645,4034.3133859267559,1484.8199999999999,1495.0,1326.9819199999999,1499.9480000000001
7.161239147186279,147,76.141,3995.8913536798345,1486.99,1495.0,1332.82716,1499.9480000000001
7.185672044754028,148,76.1175,3995.8913536798345,1491.5899999999999,1495.0,1338.6084799999999,1499.952
7.210024118423462,148,75.0705,3957.4693214329136,1495.99,1495.0,1345.6359600000001,1499.952
7.234366178512573,148,75.0705,3957.4693214329136,1500.3900000000001,1495.0,1349.94928,1499.952
7.258727073669434,148,75.0705,3919.0472891859922,1502.6199999999999,1495.0,1350,1499.952
7.282973051071167,148,76.1175,3957.4693214329136,1504.8499999999999,1495.0,1347.2944399999999,1499.952
7.307337999343872,148,76.141,3957.4693214329136,1502.6800000000001,1495.0,1345.7126000000001,1499.952
7.331776142120361,148,77.2115,3919.0472891859922,1500.51,1495.0,1338.4331999999999,1499.952
7.356245040893555,148,78.235,3880.6252569390708,1498.3399999999999,1495.0,1329.7683199999999,1499.952
7.380590200424194,148,79.2585,3880.6252569390708,1496.1700000000001,1495.0,1321.0215599999999,1499.952
7.405081033706665,148,80.282,3919.0472891859922,1494.0,1495.0,1313.7645199999999,1499.952
7.429409027099609,148,80.2585,3957.4693214329136,1494.0,1495.0,1307.8954799999999,1499.952
7.453737020492554,149,79.235,3957.4693214329136,1496.4300000000001,1495.0,1309.1215999999999,1499.9559999999999
7.478068113327026,149,78.141,3957.4693214329136,1498.6600000000001,1495.0,1314.87348,1499.9559999999999
7.5024120807647705,149,77.094,3957.4693214329136,1500.8900000000001,1495.0,1324.94244,1499.9559999999999
7.52677321434021,149,76.0705,3919.0472891859922,1503.1199999999999,1495.0,1337.8989200000001,1499.9559999999999
7.551184177398682,150,76.047,3919.0472891859922,1507.78,1495.0,1349.59148,1499.96
7.575591087341309,150,76.047,3957.4693214329136,1507.8399999999999,1495.0,1350,1499.96
7.599847078323364,150,76.0705,3957.4693214329136,1507.9000000000001,1495.0,1350,1499.96
7.624093055725098,150,76.094,3957.4693214329136,1507.96,1495.0,1350,1499.96
7.648343086242676,150,78.1175,3919.0472891859922,1508.02,1495.0,1347.1242,1499.96
7.672667026519775,149,78.1645,3880.6252569390708,1501.25,1495.0,1338.29096,1499.9559999999999
7.696973085403442,150,78.1645,3880.6252569390708,1499.28,1495.0,1330.90608,1499.96
7.7214131355285645,150,79.188,3880.6252569390708,1497.1099999999999,1495.0,1322.3727999999999,1499.96
7.7459142208099365,150,79.2115,3880.6252569390708,1494.9400000000001,1495.0,1316.4954,1499.96
7.77033805847168,150,80.235,3880.6252569390708,1492.77,1495.0,1315.0019199999999,1499.96
7.795054197311401,150,80.2585,3880.6252569390708,1497.1700000000001,1495.0,1314.83816,1499.96
7.819507122039795,150,80.235,3842.2032246921494,1497.1700000000001,1495.0,1314.7646399999999,1499.96
7.8438920974731445,150,80.2115,3842.2032246921494,1497.1700000000001,1495.0,1317.5588,1499.96
7.868236064910889,150,80.188,3842.2032246921494,1497.1700000000001,1495.0,1320.42064,1499.96
7.892569065093994,150,79.141,3842.2032246921494,1497.1700000000001,1495.0,1326.1322,1499.96
7.916930198669434,151,78.1175,3842.2032246921494,1497.4300000000001,1495.0,1333.2912799999999,1499.9639999999999
7.941392183303833,151,77.1175,3842.2032246921494,1499.6600000000001,1495.0,1341.79636,1499.9639999999999
7.96586799621582,151,78.141,3842.2032246921494,1501.8900000000001,1495.0,1344.94164,1499.9639999999999
7.990225076675415,151,78.188,3842.2032246921494,1504.1199999999999,1495.0,1349.09328,1499.9639999999999
8.014594078063965,151,79.2585,3842.2032246921494,1506.3499999999999,1495.0,1346.1516399999998,1499.9639999999999
8.038989067077637,150,80.3055,3842.2032246921494,1501.75,1495.0,1338.83276,1499.96
8.063322067260742,150,81.376,3842.2032246921494,1497.3499999999999,1495.0,1327.1761200000001,1499.96
8.088228225708008,150,81.3995,3842.2032246921494,1492.95,1495.0,1319.6397999999999,1499.96
8.112668991088867,149,81.3995,3842.2032246921494,1486.1199999999999,1495.0,1312.2952399999999,1499.9559999999999
8.13703203201294,149,81.376,3810.1848644863812,1480,1495.0,1309.4340400000001,1499.9559999999999
8.161339044570923,148,80.329,3778.1665042806135,1480,1495.0,1313.63228,1499.952
8.185667037963867,148,79.329,3778.1665042806135,1480,1495.0,1323.57152,1499.952
8.209918022155762,148,79.3055,3746.1481440748453,1480,1495.0,1331.04664,1499.952
8.234166145324707,148,78.329,3746.1481440748453,1480,1495.0,1341.0076000000001,1499.952
8.258571147918701,148,78.3055,3746.1481440748453,1480,1495.0,1348.3371200000001,1499.952
8.283030033111572,148,78.3055,3714.1297838690771,1480.98,1495.0,1350,1499.952
8.307343006134033,148,78.329,3682.1114236633089,1485.3199999999999,1495.0,1349.9108000000001,1499.952
8.331786155700684,148,78.3525,3650.0930634575407,1489.6600000000001,1495.0,1348.40708,1499.952
8.356255054473877,148,78.3525,3618.0747032517729,1491.8299999999999,1495.0,1344.1973600000001,1499.952
8.380593061447144,148,78.376,3618.0747032517729,1494.0,1495.0,1339.89176,1499.952
8.405073165893555,148,78.376,3618.0747032517729,1494.0,1495.0,1337.03828,1499.952
8.429444074630737,148,78.3995,3618.0747032517729,1494.0,1495.0,1335.54856,1499.952
8.453816175460815,148,78.3995,3650.0930634575407,1494.0,1495.0,1334.1848,1499.952
8.47815203666687,148,78.3995,3650.0930634575407,1494.0,1495.0,1334.1490799999999,1499.952
8.502477169036865,148,79.423,3618.0747032517729,1494.0,1495.0,1331.50908,1499.952
8.526809215545654,148,79.4465,3618.0747032517729,1494.0,1495.0,1330.0352400000002,1499.952
8.551245212554932,148,80.47,3618.0747032517729,1494.0,1495.0,1325.9214000000002,1499.952
8.575645208358765,149,80.47,3618.0747032517729,1496.4300000000001,1495.0,1323.0038000000002,1499.9559999999999
8.599902153015137,148,79.47,3650.0930634575407,1496.23,1495.0,1322.7262000000001,1499.952
8.624197006225586,149,79.376,3650.0930634575407,1498.6600000000001,1495.0,1324.3306,1499.9559999999999
8.648551225662231,149,77.3055,3682.1114236633089,1500.8900000000001,1495.0,1331.35412,1499.9559999999999
8.672911167144775,150,76.235,3650.0930634575407,1505.55,1495.0,1341.5529999999999,1499.96
8.697273015975952,151,74.188,3618.0747032517729,1508.04,1495.0,1350,1499.9639999999999
8.721657037734985,151,73.188,3618.0747032517729,1514.73,1495.0,1350,1499.9639999999999
8.746072053909302,152,74.2115,3618.0747032517729,1519.45,1495.0,1350,1499.9680000000001
8.770308017730713,151,74.3055,3618.0747032517729,1520,1495.0,1350,1499.9639999999999
8.79447603225708,152,75.3525,3618.0747032517729,1520,1495.0,1350,1499.9680000000001
8.818666219711304,152,77.3995,3618.0747032517729,1519.75,1495.0,1350,1499.9680000000001
8.842931032180786,153,77.423,3586.0563430460047,1517.9000000000001,1495.0,1338.97372,1499.972
8.867268085479736,153,77.423,3586.0563430460047,1513.6199999999999,1495.0,1327.3254400000001,1499.972
8.891658067703247,154,76.376,3554.0379828402365,1516.1700000000001,1495.0,1321.5203199999999,1499.9760000000001
8.91610312461853,153,75.3525,3554.0379828402365,1513.8599999999999,1495.0,1321.5483199999999,1499.972
8.940493106842041,153,75.3525,3554.0379828402365,1513.9200000000001,1495.0,1328.86364,1499.972
8.96500301361084,153,74.3525,3494.9271639988192,1509.5799999999999,1495.0,1340.24476,1499.972
8.989365100860596,154,75.376,3494.9271639988192,1509.8399999999999,1495.0,1346.33188,1499.9760000000001
9.013718128204346,154,75.423,3494.9271639988192,1503.3299999999999,1495.0,1350,1499.9760000000001
9.037986993789673,154,75.4465,3467.8347053631687,1503.3900000000001,1495.0,1350,1499.9760000000001
9.062324047088623,154,75.4465,3440.7422467275187,1503.45,1495.0,1347.38084,1499.9760000000001
9.086747169494629,155,76.47,3440.7422467275187,1508.1099999999999,1495.0,1338.9275600000001,1499.98
9.111216068267822,154,75.47,3413.6497880918687,1505.74,1495.0,1337.2082800000001,1499.9760000000001
9.136053085327148,155,75.4465,3386.5573294562187,1508.1700000000001,1495.0,1335.9065599999999,1499.98
9.160426139831543,156,75.423,3386.5573294562187,1510.6600000000001,1495.0,1336.09644,1499.9839999999999
9.18489408493042,155,74.423,3359.4648708205686,1510.52,1495.0,1338.8981200000001,1499.98
9.209246158599854,156,74.423,3359.4648708205686,1508.6099999999999,1495.0,1344.7256,1499.9839999999999
9.233630180358887,155,74.423,3332.3724121849182,1510.6400000000001,1495.0,1346.36112,1499.98
9.258004188537598,155,75.423,3332.3724121849182,1508.47,1495.0,1345.2269200000001,1499.98
9.282397031784058,156,75.423,3332.3724121849182,1504.3299999999999,1495.0,1345.19496,1499.9839999999999
9.306804180145264,156,75.423,3332.3724121849182,1504.3900000000001,1495.0,1342.3630000000001,1499.9839999999999
9.331232070922852,156,75.423,3305.2799535492682,1502.22,1495.0,1338.1390799999999,1499.9839999999999
9.355692148208618,155,75.423,3305.2799535492682,1499.8499999999999,1495.0,1335.2751599999999,1499.98
9.38002610206604,155,75.3995,3305.2799535492682,1499.8499999999999,1495.0,1335.3052399999999,1499.98
9.4043550491333,154,75.3995,3278.1874949136181,1495.1900000000001,1495.0,1335.33908,1499.9760000000001
9.42869520187378,155,75.3995,3278.1874949136181,1490.99,1495.0,1336.7329199999999,1499.98
9.453059196472168,156,75.3995,3278.1874949136181,1491.1900000000001,1495.0,1338.1267599999999,1499.9839999999999
9.4774169921875,156,75.376,3278.1874949136181,1493.4200000000001,1495.0,1339.5826400000001,1499.9839999999999
9.501821041107178,156,74.3525,3251.0950362779686,1495.6500000000001,1495.0,1342.28656,1499.9839999999999
9.526250123977661,156,74.3055,3278.1874949136181,1504.45,1495.0,1343.88636,1499.9839999999999
9.550587177276611,157,73.235,3278.1874949136181,1511.28,1495.0,1348.2558799999999,1499.9880000000001
9.575071096420288,157,72.2115,3278.1874949136181,1513.51,1495.0,1350,1499.9880000000001
9.59937310218811,158,72.2115,3278.1874949136181,1516.0,1495.0,1350,1499.992
9.623617172241211,158,72.235,3278.1874949136181,1518.29,1495.0,1350,1499.992
9.647871017456055,158,73.282,3278.1874949136181,1518.4100000000001,1495.0,1350,1499.992
9.672187089920044,157,74.329,3278.1874949136181,1513.8699999999999,1495.0,1350,1499.9880000000001
9.696516990661621,157,75.376,3254.9653875116328,1511.7,1495.0,1342.93804,1499.9880000000001
9.720872163772583,157,75.376,3254.9653875116328,1505.1300000000001,1495.0,1334.07744,1499.9880000000001
9.745471000671387,156,76.376,3231.7432801096475,1496.1300000000001,1495.0,1324.0346,1499.9839999999999
9.769836187362671,156,75.329,3204.6508214739979,1487.3299999999999,1495.0,1320.95136,1499.9839999999999
9.794174194335938,156,75.3055,3204.6508214739979,1485.0999999999999,1495.0,1321.06124,1499.9839999999999
9.818541049957275,156,75.3055,3181.4287140720126,1482.8699999999999,1495.0,1325.46648,1499.9839999999999
9.842939138412476,155,75.282,3158.2066066700272,1480.3800000000001,1495.0,1329.9337600000001,1499.98
9.867303133010864,155,75.282,3134.9844992680419,1482.49,1495.0,1337.1408799999999,1499.98
9.891730070114136,155,75.282,3134.9844992680419,1484.5999999999999,1495.0,1339.9924800000001,1499.98
9.916187047958374,155,75.282,3134.9844992680419,1484.54,1495.0,1341.35436,1499.98
9.940534114837646,154,75.282,3158.2066066700272,1482.05,1495.0,1341.29232,1499.9760000000001
9.965057134628296,154,75.282,3158.2066066700272,1484.1600000000001,1495.0,1341.1644800000001,1499.9760000000001
9.98941707611084,154,76.282,3158.2066066700272,1484.0999999999999,1495.0,1337.03664,1499.9760000000001
10.013772010803223,153,76.3055,3158.2066066700272,1481.6099999999999,1495.0,1335.4706800000001,1499.972
10.038146018981934,153,77.329,3158.2066066700272,1480,1495.0,1331.2628400000001,1499.972
10.062470197677612,153,77.329,3181.4287140720126,1481.4300000000001,1495.0,1328.2832000000001,1499.972
10.08682918548584,153,77.329,3204.6508214739979,1481.3699999999999,1495.0,1325.3355200000001,1499.972
10.111307144165039,153,77.329,3227.8729288759832,1481.3099999999999,1495.0,1325.1878400000001,1499.972
10.136133193969727,152,76.282,3227.8729288759832,1483.22,1495.0,1327.87004,1499.9680000000001
10.160495042800903,152,75.235,3227.8729288759832,1485.3299999999999,1495.0,1334.92572,1499.9680000000001
10.184982061386108,152,75.2115,3254.9653875116328,1485.27,1495.0,1340.7870399999999,1499.9680000000001
10.209358215332031,152,74.2115,3254.9653875116328,1485.21,1495.0,1349.26016,1499.9680000000001
10.233720064163208,152,74.2115,3278.1874949136181,1485.1500000000001,1495.0,1350,1499.9680000000001
10.25800609588623,152,74.2115,3278.1874949136181,1487.3199999999999,1495.0,1350,1499.9680000000001
10.282339096069336,153,74.188,3278.1874949136181,1491.9200000000001,1495.0,1350,1499.972
10.306672096252441,153,73.1645,3278.1874949136181,1496.3199999999999,1495.0,1350,1499.972
10.331010103225708,153,73.141,3278.1874949136181,1500.72,1495.0,1350,1499.972
10.355386018753052,154,73.141,3278.1874949136181,1507.55,1495.0,1350,1499.9760000000001
10.379696130752563,154,73.1175,3278.1874949136181,1512.01,1495.0,1350,1499.9760000000001
10.403938055038452,154,73.1175,3278.1874949136181,1512.0699999999999,1495.0,1350,1499.9760000000001
10.428174018859863,154,73.0705,3227.8729288759832,1512.1300000000001,1495.0,1349.0517199999999,1499.9760000000001
10.452515125274658,154,72.0235,3227.8729288759832,1512.1900000000001,1495.0,1350,1499.9760000000001
10.476769208908081,154,71.953,3204.6508214739979,1507.8499999999999,1495.0,1350,1499.9760000000001
10.501107215881348,155,70.9295,3204.6508214739979,1505.9400000000001,1495.0,1350,1499.98
10.525471210479736,155,71.953,3181.4287140720126,1506.0,1495.0,1350,1499.98
10.54973316192627,155,73.0,3158.2066066700272,1506.0599999999999,1495.0,1350,1499.98
10.57398509979248,155,74.047,3134.9844992680419,1506.1199999999999,1495.0,1345.7120000000002,1499.98
10.59833812713623,155,75.0705,3111.7623918660565,1508.3499999999999,1495.0,1338.3789199999999,1499.98
10.62270712852478,155,76.094,3088.5402844640712,1506.1800000000001,1495.0,1326.7381599999999,1499.98
10.647074222564697,154,76.094,3088.5402844640712,1501.5799999999999,1495.0,1319.1913999999999,1499.9760000000001
10.671519041061401,154,77.0705,3111.7623918660565,1497.1800000000001,1495.0,1312.0622000000001,1499.9760000000001
10.695966005325317,154,77.094,3111.7623918660565,1492.78,1495.0,1310.3982799999999,1499.9760000000001
10.720318078994751,154,78.094,3111.7623918660565,1488.3800000000001,1495.0,1309.0842400000001,1499.9760000000001
10.744891166687012,153,79.1175,3088.5402844640712,1483.72,1495.0,1310.52592,1499.972
10.769246101379395,152,79.1645,3111.7623918660565,1481.23,1495.0,1311.67976,1499.9680000000001
10.793594121932983,152,81.2115,3111.7623918660565,1480,1495.0,1308.7962,1499.9680000000001
10.817860126495361,152,81.235,3134.9844992680419,1480,1495.0,1306.9488799999999,1499.9680000000001
10.842214107513428,151,82.2585,3158.2066066700272,1480,1495.0,1303.8357599999999,1499.9639999999999
10.866531133651733,151,82.2585,3158.2066066700272,1480,1495.0,1303.4246800000001,1499.9639999999999
10.890774011611938,150,82.282,3158.2066066700272,1480,1495.0,1303.0831600000001,1499.96
10.91518521308899,150,82.282,3158.2066066700272,1480,1495.0,1307.1734000000001,1499.96
10.939475059509277,150,82.282,3158.2066066700272,1480,1495.0,1311.29748,1499.96
10.963715076446533,149,81.2585,3181.4287140720126,1480,1495.0,1319.6294,1499.9559999999999
10.98795199394226,149,80.188,3204.6508214739979,1480,1495.0,1328.1672799999999,1499.9559999999999
11.0122652053833,149,79.188,3204.6508214739979,1480,1495.0,1338.0624399999999,1499.9559999999999
11.036574125289917,149,79.188,3204.6508214739979,1480,1495.0,1343.9736799999998,1499.9559999999999
11.060806035995483,148,79.235,3204.6508214739979,1480,1495.0,1349.7288800000001,1499.952
11.085216999053955,148,80.282,3181.4287140720126,1480,1495.0,1348.51864,1499.952
11.109498023986816,148,81.376,3181.4287140720126,1481.0999999999999,1495.0,1342.6792399999999,1499.952
11.133835077285767,147,82.423,3158.2066066700272,1480,1495.0,1332.5565999999999,1499.9480000000001
11.158109188079834,147,82.4465,3158.2066066700272,1480,1495.0,1323.62832,1499.9480000000001
11.182666063308716,147,83.4935,3134.9844992680419,1480,1495.0,1312.0957599999999,1499.9480000000001
11.206939220428467,147,83.4935,3111.7623918660565,1480,1495.0,1306.1431600000001,1499.9480000000001
11.231263160705566,147,82.4935,3111.7623918660565,1480,1495.0,1307.3496399999999,1499.9480000000001
11.255637168884277,147,82.47,3111.7623918660565,1482.6500000000001,1495.0,1311.70976,1499.9480000000001
11.279970169067383,147,82.4465,3111.7623918660565,1486.99,1495.0,1316.1695199999999,1499.9480000000001
11.304319143295288,147,82.4465,3088.5402844640712,1489.1600000000001,1495.0,1323.46876,1499.9480000000001
11.328683137893677,146,82.4465,3088.5402844640712,1488.9000000000001,1495.0,1329.3440800000001,1499.944
11.353048086166382,146,82.47,3088.5402844640712,1488.8399999999999,1495.0,1330.86952,1499.944
11.377324104309082,146,82.47,3088.5402844640712,1486.6099999999999,1495.0,1330.93344,1499.944
11.401703119277954,146,82.47,3065.3181770620859,1484.3800000000001,1495.0,1330.8996,1499.944
11.426156997680664,146,82.47,3065.3181770620859,1482.1500000000001,1495.0,1329.44184,1499.944
11.45050311088562,147,82.4465,3065.3181770620859,1486.75,1495.0,1328.04612,1499.9480000000001
11.474999189376831,147,81.3995,3065.3181770620859,1491.1500000000001,1495.0,1330.8120799999999,1499.9480000000001
11.499346017837524,147,81.3525,3042.0960696601005,1495.55,1495.0,1332.47768,1499.9480000000001
11.52371621131897,148,80.329,3042.0960696601005,1502.3800000000001,1495.0,1336.82088,1499.952
11.548073053359985,149,79.282,3042.0960696601005,1511.4400000000001,1495.0,1342.6999599999999,1499.9559999999999
11.572460174560547,150,79.282,3042.0960696601005,1516.1600000000001,1495.0,1347.25684,1499.96
11.596810102462769,151,79.282,3042.0960696601005,1520,1495.0,1348.85016,1499.9639999999999
11.621105194091797,152,79.3055,3042.0960696601005,1520,1495.0,1350,1499.9680000000001
11.64536714553833,152,79.329,3042.0960696601005,1520,1495.0,1348.7498800000001,1499.9680000000001
11.669601202011108,153,79.3525,3042.0960696601005,1520,1495.0,1344.28448,1499.972
11.693849086761475,153,79.3525,3042.0960696601005,1520,1495.0,1339.87924,1499.972
11.718099117279053,154,79.3995,3018.8739622581152,1520,1495.0,1336.7738400000001,1499.9760000000001
11.74239706993103,154,79.423,2998.7481358430609,1520,1495.0,1333.79252,1499.9760000000001
11.766710996627808,154,80.47,2998.7481358430609,1520,1495.0,1329.5330799999999,1499.9760000000001
11.791024208068848,154,80.517,2978.6223094280072,1520,1495.0,1327.8956800000001,1499.9760000000001
11.815407037734985,154,81.5405,2978.6223094280072,1516.53,1495.0,1323.6126400000001,1499.9760000000001
11.839802026748657,154,82.5875,2978.6223094280072,1510.02,1495.0,1317.9253200000001,1499.9760000000001
11.864166021347046,155,82.5875,2978.6223094280072,1508.1099999999999,1495.0,1313.5282400000001,1499.98
11.888519048690796,155,81.5875,2958.4964830129529,1506.0,1495.0,1314.6708000000001,1499.98
11.912864208221436,155,81.5405,2958.4964830129529,1506.0599999999999,1495.0,1314.83708,1499.98
11.937243223190308,155,80.517,2938.3706565978991,1506.1199999999999,1495.0,1320.5147999999999,1499.98
11.961680173873901,156,79.4935,2918.2448301828454,1510.78,1495.0,1330.53404,1499.9839999999999
11.986135005950928,156,78.4935,2918.2448301828454,1510.8399999999999,1495.0,1341.9331199999999,1499.9839999999999
12.010493040084839,158,78.4935,2898.1190037677911,1515.76,1495.0,1347.9082799999999,1499.992
12.035108089447021,158,78.517,2898.1190037677911,1520,1495.0,1350,1499.992
12.059254169464111,158,79.564,2860.3830792395647,1520,1495.0,1350,1499.992
12.083415031433105,159,79.5875,2840.2572528245109,1520,1495.0,1347.9784400000001,1499.9960000000001
12.107671022415161,160,80.5875,2802.5213282962845,1520,1495.0,1338.19524,1500.0
12.131957054138184,160,80.5875,2784.9112301831124,1520,1495.0,1330.9720400000001,1500.0
12.156262159347534,161,80.5875,2747.175305654886,1520,1495.0,1323.8785599999999,1500.0039999999999
12.18050503730774,161,79.564,2714.0268856771499,1520,1495.0,1323.8106799999998,1500.0039999999999
12.205222129821777,161,79.5405,2696.4167875639773,1520,1495.0,1324.0344,1500.0039999999999
12.2295241355896,162,78.4935,2663.2683675862413,1520,1495.0,1331.154,1500.008
12.2538001537323,162,78.47,2645.6582694730687,1520,1495.0,1337.07924,1500.008
12.278042078018188,162,78.4465,2628.0481713598965,1520,1495.0,1343.0063600000001,1500.008
12.302345037460327,163,77.423,2612.5098494953327,1520,1495.0,1347.3176000000001,1500.0119999999999
12.326675176620483,163,77.376,2579.3614295175967,1520,1495.0,1350,1500.0119999999999
12.350884199142456,163,77.376,2550.0112659956426,1518.74,1495.0,1349.18832,1500.0119999999999
12.375399112701416,163,76.3525,2534.4729441310787,1516.6300000000001,1495.0,1350,1500.0119999999999
12.399685144424438,163,76.3525,2518.9346222665149,1516.6900000000001,1495.0,1350,1500.0119999999999
12.4239661693573,163,76.3525,2518.9346222665149,1512.3499999999999,1495.0,1349.3192799999999,1500.0119999999999
12.448329210281372,163,76.329,2503.3963004019511,1508.01,1495.0,1347.9114400000001,1500.0119999999999
12.472708225250244,163,76.282,2489.5844587445613,1505.8399999999999,1495.0,1348.0234,1500.0119999999999
12.49708604812622,163,75.235,2474.0461368799974,1503.6700000000001,1495.0,1348.0092,1500.0119999999999
12.521505117416382,163,73.188,2458.5078150154336,1501.5,1495.0,1350,1500.0119999999999
12.545858144760132,163,73.141,2444.6959733580434,1501.5,1495.0,1350,1500.0119999999999
12.570123195648193,163,73.1645,2430.8841317006536,1501.5,1495.0,1350,1500.0119999999999
12.594394207000732,163,73.2115,2444.6959733580434,1501.5,1495.0,1350,1500.0119999999999
12.61866307258606,163,74.2585,2444.6959733580434,1501.5,1495.0,1350,1500.0119999999999
12.642940044403076,162,77.3525,2444.6959733580434,1499.0699999999999,1495.0,1345.9983199999999,1500.008
12.667315006256104,162,78.3995,2444.6959733580434,1496.8399999999999,1495.0,1332.80204,1500.008
12.691724061965942,161,79.423,2430.8841317006536,1492.1800000000001,1495.0,1318.2578799999999,1500.0039999999999
12.716184139251709,161,79.3995,2460.2342952226072,1487.72,1495.0,1305.19948,1500.0039999999999
12.740545988082886,161,78.329,2460.2342952226072,1483.26,1495.0,1299.2945199999999,1500.0039999999999
12.765078067779541,161,77.3055,2460.2342952226072,1483.2,1495.0,1306.2541200000001,1500.0039999999999
12.789449214935303,161,77.2585,2474.0461368799974,1483.1400000000001,1495.0,1315.1051200000002,1500.0039999999999
12.813843011856079,161,77.235,2487.8579785373872,1487.48,1495.0,1326.7955999999999,1500.0039999999999
12.838234186172485,160,77.2115,2487.8579785373872,1489.3900000000001,1495.0,1338.3902,1500.0
12.862575054168701,160,77.188,2487.8579785373872,1491.5,1495.0,1345.5973200000001,1500.0
12.88692021369934,159,78.188,2503.3963004019511,1489.01,1495.0,1343.0626,1499.9960000000001
12.91141414642334,159,79.2115,2518.9346222665149,1486.72,1495.0,1337.4703199999999,1499.9960000000001
12.935924053192139,158,80.2585,2548.284785788469,1480,1495.0,1328.8844000000001,1499.992
12.960185050964355,158,81.3055,2532.7464639239051,1480,1495.0,1318.7569599999999,1499.992
12.984463214874268,158,82.376,2532.7464639239051,1480,1495.0,1308.4498800000001,1499.992
13.0087251663208,158,83.3995,2532.7464639239051,1480,1495.0,1300.91732,1499.992
13.03299617767334,158,85.3995,2548.284785788469,1480,1495.0,1292.26268,1499.992
13.057254076004028,158,85.3995,2563.8231076530328,1485.98,1495.0,1288.9716000000001,1499.992
13.081655025482178,158,84.376,2596.9715276307688,1490.3199999999999,1495.0,1291.3461199999999,1499.992
13.106105089187622,158,84.329,2612.5098494953327,1494.6600000000001,1495.0,1295.64588,1499.992
13.130450010299683,158,84.3055,2612.5098494953327,1496.8299999999999,1495.0,1301.4570799999999,1499.992
13.154990196228027,157,83.3055,2630.1199476085048,1496.5699999999999,1495.0,1314.0881200000001,1499.9880000000001
13.179339170455933,157,82.282,2647.7300457216775,1494.3399999999999,1495.0,1326.79728,1499.9880000000001
13.203680992126465,156,82.2585,2680.8784656994135,1489.6800000000001,1495.0,1334.0505600000001,1499.9839999999999
13.228579998016357,156,82.2585,2696.4167875639773,1485.22,1495.0,1339.6881600000002,1499.9839999999999
13.253038167953491,156,81.235,2711.9551094285412,1480.76,1495.0,1346.5700400000001,1499.9839999999999
13.277407169342041,156,81.235,2711.9551094285412,1480.7,1495.0,1346.70372,1499.9839999999999
13.301813125610352,155,80.235,2711.9551094285412,1480,1495.0,1346.6116,1499.98
13.326168060302734,155,80.235,2694.345011315369,1480.3199999999999,1495.0,1346.64564,1499.98
13.350545167922974,154,80.235,2694.345011315369,1480.0,1495.0,1346.7436,1499.9760000000001
13.37502908706665,154,80.2585,2694.345011315369,1480,1495.0,1343.94568,1499.9760000000001
13.399283170700073,154,80.2585,2676.7349132021964,1480,1495.0,1342.5359599999999,1499.9760000000001
13.423549175262451,154,79.235,2676.7349132021964,1480,1495.0,1342.4202399999999,1499.9760000000001
13.447833061218262,154,79.2585,2659.1248150890242,1480,1495.0,1341.0462400000001,1499.9760000000001
13.472150087356567,154,80.2585,2659.1248150890242,1483.98,1495.0,1337.06044,1499.9760000000001
13.496551990509033,154,80.282,2659.1248150890242,1488.3199999999999,1495.0,1335.6703600000001,1499.9760000000001
13.5209641456604,154,80.3055,2659.1248150890242,1492.6600000000001,1495.0,1334.2464400000001,1499.9760000000001
13.545431137084961,154,81.329,2659.1248150890242,1494.8299999999999,1495.0,1328.6428800000001,1499.9760000000001
13.569797992706299,154,81.329,2643.5864932244604,1497.0,1495.0,1324.33332,1499.9760000000001
13.594135999679565,155,82.3525,2643.5864932244604,1499.4300000000001,1495.0,1320.1217200000001,1499.98
13.618484020233154,155,82.329,2643.5864932244604,1501.6600000000001,1495.0,1317.2342000000001,1499.98
13.642823219299316,155,82.329,2643.5864932244604,1503.8900000000001,1495.0,1314.38428,1499.98
13.667179107666016,155,81.282,2625.9763951112882,1506.1199999999999,1495.0,1318.5562,1499.98
13.691595077514648,156,81.2585,2625.9763951112882,1510.78,1495.0,1321.5018,1499.9839999999999
13.716042041778564,156,80.2585,2610.4380732467243,1510.8399999999999,1495.0,1328.5650000000001,1499.9839999999999
13.740405082702637,156,80.282,2594.8997513821605,1510.9000000000001,1495.0,1334.2683999999999,1499.9839999999999
13.764909029006958,156,81.282,2594.8997513821605,1510.96,1495.0,1337.3280400000001,1499.9839999999999
13.789261102676392,157,81.329,2579.3614295175967,1513.45,1495.0,1337.14004,1499.9880000000001
13.813636064529419,157,82.376,2579.3614295175967,1511.3399999999999,1495.0,1334.1785600000001,1499.9880000000001
13.83804202079773,157,83.423,2563.8231076530328,1511.4000000000001,1495.0,1325.5174400000001,1499.9880000000001
13.862451076507568,157,84.47,2563.8231076530328,1511.46,1495.0,1315.4464,1499.9880000000001
13.88680911064148,157,84.47,2548.284785788469,1511.52,1495.0,1309.4317599999999,1499.9880000000001
13.911278009414673,157,84.47,2548.284785788469,1507.1800000000001,1495.0,1304.97264,1499.9880000000001
13.935837030410767,157,83.423,2532.7464639239051,1505.01,1495.0,1306.24116,1499.9880000000001
13.960198163986206,157,82.376,2532.7464639239051,1502.8399999999999,1495.0,1313.3089600000001,1499.9880000000001
13.9845290184021,157,81.329,2532.7464639239051,1500.6700000000001,1495.0,1324.7840799999999,1499.9880000000001
14.008885145187378,158,80.282,2517.2081420593413,1500.9300000000001,1495.0,1336.40688,1499.992
14.033226013183594,158,79.2115,2517.2081420593413,1503.1600000000001,1495.0,1349.53548,1499.992
14.057582139968872,157,78.188,2517.2081420593413,1502.96,1495.0,1350,1499.9880000000001
14.081912994384766,158,78.188,2532.7464639239051,1505.3900000000001,1495.0,1350,1499.992
14.106273174285889,158,78.2115,2517.2081420593413,1507.6199999999999,1495.0,1350,1499.992
14.130564212799072,158,78.2585,2517.2081420593413,1505.45,1495.0,1350,1499.992
14.154977083206177,158,79.282,2517.2081420593413,1503.28,1495.0,1350,1499.992
14.17925214767456,158,79.3055,2517.2081420593413,1505.51,1495.0,1344.44552,1499.992
14.203627109527588,158,79.329,2517.2081420593413,1503.3399999999999,1495.0,1337.0786000000001,1499.992
14.228294134140015,158,80.376,2517.2081420593413,1501.1700000000001,1495.0,1328.46552,1499.992
14.252679109573364,158,80.3995,2517.2081420593413,1501.1700000000001,1495.0,1322.60232,1499.992
14.277029037475586,158,81.3995,2517.2081420593413,1501.1700000000001,1495.0,1318.4490000000001,1499.992
14.301445007324219,158,81.3995,2517.2081420593413,1499.0,1495.0,1316.95344,1499.992
14.32590103149414,158,81.3995,2501.6698201947775,1499.0,1495.0,1315.52368,1499.992
14.350284099578857,158,80.376,2487.8579785373872,1499.0,1495.0,1319.6956,1499.992
14.374749183654785,158,80.3055,2474.0461368799974,1499.0,1495.0,1322.8273199999999,1499.992
14.399092197418213,158,79.282,2444.6959733580434,1499.0,1495.0,1329.98452,1499.992
14.423461198806763,158,78.235,2430.8841317006536,1499.0,1495.0,1338.64564,1499.992
14.447854042053223,158,77.188,2417.0722900432638,1499.0,1495.0,1348.7824800000001,1499.992
14.472247123718262,158,76.188,2403.2604483858736,1499.0,1495.0,1350,1499.992
14.496568202972412,159,76.188,2389.4486067284838,1501.4300000000001,1495.0,1350,1499.9960000000001
14.52082109451294,159,75.2115,2375.6367650710936,1503.6600000000001,1495.0,1350,1499.9960000000001
14.545231103897095,158,75.2115,2361.8249234137038,1503.46,1495.0,1350,1499.992
14.56950306892395,159,75.2115,2348.013081756314,1505.8900000000001,1495.0,1350,1499.9960000000001
14.593788146972656,160,74.1645,2348.013081756314,1510.55,1495.0,1350,1500.0
14.618074178695679,160,72.1175,2348.013081756314,1510.6099999999999,1495.0,1350,1500.0
14.642396211624146,161,71.094,2335.655118168123,1513.0999999999999,1495.0,1350,1500.0039999999999
14.666729211807251,161,71.1175,2335.655118168123,1519.79,1495.0,1350,1500.0039999999999
14.691059112548828,162,71.141,2323.2971545799319,1520,1495.0,1350,1500.008
14.7153000831604,162,71.188,2310.9391909917408,1520,1495.0,1350,1500.008
14.739434003829956,162,72.2115,2298.5812274035497,1520,1495.0,1350,1500.008
14.763604164123535,163,73.2585,2286.2232638153591,1520,1495.0,1350,1500.0119999999999
14.787775993347168,163,73.2585,2273.8653002271681,1520,1495.0,1346.8058000000001,1500.0119999999999
14.812173128128052,162,73.2585,2261.507336638977,1518.48,1495.0,1338.22072,1500.008
14.836704015731812,162,73.235,2238.0272058214141,1514.1400000000001,1495.0,1331.2532000000001,1500.008
14.861123085021973,162,73.235,2214.5470750038512,1509.8,1495.0,1329.9072000000001,1500.008
14.885578155517578,161,73.235,2203.4249077744794,1500.8,1495.0,1332.8847600000001,1500.0039999999999
14.909939050674438,161,73.2585,2179.944776956916,1492.0,1495.0,1335.7683200000001,1500.0039999999999
