time,frame,x,y,size_inv,roll,pitch,thrust,yaw
0,1,163,89,0.005847953216374269,1500.3,1520,1431.0,1500
0.05,2,161,96,0.008333333333333333,1500.1,1520,1424.0,1500
0.1,3,164,90,0.004347826086956522,1500.4,1518.4782608695652,1430.0,1500
0.15000000000000002,4,162,87,0.008333333333333333,1500.2,1520,1433.0,1500
0.2,5,162,93,0.003401360544217687,1500.2,1509.0136054421769,1427.0,1500
0.25,6,163,99,0.014492753623188406,1500.3,1520,1421.0,1500
0.3,7,168,92,0.015151515151515152,1500.8,1520,1428.0,1500
0.35,8,163,93,0.005050505050505051,1500.3,1520,1427.0,1500
0.39999999999999997,9,162,91,0.005555555555555556,1500.2,1520,1429.0,1500
0.44999999999999996,10,167,78,0.008333333333333333,1500.7,1520,1442.0,1500
0.49999999999999994,11,168,77,0.006944444444444444,1500.8,1520,1443.0,1500
0.5499999999999999,12,168,77,0.00625,1500.8,1520,1443.0,1500
0.6,13,170,80,0.005263157894736842,1501.0,1520,1440.0,1500
0.65,14,166,79,0.023809523809523808,1500.6,1520,1441.0,1500
0.7000000000000001,15,173,79,0.0043859649122807015,1501.3,1518.859649122807,1441.0,1500
0.7500000000000001,16,170,79,0.003105590062111801,1501.0,1506.055900621118,1441.0,1500
0.8000000000000002,17,171,79,0.005208333333333333,1501.1,1520,1441.0,1500
0.8500000000000002,18,169,87,0.003472222222222222,1500.9,1509.7222222222222,1433.0,1500
0.9000000000000002,19,167,93,0.0026041666666666665,1500.7,1501.0416666666667,1427.0,1500
0.9500000000000003,20,167,93,0.002898550724637681,1500.7,1503.9855072463768,1427.0,1500
1.0000000000000002,21,166,98,0.0025,1500.6,1500.0,1422.0,1500
1.0500000000000003,22,165,102,0.0022624434389140274,1500.5,1497.6244343891403,1418.0,1500
1.1000000000000003,23,165,104,0.0023148148148148147,1500.5,1498.148148148148,1416.0,1500
1.1500000000000004,24,164,106,0.00205761316872428,1500.4,1495.5761316872429,1414.0,1500
1.2000000000000004,25,162,109,0.0022222222222222222,1500.2,1497.2222222222222,1411.0,1500
1.2500000000000004,26,161,110,0.002178649237472767,1500.1,1496.7864923747277,1410.0,1500
1.3000000000000005,27,161,110,0.001949317738791423,1500.1,1494.4931773879143,1410.0,1500
1.3500000000000005,28,159,110,0.001949317738791423,1499.9,1494.4931773879143,1410.0,1500
1.4000000000000006,29,158,112,0.0021551724137931034,1499.8,1496.551724137931,1408.0,1500
1.4500000000000006,30,158,109,0.0016129032258064516,1499.8,1491.1290322580646,1411.0,1500
1.5000000000000007,31,157,105,0.0020833333333333333,1499.7,1495.8333333333333,1415.0,1500
1.5500000000000007,32,158,104,0.0013774104683195593,1499.8,1488.7741046831957,1416.0,1500
1.6000000000000008,33,157,104,0.0017825311942959,1499.7,1492.825311942959,1416.0,1500
1.6500000000000008,34,156,97,0.0012254901960784314,1499.6,1487.2549019607843,1423.0,1500
1.7000000000000008,35,154,95,0.0012787723785166241,1499.4,1487.7877237851662,1425.0,1500
1.7500000000000009,36,153,88,0.0011904761904761906,1499.3,1486.904761904762,1432.0,1500
1.800000000000001,37,152,84,0.0009746588693957114,1499.2,1484.7465886939572,1436.0,1500
1.850000000000001,38,150,83,0.0009746588693957114,1499.0,1484.7465886939572,1437.0,1500
1.900000000000001,39,146,90,0.00125,1498.6,1487.5,1430.0,1500
1.950000000000001,40,140,92,0.0011148272017837235,1498.0,1486.1482720178371,1428.0,1500
2.000000000000001,41,137,90,0.0007936507936507937,1497.7,1482.936507936508,1430.0,1500
2.0500000000000007,42,134,96,0.0007267441860465116,1497.4,1482.2674418604652,1424.0,1500
2.1000000000000005,43,131,102,0.0007168458781362007,1497.1,1482.168458781362,1418.0,1500
2.1500000000000004,44,128,105,0.0006393861892583121,1496.8,1481.3938618925831,1415.0,1500
2.2,45,123,110,0.0006257822277847309,1496.3,1481.2578222778473,1410.0,1500
2.25,46,121,115,0.000591016548463357,1496.1,1480.9101654846336,1405.0,1500
2.3,47,117,120,0.0005446623093681918,1495.7,1480.4466230936819,1400.0,1500
2.3499999999999996,48,114,120,0.0005060728744939271,1495.4,1480.0607287449393,1400.0,1500
2.3999999999999995,49,110,125,0.0004837929366231253,1495.0,1480,1395.0,1500
2.4499999999999993,50,107,126,0.000462962962962963,1494.7,1480,1394.0,1500
2.499999999999999,51,103,127,0.00043554006968641115,1494.3,1480,1393.0,1500
2.549999999999999,52,101,134,0.0006385696040868455,1494.1,1481.3856960408684,1386.0,1500
2.5999999999999988,53,97,122,0.0004035512510088781,1493.7,1480,1398.0,1500
2.6499999999999986,54,96,120,0.00037257824143070045,1493.6,1480,1400.0,1500
2.6999999999999984,55,93,115,0.0003487966515521451,1493.3,1480,1405.0,1500
2.7499999999999982,56,89,110,0.0003563791874554526,1492.9,1480,1410.0,1500
2.799999999999998,57,87,100,0.0003324468085106383,1492.7,1480,1420.0,1500
2.849999999999998,58,86,91,0.0003076923076923077,1492.6,1480,1429.0,1500
2.8999999999999977,59,82,78,0.00033967391304347825,1492.2,1480,1442.0,1500
2.9499999999999975,60,81,76,0.00034722222222222224,1492.1,1480,1444.0,1500
2.9999999999999973,61,73,64,0.00041118421052631577,1491.3,1480,1456.0,1500
3.049999999999997,62,70,54,0.0003443526170798898,1491.0,1480,1466.0,1500
3.099999999999997,63,70,74,0.0007272727272727272,1491.0,1482.2727272727273,1446.0,1500
3.149999999999997,64,61,74,0.0002958579881656805,1490.1,1480,1446.0,1500
3.1999999999999966,65,56,83,0.0003944773175542406,1489.6,1480,1437.0,1500
3.2499999999999964,66,54,88,0.00036845983787767134,1489.4,1480,1432.0,1500
3.2999999999999963,67,56,107,0.0006211180124223603,1489.6,1481.2111801242236,1413.0,1500
3.349999999999996,68,55,114,0.0007867820613690008,1489.5,1482.86782061369,1406.0,1500
3.399999999999996,69,43,114,0.0003225806451612903,1488.3,1480,1406.0,1500
3.4499999999999957,70,43,129,0.0005411255411255411,1488.3,1480.4112554112553,1391.0,1500
3.4999999999999956,71,39,115,0.00034965034965034965,1487.9,1480,1405.0,1500
3.5499999999999954,72,46,104,0.0011337868480725624,1488.6,1486.3378684807255,1416.0,1500
3.599999999999995,73,45,117,0.0006887052341597796,1488.5,1481.8870523415978,1403.0,1500
3.649999999999995,74,40,104,0.0006377551020408163,1488.0,1481.3775510204082,1416.0,1500
3.699999999999995,75,36,121,0.002857142857142857,1487.6,1503.5714285714287,1399.0,1500
3.7499999999999947,76,29,93,0.0049261083743842365,1486.9,1520,1427.0,1500
3.7999999999999945,77,51,86,0.004629629629629629,1489.1,1520,1434.0,1500
3.8499999999999943,78,50,96,0.002777777777777778,1489.0,1502.7777777777778,1424.0,1500
3.899999999999994,79,39,74,0.00130718954248366,1487.9,1488.0718954248366,1446.0,1500
3.949999999999994,80,34,59,0.007692307692307693,1487.4,1520,1461.0,1500
3.999999999999994,81,48,71,0.0016722408026755853,1488.8,1491.7224080267558,1449.0,1500
4.049999999999994,82,44,51,0.005555555555555556,1488.4,1520,1469.0,1500
4.099999999999993,83,48,37,0.0005208333333333333,1488.8,1480.2083333333333,1470,1500
4.149999999999993,84,51,42,0.0007861635220125787,1489.1,1482.861635220126,1470,1500
4.199999999999993,85,51,47,0.0007936507936507937,1489.1,1482.936507936508,1470,1500
4.249999999999993,86,56,42,0.0004985044865403788,1489.6,1480,1470,1500
4.299999999999993,87,57,45,0.00039032006245121,1489.7,1480,1470,1500
4.3499999999999925,88,59,56,0.0004166666666666667,1489.9,1480,1464.0,1500
4.399999999999992,89,60,61,0.00036656891495601173,1490.0,1480,1459.0,1500
4.449999999999992,90,61,68,0.00037037037037037035,1490.1,1480,1452.0,1500
4.499999999999992,91,63,75,0.0003546099290780142,1490.3,1480,1445.0,1500
4.549999999999992,92,64,82,0.0003563791874554526,1490.4,1480,1438.0,1500
4.599999999999992,93,68,95,0.0003506311360448808,1490.8,1480,1425.0,1500
4.6499999999999915,94,70,100,0.00036075036075036075,1491.0,1480,1420.0,1500
4.699999999999991,95,72,106,0.0003401360544217687,1491.2,1480,1414.0,1500
4.749999999999991,96,75,110,0.00034317089910775565,1491.5,1480,1410.0,1500
4.799999999999991,97,79,117,0.0003487966515521451,1491.9,1480,1403.0,1500
4.849999999999991,98,81,119,0.00034722222222222224,1492.1,1480,1401.0,1500
4.899999999999991,99,85,118,0.00036231884057971015,1492.5,1480,1402.0,1500
4.94999999999999,100,90,118,0.00037257824143070045,1493.0,1480,1402.0,1500
4.99999999999999,101,95,117,0.0003766478342749529,1493.5,1480,1403.0,1500
5.04999999999999,102,99,113,0.0003968253968253968,1493.9,1480,1407.0,1500
5.09999999999999,103,105,107,0.0003875968992248062,1494.5,1480,1413.0,1500
5.14999999999999,104,109,102,0.00039416633819471815,1494.9,1480,1418.0,1500
5.1999999999999895,105,114,96,0.0004420866489832007,1495.4,1480,1424.0,1500
5.249999999999989,106,118,91,0.0004616805170821791,1495.8,1480,1429.0,1500
5.299999999999989,107,123,81,0.00042052144659377626,1496.3,1480,1439.0,1500
5.349999999999989,108,126,75,0.0004784688995215311,1496.6,1480,1445.0,1500
5.399999999999989,109,132,70,0.0005005005005005005,1497.2,1480.005005005005,1450.0,1500
5.449999999999989,110,134,64,0.0008361204013377926,1497.4,1483.361204013378,1456.0,1500
5.4999999999999885,111,137,57,0.0005941770647653001,1497.7,1480.941770647653,1463.0,1500
5.549999999999988,112,138,70,0.0005341880341880342,1497.8,1480.3418803418804,1450.0,1500
5.599999999999988,113,140,77,0.0005555555555555556,1498.0,1480.5555555555557,1443.0,1500
5.649999999999988,114,142,78,0.0005060728744939271,1498.2,1480.0607287449393,1442.0,1500
5.699999999999988,115,144,88,0.0005099439061703213,1498.4,1480.0994390617032,1432.0,1500
5.749999999999988,116,142,104,0.0005714285714285715,1498.2,1480.7142857142858,1416.0,1500
5.799999999999987,117,142,106,0.0005555555555555556,1498.2,1480.5555555555557,1414.0,1500
5.849999999999987,118,143,111,0.0005555555555555556,1498.3,1480.5555555555557,1409.0,1500
5.899999999999987,119,143,116,0.0006002400960384153,1498.3,1481.0024009603842,1404.0,1500
5.949999999999987,120,143,120,0.0006127450980392157,1498.3,1481.127450980392,1400.0,1500
5.999999999999987,121,143,120,0.0006393861892583121,1498.3,1481.3938618925831,1400.0,1500
6.0499999999999865,122,144,121,0.0006734006734006734,1498.4,1481.7340067340067,1399.0,1500
6.099999999999986,123,144,121,0.0007102272727272727,1498.4,1482.1022727272727,1399.0,1500
6.149999999999986,124,146,120,0.0007501875468867217,1498.6,1482.5018754688672,1400.0,1500
6.199999999999986,125,147,117,0.0007751937984496124,1498.7,1482.7519379844962,1403.0,1500
6.249999999999986,126,148,113,0.0008210180623973727,1498.8,1483.2101806239737,1407.0,1500
6.299999999999986,127,149,110,0.0008841732979664014,1498.9,1483.841732979664,1410.0,1500
6.349999999999985,128,152,103,0.0009861932938856016,1499.2,1484.861932938856,1417.0,1500
6.399999999999985,129,154,106,0.0018018018018018018,1499.4,1493.018018018018,1414.0,1500
6.449999999999985,130,156,96,0.0012626262626262627,1499.6,1487.6262626262626,1424.0,1500
6.499999999999985,131,158,92,0.0012077294685990338,1499.8,1487.0772946859904,1428.0,1500
6.549999999999985,132,162,79,0.001176470588235294,1500.2,1486.764705882353,1441.0,1500
6.5999999999999845,133,163,94,0.0014005602240896359,1500.3,1489.0056022408965,1426.0,1500
6.649999999999984,134,160,94,0.0014005602240896359,1500.0,1489.0056022408965,1426.0,1500
6.699999999999984,135,161,86,0.001142857142857143,1500.1,1486.4285714285713,1434.0,1500
6.749999999999984,136,160,96,0.0011904761904761906,1500.0,1486.904761904762,1424.0,1500
6.799999999999984,137,158,103,0.001176470588235294,1499.8,1486.764705882353,1417.0,1500
6.849999999999984,138,156,103,0.0012626262626262627,1499.6,1487.6262626262626,1417.0,1500
6.8999999999999835,139,156,104,0.0013175230566534915,1499.6,1488.175230566535,1416.0,1500
6.949999999999983,140,155,110,0.001443001443001443,1499.5,1489.4300144300144,1410.0,1500
6.999999999999983,141,153,110,0.0012254901960784314,1499.3,1487.2549019607843,1410.0,1500
7.049999999999983,142,152,114,0.0026041666666666665,1499.2,1501.0416666666667,1406.0,1500
7.099999999999983,143,152,107,0.0012787723785166241,1499.2,1487.7877237851662,1413.0,1500
7.149999999999983,144,151,112,0.0027548209366391185,1499.1,1502.5482093663911,1408.0,1500
7.199999999999982,145,150,103,0.001567398119122257,1499.0,1490.6739811912225,1417.0,1500
7.249999999999982,146,149,102,0.0015360983102918587,1498.9,1490.3609831029187,1418.0,1500
7.299999999999982,147,148,99,0.0017543859649122807,1498.8,1492.5438596491229,1421.0,1500
7.349999999999982,148,148,99,0.002150537634408602,1498.8,1496.505376344086,1421.0,1500
7.399999999999982,149,147,91,0.001488095238095238,1498.7,1489.8809523809523,1429.0,1500
7.4499999999999815,150,146,92,0.002564102564102564,1498.6,1500.6410256410256,1428.0,1500
7.499999999999981,151,148,80,0.001953125,1498.8,1494.53125,1440.0,1500
7.549999999999981,152,147,81,0.0016666666666666668,1498.7,1491.6666666666667,1439.0,1500
7.599999999999981,153,148,77,0.001567398119122257,1498.8,1490.6739811912225,1443.0,1500
7.649999999999981,154,148,76,0.0015360983102918587,1498.8,1490.3609831029187,1444.0,1500
7.699999999999981,155,147,79,0.0017006802721088435,1498.7,1492.0068027210884,1441.0,1500
7.7499999999999805,156,147,81,0.0017241379310344827,1498.7,1492.2413793103449,1439.0,1500
7.79999999999998,157,147,82,0.0016420361247947454,1498.7,1491.4203612479475,1438.0,1500
7.84999999999998,158,145,86,0.002551020408163265,1498.5,1500.5102040816325,1434.0,1500
7.89999999999998,159,144,87,0.0017241379310344827,1498.4,1492.2413793103449,1433.0,1500
7.94999999999998,160,143,88,0.0017857142857142857,1498.3,1492.857142857143,1432.0,1500
7.99999999999998,161,142,88,0.0016420361247947454,1498.2,1491.4203612479475,1432.0,1500
8.04999999999998,162,141,90,0.0017857142857142857,1498.1,1492.857142857143,1430.0,1500
8.09999999999998,163,139,99,0.007142857142857143,1497.9,1520,1421.0,1500
8.14999999999998,164,139,92,0.0018148820326678765,1497.9,1493.1488203266788,1428.0,1500
8.199999999999982,165,136,89,0.0017857142857142857,1497.6,1492.857142857143,1431.0,1500
8.249999999999982,166,135,87,0.0018796992481203006,1497.5,1493.796992481203,1433.0,1500
8.299999999999983,167,133,88,0.00205761316872428,1497.3,1495.5761316872429,1432.0,1500
8.349999999999984,168,131,91,0.0018796992481203006,1497.1,1493.796992481203,1429.0,1500
8.399999999999984,169,129,91,0.002551020408163265,1496.9,1500.5102040816325,1429.0,1500
8.449999999999985,170,126,86,0.0017241379310344827,1496.6,1492.2413793103449,1434.0,1500
8.499999999999986,171,124,87,0.001763668430335097,1496.4,1492.6366843033509,1433.0,1500
8.549999999999986,172,120,88,0.002849002849002849,1496.0,1503.4900284900284,1432.0,1500
8.599999999999987,173,119,78,0.002849002849002849,1495.9,1503.4900284900284,1442.0,1500
8.649999999999988,174,116,80,0.0019230769230769232,1495.6,1494.2307692307693,1440.0,1500
8.699999999999989,175,114,78,0.0018796992481203006,1495.4,1493.796992481203,1442.0,1500
8.74999999999999,176,111,73,0.0018796992481203006,1495.1,1493.796992481203,1447.0,1500
8.79999999999999,177,110,71,0.001949317738791423,1495.0,1494.4931773879143,1449.0,1500
8.84999999999999,178,108,70,0.001763668430335097,1494.8,1492.6366843033509,1450.0,1500
8.899999999999991,179,106,66,0.00205761316872428,1494.6,1495.5761316872429,1454.0,1500
8.949999999999992,180,102,69,0.0017857142857142857,1494.2,1492.857142857143,1451.0,1500
8.999999999999993,181,101,69,0.0017006802721088435,1494.1,1492.0068027210884,1451.0,1500
9.049999999999994,182,98,69,0.0017006802721088435,1493.8,1492.0068027210884,1451.0,1500
9.099999999999994,183,96,72,0.0018148820326678765,1493.6,1493.1488203266788,1448.0,1500
9.149999999999995,184,91,74,0.001567398119122257,1493.1,1490.6739811912225,1446.0,1500
9.199999999999996,185,89,77,0.0017543859649122807,1492.9,1492.5438596491229,1443.0,1500
9.249999999999996,186,85,78,0.0017857142857142857,1492.5,1492.857142857143,1442.0,1500
9.299999999999997,187,82,80,0.0017241379310344827,1492.2,1492.2413793103449,1440.0,1500
9.349999999999998,188,78,83,0.0015151515151515152,1491.8,1490.1515151515152,1437.0,1500
9.399999999999999,189,77,89,0.002304147465437788,1491.7,1498.041474654378,1431.0,1500
9.45,190,72,88,0.0014992503748125937,1491.2,1489.992503748126,1432.0,1500
9.5,191,70,88,0.001402524544179523,1491.0,1489.0252454417953,1432.0,1500
9.55,192,67,90,0.0014492753623188406,1490.7,1489.4927536231885,1430.0,1500
9.600000000000001,193,65,90,0.001388888888888889,1490.5,1488.888888888889,1430.0,1500
9.650000000000002,194,64,90,0.0015360983102918587,1490.4,1490.3609831029187,1430.0,1500
