time,x,y,size_inv,roll,pitch,thrust,yaw
0.0007250308990478516,162,55.0,3251.0950362779686,1506.0,1495.0,1350,1502.0
0.023005962371826172,162,54.7885,3251.0950362779686,1508.0,1495.0,1350,1502.0
0.04502105712890625,162,54.7885,3251.0950362779686,1510.0,1495.0,1350,1502.0
0.06705212593078613,162,54.7885,3251.0950362779686,1512.0,1495.0,1350,1502.0
0.0890660285949707,162,54.7885,3251.0950362779686,1514.0,1495.0,1350,1502.0
0.1110069751739502,162,54.7885,3251.0950362779686,1516.0,1495.0,1350,1502.0
0.13296008110046387,162,54.7885,3251.0950362779686,1518.0,1495.0,1350,1502.0
0.15493202209472656,162,54.7885,3251.0950362779686,1520.0,1495.0,1350,1502.0
0.17694306373596191,162,54.7885,3251.0950362779686,1520,1495.0,1350,1502.0
0.19902896881103516,162,54.7885,3251.0950362779686,1520,1495.0,1350,1502.0
0.22120213508605957,162,54.812,3251.0950362779686,1520,1495.0,1350,1502.0
0.2435290813446045,163,54.812,3251.0950362779686,1520,1495.0,1350,1503.0
0.2665989398956299,163,55.8355,3251.0950362779686,1520,1495.0,1350,1503.0
0.29085493087768555,163,55.8355,3251.0950362779686,1520,1495.0,1350,1503.0
0.3149909973144531,162,55.812,3278.1874949136181,1520,1495.0,1350,1502.0
0.3391411304473877,161,55.8355,3278.1874949136181,1520,1495.0,1350,1501.0
0.3633139133453369,160,56.859,3305.2799535492682,1520.0,1495.0,1350,1500.0
0.3876340389251709,158,61.0,3332.3724121849182,1512.0,1495.0,1349.9571599999999,1498.0
0.41202306747436523,158,63.1175,3332.3724121849182,1508.0,1495.0,1338.3539999999998,1498.0
0.4363551139831543,158,66.2585,3332.3724121849182,1504.0,1495.0,1320.9338,1498.0
0.46082091331481934,158,68.282,3359.4648708205686,1500.0,1495.0,1301.9746,1498.0
0.48526597023010254,158,69.2585,3386.5573294562187,1495.0,1495.0,1285.73144,1498.0
0.5097589492797852,158,69.188,3386.5573294562187,1490.0,1495.0,1281.0490400000001,1498.0
0.5341439247131348,159,70.1645,3413.6497880918687,1488.0,1495.0,1279.6330800000001,1499.0
0.5584940910339355,159,70.141,3386.5573294562187,1485.0,1495.0,1288.27772,1499.0
0.5828111171722412,159,71.141,3386.5573294562187,1483.0,1495.0,1299.8879999999999,1499.0
0.607227087020874,159,73.1645,3386.5573294562187,1482.0,1495.0,1308.69848,1499.0
0.6316590309143066,160,74.188,3359.4648708205686,1486.0,1495.0,1311.4059599999998,1500.0
0.6559979915618896,160,78.235,3386.5573294562187,1488.0,1495.0,1304.51196,1500.0
0.6805760860443115,160,79.235,3386.5573294562187,1490.0,1495.0,1295.4968000000001,1500.0
0.7049119472503662,160,80.235,3359.4648708205686,1492.0,1495.0,1285.08968,1500.0
0.7292270660400391,160,81.2115,3332.3724121849182,1494.0,1495.0,1277.6423600000001,1500.0
0.7535769939422607,160,82.1645,3332.3724121849182,1496.0,1495.0,1271.8126,1500.0
0.7779691219329834,160,83.1175,3305.2799535492682,1497.0,1495.0,1274.6140799999998,1500.0
0.8023900985717773,160,83.094,3305.2799535492682,1498.0,1495.0,1281.45316,1500.0
0.826754093170166,160,84.0705,3305.2799535492682,1499.0,1495.0,1287.12608,1500.0
0.8511650562286377,159,85.0705,3278.1874949136181,1497.0,1495.0,1291.31304,1499.0
0.8754861354827881,159,86.047,3278.1874949136181,1496.0,1495.0,1295.3984800000001,1499.0
0.8998229503631592,159,87.0705,3251.0950362779686,1495.0,1495.0,1295.11816,1499.0
0.924144983291626,158,89.0705,3251.0950362779686,1491.0,1495.0,1289.36024,1498.0
0.9484529495239258,158,90.094,3251.0950362779686,1489.0,1495.0,1284.6744800000001,1498.0
0.972769021987915,157,92.1175,3227.8729288759832,1484.0,1495.0,1277.3468399999999,1497.0
0.9971499443054199,157,93.141,3227.8729288759832,1481.0,1495.0,1271.1834799999999,1497.0
1.0216050148010254,157,94.1645,3227.8729288759832,1480,1495.0,1265.116,1497.0
1.0458519458770752,156,96.188,3227.8729288759832,1480,1495.0,1260.56664,1496.0
1.0701019763946533,156,97.188,3227.8729288759832,1480,1495.0,1257.3432399999999,1496.0
1.0943470001220703,156,98.188,3227.8729288759832,1480,1495.0,1256.9856399999999,1496.0
1.1186110973358154,156,99.188,3204.6508214739979,1480,1495.0,1256.7257999999999,1496.0
1.142859935760498,156,100.188,3181.4287140720126,1480,1495.0,1256.4998000000001,1496.0
1.1671531200408936,157,101.188,3158.2066066700272,1480,1495.0,1257.7796000000001,1497.0
1.1918530464172363,157,102.188,3134.9844992680419,1480,1495.0,1259.0274400000001,1497.0
1.2161049842834473,157,103.2115,3134.9844992680419,1480,1495.0,1258.8212800000001,1497.0
1.2405431270599365,158,103.2115,3111.7623918660565,1480,1495.0,1261.25136,1498.0
1.2649359703063965,158,104.235,3088.5402844640712,1480,1495.0,1262.38744,1498.0
1.289370059967041,158,104.235,3045.1923506470312,1480,1495.0,1264.7997600000001,1498.0
1.3136460781097412,158,105.235,3021.9702432450458,1480,1495.0,1266.01208,1498.0
1.3379521369934082,158,105.235,2978.6223094280062,1480,1495.0,1269.9302,1498.0
1.362287998199463,158,106.235,2978.6223094280062,1480,1495.0,1269.8483200000001,1498.0
1.3865299224853516,158,106.2585,2978.6223094280062,1480,1495.0,1272.4102,1498.0
1.4109160900115967,158,106.2585,2978.6223094280062,1480,1495.0,1273.6402800000001,1498.0
1.4351959228515625,158,106.2585,2958.4964830129525,1480,1495.0,1276.3103599999999,1498.0
1.4594581127166748,158,106.2585,2938.3706565978982,1480,1495.0,1277.5884800000001,1498.0
1.4836881160736084,158,106.2585,2918.2448301828445,1480,1495.0,1281.6666,1498.0
1.5079710483551025,158,106.2585,2918.2448301828445,1480,1495.0,1284.4185600000001,1498.0
1.5322790145874023,158,106.2585,2938.3706565978982,1480,1495.0,1287.1705200000001,1498.0
1.556528091430664,159,106.235,2938.3706565978982,1480,1495.0,1288.6245200000001,1499.0
1.5810599327087402,159,105.2115,2938.3706565978982,1480.0,1495.0,1292.75236,1499.0
1.605417013168335,159,105.2115,2938.3706565978982,1481.0,1495.0,1294.2919999999999,1499.0
1.6297509670257568,159,104.2115,2918.2448301828445,1482.0,1495.0,1298.43968,1499.0
1.6540601253509521,160,104.2115,2898.1190037677907,1486.0,1495.0,1301.3873599999999,1500.0
1.6783959865570068,160,104.2585,2898.1190037677907,1488.0,1495.0,1304.14516,1500.0
1.7027249336242676,160,105.2585,2918.2448301828445,1490.0,1495.0,1301.4535599999999,1500.0
1.7271020412445068,161,105.3055,2918.2448301828445,1495.0,1495.0,1299.83788,1501.0
1.7515110969543457,161,105.3055,2898.1190037677907,1498.0,1495.0,1295.4785999999999,1501.0
1.7758209705352783,161,105.3055,2877.9931773527364,1501.0,1495.0,1291.11932,1501.0
1.800140142440796,161,105.3055,2877.9931773527364,1503.0,1495.0,1286.9236000000001,1501.0
1.8244991302490234,161,104.3055,2877.9931773527364,1505.0,1495.0,1289.5598400000001,1501.0
1.8488309383392334,162,103.282,2857.8673509376827,1510.0,1495.0,1293.82972,1502.0
1.8731579780578613,162,103.282,2857.8673509376827,1513.0,1495.0,1298.2314000000001,1502.0
1.897529125213623,162,103.282,2877.9931773527364,1515.0,1495.0,1302.6330800000001,1502.0
1.9219510555267334,163,102.282,2877.9931773527364,1520.0,1495.0,1309.6108400000001,1503.0
1.946295976638794,163,102.282,2877.9931773527364,1520,1495.0,1311.2285999999999,1503.0
1.9707131385803223,163,101.2585,2898.1190037677907,1520,1495.0,1312.61868,1503.0
1.994981050491333,163,101.2585,2918.2448301828445,1520,1495.0,1312.7805599999999,1503.0
2.0192201137542725,164,101.2585,2938.3706565978982,1520,1495.0,1312.94244,1504.0
2.043437957763672,164,100.282,2918.2448301828445,1520,1495.0,1312.88228,1504.0
2.067702054977417,164,100.282,2938.3706565978982,1520,1495.0,1313.0103200000001,1504.0
2.0920250415802,163,100.3055,2981.7185904149383,1520,1495.0,1311.60248,1503.0
2.1163270473480225,164,100.3055,3001.844416829992,1520,1495.0,1310.2228399999999,1504.0
2.140730142593384,163,100.329,3025.0665242319774,1520,1495.0,1308.78116,1503.0
2.164952039718628,164,100.3525,3045.1923506470312,1520,1495.0,1305.9314400000001,1504.0
2.189188003540039,164,100.3525,3045.1923506470312,1520,1495.0,1303.1099199999999,1504.0
2.2134439945220947,164,100.376,3045.1923506470312,1520,1495.0,1301.6841199999999,1504.0
2.2377679347991943,163,99.3525,3068.4144580490165,1520,1495.0,1302.98856,1503.0
2.262126922607422,163,99.3525,3091.6365654510018,1520,1495.0,1303.1306,1503.0
2.286386013031006,164,98.329,3134.9844992680419,1520,1495.0,1307.36852,1504.0
2.3107340335845947,163,98.329,3158.2066066700272,1520,1495.0,1310.37824,1503.0
2.335287094116211,163,98.329,3185.2990653056768,1520,1495.0,1313.4218000000001,1503.0
2.3595519065856934,163,98.329,3235.6136313433117,1520,1495.0,1313.5995600000001,1503.0
2.383786916732788,163,98.3525,3262.7060899789617,1520,1495.0,1313.6833200000001,1503.0
2.4080569744110107,163,98.376,3313.0206560165971,1520,1495.0,1310.83548,1503.0
2.4322690963745117,163,98.376,3363.335222054232,1520,1495.0,1308.01584,1503.0
2.45648193359375,162,98.376,3413.6497880918673,1520,1495.0,1305.1642400000001,1502.0
2.4809839725494385,162,97.3525,3413.6497880918673,1520,1495.0,1306.4066399999999,1502.0
