time,x,y,size_inv,roll,pitch,thrust,yaw
0.0008029937744140625,153,43.0,4696.0261635126217,1498.3900000000001,1504.6821177358067,1350,1499.972
0.02351689338684082,153,42.953,4696.0261635126217,1498.1800000000001,1504.6821177358067,1350,1499.972
0.04620003700256348,153,42.953,4696.0261635126217,1497.97,1504.6821177358067,1350,1499.972
0.06872296333312988,153,42.953,4696.0261635126217,1497.76,1504.6821177358067,1350,1499.972
0.09125399589538574,153,42.953,4696.0261635126217,1497.55,1504.6821177358067,1350,1499.972
0.11381292343139648,153,42.953,4696.0261635126217,1497.3399999999999,1504.6821177358067,1350,1499.972
0.13632893562316895,153,43.953,4754.7264905565298,1497.1300000000001,1504.9462692075044,1350,1499.972
0.1588289737701416,153,43.953,4707.7662289214031,1496.9200000000001,1504.7349480301464,1350,1499.972
0.18129587173461914,153,43.953,4660.8059672862773,1496.71,1504.5236268527883,1350,1499.972
0.2038109302520752,153,43.953,4660.8059672862773,1496.5,1504.5236268527883,1350,1499.972
0.2263638973236084,153,43.953,4660.8059672862773,1496.5,1503.1148190037345,1350,1499.972
0.24938607215881348,153,43.953,4660.8059672862773,1496.5,1497.009984991168,1350,1499.972
0.27246594429016113,153,43.953,4660.8059672862773,1496.5,1494.6619719094117,1350,1499.972
0.2953779697418213,153,44.9765,4660.8059672862773,1496.5,1496.0707797584655,1350,1499.972
0.3183169364929199,153,43.9765,4660.8059672862773,1496.5,1497.4795876075193,1350,1499.972
0.3412959575653076,154,43.9765,4660.8059672862773,1498.9300000000001,1498.8883954565733,1350,1499.9760000000001
0.36428093910217285,154,46.0235,4555.1453786072434,1501.1600000000001,1497.9433201911665,1350,1499.9760000000001
0.38721299171447754,155,47.141,4602.1056402423692,1505.8199999999999,1497.6850387521731,1350,1499.98
0.4102499485015869,155,49.235,4649.065901877495,1510.28,1497.4267573131797,1350,1499.98
0.433243989944458,155,51.2585,4602.1056402423692,1514.74,1494.8674230540653,1350,1499.98
0.45615506172180176,155,52.282,4602.1056402423692,1514.8,1492.5194099723092,1343.4442799999999,1499.98
0.4790780544281006,156,52.2585,4602.1056402423692,1517.29,1498.6242439848756,1337.30996,1499.9839999999999
0.5024750232696533,156,52.1645,4602.1056402423692,1515.1800000000001,1500.972257066632,1334.5246000000002,1499.9839999999999
0.5256800651550293,157,52.1175,4555.1453786072434,1515.5,1497.4737175748151,1336.2217599999999,1499.9880000000001
0.5488710403442383,157,52.0705,4508.1851169721176,1515.6199999999999,1495.8535885484032,1345.0124000000001,1499.9880000000001
0.5722930431365967,157,52.0705,4508.1851169721176,1517.9100000000001,1494.4447806993492,1350,1499.9880000000001
0.5954380035400391,156,53.0705,4555.1453786072434,1513.3699999999999,1490.8992809458973,1350,1499.9839999999999
0.6186299324035645,156,55.1175,4508.1851169721176,1511.2,1486.9311388377291,1350,1499.9839999999999
0.6420278549194336,156,56.1645,4461.2248553369918,1504.6300000000001,1486.7198176603711,1350,1499.9839999999999
0.6652069091796875,156,58.2115,4461.2248553369918,1498.0599999999999,1488.5982281257761,1349.4869999999999,1499.9839999999999
0.6885020732879639,156,60.2585,4414.264593701866,1491.49,1488.3869069484183,1334.9522400000001,1499.9839999999999
0.7119190692901611,156,64.3055,4367.3043320667402,1491.49,1482.540354374845,1315.0217600000001,1499.9839999999999
0.7351388931274414,156,65.329,4320.3440704316145,1491.49,1478.5722122666771,1303.10508,1499.9839999999999
0.7583370208740234,156,66.3055,4320.3440704316145,1493.6600000000001,1476.693801801272,1292.8341600000001,1499.9839999999999
0.7815079689025879,156,67.282,4320.3440704316145,1495.8299999999999,1472.9369808704619,1286.9526000000001,1499.9839999999999
0.804732084274292,156,67.2585,4273.3838087964887,1498.0,1470.8472492276985,1288.03648,1499.9839999999999
0.8279280662536621,156,68.2585,4226.4235471613629,1498.0,1472.5143385157455,1296.4237599999999,1499.9839999999999
0.8511979579925537,156,69.282,4226.4235471613629,1498.0,1476.2711594465554,1303.3908799999999,1499.9839999999999
0.8744769096374512,156,74.3995,4226.4235471613629,1498.0,1478.1495699119605,1299.3862799999999,1499.9839999999999
0.8979489803314209,155,76.4935,4273.3838087964887,1495.5699999999999,1482.1177120201287,1295.9447999999998,1499.98
0.9211690425872803,155,79.611,4320.3440704316145,1493.3399999999999,1489.8426750591073,1283.9362000000001,1499.98
0.9443860054016113,154,82.705,4367.3043320667402,1488.6800000000001,1501.3244590288955,1264.7965200000001,1499.9760000000001
0.9676048755645752,154,85.7755,4367.3043320667402,1484.22,1510.7165113559206,1250,1499.9760000000001
0.9908368587493896,154,87.799,4367.3043320667402,1480,1520.1085636829457,1250,1499.9760000000001
1.0140540599822998,153,88.799,4367.3043320667402,1480,1525.7437950791609,1250,1499.972
1.0371458530426025,153,88.7285,4367.3043320667402,1480,1525.7437950791605,1250,1499.972
1.060365915298462,152,87.6345,4367.3043320667402,1480,1520.1085636829455,1250,1499.9680000000001
1.0835988521575928,152,85.517,4414.264593701866,1480,1516.5630639294934,1268.5901999999999,1499.9680000000001
1.106806993484497,152,84.3995,4414.264593701866,1480,1512.8062429986835,1293.0498,1499.9680000000001
1.1301159858703613,152,82.2115,4414.264593701866,1480,1510.9278325332784,1321.89688,1499.9680000000001
1.153433084487915,152,81.1175,4367.3043320667402,1480,1508.8381008905155,1346.5693200000001,1499.9680000000001
1.176671028137207,151,80.047,4320.3440704316145,1480.55,1506.7483692477524,1350,1499.9639999999999
1.1998329162597656,151,79.0235,4367.3043320667402,1482.6600000000001,1503.2028694943006,1350,1499.9639999999999
1.2233219146728516,151,79.0235,4367.3043320667402,1484.77,1499.4460485634904,1350,1499.9639999999999
1.2465519905090332,150,81.0235,4367.3043320667402,1482.28,1495.6892276326803,1350,1499.96
1.2697410583496094,150,82.094,4367.3043320667402,1480,1495.6892276326801,1350,1499.96
1.2931239604949951,149,83.141,4367.3043320667402,1480,1499.4460485634902,1340.10868,1499.9559999999999
1.3163139820098877,149,84.1645,4320.3440704316145,1480,1499.2347273861321,1322.6462799999999,1499.9559999999999
1.3394930362701416,149,85.2115,4367.3043320667402,1480,1501.3244590288953,1305.1677999999999,1499.9559999999999
1.362982988357544,148,86.235,4367.3043320667402,1480,1503.2028694943001,1294.81936,1499.952
1.3861720561981201,148,87.235,4367.3043320667402,1480,1503.2028694943006,1287.5443600000001,1499.952
1.409316062927246,147,88.235,4367.3043320667402,1480,1501.3244590288955,1283.21684,1499.9480000000001
1.432800054550171,147,88.235,4320.3440704316145,1480,1502.9915483169425,1284.34708,1499.9480000000001
1.4559500217437744,147,88.2115,4367.3043320667402,1480,1503.2028694943006,1288.4709600000001,1499.9480000000001
1.4790990352630615,147,88.1645,4367.3043320667402,1480,1503.2028694943006,1292.8365200000001,1499.9480000000001
1.5024409294128418,146,88.1175,4367.3043320667402,1480,1503.2028694943001,1298.6138800000001,1499.944
1.5255539417266846,146,88.094,4367.3043320667402,1480,1503.2028694943001,1305.77296,1499.944
1.5487799644470215,146,88.094,4367.3043320667402,1480,1505.0812799597052,1311.51188,1499.944
1.5721409320831299,146,88.0705,4367.3043320667402,1480.04,1505.0812799597052,1315.82312,1499.944
1.5954408645629883,145,89.0705,4320.3440704316145,1480,1502.991548316942,1315.9426000000001,1499.9400000000001
1.6186459064483643,145,90.094,4320.3440704316145,1480,1501.1131378515374,1313.06844,1499.9400000000001
1.6420478820800781,145,90.094,4320.3440704316145,1480,1499.2347273861324,1309.99668,1499.9400000000001
1.6652178764343262,145,90.094,4320.3440704316145,1480,1495.4779064553222,1306.9249200000002,1499.9400000000001
1.688382863998413,144,90.094,4234.9617765495668,1480,1489.799983912166,1303.8193200000001,1499.9359999999999
1.711719036102295,145,91.094,4234.9617765495668,1481.5899999999999,1488.2631026222891,1300.9376400000001,1499.9400000000001
1.7349400520324707,144,91.094,4234.9617765495668,1481.3299999999999,1486.726221332412,1302.18568,1499.9359999999999
1.7581560611724854,144,91.094,4196.5397443026459,1481.27,1483.4795596075473,1303.46568,1499.9359999999999
1.7815918922424316,144,92.1175,4158.117712055724,1481.21,1478.6960165928056,1302.0436399999999,1499.9359999999999
1.8049569129943848,144,93.141,4111.1574504205983,1485.55,1478.8262245909757,1299.1797199999999,1499.9359999999999
1.8281960487365723,144,94.188,4111.1574504205983,1483.3199999999999,1477.2893433010988,1296.21992,1499.9359999999999
1.8513739109039307,144,95.2585,4072.7354181736773,1485.49,1474.0426815762344,1290.29844,1499.9359999999999
1.8746559619903564,144,96.329,4034.3133859267559,1487.6600000000001,1472.3329011412463,1282.8354400000001,1499.9359999999999
1.8978948593139648,144,98.3995,4034.3133859267559,1489.8299999999999,1473.8697824311232,1274.05672,1499.9359999999999
1.9209179878234863,144,99.4465,4034.3133859267559,1489.8299999999999,1475.7481928965281,1267.8643199999999,1499.9359999999999
1.9438750743865967,143,103.517,4034.3133859267559,1489.5699999999999,1477.6266033619331,1253.7538,1499.932
1.966836929321289,143,104.611,4034.3133859267559,1487.3399999999999,1482.5787764070917,1250,1499.932
1.9897189140319824,144,105.6815,4034.3133859267559,1487.54,1489.0678307421274,1250,1499.9359999999999
2.0127639770507812,143,106.7285,4034.3133859267559,1485.1099999999999,1494.020003787286,1250,1499.932
2.0356619358062744,143,107.7755,3995.8913536798345,1482.8800000000001,1495.3839859320517,1250,1499.932
2.0585858821868896,143,108.799,3995.8913536798345,1485.05,1496.9208672219286,1250,1499.932
2.081515073776245,143,108.8225,3995.8913536798345,1487.22,1496.9208672219288,1250,1499.932
2.1044669151306152,143,108.799,4034.3133859267559,1484.99,1497.09376636704,1250,1499.932
2.127403974533081,143,107.7755,3995.8913536798345,1487.1600000000001,1495.3839859320519,1257.4093600000001,1499.932
2.150546073913574,143,105.7285,3995.8913536798345,1489.3299999999999,1496.9208672219288,1274.1408799999999,1499.932
2.1736340522766113,144,104.6815,3957.4693214329136,1491.76,1496.7479680768176,1288.51,1499.9359999999999
2.1966569423675537,144,103.6815,3919.0472891859922,1493.99,1495.0381876418296,1302.84068,1499.9359999999999
2.219627857208252,144,102.611,3919.0472891859922,1498.3900000000001,1490.427543772199,1317.2758000000001,1499.9359999999999
2.2426869869232178,144,102.611,3919.0472891859922,1500.6199999999999,1488.8906624823221,1326.1366,1499.9359999999999
2.2656679153442383,144,101.6345,3919.0472891859922,1502.8499999999999,1485.8168999025684,1330.41984,1499.9359999999999
2.288663864135742,144,101.6345,3880.6252569390708,1500.6800000000001,1484.1071194675806,1329.2077199999999,1499.9359999999999
2.3116440773010254,145,101.6815,3880.6252569390708,1500.9400000000001,1485.6440007574572,1325.0395599999999,1499.9400000000001
2.3346750736236572,145,101.7285,3842.2032246921494,1501.0,1487.0079829022229,1317.8382799999999,1499.9400000000001
2.357630968093872,145,101.752,3842.2032246921494,1501.0599999999999,1487.0079829022231,1312.02332,1499.9400000000001
2.380699872970581,145,101.799,3842.2032246921494,1501.1199999999999,1487.0079829022229,1306.1622,1499.9400000000001
2.4037299156188965,146,102.8225,3880.6252569390708,1505.78,1490.2546446270878,1299.07936,1499.944
2.4266738891601562,146,102.8225,3919.0472891859922,1505.8399999999999,1493.5013063519527,1294.71632,1499.944
2.4496569633483887,146,101.846,3919.0472891859922,1505.9000000000001,1499.6488315114602,1294.51872,1499.944
2.472722053527832,147,101.8225,3919.0472891859922,1508.3900000000001,1505.7963566709675,1293.2771599999999,1499.9480000000001
2.4965200424194336,147,100.8225,3919.0472891859922,1510.6800000000001,1511.943881830475,1296.1070399999999,1499.9480000000001
2.5220389366149902,148,99.7755,3957.4693214329136,1511.0,1515.1905435553399,1303.3668,1499.952
2.547553062438965,148,98.7285,3995.8913536798345,1513.29,1516.9003239903277,1312.07032,1499.952
2.5732460021972656,149,96.6815,4034.3133859267559,1518.01,1518.6101044253157,1322.1233999999999,1499.9559999999999
2.5987398624420166,149,95.5875,4072.7354181736773,1518.1300000000001,1521.8567661501806,1332.5104799999999,1499.9559999999999
2.6241588592529297,149,91.517,4111.1574504205983,1518.25,1526.6403091649222,1349.46696,1499.9559999999999
2.6498239040374756,150,89.423,4111.1574504205983,1518.5699999999999,1529.7140717446757,1350,1499.96
2.675482988357544,150,87.3525,4072.7354181736773,1518.6900000000001,1529.541172599565,1350,1499.96
2.7013540267944336,150,86.2585,4111.1574504205983,1514.4100000000001,1528.1771904547991,1350,1499.96
2.7272448539733887,151,82.1645,4149.5794826675201,1514.73,1525.2763270201567,1350,1499.9639999999999
2.7532200813293457,152,80.1175,4149.5794826675201,1517.28,1519.1288018606492,1350,1499.9680000000001
2.7790310382843018,152,78.0,4111.1574504205983,1517.4000000000001,1512.8083775560308,1350,1499.9680000000001
2.805126905441284,152,76.9295,4111.1574504205983,1517.52,1511.2714962661537,1350,1499.9680000000001
2.8310749530792236,152,73.8355,4111.1574504205983,1519.8099999999999,1508.1977336864002,1350,1499.9680000000001
2.856942892074585,152,71.7885,4072.7354181736773,1517.7,1501.8773093817815,1350,1499.9680000000001
2.8827390670776367,152,70.765,4034.3133859267559,1511.1900000000001,1495.5568850771629,1350,1499.9680000000001
2.908621072769165,152,70.765,4034.3133859267559,1506.8499999999999,1492.4831224974093,1350,1499.9680000000001
2.934480905532837,152,70.812,4034.3133859267559,1502.51,1487.8724786277789,1350,1499.9680000000001
2.9602460861206055,152,71.859,4034.3133859267559,1498.1700000000001,1484.798716048025,1350,1499.9680000000001
2.9860498905181885,152,71.9295,3995.8913536798345,1496.0,1484.6258169029136,1350,1499.9680000000001
3.0119709968566895,152,72.9765,4034.3133859267559,1496.0,1489.4093599176554,1350,1499.9680000000001
3.037869930267334,153,74.0235,4034.3133859267559,1498.4300000000001,1492.4831224974093,1345.6206400000001,1499.972
3.063689947128296,153,75.094,4034.3133859267559,1500.6600000000001,1495.5568850771629,1329.85016,1499.972
3.0895800590515137,153,75.1645,3995.8913536798345,1502.8900000000001,1496.9208672219286,1322.3175999999999,1499.972
3.1159310340881348,153,76.188,3995.8913536798345,1505.1199999999999,1499.9946298016825,1315.1489199999999,1499.972
3.141800880432129,153,76.2115,3995.8913536798345,1507.3499999999999,1498.4577485118057,1313.4699599999999,1499.972
3.167736053466797,153,76.2115,3957.4693214329136,1505.1800000000001,1495.2110867869405,1314.7508,1499.972
3.1935770511627197,153,76.2115,3957.4693214329136,1503.01,1492.1373242071872,1318.9651200000001,1499.972
3.219536066055298,153,75.1645,3919.0472891859922,1500.8399999999999,1490.4275437721992,1324.7169999999999,1499.972
3.2455480098724365,153,74.141,3919.0472891859922,1498.6700000000001,1487.3537811924455,1334.68444,1499.972
3.2716288566589355,153,74.094,3919.0472891859922,1496.5,1485.8168999025684,1342.1896400000001,1499.972
3.2975449562072754,153,73.094,3919.0472891859922,1496.5,1487.3537811924452,1350,1499.972
3.3233768939971924,153,74.141,3880.6252569390708,1496.5,1487.1808820473343,1350,1499.972
3.349169969558716,153,75.188,3919.0472891859922,1496.5,1490.4275437721992,1350,1499.972
3.3751630783081055,153,76.235,3957.4693214329136,1496.5,1495.2110867869408,1345.75352,1499.972
3.401236057281494,153,77.3055,3995.8913536798345,1496.5,1501.5315110915594,1336.9645600000001,1499.972
3.4274539947509766,153,78.3525,3995.8913536798345,1496.5,1506.14215496119,1323.8961199999999,1499.972
3.4534430503845215,153,78.376,3995.8913536798345,1496.5,1513.826561410574,1314.95364,1499.972
3.4793858528137207,153,78.3525,3995.8913536798345,1496.5,1516.9003239903277,1310.4569200000001,1499.972
3.505565881729126,153,78.3055,3995.8913536798345,1496.5,1516.9003239903277,1310.3796400000001,1499.972
3.5317459106445312,153,76.2585,3957.4693214329136,1496.5,1512.1167809755859,1318.71136,1499.972
3.55771803855896,153,75.141,3957.4693214329136,1496.5,1507.5061371059555,1331.8284799999999,1499.972
3.5837600231170654,154,74.0705,3995.8913536798345,1498.9300000000001,1503.0683923814361,1345.0726,1499.9760000000001
3.609744071960449,154,70.953,3957.4693214329136,1501.1600000000001,1498.2848493666945,1350,1499.9760000000001
3.6356170177459717,155,69.9295,3919.0472891859922,1505.8199999999999,1493.5013063519527,1350,1499.98
3.6619510650634766,154,69.906,3880.6252569390708,1507.8499999999999,1491.7915259169647,1350,1499.9760000000001
3.687721014022827,154,69.9295,3880.6252569390708,1510.0799999999999,1490.2546446270878,1350,1499.9760000000001
3.7135040760040283,153,72.0,3880.6252569390708,1505.48,1485.6440007574574,1350,1499.972
3.7394189834594727,154,73.0705,3880.6252569390708,1503.51,1484.1071194675806,1350,1499.9760000000001
3.765338897705078,153,74.1645,3880.6252569390708,1494.51,1485.6440007574572,1350,1499.972
3.7912540435791016,153,76.2115,3848.6068967333026,1490.1099999999999,1487.2929463080543,1332.00476,1499.972
3.8173649311065674,152,78.3055,3816.5885365275344,1483.28,1487.6611574504204,1310.3428799999999,1499.9680000000001
3.843400001525879,152,79.329,3746.1481440748453,1483.22,1486.5757350394451,1295.74504,1499.9680000000001
3.8693299293518066,153,79.376,3746.1481440748453,1481.1900000000001,1484.2704131046298,1289.4885200000001,1499.972
3.8954110145568848,153,80.376,3714.1297838690771,1485.53,1479.0033928507808,1285.10356,1499.972
3.921220064163208,154,80.3995,3714.1297838690771,1490.1300000000001,1474.9050427444424,1287.62012,1499.9760000000001
3.946776866912842,152,81.3995,3682.1114236633089,1494.0699999999999,1471.9433444254091,1293.3561199999999,1499.9680000000001
3.972158908843994,153,81.3995,3650.0930634575407,1498.6700000000001,1473.3361430943601,1300.34204,1499.972
3.9975829124450684,153,82.4465,3618.0747032517729,1500.8399999999999,1473.4482073550803,1303.2395999999999,1499.972
4.02313494682312,154,84.517,3586.0563430460047,1503.27,1474.841006024031,1303.2395999999999,1499.9760000000001
4.048631906509399,153,85.6345,3618.0747032517729,1498.6700000000001,1476.5219699348338,1300.0558799999999,1499.972
4.0739898681640625,153,87.7285,3650.0930634575407,1500.9000000000001,1480.7644026620981,1292.63716,1499.972
4.0994720458984375,153,89.8225,3650.0930634575407,1498.73,1484.6066058867902,1280.8111200000001,1499.972
4.125191926956177,153,92.9165,3618.0747032517729,1498.73,1489.5854608987872,1266.1974,1499.972
4.150699853897095,153,92.9635,3650.0930634575407,1494.3299999999999,1497.4139499690975,1259.6098,1499.972
4.176199913024902,153,93.9635,3618.0747032517729,1496.5,1501.1120705728638,1253.5356400000001,1499.972
4.201701879501343,153,92.9635,3650.0930634575407,1494.3299999999999,1502.5368876020204,1255.80468,1499.972
4.227419853210449,153,91.9165,3650.0930634575407,1494.3299999999999,1502.5368876020202,1265.501,1499.972
4.25294303894043,153,89.8225,3682.1114236633089,1494.3299999999999,1505.2424390394078,1286.7083600000001,1499.972
4.278298854827881,153,88.752,3682.1114236633089,1496.5,1503.9617046311769,1305.54476,1499.972
4.303664922714233,153,87.6815,3650.0930634575407,1496.5,1505.0983564184819,1327.2028800000001,1499.972
4.3291590213775635,152,85.658,3618.0747032517729,1494.0699999999999,1503.6735393893252,1347.2706000000001,1499.9680000000001
4.354887008666992,152,84.6345,3618.0747032517729,1491.8399999999999,1502.3928049810945,1350,1499.9680000000001
4.380465984344482,152,83.611,3618.0747032517729,1489.6099999999999,1497.2698673481716,1350,1499.9680000000001
4.405968904495239,152,82.611,3618.0747032517729,1487.3800000000001,1493.4276641234794,1350,1499.9680000000001
4.430922031402588,152,82.611,3618.0747032517729,1485.1500000000001,1490.866195307018,1350,1499.9680000000001
4.455749034881592,153,81.611,3586.0563430460047,1489.75,1490.722112686092,1350,1499.972
4.480715990066528,152,80.5875,3618.0747032517729,1491.72,1492.1469297152487,1350,1499.9680000000001
4.5057690143585205,153,80.5875,3586.0563430460047,1496.3199999999999,1493.2835815025535,1350,1499.972
4.530674934387207,152,80.611,3586.0563430460047,1498.29,1494.564315910784,1350,1499.9680000000001
4.555613040924072,152,79.611,3586.0563430460047,1500.46,1494.564315910784,1350,1499.9680000000001
4.580674886703491,152,79.6345,3586.0563430460047,1496.0599999999999,1495.8450503190147,1350,1499.9680000000001
4.605751037597656,152,79.6345,3586.0563430460047,1496.0599999999999,1494.564315910784,1347.3284000000001,1499.9680000000001
4.630990028381348,152,79.611,3586.0563430460047,1491.6600000000001,1495.8450503190147,1344.6508000000001,1499.9680000000001
4.655997037887573,152,78.611,3586.0563430460047,1491.6600000000001,1497.1257847272457,1346.0108,1499.9680000000001
4.681055068969727,151,77.564,3586.0563430460047,1489.23,1498.4065191354762,1346.1348800000001,1499.9639999999999
4.705983877182007,151,76.5405,3618.0747032517729,1489.1700000000001,1499.8313361646331,1349.1304,1499.9639999999999
4.7308878898620605,151,76.517,3586.0563430460047,1486.9400000000001,1500.9679879519379,1350,1499.9639999999999
4.755785942077637,151,75.517,3618.0747032517729,1486.8800000000001,1502.3928049810943,1350,1499.9639999999999
4.7807838916778564,151,75.4935,3650.0930634575407,1484.6500000000001,1505.0983564184817,1350,1499.9639999999999
4.8058249950408936,151,75.4935,3682.1114236633089,1486.8199999999999,1509.0846422640998,1350,1499.9639999999999
4.8307719230651855,151,74.4935,3714.1297838690771,1488.99,1511.7901937014872,1350,1499.9639999999999
4.855622053146362,151,74.47,3746.1481440748453,1491.1600000000001,1518.337948363567,1350,1499.9639999999999
4.880501985549927,151,74.4465,3746.1481440748453,1493.3299999999999,1522.1801515882592,1350,1499.9639999999999
4.905387878417969,151,73.423,3746.1481440748453,1495.5,1523.4608859964899,1350,1499.9639999999999
4.930361032485962,151,72.376,3778.1665042806135,1495.5,1523.6049686174158,1350,1499.9639999999999
4.9552998542785645,151,71.329,3778.1665042806135,1495.5,1522.3242342091851,1350,1499.9639999999999
4.980295896530151,151,70.235,3810.1848644863812,1495.5,1518.6261136054188,1350,1499.9639999999999
5.005209922790527,151,69.094,3810.1848644863812,1495.5,1516.0646447889574,1350,1499.9639999999999
5.030016899108887,151,66.0,3810.1848644863812,1495.5,1514.7839103807266,1350,1499.9639999999999
5.054970026016235,151,64.9295,3810.1848644863812,1495.5,1512.222441564265,1350,1499.9639999999999
5.079635858535767,151,63.8355,3810.1848644863812,1495.5,1510.9417071560345,1350,1499.9639999999999
5.1047399044036865,151,63.812,3778.1665042806135,1495.5,1506.9554213104166,1350,1499.9639999999999
5.1295740604400635,151,62.812,3810.1848644863812,1495.5,1504.538035114881,1350,1499.9639999999999
5.154429912567139,151,63.812,3778.1665042806135,1495.5,1500.5517492692629,1350,1499.9639999999999
5.179143905639648,152,63.812,3778.1665042806135,1497.9300000000001,1497.9902804528017,1350,1499.9680000000001
5.204101085662842,152,64.8355,3746.1481440748453,1500.1600000000001,1494.0039946071834,1350,1499.9680000000001
5.228954076766968,152,64.8355,3746.1481440748453,1502.3900000000001,1494.0039946071831,1350,1499.9680000000001
5.253818988800049,152,65.859,3746.1481440748453,1504.6199999999999,1491.4425257907217,1350,1499.9680000000001
5.27865195274353,152,66.8825,3714.1297838690771,1506.8499999999999,1490.017708761565,1344.0910800000001,1499.9680000000001
5.303518056869507,152,67.8825,3682.1114236633089,1504.6800000000001,1487.3121573241779,1335.5097600000001,1499.9680000000001
5.3282859325408936,152,67.906,3682.1114236633089,1502.51,1487.3121573241776,1332.42004,1499.9680000000001
5.353172063827515,152,68.9295,3682.1114236633089,1500.3399999999999,1486.0314229159469,1326.6884400000001,1499.9680000000001
5.378010988235474,153,70.9765,3650.0930634575407,1500.5999999999999,1484.6066058867902,1321.00676,1499.972
5.402935028076172,152,72.047,3650.0930634575407,1498.23,1484.6066058867902,1316.4611599999998,1499.9680000000001
5.427835941314697,152,73.094,3618.0747032517729,1498.23,1485.743257674095,1313.2360799999999,1499.9680000000001
5.452730894088745,152,75.141,3618.0747032517729,1498.23,1485.743257674095,1304.5371600000001,1499.9680000000001
5.477532863616943,152,76.2115,3586.0563430460047,1498.23,1484.3184406449384,1298.3343199999999,1499.9680000000001
5.502527952194214,152,78.2585,3586.0563430460047,1493.8299999999999,1485.5991750531691,1292.3516399999999,1499.9680000000001
5.527540922164917,153,80.282,3586.0563430460047,1496.26,1485.5991750531689,1285.0887600000001,1499.972
5.552344083786011,153,80.329,3558.9638844103551,1498.49,1485.6742950521134,1281.7016000000001,1499.972
5.577477931976318,153,81.329,3526.9455242045869,1500.72,1484.4465140857615,1281.43048,1499.972
5.602340936660767,153,82.3525,3526.9455242045869,1502.95,1485.9242845567969,1281.2627600000001,1499.972
5.627245903015137,154,83.376,3499.8530655689378,1509.78,1484.9157062103152,1282.56888,1499.9760000000001
5.652132034301758,153,84.3995,3499.8530655689378,1507.4100000000001,1484.0290439276941,1286.6110799999999,1499.972
5.67699408531189,153,85.423,3499.8530655689378,1505.24,1484.0290439276941,1287.8871199999999,1499.972
5.701835870742798,153,85.47,3472.7606069332878,1503.0699999999999,1485.3848983348689,1290.2833599999999,1499.972
5.726726055145264,153,87.517,3445.6681482976373,1500.9000000000001,1484.3763199883874,1288.7418400000001,1499.972
5.751683950424194,153,88.5405,3386.55732945622,1494.3299999999999,1483.026622958175,1287.03656,1499.972
5.7765350341796875,152,88.5875,3359.46487082057,1491.9000000000001,1480.7373102034626,1286.5492400000001,1499.9680000000001
5.8014750480651855,152,89.611,3359.46487082057,1489.6700000000001,1477.4862151671846,1286.2181599999999,1499.9680000000001
5.826581001281738,152,89.6345,3332.37241218492,1487.4400000000001,1473.9161680042414,1285.82484,1499.9680000000001
5.8516929149627686,152,91.705,3282.0578461472846,1485.21,1470.3964354073357,1284.3332399999999,1499.9680000000001
5.8766210079193115,152,92.752,3258.8357387452993,1485.1500000000001,1469.7149017400989,1284.0360000000001,1499.9680000000001
5.9016640186309814,152,92.8225,3231.7432801096497,1487.3199999999999,1470.0996498377363,1283.5486799999999,1499.9680000000001
5.926667928695679,152,93.8695,3204.6508214739997,1489.49,1469.4006995899476,1281.85572,1499.9680000000001
5.951680898666382,152,94.9165,3181.4287140720144,1491.6600000000001,1468.8739799720572,1278.65696,1499.9680000000001
5.976638078689575,152,96.0105,3181.4287140720144,1493.8299999999999,1471.3932267750606,1276.8399200000001,1499.9680000000001
6.001608848571777,152,97.081,3181.4287140720144,1496.0,1473.4058094165659,1275.0491999999999,1499.9680000000001
6.026628017425537,151,98.1985,3181.4287140720144,1493.5699999999999,1476.5020904034975,1271.7263600000001,1499.9639999999999
6.051655054092407,151,99.2455,3181.4287140720144,1491.3399999999999,1481.7657680812808,1268.52008,1499.9639999999999
6.076708078384399,151,100.3395,3181.4287140720144,1489.1099999999999,1487.8035160057971,1266.58168,1499.9639999999999
6.101640939712524,151,101.41,3204.6508214739997,1486.8800000000001,1492.8620650681962,1263.3772799999999,1499.9639999999999
6.126652002334595,152,101.4335,3254.9653875116351,1487.0799999999999,1499.1262285398818,1262.96892,1499.9680000000001
6.15156102180481,152,100.41,3254.9653875116351,1491.48,1504.080278118972,1268.32392,1499.9680000000001
6.176539897918701,152,99.3865,3254.9653875116351,1495.8800000000001,1507.9506293526363,1276.6604400000001,1499.9680000000001
6.201617002487183,152,96.316,3305.2799535492704,1500.28,1513.1310944788959,1293.5141599999999,1499.9680000000001
6.226465940475464,152,93.2455,3305.2799535492704,1504.6800000000001,1516.2273754658272,1316.2989600000001,1499.9680000000001
6.251322984695435,152,91.175,3305.2799535492704,1504.6800000000001,1515.2984911697479,1339.4752000000001,1499.9680000000001
6.27630090713501,152,89.0575,3332.37241218492,1502.51,1515.5752212829548,1350,1499.9680000000001
6.301389932632446,153,86.987,3359.46487082057,1502.77,1516.9356497415879,1350,1499.972
6.326189994812012,153,81.8695,3386.55732945622,1502.8299999999999,1515.3546112626361,1350,1499.972
6.351022958755493,153,79.8225,3413.6497880918701,1502.8900000000001,1515.7861554251895,1350,1499.972
6.375874996185303,153,76.752,3386.55732945622,1505.1199999999999,1516.9027517561017,1350,1499.972
6.400805950164795,153,74.6815,3386.55732945622,1507.3499999999999,1515.9738674600223,1350,1499.972
6.425739049911499,153,71.6345,3413.6497880918701,1505.1800000000001,1514.0832008823772,1350,1499.972
6.450662851333618,154,69.5875,3386.55732945622,1505.4400000000001,1510.710189782239,1350,1499.9760000000001
6.476001024246216,154,67.4935,3386.55732945622,1505.5,1505.291698055109,1350,1499.9760000000001
6.500949859619141,154,65.4465,3386.55732945622,1505.5599999999999,1502.040603018831,1350,1499.9760000000001
6.525815010070801,154,64.3995,3386.55732945622,1505.6199999999999,1499.873206327979,1350,1499.9760000000001
6.550864934921265,153,60.3055,3359.46487082057,1505.4200000000001,1495.4164968824145,1350,1499.972
6.575754880905151,154,58.2585,3332.37241218492,1503.45,1493.1271841277021,1350,1499.9760000000001
6.600660085678101,154,57.235,3305.2799535492695,1501.28,1490.8378713729896,1350,1499.9760000000001
6.625459909439087,153,56.235,3305.2799535492695,1496.6800000000001,1487.5867763367116,1350,1499.972
6.65031886100769,154,56.282,3305.2799535492695,1494.71,1484.3356813004336,1350,1499.9760000000001
6.675433874130249,153,57.3525,3254.9653875116346,1494.51,1482.0966831117589,1350,1499.972
6.700346946716309,153,57.3995,3231.7432801096493,1492.28,1480.1344150362911,1350,1499.972
6.72536301612854,153,57.423,3208.5211727076639,1490.05,1479.410659355596,1350,1499.972
6.750176906585693,153,57.4465,3208.5211727076639,1492.22,1478.7914031582097,1350,1499.972
6.775086879730225,153,57.4935,3181.4287140720144,1489.99,1476.9665325515373,1350,1499.972
6.799752950668335,153,57.5405,3181.4287140720144,1489.99,1478.20504494631,1350,1499.972
6.824599027633667,152,58.5875,3181.4287140720144,1489.73,1480.2176275878153,1350,1499.9680000000001
6.849359035491943,152,58.658,3181.4287140720144,1489.6700000000001,1483.0042804760535,1350,1499.9680000000001
6.87428092956543,152,59.705,3181.4287140720144,1487.4400000000001,1485.7909333642917,1350,1499.9680000000001
6.899077892303467,152,60.7755,3181.4287140720144,1487.3800000000001,1490.744982943382,1350,1499.9680000000001
6.923914909362793,152,61.799,3204.6508214739997,1485.1500000000001,1494.7198336603551,1345.25728,1499.9680000000001
6.948760986328125,153,61.8225,3227.8729288759851,1489.75,1498.6946843773283,1342.1863600000001,1499.972
6.97371506690979,152,61.8225,3251.0950362779704,1491.72,1502.6695350943014,1339.30908,1499.9680000000001
6.9987828731536865,151,61.8225,3278.1874949136195,1491.46,1507.7455007372519,1339.3314399999999,1499.9639999999999
7.023717880249023,151,59.752,3278.1874949136195,1491.4000000000001,1511.6158519709161,1347.7534000000001,1499.9639999999999
7.0484230518341064,151,58.705,3278.1874949136195,1491.3399999999999,1513.6284346124214,1350,1499.9639999999999
7.073117971420288,151,57.658,3278.1874949136195,1484.71,1513.7832486617681,1350,1499.9639999999999
7.097766876220703,151,56.564,3278.1874949136195,1482.48,1512.0802941189559,1350,1499.9639999999999
7.122531890869141,152,55.517,3278.1874949136195,1487.0799999999999,1508.2099428852916,1350,1499.9680000000001
7.147500038146973,152,53.4465,3305.2799535492695,1491.48,1505.5452060609139,1350,1499.9680000000001
7.172231912612915,152,51.329,3305.2799535492695,1495.8800000000001,1503.6874374687552,1350,1499.9680000000001
7.196997880935669,152,50.2585,3305.2799535492695,1502.45,1502.7585531726756,1350,1499.9680000000001
7.221766948699951,152,49.1645,3332.37241218492,1506.8499999999999,1503.9641675819621,1350,1499.9680000000001
7.2464680671691895,153,48.141,3305.2799535492695,1507.1099999999999,1504.9259498635276,1350,1499.972
7.2714149951934814,153,47.1175,3305.2799535492695,1507.1700000000001,1503.8422515181016,1350,1499.972
7.296212911605835,153,48.141,3332.37241218492,1507.23,1503.9641675819621,1350,1499.972
7.321048974990845,153,48.1645,3332.37241218492,1507.29,1503.9641675819623,1350,1499.972
7.346013069152832,153,49.188,3332.37241218492,1507.3499999999999,1501.7967708911101,1350,1499.972
7.37087607383728,153,50.2115,3332.37241218492,1505.1800000000001,1501.7967708911101,1350,1499.972
7.395823955535889,154,51.235,3282.0578461472846,1505.4400000000001,1500.6414710478614,1350,1499.9760000000001
7.420748949050903,153,51.235,3282.0578461472846,1503.0699999999999,1497.5451900609301,1350,1499.972
7.445646047592163,153,52.235,3258.8357387452993,1500.9000000000001,1493.4155252946102,1350,1499.972
7.470799922943115,153,52.2115,3208.5211727076644,1498.73,1488.2350601683506,1350,1499.972
7.495713949203491,154,52.2115,3208.5211727076644,1501.1600000000001,1482.1973122438346,1350,1499.9760000000001
7.52049994468689,155,52.188,3208.5211727076644,1501.4200000000001,1480.1847296023291,1350,1499.98
7.545399904251099,154,52.1645,3181.4287140720144,1503.45,1478.0502308969633,1350,1499.9760000000001
7.570275068283081,155,53.2115,3181.4287140720144,1508.1099999999999,1477.8954168476166,1350,1499.98
7.595207929611206,154,54.235,3181.4287140720144,1510.1400000000001,1481.7657680812808,1350,1499.9760000000001
7.620290994644165,154,57.3055,3181.4287140720144,1507.97,1485.6361193149451,1350,1499.9760000000001
7.645216941833496,155,59.423,3204.6508214739997,1506.0,1488.5272716864922,1344.4736800000001,1499.98
7.670219898223877,155,61.517,3204.6508214739997,1506.0599999999999,1493.4813212655824,1329.7574,1499.98
7.695215940475464,156,64.611,3227.8729288759851,1504.1500000000001,1498.5398703279816,1310.9573600000001,1499.9839999999999
7.720294952392578,156,67.658,3251.0950362779704,1506.4400000000001,1502.5147210449547,1290.7238,1499.9839999999999
7.745389938354492,156,68.6815,3251.0950362779704,1510.9000000000001,1506.385072278619,1280.0419999999999,1499.9839999999999
7.770328044891357,156,69.6345,3227.8729288759851,1513.1300000000001,1507.364271140736,1274.0334399999999,1499.9839999999999
7.795424938201904,156,69.5875,3204.6508214739997,1513.1900000000001,1506.3308873613478,1275.1877199999999,1499.9839999999999
7.820664882659912,156,68.4935,3204.6508214739997,1511.02,1503.5442344731096,1286.4130399999999,1499.9839999999999
7.84588098526001,156,67.423,3204.6508214739997,1506.6800000000001,1498.8998129927124,1306.29132,1499.9839999999999
7.870926856994629,157,67.329,3181.4287140720144,1504.77,1493.2220077329271,1323.8230800000001,1499.9880000000001
7.8957860469818115,157,67.282,3158.206606670029,1504.8299999999999,1489.4019710653004,1341.1547200000002,1499.9880000000001
7.920754909515381,156,67.2585,3134.9844992680437,1502.46,1486.5108186937532,1350,1499.9839999999999
7.945723056793213,156,67.2585,3111.7623918660584,1502.46,1483.6196663222061,1350,1499.9839999999999
7.970592975616455,156,68.2585,3088.540284464073,1502.46,1480.7285139506589,1350,1499.9839999999999
7.9954469203948975,156,68.282,3045.1923506470334,1498.0599999999999,1477.8706465997213,1350,1499.9839999999999
8.020449876785278,156,69.3525,3025.0665242319797,1493.6600000000001,1475.2411299715698,1349.143,1499.9839999999999
8.045614004135132,156,71.3995,3004.9406978169254,1493.6600000000001,1472.7354645828955,1337.55612,1499.9839999999999
8.070806980133057,157,74.4465,2961.5927639998858,1496.0899999999999,1470.2491509503895,1321.8694,1499.9880000000001
8.095900058746338,157,75.564,2918.2448301828463,1498.3199999999999,1467.8866885573609,1311.1447599999999,1499.9880000000001
8.121018886566162,157,78.6345,2880.5089056546199,1502.72,1466.5789936342865,1293.8486399999999,1499.9880000000001
8.146163940429688,157,80.7755,2842.7729811263935,1507.1199999999999,1464.4430435472079,1277.6462000000001,1499.9880000000001
8.17126989364624,157,82.846,2822.6471547113397,1509.3499999999999,1462.2624876621617,1264.3104000000001,1499.9880000000001
8.19639801979065,158,85.9165,2802.5213282962859,1509.6099999999999,1461.8158491297968,1253.8846800000001,1499.992
8.221436023712158,158,87.94,2764.7854037680595,1509.6700000000001,1462.3194785840774,1250,1499.992
8.246330976486206,158,89.0105,2747.1753056548869,1509.73,1463.4942269422754,1250,1499.992
8.27131199836731,158,90.034,2747.1753056548869,1509.79,1466.9620616476386,1250,1499.992
8.29620885848999,158,92.128,2747.1753056548869,1509.8499999999999,1471.2349294096039,1250,1499.992
8.321172952651978,158,93.175,2747.1753056548869,1507.6800000000001,1475.3839459320918,1250,1499.992
8.346179962158203,158,94.222,2747.1753056548869,1505.51,1480.8179190641565,1252.5065199999999,1499.992
8.371203899383545,158,95.2925,2764.7854037680595,1503.3399999999999,1486.9349124301818,1256.2872,1499.992
8.396655082702637,158,96.316,2764.7854037680595,1501.1700000000001,1491.463223373569,1258.60448,1499.992
8.421771049499512,158,96.3395,2764.7854037680595,1499.0,1495.1865012603541,1265.1352400000001,1499.992
8.446532964706421,158,95.316,2764.7854037680595,1499.0,1498.104746090537,1273.1519599999999,1499.992
8.471544027328491,157,94.269,2782.3955018812317,1496.5699999999999,1500.2972033056269,1282.8842,1499.9880000000001
8.496628046035767,157,93.222,2782.3955018812317,1494.3399999999999,1500.2972033056269,1295.6656399999999,1499.9880000000001
8.521760940551758,156,90.1515,2782.3955018812317,1489.6800000000001,1500.2972033056269,1316.77064,1499.9839999999999
8.5466148853302,156,88.128,2782.3955018812317,1485.22,1500.2972033056269,1336.7510400000001,1499.9839999999999
8.571606874465942,155,87.1045,2782.3955018812317,1480,1500.2972033056269,1350,1499.98
8.596446990966797,155,86.1045,2782.3955018812317,1480,1498.8883954565731,1350,1499.98
8.621370077133179,154,85.1045,2782.3955018812317,1480,1498.1839915320463,1350,1499.9760000000001
8.646193981170654,154,84.081,2820.1314264094581,1480,1499.1588362490254,1350,1499.9760000000001
8.670988082885742,153,83.0575,2840.2572528245119,1480,1500.8594685810974,1350,1499.972
8.695832014083862,153,80.987,2840.2572528245119,1480,1502.4695346943017,1350,1499.972
8.720738887786865,153,79.94,2860.3830792395661,1480,1505.6796040075028,1350,1499.972
8.745589971542358,153,77.893,2898.1190037677925,1480,1510.4783557433423,1350,1499.972
8.770606994628906,152,75.846,2918.2448301828463,1480,1512.9840211320166,1350,1499.9680000000001
8.795660018920898,152,74.8225,2938.3706565979001,1480,1514.6846534640886,1350,1499.9680000000001
8.8207528591156,151,72.7755,2938.3706565979001,1480,1516.2947195772929,1350,1499.9639999999999
8.845706939697266,151,71.7285,2958.4964830129543,1480,1517.1903188527629,1350,1499.9639999999999
8.870670080184937,151,70.6815,2978.6223094280081,1480,1515.8720772225768,1350,1499.9639999999999
8.895562887191772,150,67.5875,2978.6223094280081,1480,1514.3626402414477,1350,1499.96
8.920286893844604,150,65.517,2978.6223094280081,1480,1512.0481702037164,1350,1499.96
8.945397853851318,150,63.4465,2998.7481358430623,1480,1510.6292994414553,1350,1499.96
8.970404863357544,150,61.329,2998.7481358430623,1480,1508.3148294037239,1350,1499.96
8.995576858520508,149,58.282,2998.7481358430623,1480,1505.8997302339176,1350,1499.9559999999999
9.020773887634277,149,57.2115,2998.7481358430623,1480,1504.2896641207133,1350,1499.9559999999999
9.045875072479248,149,55.188,2998.7481358430623,1481.5999999999999,1503.484631064111,1350,1499.9559999999999
9.071234941482544,149,54.141,3018.8739622581161,1481.54,1501.9651311697744,1350,1499.9559999999999
9.09643292427063,149,53.1175,2998.7481358430623,1481.48,1500.2644988377024,1350,1499.9559999999999
9.121705055236816,148,52.1175,2978.6223094280081,1483.3900000000001,1498.5638665056304,1350,1499.952
9.146797895431519,149,52.1175,2958.4964830129543,1485.76,1496.0582011169561,1350,1499.9559999999999
9.171951055526733,149,52.141,2958.4964830129543,1487.9300000000001,1493.6431019471497,1350,1499.9559999999999
9.197148084640503,149,52.1645,2958.4964830129543,1490.0999999999999,1490.4229697207411,1350,1499.9559999999999
9.222162008285522,149,52.1645,2958.4964830129543,1492.27,1488.8129036075368,1350,1499.9559999999999
9.247190952301025,148,52.1645,2958.4964830129543,1494.24,1488.8129036075368,1350,1499.952
9.272098064422607,149,52.188,2958.4964830129543,1494.4400000000001,1490.4229697207411,1350,1499.9559999999999
9.297158002853394,149,52.188,2958.4964830129543,1494.4400000000001,1492.0330358339454,1350,1499.9559999999999
9.322212934494019,149,52.2115,2958.4964830129543,1494.4400000000001,1494.448135003752,1350,1499.9559999999999
9.348384857177734,149,52.2585,2958.4964830129543,1494.4400000000001,1496.0582011169561,1350,1499.9559999999999
9.374279022216797,149,53.3055,2958.4964830129543,1496.6700000000001,1496.8632341735581,1350,1499.9559999999999
9.399029016494751,149,54.376,2958.4964830129543,1496.6700000000001,1496.8632341735581,1350,1499.9559999999999
9.424339056015015,149,55.3995,2958.4964830129543,1496.6700000000001,1496.8632341735581,1350,1499.9559999999999
9.448994874954224,149,56.423,2958.4964830129543,1496.6700000000001,1496.8632341735581,1350,1499.9559999999999
9.47340202331543,149,56.423,2938.3706565979001,1496.6700000000001,1495.9676348980884,1349.9317999999998,1499.9559999999999
9.497905015945435,149,56.423,2918.2448301828463,1494.5,1494.2670025660163,1346.9943599999999,1499.9559999999999
9.522794961929321,149,56.4465,2898.1190037677925,1494.5,1491.7613371773421,1346.9603199999999,1499.9559999999999
9.54780101776123,149,57.47,2877.9931773527383,1494.5,1488.4506387320657,1347.11824,1499.9559999999999
9.572694063186646,149,58.4935,2857.8673509376845,1494.5,1484.3349072301871,1348.6361599999998,1499.9559999999999
9.597254037857056,149,59.4935,2857.8673509376845,1494.5,1481.9198080603808,1348.6783600000001,1499.9559999999999
9.621742010116577,149,59.47,2857.8673509376845,1494.5,1481.1147750037785,1348.5586800000001,1499.9559999999999
9.646309852600098,149,59.47,2857.8673509376845,1494.5,1481.9198080603808,1347.02072,1499.9559999999999
9.67104697227478,150,59.4935,2837.7415245226302,1496.9300000000001,1483.4393079547174,1346.89456,1499.96
9.695746898651123,150,61.5405,2817.6156981075765,1499.1600000000001,1485.763840905656,1342.86636,1499.96
9.720284938812256,150,63.611,2800.0055999944043,1501.3900000000001,1486.5902576528242,1338.62844,1499.96
9.74485993385315,151,64.6815,2800.0055999944043,1506.05,1486.6908867848995,1333.9832000000001,1499.9639999999999
9.769445896148682,151,66.7755,2800.0055999944043,1510.51,1485.9864828603725,1325.0624399999999,1499.9639999999999
9.79432201385498,151,68.799,2782.3955018812317,1510.5699999999999,1485.3034626264116,1311.9862799999999,1499.9639999999999
9.81895899772644,151,70.846,2764.7854037680595,1510.6300000000001,1484.721071524526,1300.27388,1499.9639999999999
9.843463897705078,152,71.846,2747.1753056548869,1513.1199999999999,1484.8430843471672,1292.81528,1499.9680000000001
9.867949962615967,152,71.846,2714.0268856771509,1511.01,1483.5692379223085,1289.5860399999999,1499.9680000000001
9.89258599281311,152,71.8225,2680.8784656994148,1508.9000000000001,1480.9694546983403,1292.2820400000001,1499.9680000000001
9.917248964309692,153,72.7755,2663.2683675862422,1511.3900000000001,1478.3389647906874,1298.0677599999999,1499.972
9.941986083984375,153,72.7755,2645.65826947307,1513.6800000000001,1475.6078457509593,1307.9447600000001,1499.972
9.966433048248291,154,72.7755,2630.1199476085062,1514.0,1472.9689207542942,1317.8058799999999,1499.9760000000001
9.990939855575562,154,73.7755,2612.5098494953336,1516.29,1472.2681424382024,1323.5711200000001,1499.9760000000001
10.015609979629517,154,73.799,2579.3614295175976,1518.5799999999999,1472.8233784728295,1327.56068,1499.9760000000001
10.04026985168457,154,74.8695,2563.8231076530337,1516.47,1473.54073099891,1328.66876,1499.9760000000001
10.06503701210022,154,77.94,2548.2847857884699,1514.3599999999999,1474.340954574935,1320.1713999999999,1499.9760000000001
10.089520931243896,155,80.0105,2532.746463923906,1512.45,1475.0583071010158,1308.53252,1499.98
10.114129066467285,155,82.128,2532.746463923906,1510.3399999999999,1475.9284531254314,1296.5880399999999,1499.98
10.138707876205444,154,83.1985,2532.746463923906,1505.8,1478.1245359489565,1284.4562000000001,1499.9760000000001
10.163336038589478,155,85.2455,2517.2081420593422,1506.0599999999999,1480.1678252741467,1269.9062000000001,1499.98
10.187814950942993,155,86.269,2501.6698201947784,1506.1199999999999,1482.1282435493924,1263.70796,1499.98
10.212297916412354,156,86.269,2501.6698201947784,1506.3800000000001,1484.7801171476112,1264.53532,1499.9839999999999
10.23676586151123,156,86.269,2486.1314983302145,1506.4400000000001,1486.0361314983302,1269.9316799999999,1499.9839999999999
10.261307954788208,156,86.2455,2486.1314983302145,1510.9000000000001,1486.0361314983302,1278.3555199999998,1499.9839999999999
10.286134958267212,157,86.2455,2486.1314983302145,1513.3900000000001,1486.6576643729127,1291.0268799999999,1499.9880000000001
10.3109769821167,157,86.2455,2486.1314983302145,1515.6800000000001,1487.9007301220779,1302.38816,1499.9880000000001
10.33552885055542,156,86.2455,2486.1314983302145,1513.3099999999999,1488.5222629966604,1310.9335599999999,1499.9839999999999
10.360049962997437,157,85.2455,2486.1314983302145,1513.5699999999999,1490.3868616204081,1319.2391599999999,1499.9880000000001
10.384589910507202,157,85.2455,2486.1314983302145,1511.46,1492.2514602441559,1324.8230799999999,1499.9880000000001
10.409367084503174,158,84.222,2486.1314983302145,1509.55,1493.4945259933208,1330.32512,1499.992
10.43398904800415,157,83.1985,2486.1314983302145,1505.01,1494.1160588679033,1335.90904,1499.9880000000001
10.45850396156311,157,82.175,2486.1314983302145,1507.24,1494.7375917424861,1342.9668000000001,1499.9880000000001
10.482995986938477,157,81.1045,2486.1314983302145,1505.0699999999999,1494.7375917424861,1348.82248,1499.9880000000001
10.50749397277832,157,80.0575,2486.1314983302145,1502.9000000000001,1494.7375917424861,1350,1499.9880000000001
10.53188705444336,157,79.0105,2486.1314983302145,1498.5,1494.7375917424861,1350,1499.9880000000001
10.556278944015503,156,76.94,2486.1314983302145,1496.0699999999999,1494.7375917424861,1350,1499.9839999999999
10.580801010131836,156,75.9165,2486.1314983302145,1491.6700000000001,1494.7375917424861,1350,1499.9839999999999
10.60536503791809,156,74.893,2486.1314983302145,1489.4400000000001,1494.7375917424861,1350,1499.9839999999999
10.62973690032959,156,73.893,2486.1314983302145,1487.21,1494.7375917424861,1350,1499.9839999999999
10.65425705909729,155,73.8695,2486.1314983302145,1484.72,1494.7375917424861,1350,1499.98
10.6787269115448,154,72.846,2486.1314983302145,1482.23,1494.7375917424861,1350,1499.9760000000001
10.703518867492676,155,71.8225,2486.1314983302145,1482.3699999999999,1494.7375917424861,1350,1499.98
10.728209972381592,155,71.7755,2501.6698201947784,1482.3099999999999,1495.4290470654591,1350,1499.98
10.752882957458496,154,70.752,2517.2081420593422,1480,1496.7420352630147,1350,1499.9760000000001
10.77747392654419,153,69.705,2517.2081420593422,1480,1497.9851010121797,1350,1499.972
10.802207946777344,154,69.658,2532.746463923906,1484.04,1499.919622084318,1350,1499.9760000000001
10.827014923095703,153,68.6345,2548.2847857884699,1481.55,1502.4756760310388,1350,1499.972
10.851710081100464,154,68.6345,2563.8231076530337,1481.6900000000001,1504.4101971031769,1350,1499.9760000000001
10.876417875289917,153,68.611,2579.3614295175976,1483.5999999999999,1505.7231853007327,1350,1499.972
10.901198863983154,153,68.611,2594.8997513821614,1487.9400000000001,1507.6577063728707,1350,1499.972
10.92607593536377,153,67.5875,2594.8997513821614,1485.71,1508.2792392474535,1350,1499.972
10.950895071029663,153,66.5405,2594.8997513821614,1490.05,1507.6577063728707,1350,1499.972
10.975653886795044,154,65.47,2579.3614295175976,1492.4200000000001,1505.7231853007327,1350,1499.9760000000001
11.000402927398682,154,64.376,2563.8231076530337,1496.8199999999999,1502.5455984794294,1350,1499.9760000000001
11.025162935256958,154,63.329,2563.8231076530337,1499.05,1498.1948683573514,1350,1499.9760000000001
11.049869060516357,154,61.282,2548.2847857884699,1503.45,1493.7742157868829,1350,1499.9760000000001
11.074676990509033,154,61.235,2532.746463923906,1505.6800000000001,1489.3535632164146,1350,1499.9760000000001
11.099371910095215,154,62.2585,2503.3963004019524,1505.6800000000001,1485.5613494413574,1350,1499.9760000000001
11.12416696548462,153,62.2585,2487.8579785373886,1501.0799999999999,1483.0743547029238,1350,1499.972
11.149107933044434,153,63.329,2472.3196566728247,1496.6800000000001,1480.5873599644899,1350,1499.972
11.173800945281982,152,65.3525,2472.3196566728247,1489.8499999999999,1479.4133534236116,1350,1499.9680000000001
11.19851803779602,151,66.3995,2472.3196566728247,1480.79,1479.4824126318986,1349.4405999999999,1499.9639999999999
11.22329592704773,151,68.47,2487.8579785373886,1480,1481.9694073703324,1333.6437999999998,1499.9639999999999
11.247977018356323,151,69.517,2487.8579785373886,1480,1485.0080125349582,1319.0553600000001,1499.9639999999999
11.27321195602417,150,70.564,2487.8579785373886,1480,1489.2896834487492,1307.3805599999998,1499.96
11.297931909561157,150,73.611,2487.8579785373886,1480,1492.9498214879575,1297.3677999999998,1499.96
11.322633981704712,150,75.6345,2503.3963004019524,1480,1496.6798819755566,1288.6649199999999,1499.96
11.347328901290894,150,76.658,2532.746463923906,1480,1499.2290300014486,1284.0936400000001,1499.96
11.372107982635498,149,76.6815,2532.746463923906,1480,1501.0245694169091,1283.62012,1499.9559999999999
11.396923065185547,149,77.658,2532.746463923906,1480,1502.1985759577874,1282.0725600000001,1499.9559999999999
11.421832084655762,148,77.658,2532.746463923906,1480,1503.3725824986655,1287.4764399999999,1499.952
11.446516990661621,148,77.611,2532.746463923906,1480,1503.3035232903785,1297.2462800000001,1499.952
11.471266031265259,148,77.5875,2517.2081420593422,1480,1500.8165285519447,1307.07168,1499.952
11.496110916137695,148,77.564,2517.2081420593422,1480,1498.3994562619014,1315.5727999999999,1499.952
11.521062850952148,148,77.4935,2503.3963004019524,1480,1495.3677570181044,1325.5421200000001,1499.952
11.545922040939331,147,76.47,2503.3963004019524,1480,1492.3982110617656,1333.98496,1499.9480000000001
11.570667028427124,148,75.423,2487.8579785373886,1483.0899999999999,1489.3587426570361,1341.0801200000001,1499.952
11.595566034317017,147,75.423,2472.3196566728247,1485.0,1488.1148136677675,1345.4611200000002,1499.9480000000001
11.620429039001465,147,75.423,2472.3196566728247,1484.9400000000001,1486.9408071268892,1349.7443599999999,1499.9480000000001
11.645372867584229,147,75.423,2472.3196566728247,1484.8800000000001,1486.8717479186023,1350,1499.9480000000001
11.670220851898193,147,76.423,2472.3196566728247,1487.05,1486.8026887103154,1349.75416,1499.9480000000001
11.695047855377197,146,76.4465,2472.3196566728247,1482.3900000000001,1487.9766952511936,1345.2764400000001,1499.944
11.719811916351318,147,77.4935,2472.3196566728247,1484.76,1489.7722346666542,1338.0948000000001,1499.9480000000001
11.744700908660889,147,78.517,2472.3196566728247,1486.9300000000001,1491.567774082115,1329.4994799999999,1499.9480000000001
11.769500970840454,147,80.5875,2486.1314983302145,1489.0999999999999,1493.4254667850339,1316.7621200000001,1499.9480000000001
11.794408082962036,147,81.611,2486.1314983302145,1489.0999999999999,1495.2210062004947,1307.99928,1499.9480000000001
11.819189071655273,147,82.6345,2486.1314983302145,1495.6700000000001,1496.3950127413727,1299.2523200000001,1499.9480000000001
11.84406304359436,147,83.658,2486.1314983302145,1495.6700000000001,1496.9474864076683,1291.9631199999999,1499.9480000000001
11.869082927703857,148,83.658,2486.1314983302145,1498.0999999999999,1497.4999600739638,1288.76792,1499.952
11.893924951553345,148,84.6345,2486.1314983302145,1500.3299999999999,1496.9474864076683,1288.79216,1499.952
11.9184889793396,148,83.5875,2486.1314983302145,1502.5599999999999,1496.3950127413727,1294.2580800000001,1499.952
11.942950010299683,148,83.564,2486.1314983302145,1502.6199999999999,1495.8425390750772,1301.36348,1499.952
11.967423915863037,148,83.517,2501.6698201947784,1504.8499999999999,1495.9815207317547,1310.0066400000001,1499.952
11.992161989212036,149,82.4465,2501.6698201947784,1505.1099999999999,1496.0505799400416,1320.02756,1499.9559999999999
12.016650915145874,149,81.423,2501.6698201947784,1505.1700000000001,1496.6721128146241,1331.3842399999999,1499.9559999999999
12.04118800163269,148,80.3995,2501.6698201947784,1502.8,1497.2936456892066,1339.8912,1499.952
12.065711975097656,150,80.376,2501.6698201947784,1505.49,1497.9151785637894,1345.77424,1499.96
12.090213060379028,150,79.376,2501.6698201947784,1507.78,1497.2936456892066,1350,1499.96
12.114815950393677,151,79.376,2501.6698201947784,1510.27,1496.6721128146241,1350,1499.9639999999999
12.13924789428711,151,80.3995,2487.8579785373886,1512.5599999999999,1495.4359529862877,1350,1499.9639999999999
12.163668870925903,151,80.4465,2487.8579785373886,1519.25,1494.2619464454096,1346.9376399999999,1499.9639999999999
12.188421964645386,151,81.47,2474.0461368799984,1517.1400000000001,1492.4733129507777,1339.7983999999999,1499.9639999999999
12.212905883789062,152,81.4935,2444.6959733580447,1517.46,1490.0622833414595,1331.08924,1499.9680000000001
12.2373628616333,152,81.517,2444.6959733580447,1515.3499999999999,1487.7833294679901,1323.8021200000001,1499.9680000000001
12.261929035186768,152,81.517,2444.6959733580447,1513.24,1486.6093229271119,1320.80096,1499.9680000000001
12.2864830493927,153,82.517,2430.8841317006545,1511.3900000000001,1484.8206894324799,1316.68336,1499.972
12.311007976531982,153,82.517,2417.0722900432647,1513.6800000000001,1483.5845296041434,1316.6635200000001,1499.972
12.335547924041748,154,82.517,2403.260448385875,1514.0,1484.1439091912678,1318.0694800000001,1499.9760000000001
12.360036849975586,154,82.5405,2389.4486067284847,1516.29,1484.1508151120966,1319.4792,1499.9760000000001
12.384690999984741,154,82.5875,2377.0906431402937,1518.5799999999999,1483.1174712744134,1319.4010799999999,1499.9760000000001
12.409297943115234,154,83.611,2350.9208378947123,1516.47,1482.08012927204,1319.4133999999999,1499.9760000000001
12.43390703201294,154,84.658,2338.5628743065217,1514.3599999999999,1481.1630956798926,1316.4978799999999,1499.9760000000001
12.458375930786133,154,85.7285,2326.2049107183307,1510.02,1479.6826843359308,1311.9806799999999,1499.9760000000001
12.482950925827026,154,86.7755,2300.0351054727494,1505.6800000000001,1478.1982748272787,1306.01784,1499.9760000000001
12.507641077041626,154,87.8225,2262.7431329977962,1501.3399999999999,1476.1607737541517,1298.6789200000001,1499.9760000000001
12.53227186203003,153,88.846,2239.2630021802333,1496.74,1474.787331489131,1291.4001599999999,1499.972
12.556719064712524,153,89.893,2215.7828713626704,1492.3399999999999,1472.9108474121676,1285.51712,1499.972
12.581300020217896,152,89.9165,2203.4249077744794,1487.6800000000001,1471.0262579649686,1283.82584,1499.9680000000001
12.606031894683838,152,89.94,2191.0669441862883,1483.22,1470.1884607275927,1285.00036,1499.9680000000001
12.63069200515747,151,91.0105,2191.0669441862883,1480,1471.8953135808322,1286.2446400000001,1499.9639999999999
12.65536093711853,151,92.034,2191.0669441862883,1480,1474.4337846896537,1287.5453199999999,1499.9639999999999
12.67974305152893,151,92.1045,2191.0669441862883,1480,1478.3563477203525,1291.3957600000001,1499.9639999999999
12.704390048980713,151,93.128,2203.4249077744794,1480,1483.3231586742534,1291.2386799999999,1499.9639999999999
12.728872060775757,150,93.175,2203.4249077744794,1480,1488.1762036692394,1290.8276000000001,1499.96
12.753390073776245,150,93.222,2214.5470750038512,1480,1492.0325062069344,1291.9223199999999,1499.96
12.77777886390686,149,94.269,2238.0272058214141,1480,1495.9444195807762,1291.7832000000001,1499.9559999999999
12.802154064178467,149,94.2925,2261.507336638977,1480,1499.8563329546182,1291.6119200000001,1499.9559999999999
12.826520919799805,149,94.2925,2273.8653002271681,1480,1502.7295594888726,1294.30268,1499.9559999999999
12.85090684890747,149,92.2455,2300.0351054727494,1480,1506.2174129768807,1302.4971599999999,1499.9559999999999
12.875622034072876,149,91.1985,2326.2049107183307,1480,1509.8622852963626,1309.6750400000001,1499.9559999999999
12.900201082229614,149,88.128,2338.5628743065217,1481.48,1512.0609124065088,1325.2422799999999,1499.9559999999999
12.924926042556763,149,86.0575,2350.9208378947123,1485.8199999999999,1512.8754475947774,1342.56096,1499.9559999999999
12.949406862258911,149,84.0105,2364.7326795521026,1490.1600000000001,1513.7546803571256,1350,1499.9559999999999
12.973916053771973,149,82.9635,2377.0906431402937,1492.3299999999999,1513.0281047920435,1350,1499.9559999999999
12.998322010040283,150,80.893,2403.260448385875,1496.9300000000001,1511.761776993771,1350,1499.96
13.022780895233154,150,79.846,2417.0722900432647,1499.1600000000001,1510.9428801712947,1350,1499.96
13.047242879867554,150,76.799,2417.0722900432647,1501.3900000000001,1510.0123982070074,1350,1499.96
13.071901082992554,150,74.705,2417.0722900432647,1503.6199999999999,1508.4712874536565,1350,1499.96
13.096258878707886,150,72.6345,2417.0722900432647,1505.8499999999999,1506.9883318230736,1350,1499.96
13.120809078216553,150,70.5875,2417.0722900432647,1503.6800000000001,1504.4585839826675,1350,1499.96
13.145479917526245,151,69.517,2417.0722900432647,1503.9400000000001,1501.3182073531977,1350,1499.9639999999999
13.170158863067627,151,66.4935,2430.8841317006545,1504.0,1499.2867762210094,1350,1499.9639999999999
13.194735050201416,151,65.47,2430.8841317006545,1504.0599999999999,1497.7456654676585,1350,1499.9639999999999
13.219135999679565,151,65.47,2430.8841317006545,1504.1199999999999,1496.6988732578352,1350,1499.9639999999999
13.243535995483398,151,64.4935,2430.8841317006545,1506.3499999999999,1496.6988732578352,1350,1499.9639999999999
13.26800799369812,151,64.517,2430.8841317006545,1504.1800000000001,1497.251346924131,1350,1499.9639999999999
13.292516946792603,151,63.517,2444.6959733580447,1502.01,1497.3135002115891,1350,1499.9639999999999
13.31690502166748,151,62.4935,2458.5078150154345,1499.8399999999999,1497.9281271653431,1350,1499.9639999999999
13.34145188331604,151,62.4935,2458.5078150154345,1497.6700000000001,1498.4806008316386,1350,1499.9639999999999
13.366119861602783,151,61.47,2458.5078150154345,1495.5,1499.0330744979342,1350,1499.9639999999999
13.390783071517944,151,61.4465,2472.3196566728247,1495.5,1500.2001751179837,1350,1499.9639999999999
13.415611028671265,151,60.4465,2472.3196566728247,1495.5,1500.7526487842792,1350,1499.9639999999999
13.440132856369019,151,59.423,2472.3196566728247,1495.5,1500.2001751179837,1350,1499.9639999999999
13.464716911315918,151,59.423,2486.1314983302145,1495.5,1500.2623284054421,1350,1499.9639999999999
13.489213943481445,151,59.423,2486.1314983302145,1495.5,1500.2623284054421,1350,1499.9639999999999
13.513772010803223,151,59.423,2486.1314983302145,1495.5,1499.1573810728507,1350,1499.9639999999999
13.538151979446411,151,59.3995,2486.1314983302145,1495.5,1498.6049074065552,1350,1499.9639999999999
13.5625319480896,151,59.376,2472.3196566728247,1495.5,1497.9902804528012,1350,1499.9639999999999
13.586904048919678,152,58.3525,2472.3196566728247,1497.9300000000001,1496.3328594539146,1350,1499.9680000000001
13.611479043960571,152,58.329,2472.3196566728247,1500.1600000000001,1494.6754384550277,1350,1499.9680000000001
13.636313915252686,152,58.329,2472.3196566728247,1502.3900000000001,1493.5704911224366,1350,1499.9680000000001
13.660881996154785,152,58.3055,2472.3196566728247,1504.6199999999999,1492.4655437898452,1350,1499.9680000000001
