time,x,y,size_inv,roll,pitch,thrust,yaw
0.0005860328674316406,113,50,0.005555555555555556,1480,1494.0,1330,1480
0.02261805534362793,113,50,0.005555555555555556,1480,1494.0,1330,1480
0.04434704780578613,113,50,0.005555555555555556,1480,1494.0,1330,1480
0.06622004508972168,113,50,0.005263157894736842,1480,1494.0,1330,1480
0.08793401718139648,113,50,0.005555555555555556,1480,1494.0,1330,1480
0.10962200164794922,113,50,0.005555555555555556,1480,1494.0,1330,1480
0.1312999725341797,114,50,0.007142857142857143,1480,1494.0,1330,1480
0.15296101570129395,113,50,0.005555555555555556,1480,1494.0,1330,1480
0.17461490631103516,113,50,0.005555555555555556,1480,1494.0,1330,1480
0.196274995803833,113,50,0.005555555555555556,1480,1494.0,1330,1480
0.2180929183959961,113,50,0.005263157894736842,1480,1494.0,1330,1480
0.24010610580444336,113,50,0.005555555555555556,1480,1494.0,1330,1480
0.2620968818664551,114,51,0.004784688995215311,1480,1494.0,1330,1480
0.28417205810546875,114,51,0.005050505050505051,1480,1494.0,1330,1480
0.30617690086364746,114,52,0.005050505050505051,1480,1494.0,1330,1480
0.3281710147857666,116,52,0.004784688995215311,1480,1494.0,1330,1480
0.3501598834991455,118,53,0.006666666666666667,1480,1494.0,1330,1480
0.37215709686279297,120,56,0.006060606060606061,1480,1494.0,1330,1480
0.39426398277282715,122,57,0.006493506493506494,1480,1494.0,1330,1480
0.41628003120422363,125,57,0.006060606060606061,1480,1494.0,1330,1480
0.4382960796356201,128,57,0.006060606060606061,1480,1494.0,1330,1480
0.46033406257629395,130,57,0.005050505050505051,1480,1494.0,1330,1480
0.48241305351257324,134,57,0.006060606060606061,1480,1494.0,1330,1480
0.5044848918914795,137,58,0.006060606060606061,1480,1494.0,1330,1480
0.5264749526977539,140,58,0.006060606060606061,1480,1494.0,1330,1480.0
0.5485270023345947,147,60,0.006060606060606061,1480,1494.0,1330,1487.0
0.5705699920654297,151,61,0.006060606060606061,1480,1494.0,1330,1491.0
0.5926408767700195,154,63,0.006060606060606061,1480,1494.0,1330,1494.0
0.6147360801696777,158,64,0.006060606060606061,1480,1494.0,1330,1498.0
0.6367549896240234,160,65,0.005952380952380952,1480,1494.0,1330,1500.0
0.6587851047515869,163,67,0.006060606060606061,1480,1494.0,1330,1503.0
0.6808130741119385,164,68,0.005050505050505051,1480,1494.0,1330,1504.0
0.7028319835662842,166,69,0.005050505050505051,1480,1494.0,1330,1506.0
0.7248690128326416,168,69,0.004901960784313725,1487.0,1494.0,1330,1508.0
0.7469511032104492,169,70,0.0043859649122807015,1518.0,1494.0,1330,1509.0
0.7690420150756836,171,71,0.005208333333333333,1520,1494.0,1330,1511.0
0.7911150455474854,170,72,0.005050505050505051,1520,1494.0,1330,1510.0
0.8131849765777588,173,73,0.003663003663003663,1520,1494.0,1330,1513.0
0.8357219696044922,171,74,0.005050505050505051,1520,1494.0,1330,1511.0
0.8594329357147217,172,76,0.005952380952380952,1520,1494.0,1330,1512.0
0.8831100463867188,170,77,0.004629629629629629,1520,1494.0,1330,1510.0
0.9067869186401367,171,79,0.004329004329004329,1520,1494.0,1330,1511.0
0.930401086807251,169,79,0.004629629629629629,1520,1494.0,1330,1509.0
0.9540410041809082,168,81,0.005050505050505051,1520,1494.0,1330,1508.0
0.9777309894561768,169,82,0.006493506493506494,1520,1494.0,1330,1509.0
1.0013489723205566,166,84,0.004629629629629629,1520,1494.0,1330,1506.0
1.0249919891357422,166,85,0.004629629629629629,1520,1494.0,1330,1506.0
1.048638105392456,167,87,0.004329004329004329,1520,1494.0,1330,1507.0
1.0723209381103516,165,88,0.005050505050505051,1520,1494.0,1330,1505.0
1.096031904220581,166,89,0.003968253968253968,1520,1494.0,1330,1506.0
1.1196610927581787,164,90,0.004629629629629629,1520,1494.0,1330,1504.0
1.1432950496673584,165,91,0.003968253968253968,1520,1494.0,1330,1505.0
1.1669468879699707,163,94,0.0043859649122807015,1520,1494.0,1325.6500000000001,1503.0
1.1906580924987793,164,95,0.003968253968253968,1520,1494.0,1322.23,1504.0
1.2143609523773193,162,96,0.004629629629629629,1520,1494.0,1318.8099999999999,1502.0
1.2380850315093994,163,98,0.003968253968253968,1520,1494.0,1314.3099999999999,1503.0
1.2618260383605957,163,99,0.003968253968253968,1520,1494.0,1310.71,1503.0
1.2860119342803955,163,100,0.005555555555555556,1520,1494.0,1307.5599999999999,1503.0
1.3098039627075195,162,103,0.003968253968253968,1520,1494.0,1302.0699999999999,1502.0
1.333540916442871,162,104,0.003968253968253968,1520,1494.0,1298.3800000000001,1502.0
1.3572890758514404,162,106,0.003968253968253968,1520,1494.0,1293.7,1502.0
1.3809878826141357,162,107,0.003968253968253968,1520,1494.0,1289.9200000000001,1502.0
1.40470290184021,161,109,0.003663003663003663,1520,1494.0,1285.1500000000001,1501.0
1.4284520149230957,161,110,0.003968253968253968,1520,1494.0,1281.6400000000001,1501.0
1.4522590637207031,161,111,0.003968253968253968,1520,1494.0,1278.1300000000001,1501.0
1.4761009216308594,160,114,0.003663003663003663,1517.0,1494.0,1272.55,1500.0
1.4999001026153564,160,115,0.003663003663003663,1514.0,1494.0,1270,1500.0
1.5235750675201416,160,116,0.003663003663003663,1511.0,1494.0,1270,1500.0
1.5472710132598877,160,117,0.003663003663003663,1509.0,1494.0,1270,1500.0
1.5709760189056396,161,118,0.004629629629629629,1510.0,1494.0,1270,1501.0
1.5947120189666748,157,119,0.004629629629629629,1497.0,1494.0,1270,1497.0
1.6184189319610596,159,121,0.003968253968253968,1498.0,1494.0,1270,1499.0
1.6421329975128174,159,122,0.003663003663003663,1496.0,1494.0,1270,1499.0
1.6660470962524414,159,122,0.003968253968253968,1494.0,1494.0,1270,1499.0
1.6897950172424316,159,123,0.003968253968253968,1492.0,1494.0,1270,1499.0
1.7134759426116943,159,124,0.003968253968253968,1491.0,1494.0,1270,1499.0
1.7371790409088135,158,125,0.005952380952380952,1487.0,1494.0,1270,1498.0
1.760901927947998,158,126,0.003968253968253968,1485.0,1494.0,1270,1498.0
1.78460693359375,156,127,0.004629629629629629,1480,1494.0,1270,1496.0
1.8082780838012695,156,128,0.004048582995951417,1480,1494.0,1270,1496.0
1.8319380283355713,157,128,0.003968253968253968,1480,1494.0,1270,1497.0
1.855767011642456,157,128,0.003968253968253968,1480,1494.0,1270,1497.0
1.8794059753417969,157,129,0.003968253968253968,1480,1494.0,1270,1497.0
1.9030859470367432,155,129,0.004629629629629629,1480,1494.0,1270,1495.0
1.9267840385437012,155,130,0.0043859649122807015,1480,1494.0,1270,1495.0
1.9504179954528809,156,131,0.003663003663003663,1480,1494.0,1270,1496.0
1.974045991897583,156,131,0.003968253968253968,1480,1494.0,1270,1496.0
1.9976871013641357,156,131,0.003968253968253968,1480,1494.0,1270,1496.0
2.0212900638580322,156,131,0.003968253968253968,1480,1494.0,1270,1496.0
2.044909954071045,157,131,0.004629629629629629,1480,1494.0,1270,1497.0
2.068540096282959,157,131,0.004629629629629629,1480,1494.0,1270,1497.0
2.0916430950164795,156,131,0.005128205128205128,1480,1494.0,1270,1496.0
2.1148300170898438,156,131,0.005128205128205128,1480,1494.0,1270,1496.0
2.1379289627075195,154,131,0.0038461538461538464,1480,1494.0,1270,1494.0
2.1610429286956787,155,130,0.003968253968253968,1480,1494.0,1270,1495.0
2.1841139793395996,155,130,0.003663003663003663,1480,1494.0,1270,1495.0
2.2071869373321533,155,130,0.003663003663003663,1480,1494.0,1270,1495.0
2.230288028717041,154,130,0.004048582995951417,1480,1494.0,1270,1494.0
2.2533769607543945,153,129,0.004273504273504274,1480,1494.0,1270,1493.0
2.2764620780944824,157,129,0.004273504273504274,1480,1494.0,1270,1497.0
2.2995409965515137,157,128,0.004273504273504274,1480,1494.0,1270,1497.0
2.322715997695923,156,128,0.003663003663003663,1480,1494.0,1270,1496.0
2.3459420204162598,156,127,0.003663003663003663,1480,1494.0,1270,1496.0
2.3690340518951416,156,126,0.003968253968253968,1480,1494.0,1270,1496.0
2.3921189308166504,156,126,0.003663003663003663,1480,1494.0,1270,1496.0
2.4153480529785156,156,125,0.003663003663003663,1480,1494.0,1270,1496.0
2.4384360313415527,156,124,0.003663003663003663,1480,1494.0,1270,1496.0
2.461544990539551,156,122,0.003246753246753247,1480,1494.0,1270,1496.0
2.4846279621124268,156,122,0.0034965034965034965,1480,1494.0,1270,1496.0
2.5076980590820312,158,121,0.004273504273504274,1480,1494.0,1270,1498.0
2.5307600498199463,157,120,0.003663003663003663,1480,1494.0,1270,1497.0
2.5541679859161377,157,119,0.003663003663003663,1480,1494.0,1270,1497.0
2.577265977859497,157,118,0.0034965034965034965,1480,1494.0,1270,1497.0
2.600358009338379,157,117,0.0034965034965034965,1480,1494.0,1270,1497.0
2.6234350204467773,157,116,0.0034965034965034965,1480,1494.0,1270,1497.0
2.6465349197387695,158,114,0.003663003663003663,1480,1494.0,1270,1498.0
2.6696219444274902,158,113,0.0034965034965034965,1480,1494.0,1270,1498.0
2.692781925201416,158,111,0.003401360544217687,1480,1494.0,1270,1498.0
2.7159481048583984,158,110,0.0034965034965034965,1480,1494.0,1270,1498.0
2.739032030105591,158,109,0.0034965034965034965,1480,1494.0,1270,1498.0
2.762144088745117,158,108,0.0034965034965034965,1480,1494.0,1271.47,1498.0
2.785576105117798,159,106,0.003663003663003663,1480,1494.0,1275.7,1499.0
2.8088150024414062,159,105,0.003663003663003663,1480,1494.0,1278.8499999999999,1499.0
2.8320629596710205,159,103,0.0034965034965034965,1480.0,1494.0,1283.1700000000001,1499.0
2.8555328845977783,159,101,0.0034965034965034965,1482.0,1494.0,1287.76,1499.0
2.8788340091705322,159,100,0.0034965034965034965,1483.0,1494.0,1291.3599999999999,1499.0
2.902132034301758,159,98,0.0034965034965034965,1484.0,1494.0,1295.95,1499.0
2.9255709648132324,161,96,0.004273504273504274,1491.0,1494.0,1300.72,1501.0
2.9488608837127686,160,95,0.003663003663003663,1491.0,1494.0,1304.4100000000001,1500.0
2.972148895263672,160,93,0.0034965034965034965,1493.0,1494.0,1309.0899999999999,1500.0
2.9955930709838867,160,90,0.0034965034965034965,1495.0,1494.0,1315.21,1500.0
3.0188651084899902,160,88,0.0034965034965034965,1496.0,1494.0,1320.4300000000001,1500.0
3.042141914367676,160,87,0.0034965034965034965,1497.0,1494.0,1324.5699999999999,1500.0
3.0655550956726074,160,85,0.003787878787878788,1498.0,1494.0,1329.79,1500.0
3.0888240337371826,160,84,0.0034965034965034965,1499.0,1494.0,1330,1500.0
3.112035036087036,160,82,0.003787878787878788,1500.0,1494.0,1330,1500.0
3.135387897491455,160,81,0.0034965034965034965,1501.0,1494.0,1330,1500.0
3.1586129665374756,160,78,0.0034965034965034965,1500.0,1494.0,1330,1500.0
3.1818408966064453,160,76,0.003787878787878788,1500.0,1494.0,1330,1500.0
3.205207109451294,160,74,0.003787878787878788,1500.0,1494.0,1330,1500.0
3.228395938873291,160,73,0.0034965034965034965,1500.0,1494.0,1330,1500.0
3.2516050338745117,160,71,0.003787878787878788,1500.0,1494.0,1330,1500.0
3.2748019695281982,160,69,0.003787878787878788,1500.0,1494.0,1330,1500.0
3.2979989051818848,162,68,0.004629629629629629,1506.0,1494.0,1330,1502.0
3.321181058883667,162,66,0.004629629629629629,1508.0,1494.0,1330,1502.0
3.3443679809570312,161,64,0.003787878787878788,1507.0,1494.0,1330,1501.0
3.3675789833068848,161,63,0.003787878787878788,1508.0,1494.0,1330,1501.0
3.3907530307769775,161,63,0.003663003663003663,1509.0,1494.0,1330,1501.0
3.4140069484710693,161,62,0.003968253968253968,1510.0,1494.0,1330,1501.0
3.437412977218628,161,61,0.003968253968253968,1511.0,1494.0,1330,1501.0
3.4606471061706543,160,60,0.003787878787878788,1509.0,1494.0,1330,1500.0
3.483867883682251,160,59,0.003787878787878788,1509.0,1494.0,1330,1500.0
3.5070478916168213,160,58,0.003787878787878788,1509.0,1494.0,1330,1500.0
3.5302460193634033,160,56,0.003968253968253968,1507.0,1494.0,1330,1500.0
3.553447961807251,160,55,0.003968253968253968,1505.0,1494.0,1330,1500.0
3.5766289234161377,159,54,0.003787878787878788,1501.0,1494.0,1330,1499.0
3.5998239517211914,159,54,0.0034965034965034965,1499.0,1494.0,1330,1499.0
3.6231179237365723,160,53,0.0033444816053511705,1500.0,1494.0,1330,1500.0
3.646446943283081,159,52,0.003787878787878788,1496.0,1494.0,1330,1499.0
3.6696269512176514,160,52,0.003968253968253968,1497.0,1494.0,1330,1500.0
3.692858934402466,160,52,0.003968253968253968,1497.0,1494.0,1330,1500.0
3.716125011444092,162,52,0.0043859649122807015,1503.0,1494.0,1330,1502.0
3.7393040657043457,160,52,0.003787878787878788,1499.0,1494.0,1330,1500.0
3.7626490592956543,160,52,0.003787878787878788,1499.0,1494.0,1330,1500.0
3.7861390113830566,160,53,0.0034965034965034965,1499.0,1494.0,1330,1500.0
3.8096790313720703,160,53,0.003787878787878788,1500.0,1494.0,1330,1500.0
3.83298397064209,161,54,0.0043859649122807015,1504.0,1494.0,1330,1501.0
3.8563148975372314,159,55,0.003787878787878788,1499.0,1494.0,1330,1499.0
3.879549980163574,160,58,0.004273504273504274,1502.0,1494.0,1330,1500.0
3.902822971343994,160,58,0.004273504273504274,1502.0,1494.0,1330,1500.0
3.926086902618408,160,59,0.004273504273504274,1502.0,1494.0,1330,1500.0
3.9492690563201904,159,59,0.0034965034965034965,1497.0,1494.0,1330,1499.0
3.9725210666656494,158,59,0.0034965034965034965,1493.0,1494.0,1330,1498.0
3.9958159923553467,158,60,0.0034965034965034965,1491.0,1494.0,1330,1498.0
4.019023895263672,158,60,0.0034965034965034965,1489.0,1494.0,1330,1498.0
4.042299032211304,158,61,0.0034965034965034965,1487.0,1494.0,1330,1498.0
4.065597057342529,158,62,0.0034965034965034965,1484.0,1494.0,1330,1498.0
4.08881688117981,158,63,0.0034965034965034965,1483.0,1494.0,1330,1498.0
4.111994028091431,158,64,0.0034965034965034965,1481.0,1494.0,1330,1498.0
4.135319948196411,158,65,0.0034965034965034965,1480,1494.0,1330,1498.0
4.158441066741943,158,66,0.0034965034965034965,1480,1494.0,1330,1498.0
4.181586027145386,158,67,0.0034965034965034965,1480,1494.0,1330,1498.0
4.2047119140625,159,68,0.0033444816053511705,1480,1494.0,1330,1499.0
4.227823972702026,158,70,0.0034965034965034965,1480,1494.0,1330,1498.0
4.250947952270508,159,72,0.0033444816053511705,1480.0,1494.0,1330,1499.0
4.274141073226929,159,73,0.0033444816053511705,1481.0,1494.0,1330,1499.0
4.297317028045654,159,74,0.0033444816053511705,1482.0,1494.0,1330,1499.0
4.320480108261108,159,75,0.0033444816053511705,1483.0,1494.0,1330,1499.0
4.343661069869995,159,76,0.0033444816053511705,1484.0,1494.0,1330,1499.0
4.366856098175049,159,77,0.0033444816053511705,1485.0,1494.0,1330,1499.0
4.390038013458252,158,78,0.0034965034965034965,1483.0,1494.0,1330,1498.0
4.413239002227783,158,80,0.0034965034965034965,1483.0,1494.0,1330,1498.0
4.436417102813721,158,81,0.003246753246753247,1482.0,1494.0,1330,1498.0
4.4595959186553955,158,82,0.003246753246753247,1482.0,1494.0,1330,1498.0
4.482834100723267,159,84,0.004273504273504274,1484.0,1494.0,1330,1499.0
4.506102085113525,158,85,0.003246753246753247,1481.0,1494.0,1330,1498.0
4.529288053512573,158,86,0.003246753246753247,1480.0,1494.0,1330,1498.0
4.552566051483154,157,87,0.003246753246753247,1480,1494.0,1330,1497.0
4.5758020877838135,158,88,0.003105590062111801,1480,1494.0,1330,1498.0
4.598954916000366,157,90,0.003246753246753247,1480,1494.0,1330,1497.0
4.622051954269409,157,91,0.003246753246753247,1480,1494.0,1330,1497.0
4.645426034927368,157,92,0.003246753246753247,1480,1494.0,1328.6199999999999,1497.0
4.668668985366821,157,93,0.003246753246753247,1480,1494.0,1325.5599999999999,1497.0
4.691865921020508,157,95,0.0030303030303030303,1480,1494.0,1321.3299999999999,1497.0
4.715207099914551,157,96,0.003246753246753247,1480,1494.0,1318.27,1497.0
4.738444089889526,157,98,0.0030303030303030303,1480,1494.0,1314.04,1497.0
4.76167106628418,158,99,0.003401360544217687,1480,1494.0,1310.71,1498.0
4.7850730419158936,159,103,0.002898550724637681,1480,1494.0,1303.8699999999999,1499.0
4.808340072631836,158,104,0.0030303030303030303,1480,1494.0,1299.9100000000001,1498.0
4.831566095352173,158,105,0.0030303030303030303,1480,1494.0,1296.04,1498.0
4.854794025421143,160,107,0.002898550724637681,1480,1494.0,1291.1800000000001,1500.0
4.877990007400513,159,108,0.0030303030303030303,1480,1494.0,1287.22,1499.0
4.90118408203125,160,109,0.002898550724637681,1483.0,1494.0,1283.8,1500.0
4.924453020095825,159,110,0.0030303030303030303,1483.0,1494.0,1280.47,1499.0
4.947726011276245,159,111,0.002840909090909091,1485.0,1494.0,1277.1400000000001,1499.0
4.9709930419921875,160,112,0.002717391304347826,1490.0,1494.0,1274.0799999999999,1500.0
4.994282960891724,159,113,0.0030303030303030303,1489.0,1494.0,1271.02,1499.0
5.017548084259033,160,114,0.0026041666666666665,1492.0,1494.0,1270,1500.0
5.040684938430786,160,115,0.0026041666666666665,1494.0,1494.0,1270,1500.0
5.064145088195801,159,116,0.0030303030303030303,1493.0,1494.0,1270,1499.0
5.087327003479004,160,117,0.0026041666666666665,1495.0,1494.0,1270,1500.0
5.110491991043091,162,118,0.003289473684210526,1502.0,1494.0,1270,1502.0
5.133652925491333,161,120,0.002717391304347826,1501.0,1494.0,1270,1501.0
5.156832933425903,161,120,0.002717391304347826,1503.0,1494.0,1270,1501.0
5.180002927780151,160,121,0.002840909090909091,1502.0,1494.0,1270,1500.0
5.203191041946411,162,122,0.0025,1508.0,1494.0,1270,1502.0
5.226340055465698,161,122,0.0026041666666666665,1508.0,1494.0,1270,1501.0
5.249521017074585,163,123,0.0033333333333333335,1515.0,1494.0,1270,1503.0
5.272762060165405,162,123,0.002717391304347826,1515.0,1494.0,1270,1502.0
5.29601788520813,162,124,0.0026041666666666665,1518.0,1494.0,1270,1502.0
5.319178104400635,163,125,0.0026666666666666666,1520,1494.0,1270,1503.0
5.342325925827026,162,125,0.0026041666666666665,1520,1494.0,1270,1502.0
5.365490913391113,162,125,0.002717391304347826,1520,1494.0,1270,1502.0
5.38855504989624,162,125,0.002717391304347826,1520,1494.0,1270,1502.0
5.411617040634155,165,125,0.002976190476190476,1520,1494.0,1270,1505.0
5.4347240924835205,165,125,0.002840909090909091,1520,1494.0,1270,1505.0
5.457823991775513,165,125,0.0030303030303030303,1520,1494.0,1270,1505.0
5.480896949768066,165,125,0.0030303030303030303,1520,1494.0,1270,1505.0
5.5039989948272705,161,124,0.0030303030303030303,1520,1494.0,1270,1501.0
5.527101993560791,161,124,0.0030303030303030303,1520,1494.0,1270,1501.0
5.550189971923828,163,124,0.0026666666666666666,1520,1494.0,1270,1503.0
5.57326602935791,163,123,0.0026666666666666666,1520,1494.0,1270,1503.0
5.596358060836792,163,123,0.0026666666666666666,1520,1494.0,1270,1503.0
5.619441032409668,163,123,0.0026666666666666666,1520,1494.0,1270,1503.0
5.6426169872283936,164,122,0.0030303030303030303,1520,1494.0,1270,1504.0
5.665786027908325,162,121,0.002564102564102564,1520,1494.0,1270,1502.0
5.688857078552246,162,120,0.002564102564102564,1520,1494.0,1270,1502.0
5.711922883987427,162,119,0.0026666666666666666,1520,1494.0,1270,1502.0
5.735138893127441,161,118,0.002564102564102564,1520,1494.0,1270,1501.0
5.758233070373535,161,117,0.002564102564102564,1520,1494.0,1270,1501.0
5.781308889389038,161,116,0.002403846153846154,1520,1494.0,1270,1501.0
5.80439305305481,161,115,0.002403846153846154,1520,1494.0,1270,1501.0
5.82750391960144,160,114,0.002403846153846154,1517.0,1494.0,1270,1500.0
5.850707054138184,160,113,0.002403846153846154,1514.0,1494.0,1270,1500.0
5.873900890350342,159,111,0.002403846153846154,1507.0,1494.0,1270,1499.0
5.89728307723999,159,110,0.002403846153846154,1504.0,1494.0,1270,1499.0
5.920500040054321,159,109,0.002403846153846154,1501.0,1494.0,1270,1499.0
5.943713903427124,159,107,0.002403846153846154,1498.0,1494.0,1273.0,1499.0
5.967051029205322,158,106,0.002403846153846154,1493.0,1494.0,1276.24,1498.0
5.9905478954315186,158,104,0.002403846153846154,1490.0,1494.0,1280.47,1498.0
6.0138840675354,158,103,0.002403846153846154,1487.0,1494.0,1283.8,1498.0
6.037189960479736,157,100,0.002403846153846154,1481.0,1494.0,1289.47,1497.0
6.060461044311523,157,98,0.002403846153846154,1480,1494.0,1294.3299999999999,1497.0
6.083678960800171,157,96,0.002403846153846154,1480,1494.0,1299.46,1497.0
6.106847047805786,157,95,0.002403846153846154,1480,1494.0,1303.4200000000001,1497.0
6.13005805015564,157,94,0.0022624434389140274,1480,1494.0,1307.3800000000001,1497.0
6.15327000617981,158,92,0.002840909090909091,1480,1494.0,1312.1500000000001,1498.0
6.176469087600708,158,91,0.002840909090909091,1480,1494.0,1315.75,1498.0
6.199629068374634,158,89,0.002840909090909091,1480,1494.0,1320.3399999999999,1498.0
6.222930908203125,158,86,0.0030303030303030303,1480,1494.0,1326.28,1498.0
6.2462849617004395,156,84,0.002403846153846154,1480,1494.0,1330,1496.0
6.269404888153076,156,82,0.002403846153846154,1480,1494.0,1330,1496.0
6.2925660610198975,156,81,0.002564102564102564,1480,1494.0,1330,1496.0
6.315759897232056,156,79,0.002403846153846154,1480,1494.0,1330,1496.0
6.339148044586182,156,77,0.002403846153846154,1480,1494.0,1330,1496.0
6.36236310005188,157,76,0.002840909090909091,1480,1494.0,1330,1497.0
6.385540008544922,156,74,0.002403846153846154,1480,1494.0,1330,1496.0
6.408650875091553,156,70,0.002403846153846154,1480,1494.0,1330,1496.0
6.431741952896118,156,68,0.002403846153846154,1480,1494.0,1330,1496.0
6.454982042312622,156,66,0.002564102564102564,1480,1494.0,1330,1496.0
6.4781060218811035,156,64,0.002564102564102564,1480,1494.0,1330,1496.0
6.501199007034302,156,62,0.002564102564102564,1480,1494.0,1330,1496.0
6.5243000984191895,156,60,0.002564102564102564,1480,1494.0,1330,1496.0
6.547422885894775,156,58,0.002564102564102564,1480,1494.0,1330,1496.0
6.570504903793335,157,56,0.002403846153846154,1480,1494.0,1330,1497.0
6.593612909317017,157,54,0.002564102564102564,1480,1494.0,1330,1497.0
6.616724967956543,157,52,0.002403846153846154,1480,1494.0,1330,1497.0
6.63982892036438,157,51,0.002403846153846154,1480,1494.0,1330,1497.0
6.66300106048584,157,50,0.002564102564102564,1480,1494.0,1330,1497.0
6.686218023300171,158,49,0.002564102564102564,1480,1494.0,1330,1498.0
6.709342002868652,158,47,0.002564102564102564,1480,1494.0,1330,1498.0
6.732522010803223,158,46,0.002564102564102564,1480,1494.0,1330,1498.0
6.7557220458984375,159,43,0.0024691358024691358,1480,1494.0,1330,1499.0
6.7788450717926025,159,41,0.0024691358024691358,1480,1494.0,1330,1499.0
6.8019819259643555,159,39,0.0024691358024691358,1480,1494.0,1330,1499.0
6.825268983840942,159,38,0.0024691358024691358,1480,1494.0,1330,1499.0
6.848433971405029,159,36,0.0024691358024691358,1481.0,1494.0,1330,1499.0
6.871628999710083,159,34,0.0023148148148148147,1483.0,1494.0,1330,1499.0
6.894929885864258,158,33,0.0024691358024691358,1482.0,1494.0,1330,1498.0
6.918184995651245,158,32,0.0023148148148148147,1482.0,1494.0,1330,1498.0
6.941525936126709,158,32,0.0024691358024691358,1482.0,1494.0,1330,1498.0
6.964801073074341,158,32,0.0023148148148148147,1482.0,1494.0,1330,1498.0
6.988041877746582,158,33,0.0024691358024691358,1481.0,1494.0,1330,1498.0
7.011219024658203,157,33,0.002403846153846154,1480,1494.0,1330,1497.0
7.034326076507568,158,34,0.0024691358024691358,1480,1494.0,1330,1498.0
7.057422876358032,158,34,0.0023148148148148147,1480,1494.0,1330,1498.0
7.080545902252197,158,35,0.0024691358024691358,1480,1494.0,1330,1498.0
7.103676080703735,157,35,0.002403846153846154,1480,1494.0,1330,1497.0
7.126796007156372,158,36,0.0020833333333333333,1480,1494.0,1330,1498.0
7.149923086166382,159,37,0.0021551724137931034,1480,1494.0,1330,1499.0
7.173094987869263,159,38,0.002028397565922921,1480,1494.0,1330,1499.0
7.196279048919678,158,38,0.0020833333333333333,1480,1494.0,1330,1498.0
7.219367980957031,158,38,0.0020833333333333333,1480,1494.0,1330,1498.0
7.242541074752808,159,39,0.00196078431372549,1480.0,1494.0,1330,1499.0
7.2658209800720215,159,39,0.0020833333333333333,1481.0,1494.0,1330,1499.0
7.289002895355225,159,39,0.0020833333333333333,1482.0,1494.0,1330,1499.0
7.312191009521484,160,42,0.0018975332068311196,1486.0,1494.0,1330,1500.0
7.335541009902954,160,44,0.0018975332068311196,1489.0,1494.0,1330,1500.0
7.358757972717285,160,45,0.00196078431372549,1491.0,1494.0,1330,1500.0
7.381938934326172,160,47,0.0018975332068311196,1492.0,1494.0,1330,1500.0
7.405267000198364,160,48,0.001851851851851852,1493.0,1494.0,1330,1500.0
7.428483009338379,160,50,0.0018975332068311196,1495.0,1494.0,1330,1500.0
7.4516870975494385,159,51,0.001838235294117647,1494.0,1494.0,1330,1499.0
7.475024938583374,159,51,0.0017921146953405018,1494.0,1494.0,1330,1499.0
7.498234033584595,158,53,0.001851851851851852,1491.0,1494.0,1330,1498.0
7.521413087844849,158,54,0.001851851851851852,1490.0,1494.0,1330,1498.0
7.544611930847168,158,56,0.001851851851851852,1488.0,1494.0,1330,1498.0
7.5678040981292725,158,57,0.001851851851851852,1486.0,1494.0,1330,1498.0
7.59099006652832,159,59,0.001697792869269949,1487.0,1494.0,1330,1499.0
7.614208936691284,159,60,0.0017921146953405018,1486.0,1494.0,1330,1499.0
7.637423038482666,159,61,0.001851851851851852,1485.0,1494.0,1330,1499.0
7.66093111038208,159,64,0.0017543859649122807,1484.0,1494.0,1330,1499.0
7.684176921844482,159,66,0.0017543859649122807,1484.0,1494.0,1330,1499.0
7.70741605758667,160,67,0.001697792869269949,1487.0,1494.0,1330,1500.0
7.730609893798828,160,69,0.0017543859649122807,1489.0,1494.0,1330,1500.0
7.753818035125732,161,70,0.0015625,1494.0,1494.0,1330,1501.0
7.776987075805664,161,72,0.0016129032258064516,1497.0,1494.0,1330,1501.0
7.800215005874634,162,73,0.0014705882352941176,1503.0,1494.0,1330,1502.0
7.823450088500977,162,75,0.0014705882352941176,1506.0,1494.0,1330,1502.0
7.846709966659546,163,78,0.0015151515151515152,1512.0,1494.0,1330,1503.0
7.869913101196289,163,80,0.0014005602240896359,1516.0,1494.0,1330,1503.0
7.893162965774536,163,82,0.001443001443001443,1520.0,1494.0,1330,1503.0
7.916438102722168,163,83,0.0014705882352941176,1520,1494.0,1330,1503.0
7.939543962478638,162,85,0.0014005602240896359,1520,1494.0,1330,1502.0
7.9627320766448975,162,87,0.0014005602240896359,1520,1494.0,1330,1502.0
7.985944032669067,162,89,0.0014005602240896359,1520,1494.0,1330,1502.0
8.009067058563232,162,90,0.0014705882352941176,1520,1494.0,1330,1502.0
8.032181978225708,163,94,0.0015873015873015873,1520,1494.0,1329.4300000000001,1503.0
8.055537939071655,163,96,0.0015873015873015873,1520,1494.0,1323.76,1503.0
8.078721046447754,163,97,0.0015151515151515152,1520,1494.0,1319.3499999999999,1503.0
8.101896047592163,162,99,0.0014005602240896359,1520,1494.0,1314.04,1502.0
8.125231981277466,163,101,0.0015873015873015873,1520,1494.0,1308.55,1503.0
8.148463010787964,164,102,0.001466275659824047,1520,1494.0,1304.5,1504.0
8.171669960021973,161,104,0.0014005602240896359,1520,1494.0,1299.55,1501.0
8.195080995559692,161,107,0.001336898395721925,1520,1494.0,1293.25,1501.0
8.218302011489868,161,109,0.001336898395721925,1520,1494.0,1287.8499999999999,1501.0
8.24149489402771,161,111,0.001336898395721925,1520,1494.0,1282.3599999999999,1501.0
8.264705896377563,162,113,0.0012422360248447205,1520,1494.0,1276.8699999999999,1502.0
8.287890911102295,161,114,0.001336898395721925,1520,1494.0,1272.55,1501.0
8.31108808517456,161,116,0.001336898395721925,1519.0,1494.0,1270,1501.0
8.33425498008728,162,117,0.0012285012285012285,1520,1494.0,1270,1502.0
8.357378005981445,162,119,0.0011750881316098707,1520.0,1494.0,1270,1502.0
8.380589008331299,162,122,0.0011441647597254005,1518.0,1494.0,1270,1502.0
8.403768062591553,162,123,0.0011750881316098707,1519.0,1494.0,1270,1502.0
8.426935911178589,161,124,0.0011441647597254005,1517.0,1494.0,1270,1501.0
8.450119972229004,161,125,0.0011441647597254005,1517.0,1494.0,1270,1501.0
8.473280906677246,161,126,0.0011441647597254005,1517.0,1494.0,1270,1501.0
8.496458053588867,161,127,0.0011148272017837235,1516.0,1494.0,1270,1501.0
8.519630908966064,160,128,0.0011441647597254005,1513.0,1494.0,1270,1500.0
8.542869091033936,160,129,0.0011148272017837235,1512.0,1494.0,1270,1500.0
8.566158056259155,159,130,0.0010416666666666667,1507.0,1494.0,1270,1499.0
8.589328050613403,159,131,0.0011148272017837235,1504.0,1494.0,1270,1499.0
8.612596988677979,158,131,0.0010683760683760685,1498.0,1494.0,1270,1498.0
8.63585090637207,158,132,0.0010683760683760685,1494.0,1494.0,1270,1498.0
8.659058094024658,157,132,0.0010416666666666667,1488.0,1494.0,1270,1497.0
8.682317972183228,157,132,0.0010683760683760685,1484.0,1494.0,1270,1497.0
8.705589056015015,156,133,0.0010683760683760685,1480,1494.0,1270,1496.0
8.728705883026123,156,133,0.0010683760683760685,1480,1494.0,1270,1496.0
8.751811981201172,155,133,0.0010683760683760685,1480,1494.0,1270,1495.0
8.775057077407837,154,133,0.0010256410256410256,1480,1494.0,1270,1494.0
8.798173904418945,154,133,0.0010256410256410256,1480,1494.0,1270,1494.0
8.8212890625,153,132,0.0010683760683760685,1480,1494.0,1270,1493.0
8.844398021697998,152,132,0.0010526315789473684,1480,1494.0,1270,1492.0
8.867515087127686,153,131,0.000975609756097561,1480,1494.0,1270,1493.0
8.890604019165039,153,130,0.0009380863039399625,1480,1494.0,1270,1493.0
8.913690090179443,152,130,0.000975609756097561,1480,1494.0,1270,1492.0
8.93726897239685,152,128,0.0009380863039399625,1480,1494.0,1270,1492.0
8.960546970367432,151,128,0.0008818342151675485,1480,1494.0,1270,1491.0
8.983673095703125,151,127,0.0008818342151675485,1480,1494.0,1270,1491.0
9.006778955459595,151,126,0.0009033423667570009,1480,1494.0,1270,1491.0
9.029860019683838,150,125,0.0008818342151675485,1480,1494.0,1270,1490.0
9.05304503440857,150,123,0.0008503401360544217,1480,1494.0,1270,1490.0
9.076276063919067,150,122,0.0008818342151675485,1480,1494.0,1270,1490.0
9.099555015563965,150,118,0.0008503401360544217,1480,1494.0,1270,1490.0
9.1228609085083,150,116,0.0008503401360544217,1480,1494.0,1270,1490.0
9.14612889289856,150,114,0.0008503401360544217,1480,1494.0,1270,1490.0
9.169257879257202,151,112,0.0008305647840531562,1480,1494.0,1270,1491.0
9.19239091873169,150,110,0.0008503401360544217,1480,1494.0,1270,1490.0
9.215544939041138,151,108,0.0008305647840531562,1480,1494.0,1270,1491.0
9.238671064376831,151,106,0.0008305647840531562,1480,1494.0,1271.74,1491.0
9.26186490058899,150,103,0.0008503401360544217,1480,1494.0,1278.4000000000001,1490.0
9.285218954086304,150,98,0.0008305647840531562,1480,1494.0,1287.6700000000001,1490.0
9.308439016342163,150,95,0.0008305647840531562,1480,1494.0,1295.5,1490.0
9.331616878509521,151,92,0.0007763975155279503,1480,1494.0,1303.4200000000001,1491.0
9.354971885681152,151,89,0.0007763975155279503,1480,1494.0,1311.6099999999999,1491.0
9.378201007843018,151,86,0.0007763975155279503,1480,1494.0,1319.8900000000001,1491.0
9.401402950286865,151,83,0.0008051529790660225,1480,1494.0,1327.9000000000001,1491.0
9.424603939056396,151,80,0.0008051529790660225,1480,1494.0,1330,1491.0
9.447712898254395,151,76,0.0007763975155279503,1480,1494.0,1330,1491.0
9.470823049545288,152,70,0.0007880220646178094,1480,1494.0,1330,1492.0
9.493947982788086,152,66,0.0007598784194528875,1480,1494.0,1330,1492.0
9.517049074172974,152,63,0.0008051529790660225,1480,1494.0,1330,1492.0
9.54013705253601,152,60,0.0008051529790660225,1480,1494.0,1330,1492.0
9.56324291229248,153,56,0.0007598784194528875,1480,1494.0,1330,1493.0
9.586333990097046,153,53,0.0007880220646178094,1480,1494.0,1330,1493.0
9.609440088272095,153,50,0.0007880220646178094,1480,1494.0,1330,1493.0
9.632626056671143,153,46,0.0007716049382716049,1480,1494.0,1330,1493.0
9.655853033065796,154,39,0.0007880220646178094,1480,1494.0,1330,1494.0
9.678966045379639,154,35,0.0007598784194528875,1480,1494.0,1330,1494.0
9.70206093788147,154,32,0.0007880220646178094,1480,1494.0,1330,1494.0
9.725274085998535,154,28,0.000744047619047619,1480,1494.0,1330,1494.0
9.7484290599823,154,25,0.000744047619047619,1480,1494.0,1330,1494.0
9.771536111831665,154,22,0.000744047619047619,1480,1494.0,1330,1494.0
9.794667959213257,154,19,0.000744047619047619,1480,1494.0,1330,1494.0
9.817876100540161,155,17,0.0007598784194528875,1480,1494.0,1330,1495.0
9.841198921203613,155,12,0.0008183306055646482,1480,1494.0,1330,1495.0
9.86440110206604,155,11,0.0008865248226950354,1480,1494.0,1330,1495.0
9.887533903121948,155,10,0.0009671179883945841,1480,1494.0,1330,1495.0
9.910649061203003,155,9,0.0010869565217391304,1480,1494.0,1330,1495.0
