time,x,y,size_inv,roll,pitch,thrust,yaw
0.0004200935363769531,172,87,0.005050505050505051,1520,1497.0,1316.1199999999999,1512.0
0.022196054458618164,172,87,0.004629629629629629,1520,1497.0,1316.6400000000001,1512.0
0.04378008842468262,173,87,0.005050505050505051,1520,1497.0,1317.1600000000001,1513.0
0.06532812118530273,173,87,0.0043859649122807015,1520,1497.0,1317.6800000000001,1513.0
0.08670997619628906,172,87,0.004629629629629629,1520,1497.0,1318.2,1512.0
0.10803413391113281,173,87,0.004629629629629629,1520,1497.0,1318.72,1513.0
0.12943696975708008,172,87,0.004629629629629629,1520,1497.0,1319.24,1512.0
0.15079593658447266,173,87,0.0043859649122807015,1520,1497.0,1319.76,1513.0
0.17226195335388184,172,87,0.004629629629629629,1520,1497.0,1320.28,1512.0
0.19370794296264648,173,87,0.0043859649122807015,1520,1497.0,1320.8,1513.0
0.21529698371887207,173,87,0.004901960784313725,1520,1497.0,1320.8,1513.0
0.237044095993042,172,87,0.004629629629629629,1520,1497.0,1320.8,1512.0
0.25878190994262695,173,87,0.004784688995215311,1520,1497.0,1320.8,1513.0
0.2805299758911133,172,87,0.004629629629629629,1520,1497.0,1320.8,1512.0
0.3022749423980713,171,87,0.004629629629629629,1520,1497.0,1320.8,1511.0
0.3240320682525635,170,88,0.005050505050505051,1520,1497.0,1318.1600000000001,1510.0
0.34578990936279297,170,88,0.0053475935828877,1520,1497.0,1316.72,1510.0
0.3675351142883301,169,87,0.004629629629629629,1520,1497.0,1317.9200000000001,1509.0
0.38928794860839844,168,87,0.005050505050505051,1520,1497.0,1317.9200000000001,1508.0
0.4110541343688965,167,86,0.005050505050505051,1520,1497.0,1320.5599999999999,1507.0
0.4327969551086426,165,85,0.005681818181818182,1520,1497.0,1327.4400000000001,1505.0
0.45455503463745117,164,85,0.005050505050505051,1520,1497.0,1333.1199999999999,1504.0
0.47631096839904785,161,84,0.005555555555555556,1520,1497.0,1338.6400000000001,1501.0
0.4980490207672119,160,85,0.005050505050505051,1520,1497.0,1340.3199999999999,1500.0
0.5197911262512207,158,86,0.005050505050505051,1520,1497.0,1337.76,1498.0
0.5415399074554443,157,86,0.005555555555555556,1520,1497.0,1332.24,1497.0
0.5633659362792969,156,87,0.005681818181818182,1517.0,1497.0,1324.0799999999999,1496.0
0.5851540565490723,156,87,0.005555555555555556,1504.0,1497.0,1315.6800000000001,1496.0
0.6069331169128418,155,88,0.005050505050505051,1489.0,1497.0,1307.4400000000001,1495.0
0.6287081241607666,155,88,0.005050505050505051,1480,1497.0,1304.5599999999999,1495.0
0.6504471302032471,154,88,0.005555555555555556,1480,1497.0,1303.04,1494.0
0.672184944152832,154,89,0.005050505050505051,1480,1497.0,1301.6800000000001,1494.0
0.6939220428466797,154,90,0.005050505050505051,1480,1497.0,1300.24,1494.0
0.715670108795166,154,90,0.005555555555555556,1480,1497.0,1301.4400000000001,1494.0
0.7374279499053955,154,91,0.005050505050505051,1480,1497.0,1298.6400000000001,1494.0
0.7591860294342041,153,92,0.005681818181818182,1480,1497.0,1294.4000000000001,1493.0
0.7809360027313232,154,93,0.005050505050505051,1480,1497.0,1290.1600000000001,1494.0
0.8026769161224365,153,94,0.005681818181818182,1480,1497.0,1287.28,1493.0
0.8244290351867676,153,94,0.005681818181818182,1480,1497.0,1284.24,1493.0
0.8461670875549316,154,95,0.005050505050505051,1480,1497.0,1281.3599999999999,1494.0
0.8679139614105225,154,95,0.005050505050505051,1480,1497.0,1282.48,1494.0
0.8897199630737305,154,95,0.005050505050505051,1480,1497.0,1285.04,1494.0
0.911628007888794,154,95,0.005050505050505051,1480,1497.0,1289.04,1494.0
0.9335010051727295,154,95,0.005050505050505051,1480,1497.0,1293.04,1494.0
0.955280065536499,154,95,0.005050505050505051,1480,1497.0,1298.48,1494.0
0.9771959781646729,154,95,0.005050505050505051,1480,1497.0,1302.5599999999999,1494.0
0.9990370273590088,154,95,0.005050505050505051,1480,1497.0,1305.28,1494.0
1.0208020210266113,155,95,0.005050505050505051,1480,1497.0,1306.6400000000001,1495.0
1.0430350303649902,155,95,0.005050505050505051,1480,1497.0,1308.0,1495.0
1.0662529468536377,155,95,0.005050505050505051,1480,1497.0,1308.0,1495.0
1.089426040649414,155,96,0.005050505050505051,1480,1497.0,1305.3599999999999,1495.0
1.1129660606384277,156,96,0.0043859649122807015,1480,1497.0,1303.9200000000001,1496.0
1.1361889839172363,156,97,0.0043859649122807015,1480,1497.0,1299.8399999999999,1496.0
1.1594080924987793,156,97,0.0043859649122807015,1480,1497.0,1296.96,1496.0
1.1826269626617432,156,97,0.0043859649122807015,1480,1497.0,1294.0799999999999,1496.0
1.2058560848236084,156,97,0.004784688995215311,1480,1497.0,1294.0,1496.0
1.229017972946167,156,96,0.0043859649122807015,1480,1497.0,1296.5599999999999,1496.0
1.2522470951080322,155,96,0.004629629629629629,1480,1497.0,1300.72,1495.0
1.2754991054534912,155,95,0.004629629629629629,1480,1497.0,1307.52,1495.0
1.2986750602722168,155,95,0.005050505050505051,1480,1497.0,1313.1199999999999,1495.0
1.3219399452209473,155,95,0.005050505050505051,1480,1497.0,1317.3599999999999,1495.0
1.3451991081237793,155,94,0.004629629629629629,1480,1497.0,1321.4400000000001,1495.0
1.3683929443359375,155,94,0.004629629629629629,1480,1497.0,1322.96,1495.0
1.391542911529541,155,94,0.004629629629629629,1480,1497.0,1321.6800000000001,1495.0
1.414829969406128,155,94,0.004166666666666667,1480,1497.0,1320.4000000000001,1495.0
1.4380059242248535,155,94,0.0043859649122807015,1480,1497.0,1319.1199999999999,1495.0
1.4611921310424805,154,94,0.005050505050505051,1480,1497.0,1316.4000000000001,1494.0
1.484489917755127,155,93,0.0043859649122807015,1480,1497.0,1316.3199999999999,1495.0
1.5076560974121094,155,93,0.0043859649122807015,1480,1497.0,1316.4000000000001,1495.0
1.5308239459991455,155,93,0.0043859649122807015,1480,1497.0,1316.48,1495.0
1.5539870262145996,155,92,0.004629629629629629,1480,1497.0,1319.2,1495.0
1.5771770477294922,155,92,0.004629629629629629,1480,1497.0,1322.0799999999999,1495.0
1.6003870964050293,156,91,0.0043859649122807015,1480,1497.0,1324.8,1496.0
1.6235740184783936,156,91,0.0043859649122807015,1480,1497.0,1326.3199999999999,1496.0
1.646752119064331,156,90,0.0043859649122807015,1480,1497.0,1330.48,1496.0
1.669929027557373,156,89,0.0043859649122807015,1480,1497.0,1333.28,1496.0
1.6931099891662598,156,88,0.004629629629629629,1480,1497.0,1337.52,1496.0
1.7162740230560303,156,88,0.005050505050505051,1480,1497.0,1339.1199999999999,1496.0
1.7394590377807617,157,87,0.0043859649122807015,1480,1497.0,1343.3599999999999,1497.0
1.7626690864562988,157,87,0.0043859649122807015,1480,1497.0,1343.5999999999999,1497.0
1.7858710289001465,157,87,0.0043859649122807015,1480,1497.0,1342.4000000000001,1497.0
1.8090529441833496,157,87,0.0043859649122807015,1480,1497.0,1338.4000000000001,1497.0
1.8323149681091309,157,87,0.004629629629629629,1480,1497.0,1335.76,1497.0
1.855633020401001,157,87,0.004629629629629629,1480,1497.0,1330.3199999999999,1497.0
1.8788199424743652,158,87,0.0043859649122807015,1480,1497.0,1326.24,1498.0
1.9020309448242188,157,86,0.004629629629629629,1480,1497.0,1326.1600000000001,1497.0
1.9252619743347168,157,87,0.004273504273504274,1480,1497.0,1323.5999999999999,1497.0
1.9484279155731201,158,87,0.004048582995951417,1480,1497.0,1322.24,1498.0
1.971601963043213,158,87,0.004545454545454545,1480,1497.0,1322.24,1498.0
1.9949901103973389,159,86,0.004048582995951417,1480,1497.0,1324.8800000000001,1499.0
2.018157958984375,159,85,0.0043859649122807015,1480,1497.0,1326.1600000000001,1499.0
2.0413479804992676,159,85,0.0043859649122807015,1480,1497.0,1329.04,1499.0
2.064697027206421,159,85,0.0043859649122807015,1480,1497.0,1331.9200000000001,1499.0
2.087918996810913,159,85,0.0043859649122807015,1481.0,1497.0,1334.8,1499.0
2.1111810207366943,159,86,0.004048582995951417,1482.0,1497.0,1332.24,1499.0
2.1345839500427246,159,86,0.0038461538461538464,1484.0,1497.0,1329.4400000000001,1499.0
2.1579039096832275,159,86,0.004166666666666667,1486.0,1497.0,1325.28,1499.0
2.181185007095337,159,87,0.0038461538461538464,1487.0,1497.0,1318.48,1499.0
2.2045910358428955,159,87,0.004048582995951417,1488.0,1497.0,1312.8800000000001,1499.0
2.227860927581787,159,87,0.0038461538461538464,1488.0,1497.0,1311.4400000000001,1499.0
2.251131057739258,159,86,0.0038461538461538464,1488.0,1497.0,1314.0,1499.0
2.2748029232025146,159,86,0.004048582995951417,1488.0,1497.0,1315.3599999999999,1499.0
2.2980940341949463,159,85,0.004048582995951417,1488.0,1497.0,1322.1600000000001,1499.0
2.3213839530944824,160,85,0.0043859649122807015,1491.0,1497.0,1327.76,1500.0
2.3447930812835693,160,84,0.0043859649122807015,1492.0,1497.0,1334.6400000000001,1500.0
2.3680830001831055,160,84,0.004048582995951417,1493.0,1497.0,1337.52,1500.0
2.3913629055023193,159,83,0.004166666666666667,1491.0,1497.0,1343.04,1499.0
2.4147589206695557,160,83,0.0043859649122807015,1494.0,1497.0,1343.2,1500.0
2.4380180835723877,160,83,0.0038461538461538464,1495.0,1497.0,1343.3599999999999,1500.0
2.461311101913452,160,82,0.0037593984962406013,1496.0,1497.0,1343.3599999999999,1500.0
2.4847400188446045,160,83,0.004048582995951417,1497.0,1497.0,1340.8800000000001,1500.0
2.5080111026763916,160,83,0.004048582995951417,1498.0,1497.0,1336.8,1500.0
2.5313029289245605,160,83,0.0037593984962406013,1499.0,1497.0,1334.0799999999999,1500.0
2.554816961288452,159,84,0.004273504273504274,1496.0,1497.0,1328.72,1499.0
2.578099012374878,159,84,0.004273504273504274,1495.0,1497.0,1323.1199999999999,1499.0
2.6013591289520264,159,84,0.004273504273504274,1494.0,1497.0,1320.3199999999999,1499.0
2.6247689723968506,160,83,0.0035714285714285713,1497.0,1497.0,1321.52,1500.0
2.648036003112793,160,83,0.0037593984962406013,1497.0,1497.0,1321.52,1500.0
2.6713130474090576,160,83,0.0038461538461538464,1497.0,1497.0,1324.3199999999999,1500.0
2.6947360038757324,160,83,0.0038461538461538464,1497.0,1497.0,1328.48,1500.0
2.718040943145752,160,83,0.0035714285714285713,1497.0,1497.0,1331.28,1500.0
2.7413220405578613,160,84,0.0038461538461538464,1497.0,1497.0,1328.6400000000001,1500.0
2.764744997024536,160,84,0.0035714285714285713,1497.0,1497.0,1327.2,1500.0
2.7880020141601562,160,85,0.0037593984962406013,1498.0,1497.0,1321.76,1500.0
2.811271905899048,160,86,0.004048582995951417,1499.0,1497.0,1314.8800000000001,1500.0
2.83467698097229,160,86,0.0037593984962406013,1500.0,1497.0,1309.2,1500.0
2.857959032058716,160,87,0.004048582995951417,1500.0,1497.0,1305.04,1500.0
2.881225109100342,160,88,0.004048582995951417,1500.0,1497.0,1299.4400000000001,1500.0
2.904633045196533,160,87,0.0037593984962406013,1500.0,1497.0,1300.48,1500.0
2.927880048751831,160,88,0.004048582995951417,1500.0,1497.0,1300.48,1500.0
2.951141119003296,160,86,0.0037593984962406013,1500.0,1497.0,1306.96,1500.0
2.974532127380371,160,86,0.004048582995951417,1500.0,1497.0,1312.48,1500.0
2.9977939128875732,160,85,0.0037593984962406013,1500.0,1497.0,1323.4400000000001,1500.0
3.021048069000244,160,85,0.0037593984962406013,1500.0,1497.0,1329.04,1500.0
3.044445037841797,160,86,0.004048582995951417,1500.0,1497.0,1333.4400000000001,1500.0
3.0677599906921387,160,85,0.004048582995951417,1500.0,1497.0,1336.0799999999999,1500.0
3.0910420417785645,160,85,0.004048582995951417,1500.0,1497.0,1336.1600000000001,1500.0
3.1144261360168457,160,85,0.004048582995951417,1500.0,1497.0,1332.0799999999999,1500.0
3.1377110481262207,160,85,0.004048582995951417,1500.0,1497.0,1329.3599999999999,1500.0
3.161046028137207,161,85,0.004048582995951417,1503.0,1497.0,1328.0799999999999,1501.0
3.184438943862915,160,84,0.0035714285714285713,1501.0,1497.0,1329.3599999999999,1500.0
3.2077391147613525,161,84,0.004048582995951417,1504.0,1497.0,1329.4400000000001,1501.0
3.2310080528259277,161,83,0.004048582995951417,1505.0,1497.0,1333.52,1501.0
3.254279136657715,161,83,0.004048582995951417,1506.0,1497.0,1336.4000000000001,1501.0
3.27754807472229,161,82,0.0037593984962406013,1507.0,1497.0,1340.5599999999999,1501.0
3.3008110523223877,161,82,0.004048582995951417,1508.0,1497.0,1342.0799999999999,1501.0
3.324083089828491,161,82,0.0035714285714285713,1509.0,1497.0,1343.5999999999999,1501.0
3.3473379611968994,161,82,0.004048582995951417,1510.0,1497.0,1342.3199999999999,1501.0
3.3706250190734863,161,81,0.0035714285714285713,1511.0,1497.0,1343.6800000000001,1501.0
3.393889904022217,161,81,0.004166666666666667,1511.0,1497.0,1341.04,1501.0
3.417452096939087,161,80,0.003401360544217687,1512.0,1497.0,1342.4000000000001,1501.0
3.4407379627227783,160,80,0.004166666666666667,1509.0,1497.0,1342.5599999999999,1500.0
3.464021921157837,160,80,0.0038461538461538464,1508.0,1497.0,1344.0799999999999,1500.0
3.4873011112213135,160,79,0.0035714285714285713,1507.0,1497.0,1345.4400000000001,1500.0
3.5105700492858887,161,79,0.004048582995951417,1509.0,1497.0,1346.96,1501.0
3.533838987350464,161,79,0.004048582995951417,1509.0,1497.0,1345.6800000000001,1501.0
3.5571279525756836,160,78,0.0038461538461538464,1506.0,1497.0,1347.04,1500.0
3.5803890228271484,161,78,0.0043859649122807015,1508.0,1497.0,1347.2,1501.0
3.6036651134490967,161,77,0.004048582995951417,1508.0,1497.0,1348.5599999999999,1501.0
3.6269209384918213,161,77,0.004048582995951417,1508.0,1497.0,1348.72,1501.0
3.650167942047119,161,77,0.0038461538461538464,1508.0,1497.0,1350,1501.0
3.673367977142334,161,77,0.0038461538461538464,1509.0,1497.0,1348.96,1501.0
3.696604013442993,160,76,0.004166666666666667,1507.0,1497.0,1350,1500.0
3.7197699546813965,161,76,0.004048582995951417,1510.0,1497.0,1349.04,1501.0
3.7430710792541504,161,76,0.004048582995951417,1510.0,1497.0,1347.76,1501.0
3.7663891315460205,160,76,0.004545454545454545,1507.0,1497.0,1346.48,1500.0
3.7896480560302734,160,75,0.004166666666666667,1507.0,1497.0,1349.2,1500.0
3.8128600120544434,160,75,0.0043859649122807015,1506.0,1497.0,1347.9200000000001,1500.0
3.836125135421753,160,74,0.004166666666666667,1505.0,1497.0,1350,1500.0
3.8592920303344727,160,74,0.004048582995951417,1504.0,1497.0,1350,1500.0
3.8825180530548096,160,74,0.004048582995951417,1503.0,1497.0,1350,1500.0
3.9057700634002686,158,73,0.003787878787878788,1496.0,1497.0,1350,1498.0
3.928947925567627,160,73,0.0043859649122807015,1500.0,1497.0,1350,1500.0
3.9521820545196533,159,73,0.0038461538461538464,1496.0,1497.0,1350,1499.0
3.9754691123962402,159,73,0.0038461538461538464,1494.0,1497.0,1350,1499.0
3.9986701011657715,157,73,0.003205128205128205,1487.0,1497.0,1350,1497.0
4.021913051605225,160,73,0.003663003663003663,1493.0,1497.0,1350.0,1500.0
4.0452399253845215,160,72,0.0035714285714285713,1493.0,1497.0,1349.9200000000001,1500.0
4.068572998046875,161,73,0.004048582995951417,1496.0,1497.0,1347.3599999999999,1501.0
4.0919201374053955,160,73,0.0043859649122807015,1494.0,1497.0,1346.0,1500.0
4.115253925323486,160,73,0.004048582995951417,1494.0,1497.0,1344.6400000000001,1500.0
4.138544082641602,160,73,0.0038461538461538464,1496.0,1497.0,1344.6400000000001,1500.0
4.161924123764038,160,73,0.004166666666666667,1496.0,1497.0,1341.8399999999999,1500.0
4.18525505065918,160,72,0.0043859649122807015,1497.0,1497.0,1344.48,1500.0
4.208522081375122,160,72,0.0043859649122807015,1498.0,1497.0,1345.9200000000001,1500.0
4.2319090366363525,159,72,0.0038461538461538464,1498.0,1497.0,1347.3599999999999,1499.0
4.2553229331970215,160,72,0.0038461538461538464,1500.0,1497.0,1348.8,1500.0
4.278594970703125,159,72,0.004048582995951417,1497.0,1497.0,1350,1499.0
4.301854133605957,158,72,0.004048582995951417,1492.0,1497.0,1350,1498.0
4.325124979019165,158,72,0.004048582995951417,1490.0,1497.0,1348.8800000000001,1498.0
4.348406076431274,158,72,0.004048582995951417,1488.0,1497.0,1347.52,1498.0
4.37174391746521,158,72,0.004784688995215311,1486.0,1497.0,1346.1600000000001,1498.0
4.395086050033569,157,72,0.004048582995951417,1481.0,1497.0,1344.8,1497.0
4.418338060379028,157,71,0.0043859649122807015,1480,1497.0,1347.4400000000001,1497.0
4.441550970077515,157,71,0.004166666666666667,1480,1497.0,1348.8800000000001,1497.0
4.464869976043701,157,71,0.004048582995951417,1480,1497.0,1350,1497.0
4.487981081008911,158,71,0.003663003663003663,1480,1497.0,1350,1498.0
4.51108193397522,157,71,0.0038461538461538464,1480,1497.0,1350,1497.0
4.534182071685791,157,71,0.004048582995951417,1480,1497.0,1350,1497.0
4.557322025299072,158,70,0.0043859649122807015,1480,1497.0,1350,1498.0
4.580430030822754,158,70,0.004048582995951417,1480,1497.0,1350,1498.0
4.603518962860107,158,70,0.003787878787878788,1480,1497.0,1350,1498.0
4.626929998397827,158,70,0.0043859649122807015,1480,1497.0,1350,1498.0
4.650125980377197,158,70,0.0043859649122807015,1480,1497.0,1350,1498.0
4.67323899269104,158,70,0.0043859649122807015,1480,1497.0,1350,1498.0
4.696336984634399,158,71,0.004273504273504274,1480,1497.0,1349.4400000000001,1498.0
4.7195351123809814,159,71,0.004048582995951417,1480,1497.0,1346.6400000000001,1499.0
4.742716073989868,158,70,0.0037593984962406013,1480,1497.0,1346.48,1498.0
4.7659289836883545,156,71,0.003205128205128205,1480,1497.0,1342.48,1496.0
4.789114952087402,159,71,0.0034965034965034965,1480,1497.0,1341.04,1499.0
4.812423944473267,159,69,0.00267379679144385,1480,1497.0,1347.6800000000001,1499.0
4.835763931274414,159,68,0.0030864197530864196,1480.0,1497.0,1350,1499.0
4.858979940414429,160,71,0.0030303030303030303,1484.0,1497.0,1349.52,1500.0
4.8823161125183105,160,70,0.002840909090909091,1486.0,1497.0,1350,1500.0
4.905580043792725,160,72,0.004048582995951417,1488.0,1497.0,1350,1500.0
4.928762912750244,160,71,0.003289473684210526,1490.0,1497.0,1346.6400000000001,1500.0
4.952094078063965,161,72,0.0030303030303030303,1494.0,1497.0,1335.5999999999999,1501.0
4.975459098815918,161,73,0.0034965034965034965,1497.0,1497.0,1332.8800000000001,1501.0
4.998747110366821,161,73,0.0034965034965034965,1502.0,1497.0,1327.2,1501.0
5.022078990936279,162,73,0.003105590062111801,1507.0,1497.0,1327.1199999999999,1502.0
5.045444965362549,161,71,0.0025252525252525255,1507.0,1497.0,1332.24,1501.0
5.0687549114227295,161,74,0.0034965034965034965,1509.0,1497.0,1331.2,1501.0
5.092097997665405,161,73,0.003246753246753247,1510.0,1497.0,1335.1199999999999,1501.0
5.115445137023926,161,73,0.0030303030303030303,1511.0,1497.0,1339.2,1501.0
5.1387410163879395,161,73,0.002976190476190476,1512.0,1497.0,1340.5599999999999,1501.0
5.162182092666626,161,73,0.003663003663003663,1513.0,1497.0,1337.6800000000001,1501.0
5.185550928115845,160,72,0.003246753246753247,1510.0,1497.0,1344.48,1500.0
5.208807945251465,160,73,0.003246753246753247,1509.0,1497.0,1343.28,1500.0
5.232188940048218,160,72,0.003105590062111801,1508.0,1497.0,1345.9200000000001,1500.0
5.255594968795776,160,73,0.002898550724637681,1506.0,1497.0,1344.72,1500.0
5.278868913650513,160,73,0.003246753246753247,1505.0,1497.0,1347.4400000000001,1500.0
5.302180051803589,159,74,0.003246753246753247,1501.0,1497.0,1340.6400000000001,1499.0
5.325556993484497,159,74,0.0030303030303030303,1499.0,1497.0,1339.2,1499.0
5.3488171100616455,159,74,0.003246753246753247,1497.0,1497.0,1334.96,1499.0
5.372137069702148,159,75,0.0038461538461538464,1495.0,1497.0,1330.8800000000001,1499.0
5.395488977432251,160,75,0.003246753246753247,1496.0,1497.0,1328.0,1500.0
5.418735027313232,160,75,0.002898550724637681,1496.0,1497.0,1329.28,1500.0
5.442068099975586,160,75,0.003246753246753247,1496.0,1497.0,1329.2,1500.0
5.465389966964722,160,76,0.0030303030303030303,1496.0,1497.0,1327.8399999999999,1500.0
5.488668918609619,160,75,0.0030303030303030303,1496.0,1497.0,1331.76,1500.0
5.512006044387817,161,75,0.0030303030303030303,1499.0,1497.0,1334.48,1501.0
5.535361051559448,161,75,0.003105590062111801,1501.0,1497.0,1335.8399999999999,1501.0
5.558643102645874,161,75,0.003246753246753247,1503.0,1497.0,1337.2,1501.0
5.581963062286377,161,75,0.003246753246753247,1505.0,1497.0,1341.3599999999999,1501.0
5.605291128158569,161,75,0.003246753246753247,1507.0,1497.0,1341.3599999999999,1501.0
5.628551959991455,161,75,0.003246753246753247,1508.0,1497.0,1341.3599999999999,1501.0
5.651884078979492,161,76,0.0034965034965034965,1509.0,1497.0,1338.72,1501.0
5.675235986709595,161,77,0.0030303030303030303,1510.0,1497.0,1334.6400000000001,1501.0
5.698506116867065,161,77,0.0034965034965034965,1511.0,1497.0,1330.4000000000001,1501.0
5.72183895111084,161,77,0.003246753246753247,1512.0,1497.0,1327.52,1501.0
5.74520206451416,162,77,0.003105590062111801,1515.0,1497.0,1324.6400000000001,1502.0
5.768471956253052,162,78,0.0033444816053511705,1516.0,1497.0,1321.9200000000001,1502.0
5.791798114776611,162,78,0.003246753246753247,1517.0,1497.0,1323.2,1502.0
5.815419912338257,162,78,0.003246753246753247,1518.0,1497.0,1324.48,1502.0
5.8387229442596436,162,78,0.003246753246753247,1519.0,1497.0,1325.76,1502.0
5.862107992172241,162,80,0.002898550724637681,1520.0,1497.0,1321.76,1502.0
5.885502099990845,161,79,0.003105590062111801,1518.0,1497.0,1324.24,1501.0
5.90877890586853,161,80,0.002898550724637681,1518.0,1497.0,1321.52,1501.0
5.932143926620483,161,80,0.002777777777777778,1518.0,1497.0,1320.0,1501.0
5.955547094345093,161,80,0.002717391304347826,1518.0,1497.0,1318.48,1501.0
5.978831052780151,161,81,0.003105590062111801,1517.0,1497.0,1319.9200000000001,1501.0
6.002216100692749,160,81,0.002840909090909091,1513.0,1497.0,1318.4000000000001,1500.0
6.025612115859985,160,82,0.0025252525252525255,1511.0,1497.0,1317.04,1500.0
6.04891300201416,160,82,0.0025252525252525255,1509.0,1497.0,1316.8800000000001,1500.0
6.072277069091797,160,83,0.0023923444976076554,1507.0,1497.0,1314.0799999999999,1500.0
6.0956130027771,160,85,0.0025575447570332483,1505.0,1497.0,1307.28,1500.0
6.118856906890869,160,85,0.0024509803921568627,1504.0,1497.0,1304.24,1500.0
6.142169952392578,160,84,0.0024154589371980675,1503.0,1497.0,1305.28,1500.0
6.165543079376221,160,83,0.001984126984126984,1502.0,1497.0,1307.76,1500.0
6.1888039112091064,160,84,0.0021929824561403508,1501.0,1497.0,1309.2,1500.0
6.212105989456177,162,85,0.0024154589371980675,1506.0,1497.0,1313.4400000000001,1502.0
6.235445976257324,161,86,0.002717391304347826,1505.0,1497.0,1316.24,1501.0
6.258682012557983,161,88,0.002898550724637681,1506.0,1497.0,1310.8,1501.0
6.281970024108887,161,88,0.002777777777777778,1507.0,1497.0,1304.96,1501.0
6.305273056030273,162,87,0.0025575447570332483,1511.0,1497.0,1303.2,1502.0
6.328520059585571,162,88,0.002717391304347826,1513.0,1497.0,1297.6800000000001,1502.0
6.351840972900391,161,89,0.002777777777777778,1512.0,1497.0,1293.52,1501.0
6.375185966491699,161,89,0.002976190476190476,1513.0,1497.0,1297.52,1501.0
6.398442983627319,161,89,0.002777777777777778,1514.0,1497.0,1302.8800000000001,1501.0
6.4217259883880615,162,89,0.003105590062111801,1518.0,1497.0,1304.0799999999999,1502.0
6.445056915283203,162,89,0.002717391304347826,1518.0,1497.0,1306.72,1502.0
6.468302965164185,162,89,0.002777777777777778,1519.0,1497.0,1310.8,1502.0
6.49153995513916,162,89,0.002777777777777778,1520.0,1497.0,1312.1600000000001,1502.0
6.514898061752319,162,89,0.002777777777777778,1520,1497.0,1313.52,1502.0
6.538064956665039,162,88,0.002857142857142857,1520,1497.0,1318.8800000000001,1502.0
6.56125807762146,162,88,0.002777777777777778,1520,1497.0,1321.6800000000001,1502.0
6.584594011306763,163,88,0.002898550724637681,1520,1497.0,1323.1199999999999,1503.0
6.607753038406372,162,88,0.002898550724637681,1520,1497.0,1324.5599999999999,1502.0
6.630908966064453,161,88,0.002564102564102564,1520,1497.0,1326.0,1501.0
6.654060125350952,160,88,0.0026041666666666665,1518.0,1497.0,1324.6400000000001,1500.0
6.677288055419922,162,87,0.002717391304347826,1520,1497.0,1325.9200000000001,1502.0
6.700451135635376,160,87,0.002777777777777778,1516.0,1497.0,1326.0,1500.0
6.723689079284668,159,87,0.002777777777777778,1511.0,1497.0,1326.0799999999999,1499.0
6.7469799518585205,159,87,0.002352941176470588,1508.0,1497.0,1326.1600000000001,1499.0
6.770227909088135,159,85,0.0025,1505.0,1497.0,1332.8800000000001,1499.0
6.793455123901367,158,85,0.002564102564102564,1499.0,1497.0,1334.4000000000001,1498.0
6.816690921783447,157,84,0.0026041666666666665,1491.0,1497.0,1338.5599999999999,1497.0
6.839931964874268,158,84,0.0025,1489.0,1497.0,1341.52,1498.0
6.863160133361816,156,83,0.0026041666666666665,1480.0,1497.0,1347.1199999999999,1496.0
6.886434078216553,157,83,0.002777777777777778,1480,1497.0,1345.9200000000001,1497.0
6.909601926803589,157,81,0.002403846153846154,1480,1497.0,1350,1497.0
6.93272590637207,157,81,0.0023148148148148147,1480,1497.0,1350,1497.0
6.955863952636719,157,81,0.0024691358024691358,1480,1497.0,1350,1497.0
6.978949069976807,156,80,0.0023148148148148147,1480,1497.0,1350,1496.0
7.007542133331299,157,80,0.0025575447570332483,1480,1497.0,1350,1497.0
7.030817031860352,156,80,0.002232142857142857,1480,1497.0,1349.52,1496.0
7.05411696434021,155,80,0.0022624434389140274,1480,1497.0,1346.8800000000001,1495.0
7.077455997467041,156,79,0.002717391304347826,1480,1497.0,1346.8800000000001,1496.0
7.100735902786255,156,79,0.0022624434389140274,1480,1497.0,1344.24,1496.0
7.124021053314209,156,79,0.002136752136752137,1480,1497.0,1341.5999999999999,1496.0
7.147324085235596,156,79,0.0025575447570332483,1480,1497.0,1341.6800000000001,1496.0
7.170711994171143,155,78,0.001984126984126984,1480,1497.0,1344.4000000000001,1495.0
7.194584131240845,155,78,0.0021008403361344537,1480,1497.0,1343.1199999999999,1495.0
7.218369960784912,157,77,0.002136752136752137,1480,1497.0,1345.8399999999999,1497.0
7.242211103439331,157,77,0.00205761316872428,1480,1497.0,1347.3599999999999,1497.0
7.2660911083221436,156,77,0.002028397565922921,1480,1497.0,1348.8800000000001,1496.0
7.289847135543823,158,77,0.002178649237472767,1480,1497.0,1347.5999999999999,1498.0
7.313584089279175,158,76,0.00205761316872428,1480,1497.0,1350,1498.0
7.337479114532471,156,76,0.0017543859649122807,1480,1497.0,1349.04,1496.0
7.361336946487427,157,75,0.0019157088122605363,1480,1497.0,1350,1497.0
7.385319948196411,158,75,0.001984126984126984,1480,1497.0,1350,1498.0
7.409204006195068,158,75,0.0018148820326678765,1480,1497.0,1350,1498.0
7.432891130447388,158,75,0.0018148820326678765,1480,1497.0,1350,1498.0
7.4565980434417725,158,75,0.0018796992481203006,1480,1497.0,1350,1498.0
7.480297088623047,157,75,0.0017543859649122807,1480,1497.0,1348.1600000000001,1497.0
7.504096984863281,159,75,0.0018148820326678765,1480,1497.0,1345.4400000000001,1499.0
7.528023958206177,159,74,0.0017857142857142857,1480,1497.0,1345.3599999999999,1499.0
7.551872968673706,159,74,0.0017857142857142857,1480,1497.0,1345.4400000000001,1499.0
7.575737953186035,159,74,0.001984126984126984,1480.0,1497.0,1345.52,1499.0
7.599570035934448,159,74,0.0017543859649122807,1482.0,1497.0,1346.96,1499.0
7.6234400272369385,159,73,0.0017857142857142857,1483.0,1497.0,1350,1499.0
7.6472320556640625,160,74,0.00205761316872428,1487.0,1497.0,1348.48,1500.0
7.671072959899902,159,74,0.001851851851851852,1486.0,1497.0,1347.1199999999999,1499.0
7.695051908493042,160,73,0.0017857142857142857,1490.0,1497.0,1348.4000000000001,1500.0
7.718874931335449,160,74,0.0018796992481203006,1493.0,1497.0,1345.8399999999999,1500.0
7.742729902267456,161,74,0.001763668430335097,1497.0,1497.0,1341.6800000000001,1501.0
7.766726970672607,160,74,0.0017857142857142857,1496.0,1497.0,1341.6800000000001,1500.0
7.790750980377197,161,74,0.001851851851851852,1500.0,1497.0,1341.6800000000001,1501.0
7.814681053161621,161,74,0.0017857142857142857,1502.0,1497.0,1338.8800000000001,1501.0
7.838557958602905,161,74,0.0017006802721088435,1504.0,1497.0,1338.8800000000001,1501.0
7.862457036972046,161,74,0.0016420361247947454,1506.0,1497.0,1340.24,1501.0
7.886353015899658,161,74,0.0017006802721088435,1507.0,1497.0,1340.24,1501.0
7.91028904914856,161,74,0.0017857142857142857,1509.0,1497.0,1340.24,1501.0
7.934262037277222,161,74,0.0017241379310344827,1510.0,1497.0,1341.5999999999999,1501.0
7.958127975463867,161,75,0.0018148820326678765,1511.0,1497.0,1338.96,1501.0
7.982043981552124,160,73,0.0015625,1508.0,1497.0,1342.8,1500.0
8.00595498085022,161,73,0.0017241379310344827,1511.0,1497.0,1344.24,1501.0
8.029770135879517,161,73,0.0016666666666666668,1511.0,1497.0,1345.6800000000001,1501.0
8.053899049758911,161,73,0.0015873015873015873,1511.0,1497.0,1347.1199999999999,1501.0
8.078314065933228,160,73,0.0017543859649122807,1508.0,1497.0,1350,1500.0
8.102174997329712,160,73,0.0017543859649122807,1507.0,1497.0,1350.0,1500.0
8.126091003417969,160,73,0.001644736842105263,1506.0,1497.0,1348.6400000000001,1500.0
8.149953126907349,161,72,0.0017857142857142857,1508.0,1497.0,1349.9200000000001,1501.0
8.173808097839355,162,72,0.0018148820326678765,1511.0,1497.0,1350,1502.0
8.19756007194519,163,71,0.0017241379310344827,1515.0,1497.0,1350,1503.0
8.2218599319458,163,71,0.0017543859649122807,1518.0,1497.0,1350,1503.0
8.245743036270142,162,69,0.0015625,1517.0,1497.0,1350,1502.0
8.269504070281982,161,67,0.0015151515151515152,1515.0,1497.0,1350,1501.0
8.293246030807495,163,66,0.0016666666666666668,1520,1497.0,1350,1503.0
8.316918134689331,163,65,0.0015625,1520,1497.0,1350,1503.0
8.340543985366821,163,64,0.0016666666666666668,1520,1497.0,1350,1503.0
8.364221096038818,164,63,0.0017543859649122807,1520,1497.0,1350,1504.0
8.387903928756714,163,62,0.0015151515151515152,1520,1497.0,1350,1503.0
8.411787033081055,162,61,0.0015151515151515152,1520,1497.0,1350,1502.0
8.4355149269104,163,61,0.0016666666666666668,1520,1497.0,1350,1503.0
8.459187984466553,162,62,0.001644736842105263,1520,1497.0,1350,1502.0
8.482846021652222,163,62,0.001697792869269949,1520,1497.0,1350,1503.0
8.506632089614868,162,61,0.001644736842105263,1520,1497.0,1350,1502.0
8.530407905578613,162,61,0.001644736842105263,1520,1497.0,1350,1502.0
8.55405592918396,162,60,0.001736111111111111,1520,1497.0,1350,1502.0
8.577728986740112,163,59,0.0016129032258064516,1520,1497.0,1350,1503.0
8.601387023925781,164,58,0.0016129032258064516,1520,1497.0,1350,1504.0
8.625196933746338,163,59,0.001594896331738437,1520,1497.0,1350,1503.0
8.648857116699219,164,57,0.0016129032258064516,1520,1497.0,1350,1504.0
8.672570943832397,164,57,0.0016129032258064516,1520,1497.0,1350,1504.0
8.696308135986328,163,56,0.0015625,1520,1497.0,1350,1503.0
8.720116138458252,164,56,0.0016129032258064516,1520,1497.0,1350,1504.0
8.74380612373352,163,55,0.0015625,1520,1497.0,1350,1503.0
8.767491102218628,164,55,0.0016129032258064516,1520,1497.0,1350,1504.0
8.791145086288452,164,55,0.0014705882352941176,1520,1497.0,1350,1504.0
8.81501293182373,164,55,0.0016129032258064516,1520,1497.0,1350,1504.0
8.838799953460693,164,55,0.0015625,1520,1497.0,1350,1504.0
8.862534999847412,165,56,0.0015479876160990713,1520,1497.0,1350,1505.0
8.88627290725708,165,55,0.0014705882352941176,1520,1497.0,1350,1505.0
8.909910917282104,165,56,0.0014005602240896359,1520,1497.0,1350,1505.0
8.933556079864502,165,56,0.001488095238095238,1520,1497.0,1350,1505.0
8.957257986068726,166,56,0.0014005602240896359,1520,1497.0,1350,1506.0
8.980922937393188,166,56,0.0014005602240896359,1520,1497.0,1350,1506.0
9.004725933074951,166,56,0.0014005602240896359,1520,1497.0,1350,1506.0
9.02856707572937,167,56,0.0013605442176870747,1520,1497.0,1350,1507.0
9.052618980407715,167,56,0.0013605442176870747,1520,1497.0,1350,1507.0
9.076416969299316,166,56,0.0013605442176870747,1520,1497.0,1350,1506.0
9.100105047225952,166,55,0.0012987012987012987,1520,1497.0,1350,1506.0
9.123870134353638,166,55,0.0012987012987012987,1520,1497.0,1350,1506.0
9.147664070129395,166,55,0.0012987012987012987,1520,1497.0,1350,1506.0
9.171350002288818,165,56,0.0012422360248447205,1520,1497.0,1350,1505.0
9.195166110992432,164,56,0.0012422360248447205,1520,1497.0,1350,1504.0
9.218820095062256,164,56,0.0012422360248447205,1520,1497.0,1350,1504.0
9.242528915405273,164,56,0.0011904761904761906,1520,1497.0,1350,1504.0
9.266283988952637,162,57,0.0011111111111111111,1520,1497.0,1350,1502.0
9.290178060531616,162,58,0.0012077294685990338,1520,1497.0,1350,1502.0
9.31392502784729,163,58,0.0011441647597254005,1520,1497.0,1350,1503.0
9.337703943252563,162,58,0.0011904761904761906,1520,1497.0,1350,1502.0
9.361372947692871,162,58,0.0010964912280701754,1520,1497.0,1350,1502.0
9.385143041610718,162,59,0.0011261261261261261,1520,1497.0,1350,1502.0
9.408792972564697,161,60,0.0011441647597254005,1520,1497.0,1350,1501.0
9.43254804611206,161,60,0.0010683760683760685,1520,1497.0,1350,1501.0
9.456368923187256,160,61,0.0010683760683760685,1519.0,1497.0,1348.0,1500.0
9.480401039123535,159,62,0.0010683760683760685,1512.0,1497.0,1343.76,1499.0
9.504251956939697,159,63,0.0010256410256410256,1509.0,1497.0,1339.52,1499.0
9.52811312675476,158,63,0.0010683760683760685,1503.0,1497.0,1337.9200000000001,1498.0
9.55201506614685,157,63,0.0010416666666666667,1495.0,1497.0,1336.3199999999999,1497.0
9.576237916946411,157,64,0.001,1490.0,1497.0,1334.8800000000001,1497.0
9.600125074386597,157,64,0.0010256410256410256,1485.0,1497.0,1337.4400000000001,1497.0
9.62399411201477,156,65,0.0010416666666666667,1480,1497.0,1338.8,1496.0
9.648119926452637,157,65,0.0009861932938856016,1480,1497.0,1340.0,1497.0
9.672017097473145,156,67,0.001,1480,1497.0,1335.9200000000001,1496.0
9.695852041244507,156,67,0.0010162601626016261,1480,1497.0,1335.6800000000001,1496.0
9.719712972640991,156,68,0.001,1480,1497.0,1331.4400000000001,1496.0
9.743582010269165,156,68,0.0009157509157509158,1480,1497.0,1329.8399999999999,1496.0
9.767415046691895,156,70,0.0009302325581395349,1480,1497.0,1322.96,1496.0
9.791187047958374,155,70,0.0008741258741258741,1480,1497.0,1324.0799999999999,1495.0
9.815048933029175,156,70,0.0008944543828264759,1480,1497.0,1323.8399999999999,1496.0
9.838815927505493,154,71,0.0008417508417508417,1480,1497.0,1323.76,1494.0
9.862644910812378,154,72,0.0008417508417508417,1480,1497.0,1320.8800000000001,1494.0
9.886672019958496,154,72,0.0008417508417508417,1480,1497.0,1324.8,1494.0
9.910449981689453,153,73,0.0008116883116883117,1480,1497.0,1323.3599999999999,1493.0
9.934242010116577,152,74,0.0007763975155279503,1480,1497.0,1320.48,1492.0
9.95799994468689,152,75,0.0008116883116883117,1480,1497.0,1317.5999999999999,1492.0
9.981818914413452,152,77,0.0007496251874062968,1480,1497.0,1313.4400000000001,1492.0
10.00566291809082,152,78,0.0007336757153338225,1480,1497.0,1306.3199999999999,1492.0
10.029431104660034,152,79,0.0007336757153338225,1480,1497.0,1300.5599999999999,1492.0
10.053231954574585,152,80,0.0007336757153338225,1480,1497.0,1296.1600000000001,1492.0
10.077278137207031,151,82,0.0006944444444444445,1480,1497.0,1289.1199999999999,1491.0
10.101052045822144,151,83,0.0006944444444444445,1480,1497.0,1286.0799999999999,1491.0
10.124925136566162,151,84,0.0006944444444444445,1480,1497.0,1284.4000000000001,1491.0
10.148706912994385,152,84,0.0006377551020408163,1480,1497.0,1285.3599999999999,1492.0
10.172527074813843,151,84,0.0006510416666666666,1480,1497.0,1287.76,1491.0
10.196357011795044,151,85,0.0006184291898577613,1480,1497.0,1291.76,1491.0
10.220329999923706,151,85,0.0005941770647653001,1480,1497.0,1297.04,1491.0
10.244122982025146,152,86,0.0006060606060606061,1480,1497.0,1301.1199999999999,1492.0
10.267898082733154,152,85,0.0005549389567147614,1480,1497.0,1307.6800000000001,1492.0
10.291710138320923,152,85,0.0005656108597285068,1480,1497.0,1311.6800000000001,1492.0
10.315657138824463,153,86,0.0005717552887364208,1480,1497.0,1313.1199999999999,1493.0
10.339540958404541,153,86,0.0005549389567147614,1480,1497.0,1314.4000000000001,1493.0
10.363318920135498,154,86,0.0005717552887364208,1480,1497.0,1317.1199999999999,1494.0
10.387102127075195,154,85,0.0005390835579514825,1480,1497.0,1319.6800000000001,1494.0
10.410860061645508,154,85,0.0005390835579514825,1480,1497.0,1321.04,1494.0
10.43474292755127,155,84,0.0005291005291005291,1480,1497.0,1326.48,1495.0
10.458506107330322,154,83,0.00051440329218107,1480,1497.0,1333.3599999999999,1494.0
10.482542991638184,155,82,0.000496031746031746,1480,1497.0,1340.3199999999999,1495.0
10.506443977355957,156,81,0.000505050505050505,1480,1497.0,1347.28,1496.0
10.530375957489014,156,79,0.000496031746031746,1480,1497.0,1350,1496.0
10.55426812171936,157,79,0.0004873294346978557,1480,1497.0,1350,1497.0
10.577982902526855,157,78,0.00048262548262548264,1480,1497.0,1350,1497.0
10.601710081100464,157,77,0.00048262548262548264,1480,1497.0,1350,1497.0
10.625446081161499,157,77,0.000496031746031746,1480,1497.0,1350,1497.0
10.649152040481567,157,76,0.0004873294346978557,1480,1497.0,1350,1497.0
10.672991037368774,157,75,0.00044603033006244426,1480,1497.0,1350,1497.0
10.696675062179565,157,75,0.00042735042735042735,1480,1497.0,1350,1497.0
10.72036099433899,157,74,0.00042735042735042735,1480,1497.0,1350,1497.0
10.744065999984741,157,73,0.0004098360655737705,1480,1497.0,1350,1497.0
10.767902135848999,156,73,0.00041356492969396195,1480,1497.0,1350,1496.0
10.791743040084839,157,72,0.0004098360655737705,1480,1497.0,1350,1497.0
10.815767049789429,155,71,0.0003933910306845004,1480,1497.0,1350,1495.0
10.839499950408936,156,69,0.0003720238095238095,1480,1497.0,1350,1496.0
10.86317491531372,156,70,0.000375234521575985,1480,1497.0,1350,1496.0
10.886843919754028,155,69,0.0003695491500369549,1480,1497.0,1350,1495.0
10.910505056381226,155,68,0.00035236081747709656,1480,1497.0,1350,1495.0
10.934428930282593,156,67,0.0003419972640218878,1480,1497.0,1350,1496.0
10.958209037780762,156,66,0.00033422459893048126,1480,1497.0,1350,1496.0
10.982048988342285,156,66,0.00031746031746031746,1480,1497.0,1350,1496.0
11.005779027938843,157,66,0.00032754667540124465,1480,1497.0,1350,1497.0
11.02942705154419,157,65,0.0003156565656565657,1480,1497.0,1350,1497.0
11.053091049194336,158,64,0.0002977963073257892,1480,1497.0,1350,1498.0
11.076795101165771,158,63,0.0002937720329024677,1480,1497.0,1350,1498.0
11.10047197341919,159,63,0.0003003003003003003,1480,1497.0,1350,1499.0
11.12412405014038,161,62,0.00028368794326241134,1480,1497.0,1350,1501.0
11.147830963134766,162,62,0.0002799552071668533,1484.0,1497.0,1350,1502.0
11.171590089797974,163,62,0.00027631942525559546,1493.0,1497.0,1350,1503.0
11.195451021194458,164,62,0.00026932399676811203,1503.0,1497.0,1350,1504.0
11.219197988510132,165,61,0.00025316455696202533,1514.0,1497.0,1350,1505.0
