time,x,y,roll,pitch,thrust,yaw
0.0002789497375488281,259,54,1512.375,1500,1361.5,1520
0.021902084350585938,259,54,1514.8499999999999,1500,1361.5,1520
0.04314303398132324,259,54,1517.325,1500,1361.5,1520
0.06432509422302246,259,54,1519.8,1500,1361.5,1520
0.08546805381774902,259,54,1520,1500,1361.5,1520
0.10646414756774902,259,54,1520,1500,1361.5,1520
0.12748503684997559,259,54,1520,1500,1361.5,1520
0.14846110343933105,259,54,1520,1500,1361.5,1520
0.16939210891723633,259,54,1520,1500,1361.5,1520
0.1903700828552246,259,54,1520,1500,1361.5,1520
0.2116250991821289,259,54,1520,1500,1361.5,1520
0.2329850196838379,259,54,1520,1500,1361.5,1520
0.25438404083251953,259,54,1520,1500,1361.5,1520
0.27577710151672363,259,54,1520,1500,1361.5,1520
0.29712510108947754,259,54,1520,1500,1361.5,1520
0.31845808029174805,259,54,1520,1500,1361.5,1520
0.33980894088745117,259,54,1520,1500,1361.5,1520
0.361173152923584,259,54,1520,1500,1361.5,1520
0.382519006729126,259,54,1520,1500,1361.5,1520
0.40386104583740234,259,54,1520,1500,1361.5,1520
0.42520904541015625,259,54,1520,1500,1361.5,1520
0.44657015800476074,259,54,1520,1500,1361.5,1520
0.4679090976715088,259,54,1520,1500,1361.5,1520
0.4892599582672119,259,54,1520,1500,1361.5,1520
0.5106260776519775,259,54,1520,1500,1361.5,1520
0.5319640636444092,259,54,1520,1500,1361.5,1520
0.5532970428466797,259,54,1520,1500,1361.5,1520
0.5746631622314453,259,54,1520,1500,1361.5,1520
0.596045970916748,259,54,1520,1500,1361.5,1520
0.6173861026763916,259,54,1520,1500,1361.5,1520
0.6387300491333008,259,54,1520,1500,1361.5,1520
0.6600861549377441,259,54,1520,1500,1361.5,1520
0.6814301013946533,259,54,1520,1500,1361.5,1520
0.7027721405029297,259,54,1520,1500,1361.5,1520
0.7241239547729492,259,54,1520,1500,1361.5,1520
0.7455661296844482,259,54,1520,1500,1361.5,1520
0.7669210433959961,259,54,1520,1500,1361.5,1520
0.7882609367370605,259,54,1520,1500,1361.5,1520
0.8096020221710205,259,54,1520,1500,1361.5,1520
0.8309359550476074,259,54,1520,1500,1361.5,1520
0.8522801399230957,259,54,1520,1500,1361.5,1520
0.87363600730896,259,54,1520,1500,1361.5,1520
0.8949770927429199,259,54,1520,1500,1361.5,1520
0.9163250923156738,259,54,1520,1500,1361.5,1520
0.9376730918884277,259,54,1520,1500,1361.5,1520
0.9590351581573486,259,54,1520,1500,1361.5,1520
0.9803750514984131,259,54,1520,1500,1361.5,1520
1.001716136932373,259,54,1520,1500,1361.5,1520
1.0230729579925537,259,54,1520,1500,1361.5,1520
1.0444600582122803,259,54,1520,1500,1361.5,1520
1.0658581256866455,259,54,1520,1500,1361.5,1520
1.0872039794921875,259,54,1520,1500,1361.5,1520
1.1085691452026367,259,54,1520,1500,1361.5,1520
1.129925012588501,259,54,1520,1500,1361.5,1520
1.1512670516967773,259,54,1520,1500,1361.5,1520
1.1726231575012207,259,54,1520,1500,1361.5,1520
1.1939899921417236,259,54,1520,1500,1361.5,1520
1.215343952178955,259,54,1520,1500,1361.5,1520
1.2366790771484375,259,54,1520,1500,1361.5,1520
1.2580599784851074,259,54,1520,1500,1361.5,1520
1.2794079780578613,259,54,1520,1500,1361.5,1520
1.3007481098175049,259,54,1520,1500,1361.5,1520
1.3220911026000977,259,54,1520,1500,1361.5,1520
1.343428134918213,259,54,1520,1500,1361.5,1520
1.3647611141204834,259,54,1520,1500,1361.5,1520
1.3860900402069092,259,54,1520,1500,1361.5,1520
1.407426118850708,259,54,1520,1500,1361.5,1520
1.4287619590759277,259,54,1520,1500,1361.5,1520
1.4501121044158936,259,54,1520,1500,1361.5,1520
1.4714500904083252,259,54,1520,1500,1361.5,1520
1.492807149887085,259,54,1520,1500,1361.5,1520
1.514143943786621,260,54,1520,1500,1361.5,1520
1.535552978515625,259,54,1520,1500,1361.5,1520
1.556908130645752,259,54,1520,1500,1361.5,1520
1.5782520771026611,259,54,1520,1500,1361.5,1520
1.5995991230010986,259,54,1520,1500,1361.5,1520
1.6209461688995361,259,54,1520,1500,1361.5,1520
1.642301082611084,259,54,1520,1500,1361.5,1520
1.6636641025543213,259,54,1520,1500,1361.5,1520
1.6850061416625977,259,54,1520,1500,1361.5,1520
1.706347942352295,259,54,1520,1500,1361.5,1520
1.7276890277862549,259,54,1520,1500,1361.5,1520
1.7490360736846924,259,54,1520,1500,1361.5,1520
1.7705950736999512,259,54,1520,1500,1361.5,1520
1.7919721603393555,259,54,1520,1500,1361.5,1520
1.8133721351623535,259,54,1520,1500,1361.5,1520
1.834740161895752,259,54,1520,1500,1361.5,1520
1.8560919761657715,259,54,1520,1500,1361.5,1520
1.877439022064209,259,54,1520,1500,1361.5,1520
1.8987760543823242,259,54,1520,1500,1361.5,1520
1.9200961589813232,259,54,1520,1500,1361.5,1520
1.9414329528808594,259,54,1520,1500,1361.5,1520
1.96281099319458,259,54,1520,1500,1361.5,1520
1.9841530323028564,259,54,1520,1500,1361.5,1520
2.005599021911621,259,54,1520,1500,1361.5,1520
2.0269720554351807,259,54,1520,1500,1361.5,1520
2.0483200550079346,259,54,1520,1500,1361.5,1520
2.0696520805358887,259,54,1520,1500,1361.5,1520
2.0909979343414307,259,54,1520,1500,1361.5,1520
2.1123621463775635,259,54,1520,1500,1361.5,1520
2.1337151527404785,259,54,1520,1500,1361.5,1520
2.155040979385376,259,54,1520,1500,1361.5,1520
2.1763710975646973,259,54,1520,1500,1361.5,1520
2.1977059841156006,259,54,1520,1500,1361.5,1520
2.2190279960632324,259,54,1520,1500,1361.5,1520
2.2403781414031982,259,54,1520,1500,1361.5,1520
2.261752128601074,259,54,1520,1500,1361.5,1520
2.283090114593506,260,54,1520,1500,1361.5,1520
2.3044519424438477,259,54,1520,1500,1361.5,1520
2.3258349895477295,259,54,1520,1500,1361.5,1520
2.347170114517212,259,54,1520,1500,1361.5,1520
2.3684921264648438,259,54,1520,1500,1361.5,1520
2.3898279666900635,259,54,1520,1500,1361.5,1520
2.4111580848693848,259,54,1520,1500,1361.5,1520
2.432487964630127,259,54,1520,1500,1361.5,1520
2.453809976577759,259,54,1520,1500,1361.5,1520
2.475131034851074,259,54,1520,1500,1361.5,1520
2.4964749813079834,260,54,1520,1500,1361.5,1520
2.5178029537200928,259,54,1520,1500,1361.5,1520
2.53912615776062,259,54,1520,1500,1361.5,1520
2.5604610443115234,259,54,1520,1500,1361.5,1520
2.581789970397949,259,54,1520,1500,1361.5,1520
2.6031129360198975,259,54,1520,1500,1361.5,1520
2.6244730949401855,259,54,1520,1500,1361.5,1520
2.645872116088867,259,54,1520,1500,1361.5,1520
2.667217969894409,259,54,1520,1500,1361.5,1520
2.6885550022125244,259,54,1520,1500,1361.5,1520
2.709912061691284,259,54,1520,1500,1361.5,1520
2.7312560081481934,259,54,1520,1500,1361.5,1520
2.7526121139526367,259,54,1520,1500,1361.5,1520
2.7739450931549072,259,54,1520,1500,1361.5,1520
2.7952730655670166,259,54,1520,1500,1361.5,1520
2.816610097885132,259,54,1520,1500,1361.5,1520
2.8379430770874023,259,54,1520,1500,1361.5,1520
2.859297037124634,259,54,1520,1500,1361.5,1520
2.8806331157684326,259,54,1520,1500,1361.5,1520
2.901968002319336,259,54,1520,1500,1361.5,1520
2.9233131408691406,259,54,1520,1500,1361.5,1520
2.9446849822998047,259,54,1520,1500,1361.5,1520
2.966038942337036,259,54,1520,1500,1361.5,1520
2.9873640537261963,259,54,1520,1500,1361.5,1520
3.0087039470672607,259,54,1520,1500,1361.5,1520
3.0300440788269043,259,54,1520,1500,1361.5,1520
3.0513830184936523,259,54,1520,1500,1361.5,1520
3.072705030441284,259,54,1520,1500,1361.5,1520
3.0940840244293213,259,54,1520,1500,1361.5,1520
3.115568161010742,259,54,1520,1500,1361.5,1520
3.1369540691375732,259,54,1520,1500,1361.5,1520
3.1583120822906494,260,54,1520,1500,1361.5,1520
3.1796669960021973,259,54,1520,1500,1361.5,1520
3.2010350227355957,259,54,1520,1500,1361.5,1520
3.2223730087280273,259,54,1520,1500,1361.5,1520
3.244274139404297,259,54,1520,1500,1361.5,1520
3.267112970352173,259,54,1520,1500,1361.5,1520
3.2897679805755615,259,54,1520,1500,1361.5,1520
3.31243896484375,259,54,1520,1500,1361.5,1520
3.335186004638672,259,54,1520,1500,1361.5,1520
3.357841968536377,259,54,1520,1500,1361.5,1520
3.3805110454559326,259,54,1520,1500,1361.5,1520
3.4031951427459717,259,54,1520,1500,1361.5,1520
3.425997018814087,259,54,1520,1500,1361.5,1520
3.4487180709838867,259,54,1520,1500,1361.5,1520
3.4713900089263916,259,54,1520,1500,1361.5,1520
3.4940741062164307,259,54,1520,1500,1361.5,1520
3.5168380737304688,259,54,1520,1500,1361.5,1520
3.5394980907440186,259,54,1520,1500,1361.5,1520
3.5621769428253174,259,54,1520,1500,1361.5,1520
3.5851211547851562,259,54,1520,1500,1361.5,1520
3.6078109741210938,259,54,1520,1500,1361.5,1520
3.630497932434082,259,54,1520,1500,1361.5,1520
3.6532061100006104,259,54,1520,1500,1361.5,1520
3.675977945327759,259,54,1520,1500,1361.5,1520
3.6986680030822754,259,54,1520,1500,1361.5,1520
3.7213151454925537,259,54,1520,1500,1361.5,1520
3.743968963623047,259,54,1520,1500,1361.5,1520
3.7668399810791016,259,54,1520,1500,1361.5,1520
3.789504051208496,259,54,1520,1500,1361.5,1520
3.8121819496154785,259,54,1520,1500,1361.5,1520
3.834928035736084,259,54,1520,1500,1361.5,1520
3.8576760292053223,259,54,1520,1500,1361.5,1520
3.8803279399871826,259,54,1520,1500,1361.5,1520
3.902924060821533,259,54,1520,1500,1361.5,1520
3.9256889820098877,259,54,1520,1500,1361.5,1520
3.948155164718628,259,54,1520,1500,1361.5,1520
3.970623016357422,259,54,1520,1500,1361.5,1520
3.993035078048706,259,54,1520,1500,1361.5,1520
4.01543402671814,259,54,1520,1500,1361.5,1520
4.03783106803894,259,54,1520,1500,1361.5,1520
4.060230016708374,259,54,1520,1500,1361.5,1520
4.082571983337402,259,54,1520,1500,1361.5,1520
4.105009078979492,259,54,1520,1500,1361.5,1520
4.127413034439087,259,54,1520,1500,1361.5,1520
4.14983606338501,259,54,1520,1500,1361.5,1520
4.172214031219482,259,54,1520,1500,1361.5,1520
4.194658041000366,259,54,1520,1500,1361.5,1520
4.217177152633667,259,54,1520,1500,1361.5,1520
4.23975396156311,259,54,1520,1500,1361.5,1520
4.262237071990967,259,54,1520,1500,1361.5,1520
4.284700155258179,259,54,1520,1500,1361.5,1520
4.3071489334106445,259,54,1520,1500,1361.5,1520
4.329583168029785,259,54,1520,1500,1361.5,1520
4.351988077163696,259,54,1520,1500,1361.5,1520
4.3744261264801025,259,54,1520,1500,1361.5,1520
4.3969080448150635,259,54,1520,1500,1361.5,1520
4.419358015060425,259,54,1520,1500,1361.5,1520
4.441776990890503,259,54,1520,1500,1361.5,1520
4.464210033416748,259,54,1520,1500,1361.5,1520
4.486739158630371,259,54,1520,1500,1361.5,1520
4.509164094924927,259,54,1520,1500,1361.5,1520
4.53156304359436,259,54,1520,1500,1361.5,1520
4.553969144821167,259,54,1520,1500,1361.5,1520
4.576482057571411,259,54,1520,1500,1361.5,1520
4.598890066146851,259,54,1520,1500,1361.5,1520
4.621296167373657,259,54,1520,1500,1361.5,1520
4.643711090087891,259,54,1520,1500,1361.5,1520
4.666125059127808,259,54,1520,1500,1361.5,1520
4.688523054122925,259,54,1520,1500,1361.5,1520
4.7109129428863525,259,54,1520,1500,1361.5,1520
4.733327150344849,259,54,1520,1500,1361.5,1520
4.755742073059082,259,54,1520,1500,1361.5,1520
4.778131008148193,259,54,1520,1500,1361.5,1520
4.800501108169556,259,54,1520,1500,1361.5,1520
4.822883129119873,259,54,1520,1500,1361.5,1520
4.84528112411499,259,54,1520,1500,1361.5,1520
4.867704153060913,259,54,1520,1500,1361.5,1520
4.890081167221069,259,54,1520,1500,1361.5,1520
4.912476062774658,259,54,1520,1500,1361.5,1520
4.934913158416748,259,54,1520,1500,1361.5,1520
4.957376003265381,259,54,1520,1500,1361.5,1520
4.979820013046265,259,54,1520,1500,1361.5,1520
5.002226114273071,259,54,1520,1500,1361.5,1520
5.024714946746826,259,54,1520,1500,1361.5,1520
5.047260999679565,259,54,1520,1500,1361.5,1520
5.069659948348999,259,54,1520,1500,1361.5,1520
5.092048168182373,259,54,1520,1500,1361.5,1520
5.114522933959961,259,54,1520,1500,1361.5,1520
5.136997938156128,259,54,1520,1500,1361.5,1520
5.159422159194946,259,54,1520,1500,1361.5,1520
5.181810140609741,259,54,1520,1500,1361.5,1520
5.2041990756988525,259,54,1520,1500,1361.5,1520
5.226696014404297,259,54,1520,1500,1361.5,1520
5.249134063720703,259,54,1520,1500,1361.5,1520
5.271521091461182,259,54,1520,1500,1361.5,1520
5.293893098831177,259,54,1520,1500,1361.5,1520
5.316401958465576,259,54,1520,1500,1361.5,1520
5.338803052902222,259,54,1520,1500,1361.5,1520
5.3611900806427,259,54,1520,1500,1361.5,1520
5.3835649490356445,259,54,1520,1500,1361.5,1520
5.405949115753174,259,54,1520,1500,1361.5,1520
5.428339004516602,259,54,1520,1500,1361.5,1520
5.450761079788208,259,54,1520,1500,1361.5,1520
5.473139047622681,259,54,1520,1500,1361.5,1520
5.495924949645996,259,54,1520,1500,1361.5,1520
5.518350124359131,259,54,1520,1500,1361.5,1520
5.540718078613281,259,54,1520,1500,1361.5,1520
5.5631020069122314,259,54,1520,1500,1361.5,1520
5.585484981536865,259,54,1520,1500,1361.5,1520
5.607845067977905,259,54,1520,1500,1361.5,1520
5.630231142044067,259,54,1520,1500,1361.5,1520
5.652637004852295,259,54,1520,1500,1361.5,1520
5.675020933151245,259,54,1520,1500,1361.5,1520
5.697406053543091,259,54,1520,1500,1361.5,1520
5.719813108444214,259,54,1520,1500,1361.5,1520
5.74225115776062,259,54,1520,1500,1361.5,1520
5.764743089675903,259,54,1520,1500,1361.5,1520
5.787182092666626,259,54,1520,1500,1361.5,1520
5.809551000595093,260,54,1520,1500,1361.5,1520
5.831952095031738,259,54,1520,1500,1361.5,1520
5.854429006576538,259,54,1520,1500,1361.5,1520
5.876893043518066,259,54,1520,1500,1361.5,1520
5.8992791175842285,259,54,1520,1500,1361.5,1520
5.92165994644165,259,54,1520,1500,1361.5,1520
5.944055080413818,259,54,1520,1500,1361.5,1520
5.96661114692688,259,54,1520,1500,1361.5,1520
5.989019155502319,259,54,1520,1500,1361.5,1520
6.011408090591431,259,54,1520,1500,1361.5,1520
6.033792972564697,259,54,1520,1500,1361.5,1520
6.0562660694122314,259,54,1520,1500,1361.5,1520
6.078694105148315,259,54,1520,1500,1361.5,1520
6.101119041442871,259,54,1520,1500,1361.5,1520
6.123512029647827,259,54,1520,1500,1361.5,1520
6.145902156829834,259,54,1520,1500,1361.5,1520
6.168347120285034,259,54,1520,1500,1361.5,1520
6.190871000289917,259,54,1520,1500,1361.5,1520
6.213309049606323,259,54,1520,1500,1361.5,1520
6.2357189655303955,259,54,1520,1500,1361.5,1520
6.258166074752808,259,54,1520,1500,1361.5,1520
6.280614137649536,259,54,1520,1500,1361.5,1520
6.303012132644653,259,54,1520,1500,1361.5,1520
6.32538914680481,259,54,1520,1500,1361.5,1520
6.347785949707031,259,54,1520,1500,1361.5,1520
6.3701770305633545,259,54,1520,1500,1361.5,1520
6.392549991607666,259,54,1520,1500,1361.5,1520
6.414973974227905,259,54,1520,1500,1361.5,1520
6.43743896484375,259,54,1520,1500,1361.5,1520
6.459852933883667,259,54,1520,1500,1361.5,1520
6.48227596282959,259,54,1520,1500,1361.5,1520
6.504730939865112,259,54,1520,1500,1361.5,1520
6.527198076248169,259,54,1520,1500,1361.5,1520
6.54960298538208,259,54,1520,1500,1361.5,1520
6.571988105773926,259,54,1520,1500,1361.5,1520
6.594419002532959,259,54,1520,1500,1361.5,1520
6.616892099380493,259,54,1520,1500,1361.5,1520
6.639312982559204,259,54,1520,1500,1361.5,1520
6.661741018295288,259,54,1520,1500,1361.5,1520
6.684139966964722,259,54,1520,1500,1361.5,1520
6.706648111343384,259,54,1520,1500,1361.5,1520
6.729059934616089,259,54,1520,1500,1361.5,1520
6.751496076583862,259,54,1520,1500,1361.5,1520
6.773896932601929,259,54,1520,1500,1361.5,1520
6.796421051025391,259,54,1520,1500,1361.5,1520
6.8188440799713135,259,54,1520,1500,1361.5,1520
6.8412511348724365,259,54,1520,1500,1361.5,1520
6.863692998886108,259,54,1520,1500,1361.5,1520
6.886080026626587,259,54,1520,1500,1361.5,1520
6.908442974090576,259,54,1520,1500,1361.5,1520
6.930835962295532,260,54,1520,1500,1361.5,1520
6.953262090682983,259,54,1520,1500,1361.5,1520
6.9756810665130615,259,54,1520,1500,1361.5,1520
6.99807596206665,259,54,1520,1500,1361.5,1520
7.020466089248657,259,54,1520,1500,1361.5,1520
7.042845964431763,259,54,1520,1500,1361.5,1520
7.065286159515381,259,54,1520,1500,1361.5,1520
7.08769416809082,259,54,1520,1500,1361.5,1520
7.110095024108887,259,54,1520,1500,1361.5,1520
7.132487058639526,259,54,1520,1500,1361.5,1520
7.154936075210571,259,54,1520,1500,1361.5,1520
7.177382946014404,259,54,1520,1500,1361.5,1520
7.199795961380005,259,54,1520,1500,1361.5,1520
7.2221691608428955,259,54,1520,1500,1361.5,1520
7.244606018066406,259,54,1520,1500,1361.5,1520
7.267114162445068,259,54,1520,1500,1361.5,1520
7.289505958557129,259,54,1520,1500,1361.5,1520
7.311890125274658,259,54,1520,1500,1361.5,1520
7.3342790603637695,259,54,1520,1500,1361.5,1520
7.3568220138549805,259,54,1520,1500,1361.5,1520
7.37922215461731,259,54,1520,1500,1361.5,1520
7.401607990264893,259,54,1520,1500,1361.5,1520
7.424293041229248,259,54,1520,1500,1361.5,1520
7.44697904586792,259,54,1520,1500,1361.5,1520
7.469391107559204,259,54,1520,1500,1361.5,1520
7.491760969161987,259,54,1520,1500,1361.5,1520
7.514162063598633,259,54,1520,1500,1361.5,1520
7.536689043045044,259,54,1520,1500,1361.5,1520
7.559077978134155,259,54,1520,1500,1361.5,1520
7.581470012664795,259,54,1520,1500,1361.5,1520
7.603847980499268,259,54,1520,1500,1361.5,1520
7.626326084136963,259,54,1520,1500,1361.5,1520
7.648751974105835,259,54,1520,1500,1361.5,1520
7.671147108078003,259,54,1520,1500,1361.5,1520
7.69351601600647,259,54,1520,1500,1361.5,1520
7.715887069702148,259,54,1520,1500,1361.5,1520
7.738271951675415,259,54,1520,1500,1361.5,1520
7.760673999786377,259,54,1520,1500,1361.5,1520
7.783085107803345,259,54,1520,1500,1361.5,1520
7.805474042892456,259,54,1520,1500,1361.5,1520
7.827862977981567,259,54,1520,1500,1361.5,1520
7.850291013717651,259,54,1520,1500,1361.5,1520
7.872676134109497,259,54,1520,1500,1361.5,1520
7.895039081573486,259,54,1520,1500,1361.5,1520
7.91743016242981,259,54,1520,1500,1361.5,1520
7.939809083938599,259,54,1520,1500,1361.5,1520
7.962219953536987,259,54,1520,1500,1361.5,1520
7.9846580028533936,259,54,1520,1500,1361.5,1520
8.007133960723877,259,54,1520,1500,1361.5,1520
8.0295250415802,259,54,1520,1500,1361.5,1520
8.05193305015564,259,54,1520,1500,1361.5,1520
8.074378967285156,259,54,1520,1500,1361.5,1520
8.09688115119934,259,54,1520,1500,1361.5,1520
8.11929202079773,259,54,1520,1500,1361.5,1520
8.141677141189575,259,54,1520,1500,1361.5,1520
8.164077997207642,259,54,1520,1500,1361.5,1520
8.186588048934937,259,54,1520,1500,1361.5,1520
8.208953142166138,259,54,1520,1500,1361.5,1520
8.231287002563477,259,54,1520,1500,1361.5,1520
8.253750085830688,259,54,1520,1500,1361.5,1520
8.276165008544922,259,54,1520,1500,1361.5,1520
8.29862093925476,259,54,1520,1500,1361.5,1520
8.3210289478302,259,54,1520,1500,1361.5,1520
8.34342098236084,259,54,1520,1500,1361.5,1520
8.365822076797485,259,54,1520,1500,1361.5,1520
8.388199090957642,259,54,1520,1500,1361.5,1520
8.410560131072998,259,54,1520,1500,1361.5,1520
8.432950973510742,259,54,1520,1500,1361.5,1520
8.455373048782349,259,54,1520,1500,1361.5,1520
8.477746963500977,259,54,1520,1500,1361.5,1520
8.500158071517944,259,54,1520,1500,1361.5,1520
8.522566080093384,259,54,1520,1500,1361.5,1520
8.545014142990112,259,54,1520,1500,1361.5,1520
8.567444086074829,259,54,1520,1500,1361.5,1520
8.589847087860107,259,54,1520,1500,1361.5,1520
8.612223148345947,259,54,1520,1500,1361.5,1520
8.634681940078735,259,54,1520,1500,1361.5,1520
8.657178163528442,259,54,1520,1500,1361.5,1520
8.679577112197876,259,54,1520,1500,1361.5,1520
8.70198106765747,259,54,1520,1500,1361.5,1520
8.724465131759644,259,54,1520,1500,1361.5,1520
8.746999025344849,259,54,1520,1500,1361.5,1520
8.769411087036133,259,54,1520,1500,1361.5,1520
8.791815042495728,259,54,1520,1500,1361.5,1520
8.814208030700684,259,54,1520,1500,1361.5,1520
8.836756944656372,259,54,1520,1500,1361.5,1520
8.85924506187439,259,54,1520,1500,1361.5,1520
8.881664991378784,259,54,1520,1500,1361.5,1520
8.904065132141113,259,54,1520,1500,1361.5,1520
8.926571130752563,259,54,1520,1500,1361.5,1520
8.948987007141113,259,54,1520,1500,1361.5,1520
8.971410989761353,259,54,1520,1500,1361.5,1520
8.993812084197998,259,54,1520,1500,1361.5,1520
9.016320943832397,259,54,1520,1500,1361.5,1520
9.038732051849365,259,54,1520,1500,1361.5,1520
9.061140060424805,259,54,1520,1500,1361.5,1520
9.08355712890625,259,54,1520,1500,1361.5,1520
9.1059730052948,259,54,1520,1500,1361.5,1520
9.128360033035278,259,54,1520,1500,1361.5,1520
9.150766134262085,259,54,1520,1500,1361.5,1520
9.173159122467041,259,54,1520,1500,1361.5,1520
9.195539951324463,259,54,1520,1500,1361.5,1520
9.217924118041992,259,54,1520,1500,1361.5,1520
9.240307092666626,259,54,1520,1500,1361.5,1520
9.26273512840271,259,54,1520,1500,1361.5,1520
9.285140037536621,259,54,1520,1500,1361.5,1520
9.30753493309021,259,54,1520,1500,1361.5,1520
9.330204010009766,259,54,1520,1500,1361.5,1520
9.352628946304321,259,54,1520,1500,1361.5,1520
9.375021934509277,259,54,1520,1500,1361.5,1520
9.397403001785278,259,54,1520,1500,1361.5,1520
9.419800996780396,259,54,1520,1500,1361.5,1520
9.442203998565674,259,54,1520,1500,1361.5,1520
9.464663982391357,259,54,1520,1500,1361.5,1520
9.487113952636719,259,54,1520,1500,1361.5,1520
9.509518146514893,259,54,1520,1500,1361.5,1520
9.531918048858643,259,54,1520,1500,1361.5,1520
9.554363012313843,259,54,1520,1500,1361.5,1520
9.576840162277222,259,54,1520,1500,1361.5,1520
9.59923505783081,259,54,1520,1500,1361.5,1520
9.62161898612976,259,54,1520,1500,1361.5,1520
9.643977165222168,259,54,1520,1500,1361.5,1520
9.66652798652649,259,54,1520,1500,1361.5,1520
9.688923120498657,259,54,1520,1500,1361.5,1520
9.711296081542969,259,54,1520,1500,1361.5,1520
9.733690023422241,259,54,1520,1500,1361.5,1520
9.75611400604248,259,54,1520,1500,1361.5,1520
9.77849006652832,259,54,1520,1500,1361.5,1520
9.800864934921265,259,54,1520,1500,1361.5,1520
9.823251962661743,259,54,1520,1500,1361.5,1520
9.845643997192383,259,54,1520,1500,1361.5,1520
9.868056058883667,259,54,1520,1500,1361.5,1520
9.890452146530151,259,54,1520,1500,1361.5,1520
9.912862062454224,259,54,1520,1500,1361.5,1520
9.935276985168457,259,54,1520,1500,1361.5,1520
9.957684993743896,259,54,1520,1500,1361.5,1520
9.980077981948853,259,54,1520,1500,1361.5,1520
10.002500057220459,259,54,1520,1500,1361.5,1520
10.024996995925903,259,54,1520,1500,1361.5,1520
10.04755711555481,259,54,1520,1500,1361.5,1520
10.069995164871216,259,54,1520,1500,1361.5,1520
10.092384099960327,259,54,1520,1500,1361.5,1520
10.114890098571777,259,54,1520,1500,1361.5,1520
10.137370109558105,259,54,1520,1500,1361.5,1520
10.159794092178345,259,54,1520,1500,1361.5,1520
10.182206153869629,259,54,1520,1500,1361.5,1520
10.204676151275635,259,54,1520,1500,1361.5,1520
10.227184057235718,259,54,1520,1500,1361.5,1520
10.249683141708374,259,54,1520,1500,1361.5,1520
10.272102117538452,259,54,1520,1500,1361.5,1520
10.294553995132446,259,54,1520,1500,1361.5,1520
10.317041158676147,259,54,1520,1500,1361.5,1520
10.339446067810059,259,54,1520,1500,1361.5,1520
10.361835956573486,259,54,1520,1500,1361.5,1520
10.38424301147461,259,54,1520,1500,1361.5,1520
10.406761169433594,259,54,1520,1500,1361.5,1520
10.429166078567505,259,54,1520,1500,1361.5,1520
10.451604127883911,259,54,1520,1500,1361.5,1520
10.473999977111816,259,54,1520,1500,1361.5,1520
10.49652099609375,259,54,1520,1500,1361.5,1520
10.518919944763184,259,54,1520,1500,1361.5,1520
10.541322946548462,259,54,1520,1500,1361.5,1520
10.563724994659424,259,54,1520,1500,1361.5,1520
10.586109161376953,259,54,1520,1500,1361.5,1520
10.608500957489014,259,54,1520,1500,1361.5,1520
10.630887985229492,259,54,1520,1500,1361.5,1520
10.653330087661743,259,54,1520,1500,1361.5,1520
10.675725936889648,259,54,1520,1500,1361.5,1520
10.698117971420288,259,54,1520,1500,1361.5,1520
10.720523118972778,259,54,1520,1500,1361.5,1520
10.742943048477173,259,54,1520,1500,1361.5,1520
10.765387058258057,259,54,1520,1500,1361.5,1520
10.787812948226929,259,54,1520,1500,1361.5,1520
10.810217142105103,259,54,1520,1500,1361.5,1520
10.832621097564697,259,54,1520,1500,1361.5,1520
10.85506296157837,259,54,1520,1500,1361.5,1520
10.877450942993164,259,54,1520,1500,1361.5,1520
10.89983606338501,259,54,1520,1500,1361.5,1520
10.922223091125488,259,54,1520,1500,1361.5,1520
10.944694995880127,259,54,1520,1500,1361.5,1520
10.967185974121094,259,54,1520,1500,1361.5,1520
10.989603042602539,259,54,1520,1500,1361.5,1520
11.011999130249023,259,54,1520,1500,1361.5,1520
11.034461975097656,259,54,1520,1500,1361.5,1520
11.056961059570312,259,54,1520,1500,1361.5,1520
11.079355955123901,259,54,1520,1500,1361.5,1520
11.101794958114624,259,54,1520,1500,1361.5,1520
11.124174118041992,259,54,1520,1500,1361.5,1520
11.14680004119873,259,54,1520,1500,1361.5,1520
11.169201135635376,259,54,1520,1500,1361.5,1520
11.191676139831543,259,54,1520,1500,1361.5,1520
11.214264154434204,259,54,1520,1500,1361.5,1520
11.237173080444336,259,54,1520,1500,1361.5,1520
11.25967001914978,259,54,1520,1500,1361.5,1520
11.282079935073853,259,54,1520,1500,1361.5,1520
11.304535150527954,259,54,1520,1500,1361.5,1520
11.326986074447632,259,54,1520,1500,1361.5,1520
11.349382162094116,259,54,1520,1500,1361.5,1520
11.371768951416016,259,54,1520,1500,1361.5,1520
11.394159078598022,259,54,1520,1500,1361.5,1520
11.416675090789795,259,54,1520,1500,1361.5,1520
11.439079999923706,259,54,1520,1500,1361.5,1520
11.461518049240112,259,54,1520,1500,1361.5,1520
11.483927965164185,259,54,1520,1500,1361.5,1520
11.506448030471802,259,54,1520,1500,1361.5,1520
11.52885913848877,259,54,1520,1500,1361.5,1520
11.551254034042358,259,54,1520,1500,1361.5,1520
11.573655128479004,259,54,1520,1500,1361.5,1520
11.59603500366211,259,54,1520,1500,1361.5,1520
11.618412017822266,259,54,1520,1500,1361.5,1520
11.640802145004272,259,54,1520,1500,1361.5,1520
11.663206100463867,259,54,1520,1500,1361.5,1520
11.685587167739868,259,54,1520,1500,1361.5,1520
11.707988977432251,259,54,1520,1500,1361.5,1520
11.730363130569458,259,54,1520,1500,1361.5,1520
11.752782106399536,259,54,1520,1500,1361.5,1520
11.775175094604492,259,54,1520,1500,1361.5,1520
11.797552108764648,259,54,1520,1500,1361.5,1520
11.819941997528076,259,54,1520,1500,1361.5,1520
11.842347145080566,259,54,1520,1500,1361.5,1520
11.864818096160889,259,54,1520,1500,1361.5,1520
11.887282133102417,259,54,1520,1500,1361.5,1520
11.909666061401367,260,54,1520,1500,1361.5,1520
11.932054996490479,259,54,1520,1500,1361.5,1520
11.95453405380249,259,54,1520,1500,1361.5,1520
11.97702407836914,259,54,1520,1500,1361.5,1520
11.999428987503052,259,54,1520,1500,1361.5,1520
12.02182412147522,260,54,1520,1500,1361.5,1520
12.044218063354492,261,54,1520,1500,1361.5,1520
12.066749095916748,261,54,1520,1500,1361.5,1520
12.089159965515137,261,54,1520,1500,1361.5,1520
12.111576080322266,262,54,1520,1500,1361.5,1520
12.1339750289917,262,54,1520,1500,1361.5,1520
12.156507968902588,262,54,1520,1500,1361.5,1520
12.178920030593872,262,54,1520,1500,1361.5,1520
12.201328992843628,263,54,1520,1500,1361.5,1520
12.22373104095459,263,54,1520,1500,1361.5,1520
12.246145963668823,263,54,1520,1500,1361.5,1520
12.26860499382019,263,54,1520,1500,1361.5,1520
12.291015148162842,263,55,1520,1500,1361.25,1520
12.313380002975464,263,54,1520,1500,1361.5,1520
12.335788011550903,264,54,1520,1500,1361.5,1520
12.358195066452026,264,56,1520,1500,1361.0,1520
12.38056993484497,263,54,1520,1500,1361.5,1520
12.402959108352661,262,54,1520,1500,1361.5,1520
12.425373077392578,263,54,1520,1500,1361.5,1520
12.447793960571289,263,54,1520,1500,1361.5,1520
12.470208168029785,263,54,1520,1500,1361.5,1520
12.492611169815063,263,54,1520,1500,1361.5,1520
12.515018939971924,264,54,1520,1500,1361.5,1520
12.537419080734253,265,54,1520,1500,1361.5,1520
12.55982494354248,265,54,1520,1500,1361.5,1520
12.58220100402832,265,56,1520,1500,1361.0,1520
12.604665994644165,265,54,1520,1500,1361.5,1520
12.627155065536499,265,54,1520,1500,1361.5,1520
12.649593114852905,265,55,1520,1500,1361.25,1520
12.672011137008667,265,56,1520,1500,1361.0,1520
12.694458961486816,265,56,1520,1500,1361.0,1520
12.716926097869873,265,56,1520,1500,1361.0,1520
12.739351034164429,267,56,1520,1500,1361.0,1520
12.761804103851318,266,56,1520,1500,1361.0,1520
12.784217119216919,267,57,1520,1500,1360.75,1520
12.806736946105957,267,57,1520,1500,1360.75,1520
12.829159021377563,267,57,1520,1500,1360.75,1520
12.851603984832764,267,57,1520,1500,1360.75,1520
12.874006986618042,267,57,1520,1500,1360.75,1520
12.896528959274292,267,58,1520,1500,1360.5,1520
12.918944120407104,267,58,1520,1500,1360.5,1520
12.941378116607666,267,58,1520,1500,1360.5,1520
12.963814973831177,267,59,1520,1500,1360.25,1520
12.986340999603271,268,58,1520,1500,1360.5,1520
13.00867509841919,,,1520,1500,1350.0,1500.0
13.031068086624146,268,58,1520,1500,1360.5,1520
13.053502082824707,268,58,1520,1500,1360.5,1520
13.075833082199097,,,1520,1500,1350.0,1500.0
13.098230123519897,269,58,1520,1500,1360.5,1520
13.120865106582642,,,1520,1500,1350.0,1500.0
13.14317798614502,,,1520,1500,1350.0,1500.0
13.165457010269165,,,1520,1500,1350.0,1500.0
13.187766075134277,,,1517.2750000000001,1500,1350.0,1500.0
13.210165977478027,,,1517.875,1500,1350.0,1500.0
13.232569932937622,,,1517.875,1500,1350.0,1500.0
13.255038022994995,,,1511.9349999999999,1500,1350.0,1500.0
13.277449131011963,,,1505.9949999999999,1500,1350.0,1500.0
13.299807071685791,,,1505.9949999999999,1500,1350.0,1500.0
13.322188138961792,,,1500.0,1500,1350.0,1500.0
13.344604969024658,,,1500.0,1500,1350.0,1500.0
13.367018938064575,,,1500.0,1500,1350.0,1500.0
13.389377117156982,,,1500.0,1500,1350.0,1500.0
13.411724090576172,,,1500.0,1500,1350.0,1500.0
13.434076070785522,,,1500.0,1500,1350.0,1500.0
13.45659613609314,,,1500.0,1500,1350.0,1500.0
13.478960990905762,,,1500.0,1500,1350.0,1500.0
13.501317024230957,,,1500.0,1500,1350.0,1500.0
13.52367615699768,,,1500.0,1500,1350.0,1500.0
13.546020984649658,,,1500.0,1500,1350.0,1500.0
13.56832504272461,,,1500.0,1500,1350.0,1500.0
13.59067702293396,,,1500.0,1500,1350.0,1500.0
13.613038063049316,,,1500.0,1500,1350.0,1500.0
13.635477066040039,,,1500.0,1500,1350.0,1500.0
13.657889127731323,,,1500.0,1500,1350.0,1500.0
13.680268049240112,,,1500.0,1500,1350.0,1500.0
13.702638149261475,,,1500.0,1500,1350.0,1500.0
13.72501802444458,,,1500.0,1500,1350.0,1500.0
13.747386932373047,,,1500.0,1500,1350.0,1500.0
13.76973295211792,,,1500.0,1500,1350.0,1500.0
13.792093992233276,,,1500.0,1500,1350.0,1500.0
13.814487934112549,,,1500.0,1500,1350.0,1500.0
13.836913108825684,,,1500.0,1500,1350.0,1500.0
13.85940408706665,270,58,1510.45,1500,1360.5,1520
13.881829977035522,,,1499.45,1500,1350.0,1500.0
13.90421199798584,,,1499.45,1500,1350.0,1500.0
13.926712036132812,,,1499.45,1500,1350.0,1500.0
13.94914698600769,,,1499.45,1500,1350.0,1500.0
13.971596002578735,,,1506.05,1500,1350.0,1500.0
13.99399709701538,,,1506.05,1500,1350.0,1500.0
14.016499996185303,,,1506.05,1500,1350.0,1500.0
14.038897037506104,,,1506.05,1500,1350.0,1500.0
14.061308145523071,,,1506.05,1500,1350.0,1500.0
14.083801031112671,270,58,1510.45,1500,1360.5,1520
14.106531143188477,269,58,1509.8050000000001,1500,1360.5,1520
14.128986120223999,,,1498.905,1500,1350.0,1500.0
14.151456117630005,269,58,1509.26,1500,1360.5,1520
14.173913955688477,,,1498.3599999999999,1500,1350.0,1500.0
14.196457147598267,,,1504.96,1500,1350.0,1500.0
14.218836069107056,,,1511.5,1500,1350.0,1500.0
14.241215944290161,,,1511.5,1500,1350.0,1500.0
14.263652086257935,,,1518.04,1500,1350.0,1500.0
14.28604793548584,,,1518.04,1500,1350.0,1500.0
14.30841612815857,,,1511.99,1500,1350.0,1500.0
14.330788135528564,,,1505.9949999999999,1500,1350.0,1500.0
14.353188037872314,,,1505.9949999999999,1500,1350.0,1500.0
14.375585079193115,,,1500.0,1500,1350.0,1500.0
14.397966146469116,,,1500.0,1500,1350.0,1500.0
14.420343160629272,,,1500.0,1500,1350.0,1500.0
14.44271993637085,,,1500.0,1500,1350.0,1500.0
14.465122938156128,,,1500.0,1500,1350.0,1500.0
14.487493991851807,,,1500.0,1500,1350.0,1500.0
14.509895086288452,,,1500.0,1500,1350.0,1500.0
14.532262086868286,,,1500.0,1500,1350.0,1500.0
14.554672956466675,,,1500.0,1500,1350.0,1500.0
14.577047109603882,,,1500.0,1500,1350.0,1500.0
14.599401950836182,,,1500.0,1500,1350.0,1500.0
14.62176513671875,,,1500.0,1500,1350.0,1500.0
14.644127130508423,,,1500.0,1500,1350.0,1500.0
14.666607141494751,,,1500.0,1500,1350.0,1500.0
14.688990116119385,,,1500.0,1500,1350.0,1500.0
14.711358070373535,,,1500.0,1500,1350.0,1500.0
14.733715057373047,,,1500.0,1500,1350.0,1500.0
14.756134033203125,,,1500.0,1500,1350.0,1500.0
14.778527975082397,,,1500.0,1500,1350.0,1500.0
14.800894021987915,,,1500.0,1500,1350.0,1500.0
14.823270082473755,,,1500.0,1500,1350.0,1500.0
14.845653057098389,,,1500.0,1500,1350.0,1500.0
14.868138074874878,257,58,1509.2149999999999,1500,1360.5,1520
14.890679121017456,255,59,1508.54,1500,1360.25,1520
14.913213968276978,257,57,1508.2550000000001,1500,1360.75,1520
14.935730934143066,254,58,1507.4849999999999,1500,1360.5,1520
14.958619117736816,270,55,1508.5350000000001,1500,1361.25,1520
14.981213092803955,269,56,1513.71,1500,1361.0,1520
15.003756999969482,268,56,1518.77,1500,1361.0,1520
15.026317119598389,268,55,1520,1500,1361.25,1520
15.048761129379272,268,58,1520,1500,1360.5,1520
15.071172952651978,268,54,1520,1500,1361.5,1520
15.093577146530151,268,54,1520,1500,1361.5,1520
15.115977048873901,267,54,1520,1500,1361.5,1520
15.138319969177246,266,54,1520,1500,1361.5,1520
15.160748958587646,265,54,1520,1500,1361.5,1520
15.183141946792603,265,54,1520,1500,1361.5,1520
15.20553994178772,265,54,1520,1500,1361.5,1520
15.22793197631836,263,54,1520,1500,1361.5,1520
15.250673055648804,262,54,1520,1500,1361.5,1520
15.273365020751953,262,54,1520,1500,1361.5,1520
15.296105146408081,261,54,1520,1500,1361.5,1520
15.318750143051147,260,54,1520,1500,1361.5,1520
15.341411113739014,259,54,1520,1500,1361.5,1520
15.364153146743774,259,54,1520,1500,1361.5,1520
15.38693904876709,260,54,1520,1500,1361.5,1520
15.409677982330322,259,54,1520,1500,1361.5,1520
15.432369947433472,259,54,1520,1500,1361.5,1520
15.455173969268799,259,54,1520,1500,1361.5,1520
15.477843999862671,259,54,1520,1500,1361.5,1520
15.500511169433594,259,54,1520,1500,1361.5,1520
15.523199081420898,259,54,1520,1500,1361.5,1520
15.545949935913086,259,54,1520,1500,1361.5,1520
15.568612098693848,259,54,1520,1500,1361.5,1520
15.591284036636353,259,54,1520,1500,1361.5,1520
15.613955020904541,259,54,1520,1500,1361.5,1520
15.636842012405396,259,54,1520,1500,1361.5,1520
15.659558057785034,259,54,1520,1500,1361.5,1520
15.682235956192017,259,54,1520,1500,1361.5,1520
15.7049560546875,259,54,1520,1500,1361.5,1520
15.727787971496582,259,54,1520,1500,1361.5,1520
15.750497102737427,259,54,1520,1500,1361.5,1520
15.773168087005615,259,54,1520,1500,1361.5,1520
15.79590106010437,259,54,1520,1500,1361.5,1520
15.818562030792236,259,54,1520,1500,1361.5,1520
15.841238975524902,259,54,1520,1500,1361.5,1520
15.863989114761353,259,54,1520,1500,1361.5,1520
15.886855125427246,259,54,1520,1500,1361.5,1520
15.909536123275757,259,54,1520,1500,1361.5,1520
15.93221402168274,259,54,1520,1500,1361.5,1520
15.95493197441101,259,54,1520,1500,1361.5,1520
15.977659940719604,259,54,1520,1500,1361.5,1520
16.000322103500366,259,54,1520,1500,1361.5,1520
16.022979974746704,259,54,1520,1500,1361.5,1520
16.045737981796265,259,54,1520,1500,1361.5,1520
16.068195104599,259,54,1520,1500,1361.5,1520
16.0906081199646,259,54,1520,1500,1361.5,1520
16.11303997039795,259,54,1520,1500,1361.5,1520
16.135439157485962,259,54,1520,1500,1361.5,1520
16.157864093780518,259,54,1520,1500,1361.5,1520
16.18026614189148,259,54,1520,1500,1361.5,1520
16.20265793800354,259,54,1520,1500,1361.5,1520
16.225072145462036,259,54,1520,1500,1361.5,1520
16.247533082962036,259,54,1520,1500,1361.5,1520
16.269925117492676,259,54,1520,1500,1361.5,1520
16.292327165603638,259,54,1520,1500,1361.5,1520
16.314783096313477,260,54,1520,1500,1361.5,1520
16.337249994277954,259,54,1520,1500,1361.5,1520
16.35967206954956,259,54,1520,1500,1361.5,1520
16.38206696510315,259,54,1520,1500,1361.5,1520
16.404521942138672,259,54,1520,1500,1361.5,1520
16.426990032196045,259,54,1520,1500,1361.5,1520
16.44940996170044,259,54,1520,1500,1361.5,1520
16.47180414199829,259,54,1520,1500,1361.5,1520
16.494236946105957,259,54,1520,1500,1361.5,1520
16.516764163970947,259,54,1520,1500,1361.5,1520
16.53919005393982,259,54,1520,1500,1361.5,1520
16.561601161956787,259,54,1520,1500,1361.5,1520
16.58399796485901,260,54,1520,1500,1361.5,1520
16.60651993751526,259,54,1520,1500,1361.5,1520
16.628934144973755,259,54,1520,1500,1361.5,1520
16.65135908126831,259,54,1520,1500,1361.5,1520
16.67375612258911,259,54,1520,1500,1361.5,1520
16.696153163909912,259,54,1520,1500,1361.5,1520
16.718541145324707,259,54,1520,1500,1361.5,1520
16.74094796180725,259,54,1520,1500,1361.5,1520
16.763373136520386,259,54,1520,1500,1361.5,1520
16.78575611114502,259,54,1520,1500,1361.5,1520
16.808150053024292,259,54,1520,1500,1361.5,1520
16.834643125534058,259,54,1520,1500,1361.5,1520
16.85728406906128,259,54,1520,1500,1361.5,1520
16.879711151123047,259,54,1520,1500,1361.5,1520
16.902099132537842,259,54,1520,1500,1361.5,1520
16.924615144729614,259,54,1520,1500,1361.5,1520
16.94717001914978,259,54,1520,1500,1361.5,1520
16.96958613395691,259,54,1520,1500,1361.5,1520
16.992006063461304,259,54,1520,1500,1361.5,1520
17.01447606086731,259,54,1520,1500,1361.5,1520
17.03693914413452,259,54,1520,1500,1361.5,1520
17.05937910079956,259,54,1520,1500,1361.5,1520
17.081772089004517,259,54,1520,1500,1361.5,1520
17.104169130325317,259,54,1520,1500,1361.5,1520
17.126670122146606,259,54,1520,1500,1361.5,1520
17.14909601211548,259,54,1520,1500,1361.5,1520
17.171507120132446,259,54,1520,1500,1361.5,1520
17.19389796257019,259,54,1520,1500,1361.5,1520
17.21638011932373,259,54,1520,1500,1361.5,1520
17.238811016082764,259,54,1520,1500,1361.5,1520
17.26127815246582,259,54,1520,1500,1361.5,1520
17.283682107925415,259,54,1520,1500,1361.5,1520
17.306092977523804,259,54,1520,1500,1361.5,1520
17.328489065170288,259,54,1520,1500,1361.5,1520
17.35091805458069,259,54,1520,1500,1361.5,1520
17.373322010040283,259,54,1520,1500,1361.5,1520
17.395722150802612,259,54,1520,1500,1361.5,1520
17.4181170463562,259,54,1520,1500,1361.5,1520
17.440515995025635,259,54,1520,1500,1361.5,1520
17.46294116973877,259,54,1520,1500,1361.5,1520
17.48533606529236,259,54,1520,1500,1361.5,1520
17.507734060287476,259,54,1520,1500,1361.5,1520
17.530116081237793,259,54,1520,1500,1361.5,1520
17.552523136138916,259,54,1520,1500,1361.5,1520
17.574985027313232,259,54,1520,1500,1361.5,1520
17.59743905067444,259,54,1520,1500,1361.5,1520
17.619797945022583,259,54,1520,1500,1361.5,1520
17.64218497276306,259,54,1520,1500,1361.5,1520
17.664687156677246,259,54,1520,1500,1361.5,1520
17.687129974365234,259,54,1520,1500,1361.5,1520
17.709521055221558,259,54,1520,1500,1361.5,1520
17.731919050216675,259,54,1520,1500,1361.5,1520
17.754385948181152,259,54,1520,1500,1361.5,1520
17.776857137680054,259,54,1520,1500,1361.5,1520
17.799260139465332,259,54,1520,1500,1361.5,1520
17.821643114089966,259,54,1520,1500,1361.5,1520
17.84403705596924,259,54,1520,1500,1361.5,1520
17.866573095321655,259,54,1520,1500,1361.5,1520
17.888967037200928,259,54,1520,1500,1361.5,1520
17.911363124847412,259,54,1520,1500,1361.5,1520
17.93374514579773,259,54,1520,1500,1361.5,1520
17.956161975860596,259,54,1520,1500,1361.5,1520
17.97860813140869,259,54,1520,1500,1361.5,1520
18.001009941101074,259,54,1520,1500,1361.5,1520
18.023401021957397,259,54,1520,1500,1361.5,1520
18.045809984207153,259,54,1520,1500,1361.5,1520
18.068220138549805,259,54,1520,1500,1361.5,1520
18.090620040893555,259,54,1520,1500,1361.5,1520
18.113037109375,259,54,1520,1500,1361.5,1520
18.135425090789795,259,54,1520,1500,1361.5,1520
18.157824993133545,259,54,1520,1500,1361.5,1520
18.180202960968018,259,54,1520,1500,1361.5,1520
18.202594995498657,259,54,1520,1500,1361.5,1520
18.22508215904236,259,54,1520,1500,1361.5,1520
18.24751901626587,259,54,1520,1500,1361.5,1520
18.269901990890503,259,54,1520,1500,1361.5,1520
18.292293071746826,259,54,1520,1500,1361.5,1520
18.314746141433716,259,54,1520,1500,1361.5,1520
18.33717703819275,259,54,1520,1500,1361.5,1520
18.359564065933228,259,54,1520,1500,1361.5,1520
18.381936073303223,259,54,1520,1500,1361.5,1520
18.40429711341858,259,54,1520,1500,1361.5,1520
18.426818132400513,259,54,1520,1500,1361.5,1520
18.449242115020752,259,54,1520,1500,1361.5,1520
18.471635103225708,259,54,1520,1500,1361.5,1520
18.494050979614258,259,54,1520,1500,1361.5,1520
18.51657509803772,259,54,1520,1500,1361.5,1520
18.538964986801147,259,54,1520,1500,1361.5,1520
18.561373949050903,259,54,1520,1500,1361.5,1520
18.583749055862427,259,54,1520,1500,1361.5,1520
18.606142044067383,259,54,1520,1500,1361.5,1520
18.628561973571777,259,54,1520,1500,1361.5,1520
18.650979042053223,259,54,1520,1500,1361.5,1520
18.673365116119385,259,54,1520,1500,1361.5,1520
18.695775985717773,259,54,1520,1500,1361.5,1520
18.71848201751709,259,54,1520,1500,1361.5,1520
18.74091601371765,259,54,1520,1500,1361.5,1520
18.76335597038269,259,54,1520,1500,1361.5,1520
18.78576111793518,259,54,1520,1500,1361.5,1520
18.808151960372925,259,54,1520,1500,1361.5,1520
18.83056402206421,259,54,1520,1500,1361.5,1520
18.852988958358765,259,54,1520,1500,1361.5,1520
18.875410079956055,259,54,1520,1500,1361.5,1520
18.897796154022217,260,54,1520,1500,1361.5,1520
18.920170068740845,259,54,1520,1500,1361.5,1520
18.94258713722229,259,54,1520,1500,1361.5,1520
18.96503496170044,259,54,1520,1500,1361.5,1520
18.987415075302124,259,54,1520,1500,1361.5,1520
19.00982093811035,259,54,1520,1500,1361.5,1520
19.032230138778687,259,54,1520,1500,1361.5,1520
19.05471110343933,259,54,1520,1500,1361.5,1520
19.077187061309814,259,54,1520,1500,1361.5,1520
19.099600076675415,259,54,1520,1500,1361.5,1520
19.121973991394043,259,54,1520,1500,1361.5,1520
19.144418001174927,259,54,1520,1500,1361.5,1520
19.166900157928467,259,54,1520,1500,1361.5,1520
19.18929100036621,259,54,1520,1500,1361.5,1520
19.211698055267334,259,54,1520,1500,1361.5,1520
19.234097003936768,259,54,1520,1500,1361.5,1520
19.25662612915039,259,54,1520,1500,1361.5,1520
19.279054164886475,259,54,1520,1500,1361.5,1520
19.301452159881592,259,54,1520,1500,1361.5,1520
19.32385015487671,260,54,1520,1500,1361.5,1520
19.346471071243286,259,54,1520,1500,1361.5,1520
19.368900060653687,259,54,1520,1500,1361.5,1520
19.39129614830017,259,54,1520,1500,1361.5,1520
19.413681983947754,259,54,1520,1500,1361.5,1520
19.43607211112976,259,54,1520,1500,1361.5,1520
19.45849108695984,259,54,1520,1500,1361.5,1520
19.48088002204895,259,54,1520,1500,1361.5,1520
19.503270149230957,259,54,1520,1500,1361.5,1520
19.52565598487854,259,54,1520,1500,1361.5,1520
19.54805302619934,259,54,1520,1500,1361.5,1520
19.57042908668518,259,54,1520,1500,1361.5,1520
19.592806100845337,259,54,1520,1500,1361.5,1520
19.615198135375977,259,54,1520,1500,1361.5,1520
19.637603998184204,259,54,1520,1500,1361.5,1520
19.660052061080933,259,54,1520,1500,1361.5,1520
19.682433128356934,259,54,1520,1500,1361.5,1520
19.704875946044922,259,54,1520,1500,1361.5,1520
19.727358102798462,259,54,1520,1500,1361.5,1520
19.749830961227417,259,54,1520,1500,1361.5,1520
19.772254943847656,259,54,1520,1500,1361.5,1520
19.79473304748535,259,54,1520,1500,1361.5,1520
19.81719398498535,259,54,1520,1500,1361.5,1520
19.83957815170288,260,54,1520,1500,1361.5,1520
19.862005949020386,259,54,1520,1500,1361.5,1520
19.88445210456848,259,54,1520,1500,1361.5,1520
19.906898975372314,259,54,1520,1500,1361.5,1520
19.929296016693115,259,54,1520,1500,1361.5,1520
19.95170497894287,259,54,1520,1500,1361.5,1520
19.974107027053833,259,54,1520,1500,1361.5,1520
19.996628999710083,259,54,1520,1500,1361.5,1520
20.01904797554016,259,54,1520,1500,1361.5,1520
20.04144597053528,259,54,1520,1500,1361.5,1520
20.06386113166809,259,54,1520,1500,1361.5,1520
20.08638310432434,259,54,1520,1500,1361.5,1520
20.10881209373474,259,54,1520,1500,1361.5,1520
20.131211042404175,259,54,1520,1500,1361.5,1520
20.15362310409546,259,54,1520,1500,1361.5,1520
20.176213026046753,259,54,1520,1500,1361.5,1520
20.199002027511597,259,54,1520,1500,1361.5,1520
20.22154712677002,259,54,1520,1500,1361.5,1520
20.24399495124817,259,54,1520,1500,1361.5,1520
20.266597032546997,259,54,1520,1500,1361.5,1520
20.288995027542114,259,54,1520,1500,1361.5,1520
20.31139898300171,259,54,1520,1500,1361.5,1520
20.33378505706787,259,54,1520,1500,1361.5,1520
20.35617709159851,259,54,1520,1500,1361.5,1520
20.378579139709473,259,54,1520,1500,1361.5,1520
20.400967121124268,259,54,1520,1500,1361.5,1520
20.423359155654907,259,54,1520,1500,1361.5,1520
20.44577693939209,259,54,1520,1500,1361.5,1520
20.468204021453857,259,54,1520,1500,1361.5,1520
20.490607976913452,259,54,1520,1500,1361.5,1520
20.513028144836426,259,54,1520,1500,1361.5,1520
20.535431146621704,259,54,1520,1500,1361.5,1520
20.55780816078186,259,54,1520,1500,1361.5,1520
20.580193996429443,259,54,1520,1500,1361.5,1520
20.602591037750244,259,54,1520,1500,1361.5,1520
20.625312089920044,259,54,1520,1500,1361.5,1520
20.647767066955566,259,54,1520,1500,1361.5,1520
20.670177936553955,259,54,1520,1500,1361.5,1520
20.692588090896606,259,54,1520,1500,1361.5,1520
20.714998960494995,259,54,1520,1500,1361.5,1520
20.737421989440918,259,54,1520,1500,1361.5,1520
20.75985312461853,259,54,1520,1500,1361.5,1520
20.78225612640381,259,54,1520,1500,1361.5,1520
20.804712057113647,259,54,1520,1500,1361.5,1520
20.827195167541504,259,54,1520,1500,1361.5,1520
20.84961700439453,259,54,1520,1500,1361.5,1520
20.8720121383667,259,54,1520,1500,1361.5,1520
20.894468069076538,259,54,1520,1500,1361.5,1520
20.91696000099182,259,54,1520,1500,1361.5,1520
20.93937110900879,259,54,1520,1500,1361.5,1520
20.96182608604431,259,54,1520,1500,1361.5,1520
20.984230995178223,259,54,1520,1500,1361.5,1520
21.006732940673828,259,54,1520,1500,1361.5,1520
21.029157161712646,259,54,1520,1500,1361.5,1520
21.05158305168152,259,54,1520,1500,1361.5,1520
21.073981046676636,259,54,1520,1500,1361.5,1520
21.096529006958008,259,54,1520,1500,1361.5,1520
21.118961095809937,259,54,1520,1500,1361.5,1520
21.141342163085938,259,54,1520,1500,1361.5,1520
21.163777112960815,259,54,1520,1500,1361.5,1520
21.18617606163025,259,54,1520,1500,1361.5,1520
21.208574056625366,259,54,1520,1500,1361.5,1520
21.230987071990967,259,54,1520,1500,1361.5,1520
21.253419160842896,259,54,1520,1500,1361.5,1520
21.275805950164795,259,54,1520,1500,1361.5,1520
21.298189163208008,259,54,1520,1500,1361.5,1520
21.320564031600952,259,54,1520,1500,1361.5,1520
21.342965126037598,259,54,1520,1500,1361.5,1520
21.365376949310303,259,54,1520,1500,1361.5,1520
21.38777995109558,259,54,1520,1500,1361.5,1520
21.41016912460327,259,54,1520,1500,1361.5,1520
21.432613134384155,259,54,1520,1500,1361.5,1520
21.455103158950806,259,54,1520,1500,1361.5,1520
21.477558135986328,259,54,1520,1500,1361.5,1520
21.499969959259033,259,54,1520,1500,1361.5,1520
21.52234411239624,259,54,1520,1500,1361.5,1520
21.544785976409912,259,54,1520,1500,1361.5,1520
