time,frame,x,y,size,roll,pitch,thrust,yaw
0,0,,,,1500.0,1500,1420.0,1500
0.05,0,,,,1500.0,1500,1420.0,1500
0.1,0,,,,1500.0,1500,1420.0,1500
0.15000000000000002,0,,,,1500.0,1500,1420.0,1500
0.2,0,,,,1500.0,1500,1420.0,1500
0.25,0,,,,1500.0,1500,1420.0,1500
0.3,0,,,,1500.0,1500,1420.0,1500
0.35,0,,,,1500.0,1500,1420.0,1500
0.39999999999999997,1,277,160,250,1511.7,1500,1370,1500
0.44999999999999996,2,234,151,930,1507.4,1500,1370,1500
0.49999999999999994,3,201,95,17184,1504.1,1500,1425.0,1500
0.5499999999999999,4,180,89,17108,1502.0,1500,1431.0,1500
0.6,5,157,88,22272,1499.7,1500,1432.0,1500
0.65,6,144,88,23814,1498.4,1500,1432.0,1500
0.7000000000000001,7,140,90,24448,1498.0,1500,1430.0,1500
0.7500000000000001,8,145,93,24250,1498.5,1500,1427.0,1500
0.8000000000000002,9,151,93,25908,1499.1,1500,1427.0,1500
0.8500000000000002,10,154,93,27852,1499.4,1500,1427.0,1500
0.9000000000000002,11,157,96,31866,1499.7,1500,1424.0,1500
0.9500000000000003,12,158,98,35909,1499.8,1500,1422.0,1500
1.0000000000000002,13,157,101,43395,1499.7,1500,1419.0,1500
1.0500000000000003,14,157,101,49808,1499.7,1500,1419.0,1500
1.1000000000000003,15,163,101,59520,1500.3,1500,1419.0,1500
1.1500000000000004,16,159,102,62080,1499.9,1500,1418.0,1500
1.2000000000000004,17,159,99,64000,1499.9,1500,1421.0,1500
1.2500000000000004,18,160,99,64200,1500.0,1500,1421.0,1500
1.3000000000000005,19,160,99,64200,1500.0,1500,1421.0,1500
1.3500000000000005,20,159,99,64000,1499.9,1500,1421.0,1500
1.4000000000000006,21,159,99,64000,1499.9,1500,1421.0,1500
1.4500000000000006,22,164,99,62000,1500.4,1500,1421.0,1500
1.5000000000000007,23,160,99,64200,1500.0,1500,1421.0,1500
1.5500000000000007,24,159,99,64000,1499.9,1500,1421.0,1500
1.6000000000000008,25,159,99,64000,1499.9,1500,1421.0,1500
1.6500000000000008,26,159,99,64000,1499.9,1500,1421.0,1500
1.7000000000000008,27,159,99,64000,1499.9,1500,1421.0,1500
1.7500000000000009,28,163,99,62400,1500.3,1500,1421.0,1500
1.800000000000001,29,163,99,62400,1500.3,1500,1421.0,1500
1.850000000000001,30,164,99,62600,1500.4,1500,1421.0,1500
1.900000000000001,31,159,99,64000,1499.9,1500,1421.0,1500
1.950000000000001,32,159,99,64000,1499.9,1500,1421.0,1500
2.000000000000001,33,159,99,63800,1499.9,1500,1421.0,1500
2.0500000000000007,34,159,99,63800,1499.9,1500,1421.0,1500
2.1000000000000005,35,159,99,63800,1499.9,1500,1421.0,1500
2.1500000000000004,36,159,99,63800,1499.9,1500,1421.0,1500
2.2,37,159,99,63800,1499.9,1500,1421.0,1500
2.25,38,159,99,63800,1499.9,1500,1421.0,1500
2.3,39,159,99,63800,1499.9,1500,1421.0,1500
2.3499999999999996,40,159,99,63800,1499.9,1500,1421.0,1500
2.3999999999999995,41,159,99,63800,1499.9,1500,1421.0,1500
2.4499999999999993,42,159,99,63800,1499.9,1500,1421.0,1500
2.499999999999999,43,159,99,63800,1499.9,1500,1421.0,1500
2.549999999999999,44,159,99,63800,1499.9,1500,1421.0,1500
2.5999999999999988,45,159,99,63800,1499.9,1500,1421.0,1500
2.6499999999999986,46,159,99,63800,1499.9,1500,1421.0,1500
2.6999999999999984,47,160,99,64200,1500.0,1500,1421.0,1500
2.7499999999999982,48,160,99,64200,1500.0,1500,1421.0,1500
2.799999999999998,49,160,99,64200,1500.0,1500,1421.0,1500
2.849999999999998,50,160,99,64200,1500.0,1500,1421.0,1500
2.8999999999999977,51,160,99,64200,1500.0,1500,1421.0,1500
2.9499999999999975,52,159,99,64000,1499.9,1500,1421.0,1500
2.9999999999999973,53,159,99,64000,1499.9,1500,1421.0,1500
3.049999999999997,54,159,99,64000,1499.9,1500,1421.0,1500
3.099999999999997,55,159,99,64000,1499.9,1500,1421.0,1500
3.149999999999997,56,159,99,64000,1499.9,1500,1421.0,1500
3.1999999999999966,57,159,99,64000,1499.9,1500,1421.0,1500
3.2499999999999964,58,159,99,64000,1499.9,1500,1421.0,1500
3.2999999999999963,59,159,99,64000,1499.9,1500,1421.0,1500
3.349999999999996,60,159,99,64000,1499.9,1500,1421.0,1500
3.399999999999996,61,159,99,64000,1499.9,1500,1421.0,1500
3.4499999999999957,62,159,99,64000,1499.9,1500,1421.0,1500
3.4999999999999956,63,159,99,64000,1499.9,1500,1421.0,1500
3.5499999999999954,64,159,99,64000,1499.9,1500,1421.0,1500
3.599999999999995,65,159,99,64000,1499.9,1500,1421.0,1500
3.649999999999995,66,159,99,64000,1499.9,1500,1421.0,1500
3.699999999999995,67,159,99,64000,1499.9,1500,1421.0,1500
3.7499999999999947,68,159,99,64000,1499.9,1500,1421.0,1500
3.7999999999999945,69,159,99,64000,1499.9,1500,1421.0,1500
3.8499999999999943,70,159,99,64000,1499.9,1500,1421.0,1500
3.899999999999994,71,159,99,64000,1499.9,1500,1421.0,1500
3.949999999999994,72,159,99,64000,1499.9,1500,1421.0,1500
3.999999999999994,73,159,99,64000,1499.9,1500,1421.0,1500
4.049999999999994,74,159,99,64000,1499.9,1500,1421.0,1500
4.099999999999993,75,159,99,64000,1499.9,1500,1421.0,1500
4.149999999999993,76,159,99,64000,1499.9,1500,1421.0,1500
4.199999999999993,77,159,99,64000,1499.9,1500,1421.0,1500
4.249999999999993,78,159,99,64000,1499.9,1500,1421.0,1500
4.299999999999993,79,159,99,64000,1499.9,1500,1421.0,1500
4.3499999999999925,80,159,99,64000,1499.9,1500,1421.0,1500
4.399999999999992,81,159,99,64000,1499.9,1500,1421.0,1500
4.449999999999992,82,159,99,64000,1499.9,1500,1421.0,1500
4.499999999999992,83,159,99,64000,1499.9,1500,1421.0,1500
4.549999999999992,84,159,99,64000,1499.9,1500,1421.0,1500
4.599999999999992,85,159,99,64000,1499.9,1500,1421.0,1500
4.6499999999999915,86,159,99,64000,1499.9,1500,1421.0,1500
4.699999999999991,87,159,99,64000,1499.9,1500,1421.0,1500
4.749999999999991,88,159,99,64000,1499.9,1500,1421.0,1500
4.799999999999991,89,159,99,64000,1499.9,1500,1421.0,1500
4.849999999999991,90,159,99,64000,1499.9,1500,1421.0,1500
4.899999999999991,91,159,99,64000,1499.9,1500,1421.0,1500
4.94999999999999,92,159,99,64000,1499.9,1500,1421.0,1500
4.99999999999999,93,159,99,64000,1499.9,1500,1421.0,1500
5.04999999999999,94,159,99,64000,1499.9,1500,1421.0,1500
5.09999999999999,95,159,99,64000,1499.9,1500,1421.0,1500
5.14999999999999,96,159,99,64000,1499.9,1500,1421.0,1500
5.1999999999999895,97,159,99,64000,1499.9,1500,1421.0,1500
5.249999999999989,98,159,99,64000,1499.9,1500,1421.0,1500
5.299999999999989,99,159,99,64000,1499.9,1500,1421.0,1500
5.349999999999989,100,159,99,64000,1499.9,1500,1421.0,1500
5.399999999999989,101,159,99,64000,1499.9,1500,1421.0,1500
5.449999999999989,102,159,99,64000,1499.9,1500,1421.0,1500
5.4999999999999885,103,159,99,64000,1499.9,1500,1421.0,1500
5.549999999999988,104,159,99,64000,1499.9,1500,1421.0,1500
5.599999999999988,105,159,99,64000,1499.9,1500,1421.0,1500
5.649999999999988,106,159,99,64000,1499.9,1500,1421.0,1500
5.699999999999988,107,159,99,64000,1499.9,1500,1421.0,1500
5.749999999999988,108,159,99,64000,1499.9,1500,1421.0,1500
5.799999999999987,109,159,99,64000,1499.9,1500,1421.0,1500
5.849999999999987,110,159,99,64000,1499.9,1500,1421.0,1500
5.899999999999987,111,159,99,64000,1499.9,1500,1421.0,1500
5.949999999999987,112,159,99,64000,1499.9,1500,1421.0,1500
5.999999999999987,113,159,99,64000,1499.9,1500,1421.0,1500
6.0499999999999865,114,159,99,64000,1499.9,1500,1421.0,1500
6.099999999999986,115,159,99,64000,1499.9,1500,1421.0,1500
6.149999999999986,116,159,99,64000,1499.9,1500,1421.0,1500
6.199999999999986,117,159,99,64000,1499.9,1500,1421.0,1500
6.249999999999986,118,159,99,64000,1499.9,1500,1421.0,1500
6.299999999999986,119,159,99,64000,1499.9,1500,1421.0,1500
6.349999999999985,120,159,99,64000,1499.9,1500,1421.0,1500
6.399999999999985,121,159,99,64000,1499.9,1500,1421.0,1500
6.449999999999985,122,159,99,64000,1499.9,1500,1421.0,1500
6.499999999999985,123,159,99,64000,1499.9,1500,1421.0,1500
6.549999999999985,124,159,99,64000,1499.9,1500,1421.0,1500
6.5999999999999845,125,159,99,64000,1499.9,1500,1421.0,1500
6.649999999999984,126,159,99,64000,1499.9,1500,1421.0,1500
6.699999999999984,127,159,99,64000,1499.9,1500,1421.0,1500
6.749999999999984,128,159,99,64000,1499.9,1500,1421.0,1500
6.799999999999984,129,159,99,64000,1499.9,1500,1421.0,1500
6.849999999999984,130,160,99,64200,1500.0,1500,1421.0,1500
6.8999999999999835,131,159,87,56000,1499.9,1500,1433.0,1500
6.949999999999983,132,165,77,44928,1500.5,1500,1443.0,1500
6.999999999999983,133,167,72,38252,1500.7,1500,1448.0,1500
7.049999999999983,134,173,66,29526,1501.3,1500,1454.0,1500
7.099999999999983,135,178,62,25125,1501.8,1500,1458.0,1500
7.149999999999983,136,180,57,19092,1502.0,1500,1463.0,1500
7.199999999999982,137,182,56,15554,1502.2,1500,1464.0,1500
7.249999999999982,138,183,58,12194,1502.3,1500,1462.0,1500
7.299999999999982,139,184,60,10540,1502.4,1500,1460.0,1500
7.349999999999982,140,186,62,9164,1502.6,1500,1458.0,1500
7.399999999999982,141,186,64,7488,1502.6,1500,1456.0,1500
7.4499999999999815,142,185,65,6831,1502.5,1500,1455.0,1500
7.499999999999981,143,182,64,5915,1502.2,1500,1456.0,1500
7.549999999999981,144,180,65,5544,1502.0,1500,1455.0,1500
7.599999999999981,145,178,66,5015,1501.8,1500,1454.0,1500
7.649999999999981,146,177,69,4956,1501.7,1500,1451.0,1500
7.699999999999981,147,176,73,4674,1501.6,1500,1447.0,1500
7.7499999999999805,148,174,76,4290,1501.4,1500,1444.0,1500
7.79999999999998,149,173,79,4134,1501.3,1500,1441.0,1500
7.84999999999998,150,171,80,4028,1501.1,1500,1440.0,1500
7.89999999999998,151,167,83,3922,1500.7,1500,1437.0,1500
7.94999999999998,152,165,83,3848,1500.5,1500,1437.0,1500
7.99999999999998,153,165,82,3900,1500.5,1500,1438.0,1500
8.04999999999998,154,165,82,3900,1500.5,1500,1438.0,1500
8.09999999999998,155,164,82,3900,1500.4,1500,1438.0,1500
8.14999999999998,156,164,83,4028,1500.4,1500,1437.0,1500
8.199999999999982,157,164,83,4050,1500.4,1500,1437.0,1500
8.249999999999982,158,165,83,4158,1500.5,1500,1437.0,1500
8.299999999999983,159,164,84,4104,1500.4,1500,1436.0,1500
8.349999999999984,160,165,84,4158,1500.5,1500,1436.0,1500
8.399999999999984,161,165,84,4158,1500.5,1500,1436.0,1500
8.449999999999985,162,165,84,4158,1500.5,1500,1436.0,1500
8.499999999999986,163,165,84,4050,1500.5,1500,1436.0,1500
8.549999999999986,164,166,84,4158,1500.6,1500,1436.0,1500
8.599999999999987,165,165,85,4180,1500.5,1500,1435.0,1500
8.649999999999988,166,166,85,4104,1500.6,1500,1435.0,1500
8.699999999999989,167,166,85,4104,1500.6,1500,1435.0,1500
8.74999999999999,168,168,85,4158,1500.8,1500,1435.0,1500
8.79999999999999,169,168,85,4158,1500.8,1500,1435.0,1500
8.84999999999999,170,168,85,4104,1500.8,1500,1435.0,1500
8.899999999999991,171,168,86,4028,1500.8,1500,1434.0,1500
8.949999999999992,172,168,86,4028,1500.8,1500,1434.0,1500
8.999999999999993,173,168,86,4028,1500.8,1500,1434.0,1500
9.049999999999994,174,168,86,4028,1500.8,1500,1434.0,1500
9.099999999999994,175,168,86,4028,1500.8,1500,1434.0,1500
9.149999999999995,176,168,86,3975,1500.8,1500,1434.0,1500
9.199999999999996,177,168,85,4050,1500.8,1500,1435.0,1500
9.249999999999996,178,167,85,3952,1500.7,1500,1435.0,1500
9.299999999999997,179,167,86,4028,1500.7,1500,1434.0,1500
9.349999999999998,180,167,86,3975,1500.7,1500,1434.0,1500
9.399999999999999,181,167,86,3975,1500.7,1500,1434.0,1500
9.45,182,167,86,4028,1500.7,1500,1434.0,1500
9.5,183,167,86,3975,1500.7,1500,1434.0,1500
9.55,184,167,86,3975,1500.7,1500,1434.0,1500
9.600000000000001,185,167,86,3975,1500.7,1500,1434.0,1500
9.650000000000002,186,167,86,3975,1500.7,1500,1434.0,1500
9.700000000000003,187,167,86,4028,1500.7,1500,1434.0,1500
9.750000000000004,188,167,86,4050,1500.7,1500,1434.0,1500
9.800000000000004,189,167,86,4104,1500.7,1500,1434.0,1500
9.850000000000005,190,166,87,3922,1500.6,1500,1433.0,1500
9.900000000000006,191,167,87,3975,1500.7,1500,1433.0,1500
9.950000000000006,192,167,87,3975,1500.7,1500,1433.0,1500
10.000000000000007,193,166,87,3922,1500.6,1500,1433.0,1500
10.050000000000008,194,167,86,3900,1500.7,1500,1434.0,1500
10.100000000000009,195,167,87,3975,1500.7,1500,1433.0,1500
10.15000000000001,196,167,87,3975,1500.7,1500,1433.0,1500
10.20000000000001,197,167,87,3975,1500.7,1500,1433.0,1500
10.25000000000001,198,167,87,3975,1500.7,1500,1433.0,1500
10.300000000000011,199,167,87,4028,1500.7,1500,1433.0,1500
10.350000000000012,200,167,87,3975,1500.7,1500,1433.0,1500
10.400000000000013,201,167,87,3975,1500.7,1500,1433.0,1500
10.450000000000014,202,167,87,3975,1500.7,1500,1433.0,1500
10.500000000000014,203,167,87,3975,1500.7,1500,1433.0,1500
10.550000000000015,204,166,87,3922,1500.6,1500,1433.0,1500
10.600000000000016,205,167,87,3975,1500.7,1500,1433.0,1500
10.650000000000016,206,167,87,3900,1500.7,1500,1433.0,1500
10.700000000000017,207,167,87,3975,1500.7,1500,1433.0,1500
10.750000000000018,208,167,87,3900,1500.7,1500,1433.0,1500
10.800000000000018,209,167,87,3975,1500.7,1500,1433.0,1500
10.85000000000002,210,167,87,4050,1500.7,1500,1433.0,1500
10.90000000000002,211,167,87,3975,1500.7,1500,1433.0,1500
10.95000000000002,212,167,87,3975,1500.7,1500,1433.0,1500
11.000000000000021,213,167,87,3900,1500.7,1500,1433.0,1500
11.050000000000022,214,167,87,3975,1500.7,1500,1433.0,1500
11.100000000000023,215,167,87,3975,1500.7,1500,1433.0,1500
11.150000000000023,216,167,87,3975,1500.7,1500,1433.0,1500
11.200000000000024,217,167,87,3975,1500.7,1500,1433.0,1500
11.250000000000025,218,167,87,3975,1500.7,1500,1433.0,1500
11.300000000000026,219,167,87,3975,1500.7,1500,1433.0,1500
11.350000000000026,220,166,87,4028,1500.6,1500,1433.0,1500
11.400000000000027,221,165,87,3922,1500.5,1500,1433.0,1500
11.450000000000028,222,166,87,3975,1500.6,1500,1433.0,1500
11.500000000000028,223,166,87,3975,1500.6,1500,1433.0,1500
11.55000000000003,224,166,87,3975,1500.6,1500,1433.0,1500
11.60000000000003,225,166,87,4028,1500.6,1500,1433.0,1500
11.65000000000003,226,166,87,4028,1500.6,1500,1433.0,1500
11.700000000000031,227,167,87,3975,1500.7,1500,1433.0,1500
11.750000000000032,228,166,87,3922,1500.6,1500,1433.0,1500
11.800000000000033,229,166,87,3922,1500.6,1500,1433.0,1500
11.850000000000033,230,167,87,4050,1500.7,1500,1433.0,1500
11.900000000000034,231,166,87,3975,1500.6,1500,1433.0,1500
11.950000000000035,232,166,87,4028,1500.6,1500,1433.0,1500
12.000000000000036,233,166,87,3922,1500.6,1500,1433.0,1500
12.050000000000036,234,166,87,4028,1500.6,1500,1433.0,1500
12.100000000000037,235,166,87,3975,1500.6,1500,1433.0,1500
12.150000000000038,236,166,87,3975,1500.6,1500,1433.0,1500
12.200000000000038,237,166,87,3975,1500.6,1500,1433.0,1500
12.250000000000039,238,166,87,3975,1500.6,1500,1433.0,1500
12.30000000000004,239,166,87,3975,1500.6,1500,1433.0,1500
12.35000000000004,240,166,87,3975,1500.6,1500,1433.0,1500
12.400000000000041,241,166,87,4050,1500.6,1500,1433.0,1500
12.450000000000042,242,165,87,3922,1500.5,1500,1433.0,1500
12.500000000000043,243,165,87,3922,1500.5,1500,1433.0,1500
12.550000000000043,244,166,87,3975,1500.6,1500,1433.0,1500
12.600000000000044,245,166,87,3975,1500.6,1500,1433.0,1500
12.650000000000045,246,166,87,4050,1500.6,1500,1433.0,1500
12.700000000000045,247,165,87,3996,1500.5,1500,1433.0,1500
12.750000000000046,248,166,87,4050,1500.6,1500,1433.0,1500
12.800000000000047,249,165,87,3996,1500.5,1500,1433.0,1500
12.850000000000048,250,166,88,3975,1500.6,1500,1432.0,1500
12.900000000000048,251,166,87,3975,1500.6,1500,1433.0,1500
12.950000000000049,252,166,88,3975,1500.6,1500,1432.0,1500
13.00000000000005,253,166,87,4050,1500.6,1500,1433.0,1500
13.05000000000005,254,166,87,4104,1500.6,1500,1433.0,1500
13.100000000000051,255,166,87,4050,1500.6,1500,1433.0,1500
13.150000000000052,256,167,88,3975,1500.7,1500,1432.0,1500
13.200000000000053,257,167,87,4104,1500.7,1500,1433.0,1500
13.250000000000053,258,166,87,4028,1500.6,1500,1433.0,1500
13.300000000000054,259,166,87,3996,1500.6,1500,1433.0,1500
13.350000000000055,260,167,87,4050,1500.7,1500,1433.0,1500
13.400000000000055,261,167,87,3900,1500.7,1500,1433.0,1500
13.450000000000056,262,167,88,3975,1500.7,1500,1432.0,1500
13.500000000000057,263,167,87,4050,1500.7,1500,1433.0,1500
13.550000000000058,264,166,88,3922,1500.6,1500,1432.0,1500
13.600000000000058,265,167,88,3975,1500.7,1500,1432.0,1500
13.650000000000059,266,167,88,3975,1500.7,1500,1432.0,1500
13.70000000000006,267,167,88,3922,1500.7,1500,1432.0,1500
13.75000000000006,268,168,87,4050,1500.8,1500,1433.0,1500
13.800000000000061,269,167,88,3922,1500.7,1500,1432.0,1500
13.850000000000062,270,168,88,3975,1500.8,1500,1432.0,1500
13.900000000000063,271,168,88,3975,1500.8,1500,1432.0,1500
13.950000000000063,272,167,87,3996,1500.7,1500,1433.0,1500
14.000000000000064,273,168,88,4028,1500.8,1500,1432.0,1500
14.050000000000065,274,167,88,3975,1500.7,1500,1432.0,1500
14.100000000000065,275,167,88,3975,1500.7,1500,1432.0,1500
14.150000000000066,276,167,88,3975,1500.7,1500,1432.0,1500
14.200000000000067,277,167,87,3975,1500.7,1500,1433.0,1500
14.250000000000068,278,167,87,3975,1500.7,1500,1433.0,1500
14.300000000000068,279,167,86,3975,1500.7,1500,1434.0,1500
14.350000000000069,280,167,86,3975,1500.7,1500,1434.0,1500
14.40000000000007,281,166,86,3922,1500.6,1500,1434.0,1500
14.45000000000007,282,165,85,3848,1500.5,1500,1435.0,1500
14.500000000000071,283,164,86,3922,1500.4,1500,1434.0,1500
14.550000000000072,284,163,85,3848,1500.3,1500,1435.0,1500
14.600000000000072,285,163,85,3848,1500.3,1500,1435.0,1500
14.650000000000073,286,162,86,3723,1500.2,1500,1434.0,1500
14.700000000000074,287,162,86,3825,1500.2,1500,1434.0,1500
14.750000000000075,288,161,85,3848,1500.1,1500,1435.0,1500
14.800000000000075,289,161,85,3848,1500.1,1500,1435.0,1500
14.850000000000076,290,160,84,3744,1500.0,1500,1436.0,1500
14.900000000000077,291,160,82,3600,1500.0,1500,1438.0,1500
14.950000000000077,292,160,82,3723,1500.0,1500,1438.0,1500
15.000000000000078,293,159,83,3672,1499.9,1500,1437.0,1500
15.050000000000079,294,159,84,3550,1499.9,1500,1436.0,1500
15.10000000000008,295,159,86,3381,1499.9,1500,1434.0,1500
15.15000000000008,296,159,87,3381,1499.9,1500,1433.0,1500
15.200000000000081,297,158,88,3283,1499.8,1500,1432.0,1500
15.250000000000082,298,157,88,3036,1499.7,1500,1432.0,1500
15.300000000000082,299,157,89,3036,1499.7,1500,1431.0,1500
15.350000000000083,300,157,90,2880,1499.7,1500,1430.0,1500
15.400000000000084,301,158,90,2562,1499.8,1500,1430.0,1500
15.450000000000085,302,158,91,2520,1499.8,1500,1429.0,1500
15.500000000000085,303,161,92,2419,1500.1,1500,1428.0,1500
15.550000000000086,304,162,93,2223,1500.2,1500,1427.0,1500
15.600000000000087,305,164,94,2200,1500.4,1500,1426.0,1500
15.650000000000087,306,164,96,1924,1500.4,1500,1424.0,1500
15.700000000000088,307,166,97,1887,1500.6,1500,1423.0,1500
15.750000000000089,308,167,96,1728,1500.7,1500,1424.0,1500
15.80000000000009,309,169,95,1645,1500.9,1500,1425.0,1500
15.85000000000009,310,172,93,1551,1501.2,1500,1427.0,1500
15.900000000000091,311,172,91,1496,1501.2,1500,1429.0,1500
15.950000000000092,312,173,90,1419,1501.3,1500,1430.0,1500
16.000000000000092,313,173,90,1218,1501.3,1500,1430.0,1500
16.050000000000093,314,173,89,1240,1501.3,1500,1431.0,1500
16.100000000000094,315,173,90,1160,1501.3,1500,1430.0,1500
16.150000000000095,316,172,90,1064,1501.2,1500,1430.0,1500
16.200000000000095,317,173,90,1036,1501.3,1500,1430.0,1500
16.250000000000096,318,172,92,988,1501.2,1500,1428.0,1500
16.300000000000097,319,172,92,962,1501.2,1500,1428.0,1500
16.350000000000097,320,171,94,945,1501.1,1500,1426.0,1500
16.400000000000098,321,170,94,936,1501.0,1500,1426.0,1500
16.4500000000001,322,168,95,884,1500.8,1500,1425.0,1500
16.5000000000001,323,168,96,945,1500.8,1500,1424.0,1500
16.5500000000001,324,167,96,910,1500.7,1500,1424.0,1500
16.6000000000001,325,167,96,900,1500.7,1500,1424.0,1500
16.6500000000001,326,166,96,875,1500.6,1500,1424.0,1500
16.700000000000102,327,166,95,875,1500.6,1500,1425.0,1500
16.750000000000103,328,166,96,875,1500.6,1500,1424.0,1500
16.800000000000104,329,165,95,910,1500.5,1500,1425.0,1500
16.850000000000104,330,166,95,910,1500.6,1500,1425.0,1500
16.900000000000105,331,165,95,936,1500.5,1500,1425.0,1500
16.950000000000106,332,165,95,936,1500.5,1500,1425.0,1500
17.000000000000107,333,165,94,864,1500.5,1500,1426.0,1500
17.050000000000107,334,165,94,936,1500.5,1500,1426.0,1500
17.100000000000108,335,165,95,945,1500.5,1500,1425.0,1500
17.15000000000011,336,165,94,936,1500.5,1500,1426.0,1500
17.20000000000011,337,166,94,936,1500.6,1500,1426.0,1500
17.25000000000011,338,166,95,972,1500.6,1500,1425.0,1500
17.30000000000011,339,166,94,936,1500.6,1500,1426.0,1500
17.35000000000011,340,165,95,900,1500.5,1500,1425.0,1500
17.400000000000112,341,166,95,999,1500.6,1500,1425.0,1500
17.450000000000113,342,165,95,972,1500.5,1500,1425.0,1500
17.500000000000114,343,165,95,945,1500.5,1500,1425.0,1500
17.550000000000114,344,165,95,988,1500.5,1500,1425.0,1500
17.600000000000115,345,165,95,962,1500.5,1500,1425.0,1500
17.650000000000116,346,164,95,936,1500.4,1500,1425.0,1500
17.700000000000117,347,164,95,936,1500.4,1500,1425.0,1500
17.750000000000117,348,164,96,972,1500.4,1500,1424.0,1500
17.800000000000118,349,163,95,936,1500.3,1500,1425.0,1500
17.85000000000012,350,164,95,910,1500.4,1500,1425.0,1500
17.90000000000012,351,163,96,972,1500.3,1500,1424.0,1500
17.95000000000012,352,164,96,972,1500.4,1500,1424.0,1500
18.00000000000012,353,164,96,936,1500.4,1500,1424.0,1500
18.05000000000012,354,164,96,936,1500.4,1500,1424.0,1500
18.100000000000122,355,164,96,962,1500.4,1500,1424.0,1500
18.150000000000123,356,164,96,910,1500.4,1500,1424.0,1500
18.200000000000124,357,164,96,936,1500.4,1500,1424.0,1500
18.250000000000124,358,163,96,884,1500.3,1500,1424.0,1500
18.300000000000125,359,164,96,936,1500.4,1500,1424.0,1500
18.350000000000126,360,164,96,936,1500.4,1500,1424.0,1500
18.400000000000126,361,164,96,936,1500.4,1500,1424.0,1500
18.450000000000127,362,164,96,936,1500.4,1500,1424.0,1500
18.500000000000128,363,164,97,972,1500.4,1500,1423.0,1500
18.55000000000013,364,164,96,936,1500.4,1500,1424.0,1500
18.60000000000013,365,164,96,936,1500.4,1500,1424.0,1500
18.65000000000013,366,165,96,962,1500.5,1500,1424.0,1500
18.70000000000013,367,165,96,962,1500.5,1500,1424.0,1500
18.75000000000013,368,165,96,962,1500.5,1500,1424.0,1500
18.800000000000132,369,164,96,936,1500.4,1500,1424.0,1500
18.850000000000133,370,164,96,936,1500.4,1500,1424.0,1500
18.900000000000134,371,164,96,936,1500.4,1500,1424.0,1500
18.950000000000134,372,165,96,962,1500.5,1500,1424.0,1500
19.000000000000135,373,165,96,962,1500.5,1500,1424.0,1500
19.050000000000136,374,165,96,962,1500.5,1500,1424.0,1500
19.100000000000136,375,164,96,936,1500.4,1500,1424.0,1500
19.150000000000137,376,165,96,962,1500.5,1500,1424.0,1500
19.200000000000138,377,165,96,962,1500.5,1500,1424.0,1500
19.25000000000014,378,164,96,936,1500.4,1500,1424.0,1500
19.30000000000014,379,164,96,936,1500.4,1500,1424.0,1500
19.35000000000014,380,164,96,936,1500.4,1500,1424.0,1500
19.40000000000014,381,164,96,936,1500.4,1500,1424.0,1500
19.45000000000014,382,164,96,910,1500.4,1500,1424.0,1500
19.500000000000142,383,164,96,910,1500.4,1500,1424.0,1500
19.550000000000143,384,164,96,900,1500.4,1500,1424.0,1500
19.600000000000144,385,164,96,910,1500.4,1500,1424.0,1500
19.650000000000144,386,164,96,936,1500.4,1500,1424.0,1500
19.700000000000145,387,164,96,936,1500.4,1500,1424.0,1500
19.750000000000146,388,164,96,936,1500.4,1500,1424.0,1500
19.800000000000146,389,164,96,936,1500.4,1500,1424.0,1500
19.850000000000147,390,164,96,910,1500.4,1500,1424.0,1500
19.900000000000148,391,163,96,936,1500.3,1500,1424.0,1500
19.95000000000015,392,163,96,936,1500.3,1500,1424.0,1500
20.00000000000015,393,163,96,910,1500.3,1500,1424.0,1500
20.05000000000015,394,163,96,936,1500.3,1500,1424.0,1500
20.10000000000015,395,163,96,936,1500.3,1500,1424.0,1500
20.15000000000015,396,164,96,925,1500.4,1500,1424.0,1500
20.200000000000152,397,163,96,936,1500.3,1500,1424.0,1500
20.250000000000153,398,163,96,936,1500.3,1500,1424.0,1500
20.300000000000153,399,163,96,910,1500.3,1500,1424.0,1500
20.350000000000154,400,163,96,936,1500.3,1500,1424.0,1500
20.400000000000155,401,164,96,910,1500.4,1500,1424.0,1500
20.450000000000156,402,163,96,936,1500.3,1500,1424.0,1500
20.500000000000156,403,164,96,910,1500.4,1500,1424.0,1500
20.550000000000157,404,164,96,910,1500.4,1500,1424.0,1500
20.600000000000158,405,164,96,910,1500.4,1500,1424.0,1500
20.65000000000016,406,164,96,936,1500.4,1500,1424.0,1500
20.70000000000016,407,164,96,910,1500.4,1500,1424.0,1500
20.75000000000016,408,164,96,936,1500.4,1500,1424.0,1500
20.80000000000016,409,164,96,936,1500.4,1500,1424.0,1500
20.85000000000016,410,164,96,910,1500.4,1500,1424.0,1500
20.900000000000162,411,164,97,875,1500.4,1500,1423.0,1500
20.950000000000163,412,164,96,936,1500.4,1500,1424.0,1500
21.000000000000163,413,164,96,936,1500.4,1500,1424.0,1500
21.050000000000164,414,164,96,936,1500.4,1500,1424.0,1500
21.100000000000165,415,164,96,910,1500.4,1500,1424.0,1500
21.150000000000166,416,165,97,875,1500.5,1500,1423.0,1500
21.200000000000166,417,164,96,936,1500.4,1500,1424.0,1500
21.250000000000167,418,164,96,936,1500.4,1500,1424.0,1500
21.300000000000168,419,164,97,875,1500.4,1500,1423.0,1500
21.35000000000017,420,164,97,900,1500.4,1500,1423.0,1500
21.40000000000017,421,164,96,936,1500.4,1500,1424.0,1500
21.45000000000017,422,164,97,875,1500.4,1500,1423.0,1500
21.50000000000017,423,164,96,910,1500.4,1500,1424.0,1500
21.55000000000017,424,164,96,936,1500.4,1500,1424.0,1500
21.600000000000172,425,164,96,936,1500.4,1500,1424.0,1500
21.650000000000173,426,164,96,936,1500.4,1500,1424.0,1500
21.700000000000173,427,164,96,910,1500.4,1500,1424.0,1500
21.750000000000174,428,164,96,910,1500.4,1500,1424.0,1500
21.800000000000175,429,164,96,910,1500.4,1500,1424.0,1500
21.850000000000176,430,164,96,962,1500.4,1500,1424.0,1500
21.900000000000176,431,164,97,875,1500.4,1500,1423.0,1500
21.950000000000177,432,163,96,936,1500.3,1500,1424.0,1500
22.000000000000178,433,164,96,936,1500.4,1500,1424.0,1500
22.05000000000018,434,163,97,900,1500.3,1500,1423.0,1500
22.10000000000018,435,164,96,936,1500.4,1500,1424.0,1500
22.15000000000018,436,163,97,972,1500.3,1500,1423.0,1500
22.20000000000018,437,163,96,936,1500.3,1500,1424.0,1500
22.25000000000018,438,163,97,900,1500.3,1500,1423.0,1500
22.300000000000182,439,164,96,988,1500.4,1500,1424.0,1500
22.350000000000183,440,164,96,910,1500.4,1500,1424.0,1500
22.400000000000183,441,164,97,900,1500.4,1500,1423.0,1500
22.450000000000184,442,163,97,900,1500.3,1500,1423.0,1500
22.500000000000185,443,163,97,972,1500.3,1500,1423.0,1500
22.550000000000185,444,163,97,875,1500.3,1500,1423.0,1500
22.600000000000186,445,163,97,900,1500.3,1500,1423.0,1500
22.650000000000187,446,163,97,900,1500.3,1500,1423.0,1500
22.700000000000188,447,163,97,875,1500.3,1500,1423.0,1500
22.75000000000019,448,163,97,900,1500.3,1500,1423.0,1500
22.80000000000019,449,163,97,875,1500.3,1500,1423.0,1500
22.85000000000019,450,163,97,936,1500.3,1500,1423.0,1500
22.90000000000019,451,163,97,936,1500.3,1500,1423.0,1500
22.95000000000019,452,163,97,936,1500.3,1500,1423.0,1500
23.000000000000192,453,163,97,910,1500.3,1500,1423.0,1500
23.050000000000193,454,163,97,936,1500.3,1500,1423.0,1500
23.100000000000193,455,163,97,900,1500.3,1500,1423.0,1500
23.150000000000194,456,163,97,900,1500.3,1500,1423.0,1500
23.200000000000195,457,162,97,884,1500.2,1500,1423.0,1500
23.250000000000195,458,163,97,900,1500.3,1500,1423.0,1500
23.300000000000196,459,163,97,900,1500.3,1500,1423.0,1500
23.350000000000197,460,163,97,875,1500.3,1500,1423.0,1500
23.400000000000198,461,163,97,900,1500.3,1500,1423.0,1500
23.4500000000002,462,163,97,900,1500.3,1500,1423.0,1500
23.5000000000002,463,163,97,875,1500.3,1500,1423.0,1500
23.5500000000002,464,164,97,962,1500.4,1500,1423.0,1500
23.6000000000002,465,163,97,936,1500.3,1500,1423.0,1500
23.6500000000002,466,163,97,936,1500.3,1500,1423.0,1500
23.700000000000202,467,164,97,925,1500.4,1500,1423.0,1500
23.750000000000203,468,163,97,936,1500.3,1500,1423.0,1500
23.800000000000203,469,163,97,936,1500.3,1500,1423.0,1500
23.850000000000204,470,163,97,900,1500.3,1500,1423.0,1500
23.900000000000205,471,163,97,875,1500.3,1500,1423.0,1500
23.950000000000205,472,163,97,936,1500.3,1500,1423.0,1500
24.000000000000206,473,164,97,925,1500.4,1500,1423.0,1500
24.050000000000207,474,163,97,900,1500.3,1500,1423.0,1500
24.100000000000207,475,163,97,900,1500.3,1500,1423.0,1500
24.150000000000208,476,163,97,900,1500.3,1500,1423.0,1500
24.20000000000021,477,163,97,900,1500.3,1500,1423.0,1500
24.25000000000021,478,163,97,900,1500.3,1500,1423.0,1500
24.30000000000021,479,163,97,900,1500.3,1500,1423.0,1500
24.35000000000021,480,163,97,900,1500.3,1500,1423.0,1500
24.40000000000021,481,162,97,850,1500.2,1500,1423.0,1500
24.450000000000212,482,163,97,936,1500.3,1500,1423.0,1500
24.500000000000213,483,163,97,910,1500.3,1500,1423.0,1500
24.550000000000214,484,162,97,850,1500.2,1500,1423.0,1500
24.600000000000215,485,163,97,875,1500.3,1500,1423.0,1500
24.650000000000215,486,162,97,936,1500.2,1500,1423.0,1500
24.700000000000216,487,163,97,936,1500.3,1500,1423.0,1500
24.750000000000217,488,163,97,900,1500.3,1500,1423.0,1500
24.800000000000217,489,162,97,900,1500.2,1500,1423.0,1500
24.850000000000218,490,162,97,850,1500.2,1500,1423.0,1500
24.90000000000022,491,162,97,850,1500.2,1500,1423.0,1500
24.95000000000022,492,163,97,875,1500.3,1500,1423.0,1500
25.00000000000022,493,163,96,910,1500.3,1500,1424.0,1500
25.05000000000022,494,163,97,900,1500.3,1500,1423.0,1500
25.10000000000022,495,163,97,900,1500.3,1500,1423.0,1500
25.150000000000222,496,163,97,875,1500.3,1500,1423.0,1500
25.200000000000223,497,163,96,936,1500.3,1500,1424.0,1500
25.250000000000224,498,162,96,936,1500.2,1500,1424.0,1500
25.300000000000225,499,163,97,950,1500.3,1500,1423.0,1500
25.350000000000225,500,162,97,900,1500.2,1500,1423.0,1500
25.400000000000226,501,162,97,936,1500.2,1500,1423.0,1500
25.450000000000227,502,162,97,900,1500.2,1500,1423.0,1500
25.500000000000227,503,162,97,936,1500.2,1500,1423.0,1500
25.550000000000228,504,162,97,900,1500.2,1500,1423.0,1500
25.60000000000023,505,162,97,875,1500.2,1500,1423.0,1500
25.65000000000023,506,163,97,875,1500.3,1500,1423.0,1500
25.70000000000023,507,163,97,840,1500.3,1500,1423.0,1500
25.75000000000023,508,162,97,936,1500.2,1500,1423.0,1500
25.80000000000023,509,162,97,900,1500.2,1500,1423.0,1500
25.850000000000232,510,162,97,850,1500.2,1500,1423.0,1500
25.900000000000233,511,162,97,936,1500.2,1500,1423.0,1500
25.950000000000234,512,162,97,936,1500.2,1500,1423.0,1500
26.000000000000234,513,162,97,936,1500.2,1500,1423.0,1500
26.050000000000235,514,162,97,936,1500.2,1500,1423.0,1500
26.100000000000236,515,162,97,900,1500.2,1500,1423.0,1500
26.150000000000237,516,162,97,875,1500.2,1500,1423.0,1500
26.200000000000237,517,162,97,936,1500.2,1500,1423.0,1500
26.250000000000238,518,162,97,900,1500.2,1500,1423.0,1500
26.30000000000024,519,162,97,936,1500.2,1500,1423.0,1500
26.35000000000024,520,162,97,900,1500.2,1500,1423.0,1500
26.40000000000024,521,162,97,936,1500.2,1500,1423.0,1500
26.45000000000024,522,162,97,900,1500.2,1500,1423.0,1500
26.50000000000024,523,162,97,936,1500.2,1500,1423.0,1500
26.550000000000242,524,162,97,910,1500.2,1500,1423.0,1500
26.600000000000243,525,162,97,910,1500.2,1500,1423.0,1500
26.650000000000244,526,162,97,936,1500.2,1500,1423.0,1500
26.700000000000244,527,162,97,900,1500.2,1500,1423.0,1500
26.750000000000245,528,162,97,910,1500.2,1500,1423.0,1500
26.800000000000246,529,162,97,910,1500.2,1500,1423.0,1500
26.850000000000247,530,161,97,936,1500.1,1500,1423.0,1500
26.900000000000247,531,162,97,910,1500.2,1500,1423.0,1500
26.950000000000248,532,161,97,910,1500.1,1500,1423.0,1500
27.00000000000025,533,161,97,900,1500.1,1500,1423.0,1500
27.05000000000025,534,161,97,910,1500.1,1500,1423.0,1500
27.10000000000025,535,161,97,875,1500.1,1500,1423.0,1500
27.15000000000025,536,161,97,875,1500.1,1500,1423.0,1500
27.20000000000025,537,161,97,900,1500.1,1500,1423.0,1500
27.250000000000252,538,161,97,900,1500.1,1500,1423.0,1500
27.300000000000253,539,161,97,900,1500.1,1500,1423.0,1500
27.350000000000254,540,161,97,910,1500.1,1500,1423.0,1500
27.400000000000254,541,161,97,936,1500.1,1500,1423.0,1500
27.450000000000255,542,161,97,875,1500.1,1500,1423.0,1500
27.500000000000256,543,161,97,900,1500.1,1500,1423.0,1500
27.550000000000257,544,161,97,875,1500.1,1500,1423.0,1500
27.600000000000257,545,161,97,875,1500.1,1500,1423.0,1500
27.650000000000258,546,161,97,900,1500.1,1500,1423.0,1500
27.70000000000026,547,161,97,900,1500.1,1500,1423.0,1500
27.75000000000026,548,161,97,900,1500.1,1500,1423.0,1500
27.80000000000026,549,161,97,875,1500.1,1500,1423.0,1500
27.85000000000026,550,161,97,875,1500.1,1500,1423.0,1500
27.90000000000026,551,161,97,900,1500.1,1500,1423.0,1500
27.950000000000262,552,161,97,875,1500.1,1500,1423.0,1500
28.000000000000263,553,161,97,900,1500.1,1500,1423.0,1500
28.050000000000264,554,161,97,900,1500.1,1500,1423.0,1500
28.100000000000264,555,161,97,900,1500.1,1500,1423.0,1500
28.150000000000265,556,161,97,900,1500.1,1500,1423.0,1500
28.200000000000266,557,161,97,900,1500.1,1500,1423.0,1500
28.250000000000266,558,161,97,900,1500.1,1500,1423.0,1500
28.300000000000267,559,162,97,900,1500.2,1500,1423.0,1500
28.350000000000268,560,162,97,875,1500.2,1500,1423.0,1500
28.40000000000027,561,161,97,900,1500.1,1500,1423.0,1500
28.45000000000027,562,161,97,884,1500.1,1500,1423.0,1500
28.50000000000027,563,162,97,900,1500.2,1500,1423.0,1500
28.55000000000027,564,162,97,875,1500.2,1500,1423.0,1500
28.60000000000027,565,162,97,875,1500.2,1500,1423.0,1500
28.650000000000272,566,162,97,875,1500.2,1500,1423.0,1500
28.700000000000273,567,162,97,875,1500.2,1500,1423.0,1500
28.750000000000274,568,162,97,875,1500.2,1500,1423.0,1500
28.800000000000274,569,162,97,875,1500.2,1500,1423.0,1500
28.850000000000275,570,162,97,900,1500.2,1500,1423.0,1500
28.900000000000276,571,162,97,875,1500.2,1500,1423.0,1500
28.950000000000276,572,162,96,840,1500.2,1500,1424.0,1500
29.000000000000277,573,162,97,900,1500.2,1500,1423.0,1500
29.050000000000278,574,161,97,900,1500.1,1500,1423.0,1500
29.10000000000028,575,162,96,910,1500.2,1500,1424.0,1500
29.15000000000028,576,162,96,910,1500.2,1500,1424.0,1500
29.20000000000028,577,161,96,900,1500.1,1500,1424.0,1500
29.25000000000028,578,161,96,875,1500.1,1500,1424.0,1500
29.30000000000028,579,161,96,875,1500.1,1500,1424.0,1500
29.350000000000282,580,160,96,850,1500.0,1500,1424.0,1500
29.400000000000283,581,160,96,900,1500.0,1500,1424.0,1500
29.450000000000284,582,160,96,875,1500.0,1500,1424.0,1500
29.500000000000284,583,159,96,816,1499.9,1500,1424.0,1500
29.550000000000285,584,159,97,816,1499.9,1500,1423.0,1500
29.600000000000286,585,159,98,816,1499.9,1500,1422.0,1500
29.650000000000286,586,158,99,736,1499.8,1500,1421.0,1500
29.700000000000287,587,159,100,713,1499.9,1500,1420.0,1500
29.750000000000288,588,159,100,682,1499.9,1500,1420.0,1500
29.80000000000029,589,158,101,690,1499.8,1500,1419.0,1500
29.85000000000029,590,159,101,682,1499.9,1500,1419.0,1500
29.90000000000029,591,158,101,704,1499.8,1500,1419.0,1500
29.95000000000029,592,158,102,651,1499.8,1500,1418.0,1500
30.00000000000029,593,157,101,660,1499.7,1500,1419.0,1500
30.050000000000292,594,158,102,630,1499.8,1500,1418.0,1500
30.100000000000293,595,158,102,630,1499.8,1500,1418.0,1500
30.150000000000293,596,158,103,630,1499.8,1500,1417.0,1500
30.200000000000294,597,159,103,551,1499.9,1500,1417.0,1500
30.250000000000295,598,160,103,540,1500.0,1500,1417.0,1500
30.300000000000296,599,161,104,532,1500.1,1500,1416.0,1500
30.350000000000296,600,162,104,486,1500.2,1500,1416.0,1500
30.400000000000297,601,163,104,468,1500.3,1500,1416.0,1500
30.450000000000298,602,164,103,468,1500.4,1500,1417.0,1500
30.5000000000003,603,165,103,425,1500.5,1500,1417.0,1500
30.5500000000003,604,164,102,408,1500.4,1500,1418.0,1500
30.6000000000003,605,165,101,391,1500.5,1500,1419.0,1500
30.6500000000003,606,164,100,408,1500.4,1500,1420.0,1500
30.7000000000003,607,166,100,357,1500.6,1500,1420.0,1500
30.750000000000302,608,163,99,368,1500.3,1500,1421.0,1500
30.800000000000303,609,163,99,368,1500.3,1500,1421.0,1500
30.850000000000303,610,163,99,384,1500.3,1500,1421.0,1500
30.900000000000304,611,163,99,368,1500.3,1500,1421.0,1500
30.950000000000305,612,162,99,384,1500.2,1500,1421.0,1500
31.000000000000306,613,162,99,408,1500.2,1500,1421.0,1500
31.050000000000306,614,162,98,368,1500.2,1500,1422.0,1500
31.100000000000307,615,161,98,352,1500.1,1500,1422.0,1500
31.150000000000308,616,161,99,368,1500.1,1500,1421.0,1500
31.20000000000031,617,161,100,368,1500.1,1500,1420.0,1500
31.25000000000031,618,161,100,368,1500.1,1500,1420.0,1500
31.30000000000031,619,162,100,391,1500.2,1500,1420.0,1500
31.35000000000031,620,161,100,374,1500.1,1500,1420.0,1500
31.40000000000031,621,161,99,352,1500.1,1500,1421.0,1500
31.450000000000312,622,162,100,391,1500.2,1500,1420.0,1500
31.500000000000313,623,162,100,345,1500.2,1500,1420.0,1500
31.550000000000313,624,162,100,408,1500.2,1500,1420.0,1500
31.600000000000314,625,162,99,368,1500.2,1500,1421.0,1500
31.650000000000315,626,162,99,368,1500.2,1500,1421.0,1500
31.700000000000315,627,161,100,391,1500.1,1500,1420.0,1500
31.750000000000316,628,161,100,391,1500.1,1500,1420.0,1500
31.800000000000317,629,161,100,408,1500.1,1500,1420.0,1500
31.850000000000318,630,160,101,330,1500.0,1500,1419.0,1500
31.90000000000032,631,160,100,408,1500.0,1500,1420.0,1500
31.95000000000032,632,160,100,374,1500.0,1500,1420.0,1500
32.00000000000032,633,160,100,408,1500.0,1500,1420.0,1500
32.05000000000032,634,160,99,368,1500.0,1500,1421.0,1500
32.100000000000314,635,160,100,391,1500.0,1500,1420.0,1500
32.15000000000031,636,160,100,391,1500.0,1500,1420.0,1500
32.20000000000031,637,160,99,368,1500.0,1500,1421.0,1500
32.250000000000306,638,160,100,391,1500.0,1500,1420.0,1500
32.3000000000003,639,160,100,408,1500.0,1500,1420.0,1500
32.3500000000003,640,160,99,368,1500.0,1500,1421.0,1500
32.4000000000003,641,160,100,391,1500.0,1500,1420.0,1500
32.450000000000294,642,160,100,384,1500.0,1500,1420.0,1500
32.50000000000029,643,160,100,391,1500.0,1500,1420.0,1500
32.55000000000029,644,160,100,391,1500.0,1500,1420.0,1500
32.600000000000286,645,160,100,391,1500.0,1500,1420.0,1500
32.65000000000028,646,160,100,391,1500.0,1500,1420.0,1500
32.70000000000028,647,160,100,368,1500.0,1500,1420.0,1500
32.75000000000028,648,160,100,408,1500.0,1500,1420.0,1500
32.800000000000274,649,160,100,391,1500.0,1500,1420.0,1500
32.85000000000027,650,160,100,408,1500.0,1500,1420.0,1500
32.90000000000027,651,160,100,384,1500.0,1500,1420.0,1500
32.950000000000266,652,160,100,368,1500.0,1500,1420.0,1500
33.00000000000026,653,160,100,408,1500.0,1500,1420.0,1500
33.05000000000026,654,160,100,408,1500.0,1500,1420.0,1500
33.10000000000026,655,160,100,391,1500.0,1500,1420.0,1500
33.150000000000254,656,160,100,408,1500.0,1500,1420.0,1500
33.20000000000025,657,160,100,391,1500.0,1500,1420.0,1500
33.25000000000025,658,160,100,391,1500.0,1500,1420.0,1500
33.300000000000246,659,160,100,391,1500.0,1500,1420.0,1500
33.35000000000024,660,159,100,352,1499.9,1500,1420.0,1500
33.40000000000024,661,160,102,299,1500.0,1500,1418.0,1500
33.45000000000024,662,160,100,391,1500.0,1500,1420.0,1500
33.500000000000234,663,160,100,384,1500.0,1500,1420.0,1500
33.55000000000023,664,160,100,391,1500.0,1500,1420.0,1500
33.60000000000023,665,160,100,408,1500.0,1500,1420.0,1500
33.650000000000226,666,159,100,374,1499.9,1500,1420.0,1500
33.70000000000022,667,159,99,352,1499.9,1500,1421.0,1500
33.75000000000022,668,160,100,408,1500.0,1500,1420.0,1500
33.80000000000022,669,160,100,408,1500.0,1500,1420.0,1500
33.850000000000215,670,160,100,384,1500.0,1500,1420.0,1500
33.90000000000021,671,160,100,384,1500.0,1500,1420.0,1500
33.95000000000021,672,160,100,384,1500.0,1500,1420.0,1500
34.000000000000206,673,159,100,352,1499.9,1500,1420.0,1500
34.0500000000002,674,160,100,368,1500.0,1500,1420.0,1500
34.1000000000002,675,160,100,368,1500.0,1500,1420.0,1500
34.1500000000002,676,160,100,391,1500.0,1500,1420.0,1500
34.200000000000195,677,159,100,352,1499.9,1500,1420.0,1500
34.25000000000019,678,160,100,368,1500.0,1500,1420.0,1500
34.30000000000019,679,160,100,368,1500.0,1500,1420.0,1500
34.350000000000186,680,160,100,368,1500.0,1500,1420.0,1500
34.40000000000018,681,160,100,368,1500.0,1500,1420.0,1500
34.45000000000018,682,160,100,391,1500.0,1500,1420.0,1500
34.50000000000018,683,160,100,391,1500.0,1500,1420.0,1500
34.550000000000175,684,160,100,391,1500.0,1500,1420.0,1500
34.60000000000017,685,159,100,374,1499.9,1500,1420.0,1500
34.65000000000017,686,160,100,391,1500.0,1500,1420.0,1500
34.700000000000166,687,160,100,391,1500.0,1500,1420.0,1500
34.75000000000016,688,159,100,352,1499.9,1500,1420.0,1500
34.80000000000016,689,160,100,391,1500.0,1500,1420.0,1500
34.85000000000016,690,160,100,391,1500.0,1500,1420.0,1500
34.900000000000155,691,159,100,408,1499.9,1500,1420.0,1500
34.95000000000015,692,160,100,391,1500.0,1500,1420.0,1500
35.00000000000015,693,160,100,391,1500.0,1500,1420.0,1500
35.050000000000146,694,160,100,391,1500.0,1500,1420.0,1500
35.10000000000014,695,160,100,368,1500.0,1500,1420.0,1500
35.15000000000014,696,159,99,368,1499.9,1500,1421.0,1500
35.20000000000014,697,160,100,368,1500.0,1500,1420.0,1500
35.250000000000135,698,160,99,368,1500.0,1500,1421.0,1500
35.30000000000013,699,159,100,374,1499.9,1500,1420.0,1500
35.35000000000013,700,160,99,368,1500.0,1500,1421.0,1500
35.40000000000013,701,159,99,352,1499.9,1500,1421.0,1500
35.450000000000124,702,159,99,368,1499.9,1500,1421.0,1500
35.50000000000012,703,159,99,368,1499.9,1500,1421.0,1500
35.55000000000012,704,159,100,408,1499.9,1500,1420.0,1500
35.600000000000115,705,159,99,384,1499.9,1500,1421.0,1500
35.65000000000011,706,160,100,425,1500.0,1500,1420.0,1500
35.70000000000011,707,159,100,408,1499.9,1500,1420.0,1500
35.75000000000011,708,159,100,391,1499.9,1500,1420.0,1500
35.800000000000104,709,159,100,408,1499.9,1500,1420.0,1500
35.8500000000001,710,159,100,408,1499.9,1500,1420.0,1500
35.9000000000001,711,159,100,391,1499.9,1500,1420.0,1500
35.950000000000095,712,159,99,384,1499.9,1500,1421.0,1500
36.00000000000009,713,159,100,408,1499.9,1500,1420.0,1500
36.05000000000009,714,159,100,408,1499.9,1500,1420.0,1500
36.10000000000009,715,159,100,408,1499.9,1500,1420.0,1500
36.150000000000084,716,159,100,391,1499.9,1500,1420.0,1500
36.20000000000008,717,159,100,391,1499.9,1500,1420.0,1500
36.25000000000008,718,159,99,368,1499.9,1500,1421.0,1500
36.300000000000075,719,158,99,352,1499.8,1500,1421.0,1500
36.35000000000007,720,158,99,352,1499.8,1500,1421.0,1500
36.40000000000007,721,159,100,360,1499.9,1500,1420.0,1500
36.45000000000007,722,159,100,408,1499.9,1500,1420.0,1500
36.500000000000064,723,159,99,368,1499.9,1500,1421.0,1500
36.55000000000006,724,159,100,391,1499.9,1500,1420.0,1500
36.60000000000006,725,159,100,408,1499.9,1500,1420.0,1500
36.650000000000055,726,159,100,408,1499.9,1500,1420.0,1500
36.70000000000005,727,159,100,391,1499.9,1500,1420.0,1500
36.75000000000005,728,158,99,330,1499.8,1500,1421.0,1500
36.80000000000005,729,159,99,368,1499.9,1500,1421.0,1500
36.850000000000044,730,159,100,391,1499.9,1500,1420.0,1500
36.90000000000004,731,159,100,391,1499.9,1500,1420.0,1500
36.95000000000004,732,159,100,391,1499.9,1500,1420.0,1500
37.000000000000036,733,159,100,408,1499.9,1500,1420.0,1500
37.05000000000003,734,159,100,391,1499.9,1500,1420.0,1500
37.10000000000003,735,159,100,408,1499.9,1500,1420.0,1500
37.15000000000003,736,160,100,368,1500.0,1500,1420.0,1500
37.200000000000024,737,159,99,352,1499.9,1500,1421.0,1500
37.25000000000002,738,160,99,368,1500.0,1500,1421.0,1500
37.30000000000002,739,160,99,368,1500.0,1500,1421.0,1500
37.350000000000016,740,160,100,391,1500.0,1500,1420.0,1500
37.40000000000001,741,159,100,408,1499.9,1500,1420.0,1500
37.45000000000001,742,159,100,408,1499.9,1500,1420.0,1500
37.50000000000001,743,160,100,400,1500.0,1500,1420.0,1500
37.550000000000004,744,159,99,384,1499.9,1500,1421.0,1500
37.6,745,159,100,408,1499.9,1500,1420.0,1500
37.65,746,159,100,374,1499.9,1500,1420.0,1500
37.699999999999996,747,160,100,391,1500.0,1500,1420.0,1500
37.74999999999999,748,160,99,368,1500.0,1500,1421.0,1500
37.79999999999999,749,160,100,391,1500.0,1500,1420.0,1500
37.84999999999999,750,159,99,384,1499.9,1500,1421.0,1500
37.899999999999984,751,159,99,384,1499.9,1500,1421.0,1500
37.94999999999998,752,160,100,391,1500.0,1500,1420.0,1500
37.99999999999998,753,159,100,408,1499.9,1500,1420.0,1500
38.049999999999976,754,159,100,408,1499.9,1500,1420.0,1500
38.09999999999997,755,159,100,391,1499.9,1500,1420.0,1500
38.14999999999997,756,159,100,408,1499.9,1500,1420.0,1500
38.19999999999997,757,159,100,391,1499.9,1500,1420.0,1500
38.249999999999964,758,159,100,391,1499.9,1500,1420.0,1500
38.29999999999996,759,159,99,384,1499.9,1500,1421.0,1500
38.34999999999996,760,158,100,374,1499.8,1500,1420.0,1500
38.399999999999956,761,159,100,391,1499.9,1500,1420.0,1500
38.44999999999995,762,159,99,368,1499.9,1500,1421.0,1500
38.49999999999995,763,159,100,345,1499.9,1500,1420.0,1500
38.54999999999995,764,159,99,368,1499.9,1500,1421.0,1500
38.599999999999945,765,159,99,368,1499.9,1500,1421.0,1500
38.64999999999994,766,159,100,391,1499.9,1500,1420.0,1500
38.69999999999994,767,159,100,391,1499.9,1500,1420.0,1500
38.749999999999936,768,159,100,368,1499.9,1500,1420.0,1500
38.79999999999993,769,159,100,368,1499.9,1500,1420.0,1500
38.84999999999993,770,159,100,368,1499.9,1500,1420.0,1500
38.89999999999993,771,158,100,352,1499.8,1500,1420.0,1500
38.949999999999925,772,159,100,400,1499.9,1500,1420.0,1500
38.99999999999992,773,159,100,368,1499.9,1500,1420.0,1500
39.04999999999992,774,159,100,368,1499.9,1500,1420.0,1500
39.099999999999916,775,159,100,368,1499.9,1500,1420.0,1500
39.14999999999991,776,159,100,368,1499.9,1500,1420.0,1500
39.19999999999991,777,159,100,368,1499.9,1500,1420.0,1500
39.24999999999991,778,158,100,408,1499.8,1500,1420.0,1500
39.299999999999905,779,159,100,391,1499.9,1500,1420.0,1500
39.3499999999999,780,159,100,368,1499.9,1500,1420.0,1500
39.3999999999999,781,159,100,391,1499.9,1500,1420.0,1500
39.449999999999896,782,159,100,391,1499.9,1500,1420.0,1500
39.49999999999989,783,159,100,391,1499.9,1500,1420.0,1500
39.54999999999989,784,159,100,408,1499.9,1500,1420.0,1500
39.59999999999989,785,159,100,391,1499.9,1500,1420.0,1500
39.649999999999885,786,159,100,391,1499.9,1500,1420.0,1500
39.69999999999988,787,158,100,352,1499.8,1500,1420.0,1500
39.74999999999988,788,159,100,391,1499.9,1500,1420.0,1500
39.799999999999876,789,159,100,408,1499.9,1500,1420.0,1500
39.84999999999987,790,159,100,368,1499.9,1500,1420.0,1500
39.89999999999987,791,158,100,374,1499.8,1500,1420.0,1500
39.94999999999987,792,158,100,408,1499.8,1500,1420.0,1500
39.999999999999865,793,159,100,425,1499.9,1500,1420.0,1500
40.04999999999986,794,158,100,408,1499.8,1500,1420.0,1500
40.09999999999986,795,158,100,391,1499.8,1500,1420.0,1500
40.14999999999986,796,158,100,408,1499.8,1500,1420.0,1500
40.199999999999854,797,158,100,408,1499.8,1500,1420.0,1500
40.24999999999985,798,158,99,368,1499.8,1500,1421.0,1500
40.29999999999985,799,157,100,391,1499.7,1500,1420.0,1500
40.349999999999845,800,157,100,408,1499.7,1500,1420.0,1500
40.39999999999984,801,157,100,368,1499.7,1500,1420.0,1500
40.44999999999984,802,157,100,368,1499.7,1500,1420.0,1500
40.49999999999984,803,156,101,374,1499.6,1500,1419.0,1500
40.549999999999834,804,156,101,368,1499.6,1500,1419.0,1500
40.59999999999983,805,156,101,368,1499.6,1500,1419.0,1500
40.64999999999983,806,156,101,368,1499.6,1500,1419.0,1500
40.699999999999825,807,155,100,384,1499.5,1500,1420.0,1500
40.74999999999982,808,155,100,368,1499.5,1500,1420.0,1500
40.79999999999982,809,155,100,368,1499.5,1500,1420.0,1500
40.84999999999982,810,154,100,352,1499.4,1500,1420.0,1500
40.899999999999814,811,155,101,391,1499.5,1500,1419.0,1500
40.94999999999981,812,155,100,384,1499.5,1500,1420.0,1500
40.99999999999981,813,156,100,368,1499.6,1500,1420.0,1500
41.049999999999805,814,156,101,391,1499.6,1500,1419.0,1500
41.0999999999998,815,155,100,352,1499.5,1500,1420.0,1500
41.1499999999998,816,155,100,368,1499.5,1500,1420.0,1500
41.1999999999998,817,155,101,368,1499.5,1500,1419.0,1500
41.249999999999794,818,155,101,368,1499.5,1500,1419.0,1500
41.29999999999979,819,155,101,368,1499.5,1500,1419.0,1500
41.34999999999979,820,155,102,391,1499.5,1500,1418.0,1500
41.399999999999785,821,154,101,368,1499.4,1500,1419.0,1500
41.44999999999978,822,154,101,352,1499.4,1500,1419.0,1500
41.49999999999978,823,154,102,374,1499.4,1500,1418.0,1500
41.54999999999978,824,155,102,368,1499.5,1500,1418.0,1500
41.599999999999774,825,155,102,368,1499.5,1500,1418.0,1500
41.64999999999977,826,155,102,368,1499.5,1500,1418.0,1500
41.69999999999977,827,155,102,352,1499.5,1500,1418.0,1500
41.749999999999766,828,155,102,352,1499.5,1500,1418.0,1500
41.79999999999976,829,156,103,368,1499.6,1500,1417.0,1500
41.84999999999976,830,156,105,242,1499.6,1500,1415.0,1500
41.89999999999976,831,157,102,352,1499.7,1500,1418.0,1500
41.949999999999754,832,158,102,368,1499.8,1500,1418.0,1500
41.99999999999975,833,157,102,285,1499.7,1500,1418.0,1500
42.04999999999975,834,158,102,315,1499.8,1500,1418.0,1500
42.099999999999746,835,158,102,285,1499.8,1500,1418.0,1500
42.14999999999974,836,158,102,300,1499.8,1500,1418.0,1500
42.19999999999974,837,160,102,315,1500.0,1500,1418.0,1500
42.24999999999974,838,159,102,280,1499.9,1500,1418.0,1500
42.299999999999734,839,159,102,280,1499.9,1500,1418.0,1500
42.34999999999973,840,160,102,266,1500.0,1500,1418.0,1500
42.39999999999973,841,160,102,280,1500.0,1500,1418.0,1500
42.449999999999726,842,162,102,260,1500.2,1500,1418.0,1500
42.49999999999972,843,163,102,247,1500.3,1500,1418.0,1500
42.54999999999972,844,164,101,252,1500.4,1500,1419.0,1500
42.59999999999972,845,164,101,234,1500.4,1500,1419.0,1500
42.649999999999714,846,165,100,216,1500.5,1500,1420.0,1500
42.69999999999971,847,165,100,216,1500.5,1500,1420.0,1500
42.74999999999971,848,165,99,204,1500.5,1500,1421.0,1500
42.799999999999706,849,164,99,216,1500.4,1500,1421.0,1500
42.8499999999997,850,164,99,216,1500.4,1500,1421.0,1500
42.8999999999997,851,164,99,187,1500.4,1500,1421.0,1500
42.9499999999997,852,162,99,180,1500.2,1500,1421.0,1500
42.999999999999694,853,162,99,216,1500.2,1500,1421.0,1500
43.04999999999969,854,162,99,204,1500.2,1500,1421.0,1500
43.09999999999969,855,162,99,204,1500.2,1500,1421.0,1500
43.149999999999686,856,161,100,176,1500.1,1500,1420.0,1500
43.19999999999968,857,161,100,216,1500.1,1500,1420.0,1500
43.24999999999968,858,160,101,176,1500.0,1500,1419.0,1500
43.29999999999968,859,160,101,176,1500.0,1500,1419.0,1500
43.349999999999675,860,161,101,176,1500.1,1500,1419.0,1500
43.39999999999967,861,159,101,176,1499.9,1500,1419.0,1500
43.44999999999967,862,159,101,204,1499.9,1500,1419.0,1500
43.499999999999666,863,158,101,176,1499.8,1500,1419.0,1500
43.54999999999966,864,158,102,160,1499.8,1500,1418.0,1500
43.59999999999966,865,158,101,180,1499.8,1500,1419.0,1500
43.64999999999966,866,158,102,180,1499.8,1500,1418.0,1500
43.699999999999655,867,158,102,176,1499.8,1500,1418.0,1500
43.74999999999965,868,158,101,192,1499.8,1500,1419.0,1500
43.79999999999965,869,159,101,204,1499.9,1500,1419.0,1500
43.849999999999646,870,158,101,187,1499.8,1500,1419.0,1500
43.89999999999964,871,157,101,208,1499.7,1500,1419.0,1500
43.94999999999964,872,157,101,192,1499.7,1500,1419.0,1500
43.99999999999964,873,157,103,128,1499.7,1500,1417.0,1500
44.049999999999635,874,158,101,180,1499.8,1500,1419.0,1500
44.09999999999963,875,157,101,192,1499.7,1500,1419.0,1500
44.14999999999963,876,158,102,165,1499.8,1500,1418.0,1500
44.199999999999626,877,159,102,221,1499.9,1500,1418.0,1500
44.24999999999962,878,160,102,187,1500.0,1500,1418.0,1500
44.29999999999962,879,160,102,204,1500.0,1500,1418.0,1500
44.34999999999962,880,159,102,165,1499.9,1500,1418.0,1500
44.399999999999615,881,158,102,176,1499.8,1500,1418.0,1500
44.44999999999961,882,159,102,187,1499.9,1500,1418.0,1500
44.49999999999961,883,159,102,187,1499.9,1500,1418.0,1500
44.549999999999606,884,158,102,176,1499.8,1500,1418.0,1500
44.5999999999996,885,159,102,204,1499.9,1500,1418.0,1500
44.6499999999996,886,159,102,187,1499.9,1500,1418.0,1500
44.6999999999996,887,159,102,221,1499.9,1500,1418.0,1500
44.749999999999595,888,159,102,198,1499.9,1500,1418.0,1500
44.79999999999959,889,158,101,180,1499.8,1500,1419.0,1500
44.84999999999959,890,159,102,204,1499.9,1500,1418.0,1500
44.89999999999959,891,159,103,187,1499.9,1500,1417.0,1500
44.949999999999584,892,158,101,192,1499.8,1500,1419.0,1500
44.99999999999958,893,159,101,204,1499.9,1500,1419.0,1500
45.04999999999958,894,159,101,204,1499.9,1500,1419.0,1500
45.099999999999575,895,158,101,192,1499.8,1500,1419.0,1500
45.14999999999957,896,158,101,192,1499.8,1500,1419.0,1500
45.19999999999957,897,158,101,192,1499.8,1500,1419.0,1500
45.24999999999957,898,158,101,180,1499.8,1500,1419.0,1500
45.299999999999564,899,158,101,192,1499.8,1500,1419.0,1500
45.34999999999956,900,158,102,180,1499.8,1500,1418.0,1500
45.39999999999956,901,158,101,192,1499.8,1500,1419.0,1500
45.449999999999555,902,159,101,204,1499.9,1500,1419.0,1500
45.49999999999955,903,158,102,192,1499.8,1500,1418.0,1500
45.54999999999955,904,158,101,192,1499.8,1500,1419.0,1500
45.59999999999955,905,158,101,192,1499.8,1500,1419.0,1500
45.649999999999544,906,160,99,75,1500.0,1500,1421.0,1500
45.69999999999954,907,158,101,192,1499.8,1500,1419.0,1500
45.74999999999954,908,159,99,84,1499.9,1500,1421.0,1500
45.799999999999535,909,158,102,160,1499.8,1500,1418.0,1500
45.84999999999953,910,158,101,192,1499.8,1500,1419.0,1500
45.89999999999953,911,160,101,204,1500.0,1500,1419.0,1500
45.94999999999953,912,159,102,187,1499.9,1500,1418.0,1500
45.999999999999524,913,159,102,165,1499.9,1500,1418.0,1500
46.04999999999952,914,159,101,192,1499.9,1500,1419.0,1500
46.09999999999952,915,159,103,120,1499.9,1500,1417.0,1500
46.149999999999515,916,159,101,192,1499.9,1500,1419.0,1500
46.19999999999951,917,159,101,192,1499.9,1500,1419.0,1500
46.24999999999951,918,159,101,192,1499.9,1500,1419.0,1500
46.29999999999951,919,159,101,192,1499.9,1500,1419.0,1500
46.349999999999504,920,159,101,192,1499.9,1500,1419.0,1500
46.3999999999995,921,159,102,90,1499.9,1500,1418.0,1500
46.4499999999995,922,160,101,204,1500.0,1500,1419.0,1500
46.499999999999496,923,160,99,98,1500.0,1500,1421.0,1500
46.54999999999949,924,159,101,192,1499.9,1500,1419.0,1500
46.59999999999949,925,160,102,204,1500.0,1500,1418.0,1500
46.64999999999949,926,160,102,187,1500.0,1500,1418.0,1500
46.699999999999484,927,159,105,96,1499.9,1500,1415.0,1500
46.74999999999948,928,159,102,176,1499.9,1500,1418.0,1500
46.79999999999948,929,159,103,170,1499.9,1500,1417.0,1500
46.849999999999476,930,158,102,192,1499.8,1500,1418.0,1500
46.89999999999947,931,158,105,105,1499.8,1500,1415.0,1500
46.94999999999947,932,158,102,192,1499.8,1500,1418.0,1500
46.99999999999947,933,158,102,192,1499.8,1500,1418.0,1500
47.049999999999464,934,158,102,176,1499.8,1500,1418.0,1500
47.09999999999946,935,159,102,204,1499.9,1500,1418.0,1500
47.14999999999946,936,158,102,192,1499.8,1500,1418.0,1500
47.199999999999456,937,158,104,135,1499.8,1500,1416.0,1500
47.24999999999945,938,159,102,204,1499.9,1500,1418.0,1500
47.29999999999945,939,159,102,204,1499.9,1500,1418.0,1500
47.34999999999945,940,158,102,192,1499.8,1500,1418.0,1500
47.399999999999444,941,158,102,192,1499.8,1500,1418.0,1500
47.44999999999944,942,158,102,192,1499.8,1500,1418.0,1500
47.49999999999944,943,158,105,96,1499.8,1500,1415.0,1500
47.549999999999436,944,158,104,128,1499.8,1500,1416.0,1500
47.59999999999943,945,159,100,120,1499.9,1500,1420.0,1500
47.64999999999943,946,158,102,176,1499.8,1500,1418.0,1500
47.69999999999943,947,158,102,192,1499.8,1500,1418.0,1500
47.749999999999424,948,159,102,180,1499.9,1500,1418.0,1500
47.79999999999942,949,159,102,204,1499.9,1500,1418.0,1500
47.84999999999942,950,159,102,204,1499.9,1500,1418.0,1500
47.899999999999416,951,159,102,204,1499.9,1500,1418.0,1500
47.94999999999941,952,159,103,195,1499.9,1500,1417.0,1500
47.99999999999941,953,158,102,192,1499.8,1500,1418.0,1500
48.04999999999941,954,159,102,216,1499.9,1500,1418.0,1500
48.099999999999405,955,158,103,176,1499.8,1500,1417.0,1500
48.1499999999994,956,158,102,192,1499.8,1500,1418.0,1500
48.1999999999994,957,158,103,160,1499.8,1500,1417.0,1500
48.249999999999396,958,159,102,204,1499.9,1500,1418.0,1500
48.29999999999939,959,158,102,192,1499.8,1500,1418.0,1500
48.34999999999939,960,158,101,140,1499.8,1500,1419.0,1500
48.39999999999939,961,158,102,192,1499.8,1500,1418.0,1500
48.449999999999385,962,158,102,160,1499.8,1500,1418.0,1500
48.49999999999938,963,158,104,120,1499.8,1500,1416.0,1500
48.54999999999938,964,158,104,144,1499.8,1500,1416.0,1500
48.599999999999376,965,159,104,153,1499.9,1500,1416.0,1500
48.64999999999937,966,159,105,90,1499.9,1500,1415.0,1500
48.69999999999937,967,158,102,192,1499.8,1500,1418.0,1500
48.74999999999937,968,159,102,204,1499.9,1500,1418.0,1500
48.799999999999365,969,158,104,128,1499.8,1500,1416.0,1500
48.84999999999936,970,158,102,192,1499.8,1500,1418.0,1500
48.89999999999936,971,158,102,192,1499.8,1500,1418.0,1500
48.949999999999356,972,158,102,176,1499.8,1500,1418.0,1500
48.99999999999935,973,158,102,192,1499.8,1500,1418.0,1500
49.04999999999935,974,158,102,192,1499.8,1500,1418.0,1500
49.09999999999935,975,158,102,192,1499.8,1500,1418.0,1500
49.149999999999345,976,159,102,216,1499.9,1500,1418.0,1500
49.19999999999934,977,159,102,180,1499.9,1500,1418.0,1500
49.24999999999934,978,159,102,192,1499.9,1500,1418.0,1500
49.299999999999336,979,160,101,160,1500.0,1500,1419.0,1500
49.34999999999933,980,159,102,204,1499.9,1500,1418.0,1500
49.39999999999933,981,159,102,192,1499.9,1500,1418.0,1500
49.44999999999933,982,159,102,216,1499.9,1500,1418.0,1500
49.499999999999325,983,159,102,216,1499.9,1500,1418.0,1500
49.54999999999932,984,159,104,162,1499.9,1500,1416.0,1500
49.59999999999932,985,159,102,204,1499.9,1500,1418.0,1500
49.64999999999932,986,158,102,160,1499.8,1500,1418.0,1500
49.699999999999314,987,158,102,192,1499.8,1500,1418.0,1500
49.74999999999931,988,158,103,176,1499.8,1500,1417.0,1500
49.79999999999931,989,158,102,192,1499.8,1500,1418.0,1500
49.849999999999305,990,159,102,216,1499.9,1500,1418.0,1500
49.8999999999993,991,159,100,120,1499.9,1500,1420.0,1500
49.9499999999993,992,158,102,192,1499.8,1500,1418.0,1500
49.9999999999993,993,157,101,117,1499.7,1500,1419.0,1500
50.049999999999294,994,157,105,96,1499.7,1500,1415.0,1500
50.09999999999929,995,157,107,42,1499.7,1500,1413.0,1500
50.14999999999929,996,158,102,216,1499.8,1500,1418.0,1500
50.199999999999285,997,157,102,192,1499.7,1500,1418.0,1500
50.24999999999928,998,157,102,192,1499.7,1500,1418.0,1500
50.29999999999928,999,157,103,160,1499.7,1500,1417.0,1500
50.34999999999928,1000,157,102,192,1499.7,1500,1418.0,1500
50.399999999999274,1001,158,102,216,1499.8,1500,1418.0,1500
50.44999999999927,1002,158,103,187,1499.8,1500,1417.0,1500
50.49999999999927,1003,157,102,180,1499.7,1500,1418.0,1500
50.549999999999265,1004,157,102,192,1499.7,1500,1418.0,1500
50.59999999999926,1005,157,105,90,1499.7,1500,1415.0,1500
50.64999999999926,1006,157,105,105,1499.7,1500,1415.0,1500
50.69999999999926,1007,157,102,180,1499.7,1500,1418.0,1500
50.749999999999254,1008,157,102,192,1499.7,1500,1418.0,1500
50.79999999999925,1009,157,102,180,1499.7,1500,1418.0,1500
50.84999999999925,1010,157,102,192,1499.7,1500,1418.0,1500
50.899999999999245,1011,157,103,165,1499.7,1500,1417.0,1500
