time,frame,x,y,size_inv,roll,pitch,thrust,yaw
0,0,,,,1500.0,1500.0,1400.0,1500
0.05,1,160,80,0.022727272727272728,1500.0,1520,1440.0,1500
0.1,2,158,94,0.0030303030303030303,1499.8,1505.3030303030303,1412.0,1500
0.15000000000000002,3,153,96,0.002150537634408602,1499.3,1496.505376344086,1408.0,1500
0.2,4,141,102,0.0007704160246533128,1498.1,1482.704160246533,1396.0,1500
0.25,5,144,95,0.000434593654932638,1498.4,1480,1410.0,1500
0.3,6,146,90,0.0005467468562055768,1498.6,1480.4674685620557,1420.0,1500
0.35,7,149,99,0.000649772579597141,1498.9,1481.4977257959715,1402.0,1500
0.39999999999999997,8,151,92,0.00044603033006244426,1499.1,1480,1416.0,1500
0.44999999999999996,9,153,92,0.000434593654932638,1499.3,1480,1416.0,1500
0.49999999999999994,10,153,96,0.0005467468562055768,1499.3,1480.4674685620557,1408.0,1500
0.5499999999999999,11,154,92,0.0004098360655737705,1499.4,1480,1416.0,1500
0.6,12,154,92,0.000423728813559322,1499.4,1480,1416.0,1500
0.65,13,154,96,0.000505050505050505,1499.4,1480.050505050505,1408.0,1500
0.7000000000000001,14,154,92,0.0009970089730807576,1499.4,1484.9700897308076,1416.0,1500
0.7500000000000001,15,155,93,0.00045045045045045046,1499.5,1480,1414.0,1500
0.8000000000000002,16,155,94,0.0004385964912280702,1499.5,1480,1412.0,1500
0.8500000000000002,17,154,93,0.0004385964912280702,1499.4,1480,1414.0,1500
0.9000000000000002,18,155,95,0.0004203446826397646,1499.5,1480,1410.0,1500
0.9500000000000003,19,155,94,0.0004166666666666667,1499.5,1480,1412.0,1500
1.0000000000000002,20,155,95,0.0004385964912280702,1499.5,1480,1410.0,1500
1.0500000000000003,21,155,98,0.0005747126436781609,1499.5,1480.7471264367816,1404.0,1500
1.1000000000000003,22,156,96,0.0004580852038479157,1499.6,1480,1408.0,1500
1.1500000000000004,23,154,96,0.0010695187165775401,1499.4,1485.6951871657755,1408.0,1500
1.2000000000000004,24,154,99,0.0008503401360544217,1499.4,1483.503401360544,1402.0,1500
1.2500000000000004,25,155,98,0.0008417508417508417,1499.5,1483.4175084175083,1404.0,1500
1.3000000000000005,26,157,100,0.0006385696040868455,1499.7,1481.3856960408684,1400.0,1500
1.3500000000000005,27,157,107,0.001358695652173913,1499.7,1488.5869565217392,1386.0,1500
1.4000000000000006,28,156,99,0.0006666666666666666,1499.6,1481.6666666666667,1402.0,1500
1.4500000000000006,29,158,101,0.0014814814814814814,1499.8,1489.8148148148148,1398.0,1500
1.5000000000000007,30,173,95,0.008333333333333333,1501.3,1520,1410.0,1500
1.5500000000000007,31,138,94,0.037037037037037035,1497.8,1520,1412.0,1500
1.6000000000000008,32,166,98,0.041666666666666664,1500.6,1520,1404.0,1500
1.6500000000000008,32,,,,1500.0,1500.0,1400.0,1500
1.7000000000000008,32,,,,1500.0,1500.0,1400.0,1500
1.7500000000000009,32,,,,1500.0,1500.0,1400.0,1500
1.800000000000001,32,,,,1500.0,1500.0,1400.0,1500
1.850000000000001,32,,,,1500.0,1500.0,1400.0,1500
1.900000000000001,32,,,,1500.0,1500.0,1400.0,1500
1.950000000000001,33,166,93,0.010416666666666666,1500.6,1520,1414.0,1500
2.000000000000001,34,170,96,0.0017921146953405018,1501.0,1492.921146953405,1408.0,1500
2.0500000000000007,35,156,103,0.0006385696040868455,1499.6,1481.3856960408684,1394.0,1500
2.1000000000000005,36,157,98,0.00043591979075850045,1499.7,1480,1404.0,1500
2.1500000000000004,37,156,100,0.00045248868778280545,1499.6,1480,1400.0,1500
2.2,38,156,95,0.0003471017007983339,1499.6,1480,1410.0,1500
2.25,39,154,94,0.00032206119162640903,1499.4,1480,1412.0,1500
2.3,40,151,93,0.0003419972640218878,1499.1,1480,1414.0,1500
2.3499999999999996,41,151,94,0.00033422459893048126,1499.1,1480,1412.0,1500
2.3999999999999995,42,151,96,0.0003443526170798898,1499.1,1480,1408.0,1500
2.4499999999999993,43,153,94,0.0004464285714285714,1499.3,1480,1412.0,1500
2.499999999999999,44,154,100,0.0004761904761904762,1499.4,1480,1400.0,1500
2.549999999999999,45,156,97,0.0005136106831022085,1499.6,1480.136106831022,1406.0,1500
2.5999999999999988,46,158,107,0.004201680672268907,1499.8,1517.0168067226891,1386.0,1500
2.6499999999999986,47,178,86,0.01818181818181818,1501.8,1520,1428.0,1500
2.6999999999999984,48,177,88,0.047619047619047616,1501.7,1520,1424.0,1500
2.7499999999999982,49,179,97,0.020833333333333332,1501.9,1520,1406.0,1500
2.799999999999998,49,,,,1500.0,1500.0,1400.0,1500
2.849999999999998,49,,,,1500.0,1500.0,1400.0,1500
2.8999999999999977,49,,,,1500.0,1500.0,1400.0,1500
2.9499999999999975,49,,,,1500.0,1500.0,1400.0,1500
2.9999999999999973,49,,,,1500.0,1500.0,1400.0,1500
3.049999999999997,49,,,,1500.0,1500.0,1400.0,1500
3.099999999999997,49,,,,1500.0,1500.0,1400.0,1500
3.149999999999997,50,180,93,0.008928571428571428,1502.0,1520,1414.0,1500
3.1999999999999966,51,166,100,0.00196078431372549,1500.6,1494.6078431372548,1400.0,1500
3.2499999999999964,52,151,80,0.000496031746031746,1499.1,1480,1440.0,1500
3.2999999999999963,53,148,71,0.0004553734061930783,1498.8,1480,1450,1500
3.349999999999996,54,139,53,0.000407000407000407,1497.9,1480,1450,1500
3.399999999999996,55,130,38,0.000468384074941452,1497.0,1480,1450,1500
3.4499999999999957,56,121,21,0.00065359477124183,1496.1,1481.5359477124182,1450,1500
3.4999999999999956,57,114,24,0.008333333333333333,1495.4,1520,1450,1500
3.5499999999999954,58,100,2,0.027777777777777776,1494.0,1520,1450,1500
3.599999999999995,59,101,1,0.022222222222222223,1494.1,1520,1450,1500
3.649999999999995,60,93,1,0.027777777777777776,1493.3,1520,1450,1500
3.699999999999995,60,,,,1500.0,1500.0,1400.0,1500
3.7499999999999947,60,,,,1500.0,1500.0,1400.0,1500
3.7999999999999945,60,,,,1500.0,1500.0,1400.0,1500
3.8499999999999943,60,,,,1500.0,1500.0,1400.0,1500
3.899999999999994,60,,,,1500.0,1500.0,1400.0,1500
3.949999999999994,60,,,,1500.0,1500.0,1400.0,1500
3.999999999999994,60,,,,1500.0,1500.0,1400.0,1500
4.049999999999994,60,,,,1500.0,1500.0,1400.0,1500
4.099999999999993,60,,,,1500.0,1500.0,1400.0,1500
4.149999999999993,60,,,,1500.0,1500.0,1400.0,1500
4.199999999999993,60,,,,1500.0,1500.0,1400.0,1500
4.249999999999993,60,,,,1500.0,1500.0,1400.0,1500
4.299999999999993,60,,,,1500.0,1500.0,1400.0,1500
4.3499999999999925,60,,,,1500.0,1500.0,1400.0,1500
4.399999999999992,60,,,,1500.0,1500.0,1400.0,1500
4.449999999999992,60,,,,1500.0,1500.0,1400.0,1500
4.499999999999992,60,,,,1500.0,1500.0,1400.0,1500
4.549999999999992,60,,,,1500.0,1500.0,1400.0,1500
4.599999999999992,60,,,,1500.0,1500.0,1400.0,1500
4.6499999999999915,60,,,,1500.0,1500.0,1400.0,1500
4.699999999999991,60,,,,1500.0,1500.0,1400.0,1500
4.749999999999991,60,,,,1500.0,1500.0,1400.0,1500
4.799999999999991,60,,,,1500.0,1500.0,1400.0,1500
4.849999999999991,60,,,,1500.0,1500.0,1400.0,1500
4.899999999999991,60,,,,1500.0,1500.0,1400.0,1500
4.94999999999999,60,,,,1500.0,1500.0,1400.0,1500
4.99999999999999,60,,,,1500.0,1500.0,1400.0,1500
5.04999999999999,60,,,,1500.0,1500.0,1400.0,1500
5.09999999999999,60,,,,1500.0,1500.0,1400.0,1500
5.14999999999999,60,,,,1500.0,1500.0,1400.0,1500
5.1999999999999895,60,,,,1500.0,1500.0,1400.0,1500
5.249999999999989,60,,,,1500.0,1500.0,1400.0,1500
5.299999999999989,60,,,,1500.0,1500.0,1400.0,1500
5.349999999999989,60,,,,1500.0,1500.0,1400.0,1500
5.399999999999989,60,,,,1500.0,1500.0,1400.0,1500
