time,frame,x,y,size_inv,roll,pitch,thrust,yaw
6.794929504394531e-05,1,,,,1500.0,1500.0,1250.0,1500
0.021101951599121094,2,,,,1500.0,1500.0,1250.0,1500
0.041855812072753906,3,,,,1500.0,1500.0,1250.0,1500
0.06262779235839844,4,,,,1500.0,1500.0,1250.0,1500
0.0832359790802002,5,,,,1500.0,1500.0,1250.0,1500
0.10381388664245605,6,,,,1500.0,1500.0,1250.0,1500
0.12437796592712402,7,,,,1500.0,1500.0,1250.0,1500
0.14494991302490234,8,,,,1500.0,1500.0,1250.0,1500
0.16570782661437988,9,,,,1500.0,1500.0,1250.0,1500
0.18637299537658691,10,,,,1500.0,1500.0,1250.0,1500
0.20703792572021484,11,,,,1500.0,1500.0,1250.0,1500
0.2276918888092041,12,,,,1500.0,1500.0,1250.0,1500
0.24834680557250977,13,,,,1500.0,1500.0,1250.0,1500
0.26899099349975586,14,,,,1500.0,1500.0,1250.0,1500
0.2896409034729004,15,,,,1500.0,1500.0,1250.0,1500
0.31029295921325684,16,,,,1500.0,1500.0,1250.0,1500
0.33097290992736816,17,,,,1500.0,1500.0,1250.0,1500
0.351794958114624,18,,,,1500.0,1500.0,1250.0,1500
0.3724827766418457,19,,,,1500.0,1500.0,1250.0,1500
0.3931558132171631,20,,,,1500.0,1500.0,1250.0,1500
0.41381096839904785,21,,,,1500.0,1500.0,1250.0,1500
0.43445897102355957,22,,,,1500.0,1500.0,1250.0,1500
0.4551069736480713,23,,,,1500.0,1500.0,1250.0,1500
0.4757959842681885,24,,,,1500.0,1500.0,1250.0,1500
0.4964640140533447,25,,,,1500.0,1500.0,1250.0,1500
0.517117977142334,26,,,,1500.0,1500.0,1250.0,1500
0.5377929210662842,27,,,,1500.0,1500.0,1250.0,1500
0.5584437847137451,28,,,,1500.0,1500.0,1250.0,1500
0.5791099071502686,29,,,,1500.0,1500.0,1250.0,1500
0.5997629165649414,30,,,,1500.0,1500.0,1250.0,1500
0.6204178333282471,31,,,,1500.0,1500.0,1250.0,1500
0.6410889625549316,32,,,,1500.0,1500.0,1250.0,1500
0.6617598533630371,33,,,,1500.0,1500.0,1250.0,1500
0.6824119091033936,34,,,,1500.0,1500.0,1250.0,1500
0.7030599117279053,35,,,,1500.0,1500.0,1250.0,1500
0.7237119674682617,36,,,,1500.0,1500.0,1250.0,1500
0.7443668842315674,37,,,,1500.0,1500.0,1250.0,1500
0.7650108337402344,38,,,,1500.0,1500.0,1250.0,1500
0.7857317924499512,39,,,,1500.0,1500.0,1250.0,1500
0.8063809871673584,40,,,,1500.0,1500.0,1250.0,1500
0.8270289897918701,41,,,,1500.0,1500.0,1250.0,1500
0.8476758003234863,42,,,,1500.0,1500.0,1250.0,1500
0.8683228492736816,43,,,,1500.0,1500.0,1250.0,1500
0.8889639377593994,44,,,,1500.0,1500.0,1250.0,1500
0.9096078872680664,45,,,,1500.0,1500.0,1250.0,1500
0.9302549362182617,46,,,,1500.0,1500.0,1250.0,1500
0.9510378837585449,47,192,59,0.0625,1503.2,1520,1300,1500
0.9718818664550781,48,,,,1500.0,1500.0,1250.0,1500
0.992567777633667,49,,,,1500.0,1500.0,1250.0,1500
1.013213872909546,50,,,,1500.0,1500.0,1250.0,1500
1.033958911895752,51,194,60,0.04,1503.4,1520,1300,1500
1.0547049045562744,52,,,,1500.0,1500.0,1250.0,1500
1.0753748416900635,53,,,,1500.0,1500.0,1250.0,1500
1.0961158275604248,54,194,60,0.05,1503.4,1520,1300,1500
1.1168558597564697,55,,,,1500.0,1500.0,1250.0,1500
1.1376090049743652,56,196,61,0.04,1503.6,1520,1300,1500
1.158416986465454,57,196,61,0.05,1503.6,1520,1300,1500
1.1792128086090088,58,197,60,0.02857142857142857,1503.7,1520,1300,1500
1.2000229358673096,59,197,60,0.0625,1503.7,1520,1300,1500
1.2208328247070312,60,183,54,0.08333333333333333,1502.3,1520,1300,1500
1.2416489124298096,61,198,60,0.041666666666666664,1503.8,1520,1300,1500
1.2624588012695312,62,199,60,0.05,1503.9,1520,1300,1500
1.283188819885254,63,,,,1500.0,1500.0,1250.0,1500
1.303941011428833,64,200,61,0.03571428571428571,1504.0,1520,1300,1500
1.3247489929199219,65,187,61,0.08333333333333333,1502.7,1520,1300,1500
1.3455679416656494,66,187,61,0.05,1502.7,1520,1300,1500
1.3663737773895264,67,188,61,0.05,1502.8,1520,1300,1500
1.3871757984161377,68,186,61,0.025,1502.6,1520,1300,1500
1.4079928398132324,69,188,61,0.03571428571428571,1502.8,1520,1300,1500
1.4287989139556885,70,187,60,0.015151515151515152,1502.7,1520,1300,1500
1.4497418403625488,71,190,59,0.010101010101010102,1503.0,1520,1300,1500
1.4711859226226807,72,188,58,0.007142857142857143,1502.8,1520,1300,1500
1.4925968647003174,73,188,58,0.007142857142857143,1502.8,1520,1300,1500
1.5143308639526367,74,191,58,0.0058823529411764705,1503.1,1520,1300,1500
1.5357959270477295,75,191,58,0.005263157894736842,1503.1,1520,1300,1500
1.5572218894958496,76,191,59,0.004545454545454545,1503.1,1520,1300,1500
1.578629970550537,77,192,59,0.005681818181818182,1503.2,1520,1300,1500
1.6000339984893799,78,191,58,0.005263157894736842,1503.1,1520,1300,1500
1.6214368343353271,79,191,59,0.004784688995215311,1503.1,1520,1300,1500
1.6428678035736084,80,192,58,0.006060606060606061,1503.2,1520,1300,1500
1.6642868518829346,81,192,58,0.006666666666666667,1503.2,1520,1300,1500
1.6856968402862549,82,191,58,0.005263157894736842,1503.1,1520,1300,1500
1.707108974456787,83,191,59,0.004784688995215311,1503.1,1520,1300,1500
1.7285239696502686,84,192,58,0.006666666666666667,1503.2,1520,1300,1500
1.7499268054962158,85,191,58,0.005263157894736842,1503.1,1520,1300,1500
1.7713298797607422,86,191,59,0.004784688995215311,1503.1,1520,1300,1500
1.7927229404449463,87,190,58,0.005555555555555556,1503.0,1520,1300,1500
1.8141109943389893,88,190,58,0.005050505050505051,1503.0,1520,1300,1500
1.8354878425598145,89,192,59,0.005681818181818182,1503.2,1520,1300,1500
1.8568999767303467,90,190,58,0.005555555555555556,1503.0,1520,1300,1500
1.8782949447631836,91,190,58,0.005555555555555556,1503.0,1520,1300,1500
1.8996849060058594,92,190,58,0.005555555555555556,1503.0,1520,1300,1500
1.9210798740386963,93,190,58,0.005555555555555556,1503.0,1520,1300,1500
1.9424748420715332,94,191,59,0.004784688995215311,1503.1,1520,1300,1500
1.963899850845337,95,191,59,0.004545454545454545,1503.1,1520,1300,1500
1.9853179454803467,96,191,58,0.005263157894736842,1503.1,1520,1300,1500
2.0067529678344727,97,191,59,0.004784688995215311,1503.1,1520,1300,1500
2.028153896331787,98,192,58,0.006666666666666667,1503.2,1520,1300,1500
2.049553871154785,99,191,59,0.004545454545454545,1503.1,1520,1300,1500
2.070974826812744,100,192,58,0.006666666666666667,1503.2,1520,1300,1500
2.0923779010772705,101,191,58,0.005263157894736842,1503.1,1520,1300,1500
2.113776922225952,102,191,58,0.005263157894736842,1503.1,1520,1300,1500
2.135270833969116,103,192,58,0.006666666666666667,1503.2,1520,1300,1500
2.156796932220459,104,193,59,0.005681818181818182,1503.3,1520,1300,1500
2.1782000064849854,105,192,59,0.005681818181818182,1503.2,1520,1300,1500
2.199612855911255,106,191,59,0.004545454545454545,1503.1,1520,1300,1500
2.221017837524414,107,190,58,0.005555555555555556,1503.0,1520,1300,1500
2.242410898208618,108,190,59,0.005050505050505051,1503.0,1520,1300,1500
2.2638099193573,109,191,59,0.004545454545454545,1503.1,1520,1300,1500
2.2852678298950195,110,192,59,0.006060606060606061,1503.2,1520,1300,1500
2.3067448139190674,111,190,59,0.005050505050505051,1503.0,1520,1300,1500
2.3281478881835938,112,191,59,0.004784688995215311,1503.1,1520,1300,1500
2.349552869796753,113,190,58,0.005555555555555556,1503.0,1520,1300,1500
2.3709559440612793,114,190,58,0.005555555555555556,1503.0,1520,1300,1500
2.392366886138916,115,190,58,0.005555555555555556,1503.0,1520,1300,1500
2.4137887954711914,116,191,59,0.004784688995215311,1503.1,1520,1300,1500
2.4353017807006836,117,190,58,0.005555555555555556,1503.0,1520,1300,1500
2.45687198638916,118,190,58,0.005050505050505051,1503.0,1520,1300,1500
2.478271961212158,119,192,58,0.006666666666666667,1503.2,1520,1300,1500
2.4996678829193115,120,190,58,0.005555555555555556,1503.0,1520,1300,1500
2.521068811416626,121,191,59,0.004784688995215311,1503.1,1520,1300,1500
2.5425078868865967,122,190,58,0.005050505050505051,1503.0,1520,1300,1500
2.5639309883117676,123,191,59,0.004784688995215311,1503.1,1520,1300,1500
2.5853347778320312,124,190,58,0.005555555555555556,1503.0,1520,1300,1500
2.6067349910736084,125,190,58,0.005555555555555556,1503.0,1520,1300,1500
2.6281349658966064,126,191,59,0.004545454545454545,1503.1,1520,1300,1500
2.6495540142059326,127,191,59,0.004545454545454545,1503.1,1520,1300,1500
2.6709609031677246,128,190,58,0.005555555555555556,1503.0,1520,1300,1500
2.692370891571045,129,192,59,0.005681818181818182,1503.2,1520,1300,1500
2.714066982269287,130,190,59,0.005050505050505051,1503.0,1520,1300,1500
2.735485792160034,131,191,59,0.004784688995215311,1503.1,1520,1300,1500
2.7568888664245605,132,193,58,0.005555555555555556,1503.3,1520,1300,1500
2.778289794921875,133,192,58,0.006666666666666667,1503.2,1520,1300,1500
2.7996928691864014,134,191,59,0.004545454545454545,1503.1,1520,1300,1500
2.821098804473877,135,192,59,0.005681818181818182,1503.2,1520,1300,1500
2.8425137996673584,136,193,59,0.005681818181818182,1503.3,1520,1300,1500
2.8639237880706787,137,192,58,0.006666666666666667,1503.2,1520,1300,1500
2.885326862335205,138,190,58,0.005555555555555556,1503.0,1520,1300,1500
2.906721830368042,139,190,58,0.005555555555555556,1503.0,1520,1300,1500
2.9281039237976074,140,192,59,0.005681818181818182,1503.2,1520,1300,1500
2.949517011642456,141,190,58,0.005555555555555556,1503.0,1520,1300,1500
2.9709279537200928,142,191,59,0.004784688995215311,1503.1,1520,1300,1500
2.9923298358917236,143,191,59,0.004784688995215311,1503.1,1520,1300,1500
3.0137228965759277,144,192,59,0.005681818181818182,1503.2,1520,1300,1500
3.035205841064453,145,191,59,0.004784688995215311,1503.1,1520,1300,1500
3.0567338466644287,146,191,59,0.004784688995215311,1503.1,1520,1300,1500
3.0781519412994385,147,192,59,0.005681818181818182,1503.2,1520,1300,1500
3.0995609760284424,148,191,59,0.004784688995215311,1503.1,1520,1300,1500
3.120961904525757,149,190,58,0.005555555555555556,1503.0,1520,1300,1500
3.1423637866973877,150,191,59,0.004784688995215311,1503.1,1520,1300,1500
3.1637699604034424,151,191,59,0.004784688995215311,1503.1,1520,1300,1500
3.185215950012207,152,191,59,0.004784688995215311,1503.1,1520,1300,1500
3.2066938877105713,153,190,58,0.005555555555555556,1503.0,1520,1300,1500
3.22809100151062,154,190,58,0.005555555555555556,1503.0,1520,1300,1500
3.249478816986084,155,190,58,0.005555555555555556,1503.0,1520,1300,1500
3.270883798599243,156,191,59,0.004784688995215311,1503.1,1520,1300,1500
3.2922728061676025,157,191,59,0.004784688995215311,1503.1,1520,1300,1500
3.3136727809906006,158,190,58,0.005555555555555556,1503.0,1520,1300,1500
3.3351588249206543,159,190,58,0.005555555555555556,1503.0,1520,1300,1500
3.356682777404785,160,191,59,0.004545454545454545,1503.1,1520,1300,1500
3.3780930042266846,161,192,59,0.005681818181818182,1503.2,1520,1300,1500
3.39951491355896,162,190,58,0.005555555555555556,1503.0,1520,1300,1500
3.4209089279174805,163,190,58,0.005555555555555556,1503.0,1520,1300,1500
3.4423108100891113,164,190,58,0.005555555555555556,1503.0,1520,1300,1500
3.463747978210449,165,191,59,0.004784688995215311,1503.1,1520,1300,1500
3.4852027893066406,166,191,59,0.004784688995215311,1503.1,1520,1300,1500
3.5066750049591064,167,191,59,0.004784688995215311,1503.1,1520,1300,1500
3.528108835220337,168,191,59,0.004784688995215311,1503.1,1520,1300,1500
3.549517869949341,169,190,58,0.005555555555555556,1503.0,1520,1300,1500
3.5709338188171387,170,191,59,0.004784688995215311,1503.1,1520,1300,1500
3.5923449993133545,171,191,59,0.004784688995215311,1503.1,1520,1300,1500
3.613745927810669,172,191,59,0.004784688995215311,1503.1,1520,1300,1500
3.6352288722991943,173,192,59,0.005681818181818182,1503.2,1520,1300,1500
3.656770944595337,174,192,59,0.005681818181818182,1503.2,1520,1300,1500
3.6781809329986572,175,190,58,0.005555555555555556,1503.0,1520,1300,1500
3.699591875076294,176,191,59,0.004784688995215311,1503.1,1520,1300,1500
3.72101092338562,177,193,59,0.0053475935828877,1503.3,1520,1300,1500
3.7424068450927734,178,191,59,0.004784688995215311,1503.1,1520,1300,1500
3.763814926147461,179,191,59,0.004784688995215311,1503.1,1520,1300,1500
3.7852678298950195,180,190,58,0.005555555555555556,1503.0,1520,1300,1500
3.8067269325256348,181,191,59,0.004784688995215311,1503.1,1520,1300,1500
3.828125,182,190,58,0.005555555555555556,1503.0,1520,1300,1500
3.8495078086853027,183,190,58,0.005555555555555556,1503.0,1520,1300,1500
3.870907783508301,184,191,59,0.004784688995215311,1503.1,1520,1300,1500
3.892291784286499,185,192,58,0.006666666666666667,1503.2,1520,1300,1500
3.913986921310425,186,192,59,0.005681818181818182,1503.2,1520,1300,1500
3.935421943664551,187,191,59,0.004784688995215311,1503.1,1520,1300,1500
3.9568369388580322,188,192,58,0.006666666666666667,1503.2,1520,1300,1500
3.978257894515991,189,190,58,0.005555555555555556,1503.0,1520,1300,1500
3.9996819496154785,190,190,58,0.005555555555555556,1503.0,1520,1300,1500
4.021099805831909,191,191,59,0.004784688995215311,1503.1,1520,1300,1500
4.042524814605713,192,190,59,0.005050505050505051,1503.0,1520,1300,1500
4.063920974731445,193,191,59,0.004784688995215311,1503.1,1520,1300,1500
4.085328817367554,194,191,59,0.004784688995215311,1503.1,1520,1300,1500
4.106722831726074,195,192,59,0.005681818181818182,1503.2,1520,1300,1500
4.128125905990601,196,190,58,0.005555555555555556,1503.0,1520,1300,1500
4.149524927139282,197,191,58,0.005263157894736842,1503.1,1520,1300,1500
4.1709349155426025,198,191,59,0.004784688995215311,1503.1,1520,1300,1500
4.192330837249756,199,192,58,0.006666666666666667,1503.2,1520,1300,1500
4.213742971420288,200,190,58,0.005555555555555556,1503.0,1520,1300,1500
4.235232830047607,201,190,58,0.005555555555555556,1503.0,1520,1300,1500
4.256763935089111,202,190,58,0.005555555555555556,1503.0,1520,1300,1500
4.278183937072754,203,191,59,0.004784688995215311,1503.1,1520,1300,1500
4.299598932266235,204,190,58,0.005555555555555556,1503.0,1520,1300,1500
4.320986986160278,205,191,59,0.004545454545454545,1503.1,1520,1300,1500
4.342378854751587,206,191,59,0.004784688995215311,1503.1,1520,1300,1500
4.36377477645874,207,191,59,0.004784688995215311,1503.1,1520,1300,1500
4.385201930999756,208,190,58,0.005555555555555556,1503.0,1520,1300,1500
4.40665078163147,209,191,59,0.004784688995215311,1503.1,1520,1300,1500
4.42802882194519,210,191,59,0.004784688995215311,1503.1,1520,1300,1500
4.44943380355835,211,191,59,0.004784688995215311,1503.1,1520,1300,1500
4.470861911773682,212,191,59,0.004784688995215311,1503.1,1520,1300,1500
4.49225378036499,213,191,59,0.004784688995215311,1503.1,1520,1300,1500
4.513653993606567,214,190,58,0.005555555555555556,1503.0,1520,1300,1500
4.535177946090698,215,190,58,0.005555555555555556,1503.0,1520,1300,1500
4.556711912155151,216,192,59,0.005681818181818182,1503.2,1520,1300,1500
4.578122854232788,217,192,58,0.006666666666666667,1503.2,1520,1300,1500
4.599520921707153,218,191,59,0.004784688995215311,1503.1,1520,1300,1500
4.620926856994629,219,192,58,0.007142857142857143,1503.2,1520,1300,1500
4.6423728466033936,220,191,59,0.004784688995215311,1503.1,1520,1300,1500
4.663786888122559,221,191,58,0.0043859649122807015,1503.1,1518.859649122807,1300,1500
4.685280799865723,222,192,58,0.006666666666666667,1503.2,1520,1300,1500
4.706683874130249,223,191,59,0.004784688995215311,1503.1,1520,1300,1500
4.728089809417725,224,191,59,0.004784688995215311,1503.1,1520,1300,1500
4.749483823776245,225,192,58,0.006666666666666667,1503.2,1520,1300,1500
4.770888805389404,226,191,59,0.004545454545454545,1503.1,1520,1300,1500
4.792289972305298,227,192,58,0.006666666666666667,1503.2,1520,1300,1500
4.813689947128296,228,191,59,0.004784688995215311,1503.1,1520,1300,1500
4.835165977478027,229,192,59,0.005681818181818182,1503.2,1520,1300,1500
4.856683969497681,230,191,59,0.004784688995215311,1503.1,1520,1300,1500
4.878079891204834,231,190,58,0.005555555555555556,1503.0,1520,1300,1500
4.899451971054077,232,191,59,0.004545454545454545,1503.1,1520,1300,1500
4.920837879180908,233,192,59,0.005681818181818182,1503.2,1520,1300,1500
4.9422338008880615,234,192,58,0.00625,1503.2,1520,1300,1500
4.96363091468811,235,190,58,0.005555555555555556,1503.0,1520,1300,1500
4.9850709438323975,236,190,58,0.005555555555555556,1503.0,1520,1300,1500
5.006519794464111,237,191,58,0.005263157894736842,1503.1,1520,1300,1500
5.027912855148315,238,191,59,0.004545454545454545,1503.1,1520,1300,1500
5.049302816390991,239,190,58,0.005555555555555556,1503.0,1520,1300,1500
5.070695877075195,240,191,58,0.004166666666666667,1503.1,1516.6666666666667,1300,1500
5.09218692779541,241,190,58,0.005555555555555556,1503.0,1520,1300,1500
5.1214988231658936,242,190,58,0.005555555555555556,1503.0,1520,1300,1500
5.143086910247803,243,190,58,0.005555555555555556,1503.0,1520,1300,1500
5.1645848751068115,244,191,59,0.004784688995215311,1503.1,1520,1300,1500
5.186189889907837,245,191,58,0.005555555555555556,1503.1,1520,1300,1500
5.20771598815918,246,192,59,0.005681818181818182,1503.2,1520,1300,1500
5.229209899902344,247,193,58,0.006666666666666667,1503.3,1520,1300,1500
5.250690937042236,248,192,58,0.005681818181818182,1503.2,1520,1300,1500
5.272166967391968,249,191,58,0.005263157894736842,1503.1,1520,1300,1500
5.293656826019287,250,191,58,0.005263157894736842,1503.1,1520,1300,1500
5.315176963806152,251,192,58,0.00625,1503.2,1520,1300,1500
5.336695909500122,252,190,58,0.005555555555555556,1503.0,1520,1300,1500
5.358179807662964,253,191,58,0.005263157894736842,1503.1,1520,1300,1500
5.379685878753662,254,191,58,0.005847953216374269,1503.1,1520,1300,1500
5.401201009750366,255,192,58,0.004784688995215311,1503.2,1520,1300,1500
5.422661781311035,256,192,58,0.006944444444444444,1503.2,1520,1300,1500
5.444129943847656,257,191,58,0.005263157894736842,1503.1,1520,1300,1500
5.465636968612671,258,193,58,0.006666666666666667,1503.3,1520,1300,1500
5.487132787704468,259,191,58,0.005263157894736842,1503.1,1520,1300,1500
5.508770942687988,260,192,58,0.00625,1503.2,1520,1300,1500
5.530275821685791,261,191,59,0.006578947368421052,1503.1,1520,1300,1500
5.5517518520355225,262,191,58,0.005263157894736842,1503.1,1520,1300,1500
5.573208808898926,263,191,58,0.005263157894736842,1503.1,1520,1300,1500
5.594656944274902,264,192,58,0.00625,1503.2,1520,1300,1500
5.616215944290161,265,192,60,0.008928571428571428,1503.2,1520,1300,1500
5.637723922729492,266,193,57,0.009523809523809525,1503.3,1520,1300,1500
5.659197807312012,267,193,58,0.006666666666666667,1503.3,1520,1300,1500
5.6806559562683105,268,197,57,0.02040816326530612,1503.7,1520,1300,1500
5.702102899551392,269,191,58,0.005555555555555556,1503.1,1520,1300,1500
5.723567962646484,270,192,58,0.007142857142857143,1503.2,1520,1300,1500
5.745015859603882,271,192,60,0.01020408163265306,1503.2,1520,1300,1500
5.7665770053863525,272,192,58,0.007142857142857143,1503.2,1520,1300,1500
5.788039922714233,273,193,58,0.006666666666666667,1503.3,1520,1300,1500
5.809494972229004,274,193,59,0.007407407407407408,1503.3,1520,1300,1500
5.830935001373291,275,193,59,0.005681818181818182,1503.3,1520,1300,1500
5.852397918701172,276,193,58,0.005681818181818182,1503.3,1520,1300,1500
5.873888969421387,277,192,59,0.008928571428571428,1503.2,1520,1300,1500
5.895339012145996,278,193,58,0.00625,1503.3,1520,1300,1500
5.916764974594116,279,191,59,0.005847953216374269,1503.1,1520,1300,1500
5.938215970993042,280,192,58,0.014285714285714285,1503.2,1520,1300,1500
5.95969295501709,281,192,58,0.005291005291005291,1503.2,1520,1300,1500
5.9811530113220215,282,193,61,0.0125,1503.3,1520,1300,1500
6.002604007720947,283,195,59,0.022727272727272728,1503.5,1520,1300,1500
6.024065971374512,284,193,60,0.008928571428571428,1503.3,1520,1300,1500
6.04551100730896,285,192,60,0.008771929824561403,1503.2,1520,1300,1500
6.066971778869629,286,188,61,0.03333333333333333,1502.8,1520,1300,1500
6.088498830795288,287,192,58,0.00625,1503.2,1520,1300,1500
6.110158920288086,288,192,58,0.0058823529411764705,1503.2,1520,1300,1500
6.131659984588623,289,192,58,0.00625,1503.2,1520,1300,1500
6.153104782104492,290,192,56,0.011904761904761904,1503.2,1520,1300,1500
6.17458701133728,291,191,58,0.007575757575757576,1503.1,1520,1300,1500
6.196184873580933,292,191,58,0.008333333333333333,1503.1,1520,1300,1500
6.217655897140503,293,191,58,0.007142857142857143,1503.1,1520,1300,1500
6.239109992980957,294,191,58,0.006493506493506494,1503.1,1520,1300,1500
6.260579824447632,295,192,58,0.006993006993006993,1503.2,1520,1300,1500
6.282044887542725,296,192,58,0.007692307692307693,1503.2,1520,1300,1500
6.30349588394165,297,192,58,0.007142857142857143,1503.2,1520,1300,1500
6.324934959411621,298,192,59,0.009615384615384616,1503.2,1520,1300,1500
6.346534013748169,299,191,59,0.010416666666666666,1503.1,1520,1300,1500
6.36829686164856,300,191,58,0.007352941176470588,1503.1,1520,1300,1500
6.3897929191589355,301,192,57,0.007692307692307693,1503.2,1520,1300,1500
6.411263942718506,302,190,58,0.0078125,1503.0,1520,1300,1500
6.432708978652954,303,190,58,0.006944444444444444,1503.0,1520,1300,1500
6.454178810119629,304,190,57,0.005681818181818182,1503.0,1520,1300,1500
6.475694894790649,305,190,57,0.006060606060606061,1503.0,1520,1300,1500
6.497150897979736,306,192,57,0.006993006993006993,1503.2,1520,1300,1500
6.518621921539307,307,190,57,0.006666666666666667,1503.0,1520,1300,1500
6.540113925933838,308,189,58,0.008547008547008548,1502.9,1520,1300,1500
6.561577796936035,309,190,55,0.00641025641025641,1503.0,1520,1300,1500
6.583009958267212,310,190,56,0.008333333333333333,1503.0,1520,1300,1500
6.604439973831177,311,190,56,0.007575757575757576,1503.0,1520,1300,1500
6.625894784927368,312,189,56,0.007575757575757576,1502.9,1520,1300,1500
6.64736795425415,313,189,56,0.005952380952380952,1502.9,1520,1300,1500
6.66882586479187,314,189,56,0.005494505494505495,1502.9,1520,1300,1500
6.690285921096802,315,189,55,0.00510204081632653,1502.9,1520,1300,1500
6.711752891540527,316,189,56,0.006993006993006993,1502.9,1520,1300,1500
6.733198881149292,317,189,55,0.00510204081632653,1502.9,1520,1300,1500
6.754652976989746,318,190,54,0.006944444444444444,1503.0,1520,1300,1500
6.77625298500061,319,189,56,0.005494505494505495,1502.9,1520,1300,1500
6.797741889953613,320,189,55,0.005917159763313609,1502.9,1520,1300,1500
6.819217920303345,321,189,56,0.007692307692307693,1502.9,1520,1300,1500
6.84068489074707,322,190,55,0.005128205128205128,1503.0,1520,1300,1500
6.862147808074951,323,191,54,0.005917159763313609,1503.1,1520,1300,1500
6.883617877960205,324,191,55,0.007692307692307693,1503.1,1520,1300,1500
6.9051079750061035,325,191,54,0.005494505494505495,1503.1,1520,1300,1500
6.926634788513184,326,192,55,0.005494505494505495,1503.2,1520,1300,1500
6.9481189250946045,327,191,55,0.00641025641025641,1503.1,1520,1300,1500
6.969591856002808,328,192,54,0.008264462809917356,1503.2,1520,1300,1500
6.991048812866211,329,192,56,0.004807692307692308,1503.2,1520,1300,1500
7.012494802474976,330,192,55,0.00625,1503.2,1520,1300,1500
7.033939838409424,331,192,56,0.004901960784313725,1503.2,1520,1300,1500
7.055391788482666,332,193,57,0.004901960784313725,1503.3,1520,1300,1500
7.076847791671753,333,193,56,0.004901960784313725,1503.3,1520,1300,1500
7.098291873931885,334,192,56,0.005555555555555556,1503.2,1520,1300,1500
7.119743824005127,335,191,56,0.00641025641025641,1503.1,1520,1300,1500
7.141196966171265,336,191,56,0.005952380952380952,1503.1,1520,1300,1500
7.162657976150513,337,191,56,0.00641025641025641,1503.1,1520,1300,1500
7.184114933013916,338,191,56,0.005952380952380952,1503.1,1520,1300,1500
7.205558776855469,339,191,58,0.005917159763313609,1503.1,1520,1300,1500
7.22701096534729,340,192,58,0.0044444444444444444,1503.2,1519.4444444444443,1300,1500
7.248549938201904,341,192,59,0.00392156862745098,1503.2,1514.2156862745098,1300,1500
7.270100831985474,342,193,59,0.0034602076124567475,1503.3,1509.6020761245675,1300,1500
7.291656970977783,343,192,59,0.0034602076124567475,1503.2,1509.6020761245675,1300,1500
7.313186883926392,344,193,59,0.004524886877828055,1503.3,1520,1300,1500
7.334634780883789,345,192,58,0.003703703703703704,1503.2,1512.037037037037,1300,1500
7.356414794921875,346,194,59,0.004048582995951417,1503.4,1515.4858299595141,1300,1500
7.3780059814453125,347,193,59,0.0037593984962406013,1503.3,1512.593984962406,1300,1500
7.399562835693359,348,193,57,0.005128205128205128,1503.3,1520,1300,1500
7.4210288524627686,349,193,61,0.011363636363636364,1503.3,1520,1300,1500
7.4425048828125,350,192,58,0.00510204081632653,1503.2,1520,1300,1500
7.46398401260376,351,193,56,0.016666666666666666,1503.3,1520,1300,1500
7.485439777374268,352,192,60,0.041666666666666664,1503.2,1520,1300,1500
7.506908893585205,353,188,61,0.010416666666666666,1502.8,1520,1300,1500
7.528393983840942,354,191,56,0.025,1503.1,1520,1300,1500
7.550334930419922,355,191,53,0.041666666666666664,1503.1,1520,1300,1500
7.571967840194702,356,,,,1500.0,1500.0,1250.0,1500
7.5934898853302,357,,,,1500.0,1500.0,1250.0,1500
7.614945888519287,358,,,,1500.0,1500.0,1250.0,1500
7.636781930923462,359,,,,1500.0,1500.0,1250.0,1500
7.658230781555176,360,,,,1500.0,1500.0,1250.0,1500
7.67966890335083,361,,,,1500.0,1500.0,1250.0,1500
7.701095819473267,362,,,,1500.0,1500.0,1250.0,1500
7.722538948059082,363,,,,1500.0,1500.0,1250.0,1500
7.744043827056885,364,,,,1500.0,1500.0,1250.0,1500
7.7654709815979,365,,,,1500.0,1500.0,1250.0,1500
7.78689980506897,366,,,,1500.0,1500.0,1250.0,1500
7.808343887329102,367,,,,1500.0,1500.0,1250.0,1500
7.829795837402344,368,,,,1500.0,1500.0,1250.0,1500
7.851235866546631,369,,,,1500.0,1500.0,1250.0,1500
7.872686862945557,370,,,,1500.0,1500.0,1250.0,1500
7.8941779136657715,371,,,,1500.0,1500.0,1250.0,1500
7.915607929229736,372,,,,1500.0,1500.0,1250.0,1500
7.937029838562012,373,,,,1500.0,1500.0,1250.0,1500
7.958685874938965,374,192,49,0.03571428571428571,1503.2,1520,1300,1500
7.980453968048096,375,194,47,0.012987012987012988,1503.4,1520,1300,1500
8.00224494934082,376,192,48,0.03333333333333333,1503.2,1520,1300,1500
8.023957014083862,377,194,44,0.00909090909090909,1503.4,1520,1300,1500
8.04571795463562,378,195,45,0.003472222222222222,1503.5,1509.7222222222222,1300,1500
8.067452907562256,379,195,45,0.003246753246753247,1503.5,1507.4675324675325,1300,1500
8.089257955551147,380,195,44,0.003246753246753247,1503.5,1507.4675324675325,1300,1500
8.111057996749878,381,197,44,0.0026666666666666666,1503.7,1501.6666666666667,1300,1500
8.132966995239258,382,198,43,0.0024691358024691358,1503.8,1499.6913580246915,1300,1500
8.154834985733032,383,198,42,0.002403846153846154,1503.8,1499.0384615384614,1300,1500
8.17672085762024,384,198,42,0.002564102564102564,1503.8,1500.6410256410256,1300,1500
8.198527812957764,385,198,41,0.002564102564102564,1503.8,1500.6410256410256,1300,1500
8.220346927642822,386,200,40,0.0023148148148148147,1504.0,1498.148148148148,1300,1500
8.24214792251587,387,200,39,0.002232142857142857,1504.0,1497.3214285714287,1300,1500
8.26401686668396,388,199,39,0.0022624434389140274,1503.9,1497.6244343891403,1300,1500
8.285794973373413,389,199,38,0.002403846153846154,1503.9,1499.0384615384614,1300,1500
8.307578802108765,390,199,38,0.0022624434389140274,1503.9,1497.6244343891403,1300,1500
8.32935380935669,391,201,37,0.0021551724137931034,1504.1,1496.551724137931,1300,1500
8.351157903671265,392,200,37,0.002403846153846154,1504.0,1499.0384615384614,1300,1500
8.372958898544312,393,201,37,0.002178649237472767,1504.1,1496.7864923747277,1300,1500
8.39480996131897,394,200,36,0.002403846153846154,1504.0,1499.0384615384614,1300,1500
8.416688919067383,395,202,36,0.002717391304347826,1504.2,1502.1739130434783,1300,1500
8.438500881195068,396,201,36,0.002178649237472767,1504.1,1496.7864923747277,1300,1500
8.46035385131836,397,201,35,0.002840909090909091,1504.1,1503.409090909091,1300,1500
8.482152938842773,398,201,35,0.0021551724137931034,1504.1,1496.551724137931,1300,1500
8.504028797149658,399,202,34,0.00205761316872428,1504.2,1495.5761316872429,1300,1500
8.525863885879517,400,200,34,0.00196078431372549,1504.0,1494.6078431372548,1300,1500
8.54766297340393,401,200,34,0.002028397565922921,1504.0,1495.283975659229,1300,1500
8.569458961486816,402,199,33,0.001851851851851852,1503.9,1493.5185185185185,1300,1500
8.591264009475708,403,199,33,0.0018975332068311196,1503.9,1493.9753320683112,1300,1500
8.613058805465698,404,198,32,0.001697792869269949,1503.8,1491.9779286926994,1300,1500
8.634910821914673,405,197,32,0.001697792869269949,1503.7,1491.9779286926994,1300,1500
8.656897783279419,406,197,31,0.0016129032258064516,1503.7,1491.1290322580646,1300,1500
8.678704977035522,407,195,31,0.0016666666666666668,1503.5,1491.6666666666667,1300,1500
8.70051383972168,408,195,31,0.0015360983102918587,1503.5,1490.3609831029187,1300,1500
8.722328901290894,409,196,31,0.001763668430335097,1503.6,1492.6366843033509,1300,1500
8.744468927383423,410,194,31,0.0015873015873015873,1503.4,1490.873015873016,1300,1500
8.766490936279297,411,193,30,0.0015151515151515152,1503.3,1490.1515151515152,1300,1500
8.788302898406982,412,193,30,0.001466275659824047,1503.3,1489.6627565982405,1300,1500
8.810130834579468,413,193,30,0.0015151515151515152,1503.3,1490.1515151515152,1300,1500
8.831920862197876,414,192,30,0.001466275659824047,1503.2,1489.6627565982405,1300,1500
8.853707790374756,415,192,29,0.0014367816091954023,1503.2,1489.367816091954,1300,1500
8.875573873519897,416,191,30,0.0014492753623188406,1503.1,1489.4927536231885,1300,1500
8.89736795425415,417,191,30,0.0015527950310559005,1503.1,1490.527950310559,1300,1500
8.919160842895508,418,191,29,0.001610305958132045,1503.1,1491.1030595813204,1300,1500
8.940948963165283,419,190,28,0.0013020833333333333,1503.0,1488.0208333333333,1300,1500
8.96286678314209,420,188,28,0.001402524544179523,1502.8,1489.0252454417953,1300,1500
8.984672784805298,421,189,27,0.0012626262626262627,1502.9,1487.6262626262626,1300,1500
9.006639003753662,422,188,28,0.0012787723785166241,1502.8,1487.7877237851662,1300,1500
9.02845287322998,423,188,27,0.0012254901960784314,1502.8,1487.2549019607843,1300,1500
9.050216913223267,424,187,27,0.0012254901960784314,1502.7,1487.2549019607843,1300,1500
9.071964979171753,425,187,27,0.0012787723785166241,1502.7,1487.7877237851662,1300,1500
9.093761920928955,426,187,27,0.001176470588235294,1502.7,1486.764705882353,1300,1500
9.115640878677368,427,186,26,0.0012254901960784314,1502.6,1487.2549019607843,1300,1500
9.13749098777771,428,186,27,0.001358695652173913,1502.6,1488.5869565217392,1300,1500
9.159295797348022,429,186,27,0.00125,1502.6,1487.5,1300,1500
9.181307792663574,430,184,27,0.0014492753623188406,1502.4,1489.4927536231885,1300,1500
9.203444004058838,431,185,27,0.0014492753623188406,1502.5,1489.4927536231885,1300,1500
9.225319862365723,432,183,26,0.0013175230566534915,1502.3,1488.175230566535,1300,1500
9.24713397026062,433,181,27,0.0015873015873015873,1502.1,1490.873015873016,1300,1500
9.268951892852783,434,182,26,0.0013774104683195593,1502.2,1488.7741046831957,1300,1500
9.290774822235107,435,181,26,0.001443001443001443,1502.1,1489.4300144300144,1300,1500
9.312578916549683,436,181,26,0.001443001443001443,1502.1,1489.4300144300144,1300,1500
9.334431886672974,437,181,25,0.0013774104683195593,1502.1,1488.7741046831957,1300,1500
9.356445789337158,438,180,25,0.0014005602240896359,1502.0,1489.0056022408965,1300,1500
9.378264904022217,439,180,24,0.0013774104683195593,1502.0,1488.7741046831957,1300,1500
9.400054931640625,440,181,24,0.001466275659824047,1502.1,1489.6627565982405,1300,1500
9.421838998794556,441,181,24,0.0015360983102918587,1502.1,1490.3609831029187,1300,1500
9.443630933761597,442,178,23,0.0012787723785166241,1501.8,1487.7877237851662,1300,1500
9.465520858764648,443,178,22,0.0013774104683195593,1501.8,1488.7741046831957,1300,1500
9.487321853637695,444,177,22,0.001466275659824047,1501.7,1489.6627565982405,1300,1500
9.50912880897522,445,176,21,0.0014204545454545455,1501.6,1489.2045454545455,1300,1500
9.530954837799072,446,176,20,0.0014204545454545455,1501.6,1489.2045454545455,1300,1500
9.55275583267212,447,176,21,0.0015360983102918587,1501.6,1490.3609831029187,1300,1500
9.574644804000854,448,176,19,0.001336898395721925,1501.6,1488.3689839572191,1300,1500
9.596543788909912,449,176,18,0.0012626262626262627,1501.6,1487.6262626262626,1300,1500
9.618354797363281,450,177,18,0.0014204545454545455,1501.7,1489.2045454545455,1300,1500
9.640203952789307,451,175,17,0.001336898395721925,1501.5,1488.3689839572191,1300,1500
9.662023782730103,452,174,16,0.0012626262626262627,1501.4,1487.6262626262626,1300,1500
9.683815002441406,453,175,16,0.0015625,1501.5,1490.625,1300,1500
9.70563793182373,454,175,15,0.0013175230566534915,1501.5,1488.175230566535,1300,1500
9.727439880371094,455,174,15,0.001287001287001287,1501.4,1487.870012870013,1300,1500
9.749239921569824,456,173,14,0.001287001287001287,1501.3,1487.870012870013,1300,1500
9.771046876907349,457,174,14,0.0015037593984962407,1501.4,1490.0375939849623,1300,1500
9.793108940124512,458,174,13,0.0015873015873015873,1501.4,1490.873015873016,1300,1500
9.815001964569092,459,173,13,0.0014619883040935672,1501.3,1489.6198830409357,1300,1500
9.836898803710938,460,172,13,0.0015625,1501.2,1490.625,1300,1500
9.858680009841919,461,173,12,0.001589825119236884,1501.3,1490.898251192369,1300,1500
9.880484819412231,462,173,12,0.0016891891891891893,1501.3,1491.8918918918919,1300,1500
9.902298927307129,463,171,13,0.0016666666666666668,1501.1,1491.6666666666667,1300,1500
9.924139976501465,464,172,12,0.0017543859649122807,1501.2,1492.5438596491229,1300,1500
9.945924997329712,465,173,11,0.0016025641025641025,1501.3,1491.025641025641,1300,1500
9.967731952667236,466,173,11,0.0016666666666666668,1501.3,1491.6666666666667,1300,1500
9.989526987075806,467,172,11,0.0016611295681063123,1501.2,1491.6112956810632,1300,1500
10.011321783065796,468,172,11,0.0019230769230769232,1501.2,1494.2307692307693,1300,1500
10.0331130027771,469,172,11,0.0017482517482517483,1501.2,1492.4825174825176,1300,1500
10.054975986480713,470,172,10,0.0018315018315018315,1501.2,1493.3150183150183,1300,1500
10.076880931854248,471,171,10,0.0019230769230769232,1501.1,1494.2307692307693,1300,1500
10.098680973052979,472,170,10,0.0018315018315018315,1501.0,1493.3150183150183,1300,1500
10.120468854904175,473,171,9,0.002136752136752137,1501.1,1496.3675213675215,1300,1500
10.142254829406738,474,169,10,0.0021645021645021645,1500.9,1496.6450216450216,1300,1500
10.164113998413086,475,170,9,0.0020833333333333333,1501.0,1495.8333333333333,1300,1500
10.185874938964844,476,168,8,0.001937984496124031,1500.8,1494.3798449612402,1300,1500
10.207673788070679,477,169,9,0.0025,1500.9,1500.0,1300,1500
10.229422807693481,478,169,9,0.002777777777777778,1500.9,1502.7777777777778,1300,1500
10.25121283531189,479,168,8,0.002564102564102564,1500.8,1500.6410256410256,1300,1500
10.273015975952148,480,167,8,0.0025,1500.7,1500.0,1300,1500
10.294825792312622,481,167,8,0.0037593984962406013,1500.7,1512.593984962406,1300,1500
10.316706895828247,482,168,8,0.0026455026455026454,1500.8,1501.4550264550264,1300,1500
10.338512897491455,483,175,6,0.005376344086021506,1501.5,1520,1300,1500
10.360359907150269,484,165,8,0.0029239766081871343,1500.5,1504.2397660818713,1300,1500
10.382169008255005,485,167,7,0.003048780487804878,1500.7,1505.4878048780488,1300,1500
10.404024839401245,486,152,8,0.011904761904761904,1499.2,1520,1300,1500
10.425983905792236,487,178,6,0.006944444444444444,1501.8,1520,1300,1500
10.447735786437988,488,164,7,0.003205128205128205,1500.4,1507.051282051282,1300,1500
10.46957278251648,489,163,6,0.003105590062111801,1500.3,1506.055900621118,1300,1500
10.491364002227783,490,160,7,0.004761904761904762,1500.0,1520,1300,1500
10.513098001480103,491,167,7,0.0058823529411764705,1500.7,1520,1300,1500
10.534917831420898,492,169,5,0.009523809523809525,1500.9,1520,1300,1500
10.556855916976929,493,161,5,0.006211180124223602,1500.1,1520,1300,1500
10.57857084274292,494,161,6,0.0125,1500.1,1520,1300,1500
10.600127935409546,495,,,,1500.0,1500.0,1250.0,1500
10.621588945388794,496,,,,1500.0,1500.0,1250.0,1500
10.64321494102478,497,168,5,0.015151515151515152,1500.8,1520,1300,1500
10.6650710105896,498,172,5,0.015151515151515152,1501.2,1520,1300,1500
10.686844825744629,499,169,5,0.022222222222222223,1500.9,1520,1300,1500
10.708581924438477,500,146,6,0.025,1498.6,1520,1300,1500
10.730341911315918,501,169,5,0.018518518518518517,1500.9,1520,1300,1500
10.752110958099365,502,,,,1500.0,1500.0,1250.0,1500
10.773842811584473,503,168,4,0.025,1500.8,1520,1300,1500
10.795418977737427,504,,,,1500.0,1500.0,1250.0,1500
10.817079782485962,505,171,5,0.023809523809523808,1501.1,1520,1300,1500
10.838817834854126,506,172,5,0.03333333333333333,1501.2,1520,1300,1500
10.8605477809906,507,157,6,0.005291005291005291,1499.7,1520,1300,1500
10.882128953933716,508,160,6,0.0040650406504065045,1500.0,1515.6504065040651,1300,1500
10.903679847717285,509,159,6,0.00641025641025641,1499.9,1520,1300,1500
10.925200939178467,510,180,5,0.020833333333333332,1502.0,1520,1300,1500
10.947048902511597,511,162,6,0.0026595744680851063,1500.2,1501.595744680851,1300,1500
10.9686439037323,512,146,7,0.022222222222222223,1498.6,1520,1300,1500
10.990113973617554,513,160,6,0.030303030303030304,1500.0,1520,1300,1500
11.011554956436157,514,178,5,0.037037037037037035,1501.8,1520,1300,1500
11.03288197517395,515,,,,1500.0,1500.0,1250.0,1500
11.054134845733643,516,,,,1500.0,1500.0,1250.0,1500
11.075509786605835,517,157,5,0.030303030303030304,1499.7,1520,1300,1500
11.096867799758911,518,,,,1500.0,1500.0,1250.0,1500
11.118122816085815,519,,,,1500.0,1500.0,1250.0,1500
11.139352798461914,520,,,,1500.0,1500.0,1250.0,1500
11.160589933395386,521,,,,1500.0,1500.0,1250.0,1500
11.181825876235962,522,,,,1500.0,1500.0,1250.0,1500
11.203049898147583,523,,,,1500.0,1500.0,1250.0,1500
11.224277973175049,524,,,,1500.0,1500.0,1250.0,1500
11.24549388885498,525,,,,1500.0,1500.0,1250.0,1500
11.266732931137085,526,,,,1500.0,1500.0,1250.0,1500
11.287950992584229,527,,,,1500.0,1500.0,1250.0,1500
11.309167861938477,528,,,,1500.0,1500.0,1250.0,1500
11.330550909042358,529,166,5,0.015151515151515152,1500.6,1520,1300,1500
11.352041959762573,530,165,5,0.017543859649122806,1500.5,1520,1300,1500
11.373536825180054,531,165,4,0.013157894736842105,1500.5,1520,1300,1500
11.395015001296997,532,171,4,0.016666666666666666,1501.1,1520,1300,1500
11.416613817214966,533,173,4,0.014705882352941176,1501.3,1520,1300,1500
11.438102006912231,534,168,5,0.004901960784313725,1500.8,1520,1300,1500
11.45946192741394,535,,,,1500.0,1500.0,1250.0,1500
11.480848789215088,536,165,5,0.004761904761904762,1500.5,1520,1300,1500
11.502322912216187,537,166,5,0.003875968992248062,1500.6,1513.7596899224807,1300,1500
11.523897886276245,538,161,7,0.007692307692307693,1500.1,1520,1300,1500
11.545397996902466,539,165,6,0.00641025641025641,1500.5,1520,1300,1500
11.566900968551636,540,163,7,0.003105590062111801,1500.3,1506.055900621118,1300,1500
11.58846378326416,541,163,6,0.0026595744680851063,1500.3,1501.595744680851,1300,1500
11.609998941421509,542,163,7,0.00303951367781155,1500.3,1505.3951367781156,1300,1500
11.631532907485962,543,164,7,0.00303951367781155,1500.4,1505.3951367781156,1300,1500
11.653098821640015,544,163,6,0.0026041666666666665,1500.3,1501.0416666666667,1300,1500
11.674677848815918,545,168,7,0.004273504273504274,1500.8,1517.7350427350427,1300,1500
11.696394920349121,546,162,7,0.0029154518950437317,1500.2,1504.1545189504373,1300,1500
11.71794581413269,547,162,7,0.002857142857142857,1500.2,1503.5714285714287,1300,1500
11.739490985870361,548,164,6,0.0026595744680851063,1500.4,1501.595744680851,1300,1500
11.761051893234253,549,164,6,0.002717391304347826,1500.4,1502.1739130434783,1300,1500
11.782610893249512,550,165,6,0.002127659574468085,1500.5,1496.276595744681,1300,1500
11.80420184135437,551,165,7,0.002717391304347826,1500.5,1502.1739130434783,1300,1500
11.825945854187012,552,165,6,0.0024509803921568627,1500.5,1499.5098039215686,1300,1500
11.84755277633667,553,166,6,0.002127659574468085,1500.6,1496.276595744681,1300,1500
11.869102954864502,554,166,7,0.0023148148148148147,1500.6,1498.148148148148,1300,1500
11.890654802322388,555,166,7,0.002717391304347826,1500.6,1502.1739130434783,1300,1500
11.912190914154053,556,167,7,0.002364066193853428,1500.7,1498.6406619385343,1300,1500
11.933755874633789,557,167,7,0.002717391304347826,1500.7,1502.1739130434783,1300,1500
11.955314874649048,558,168,7,0.0022675736961451248,1500.8,1497.6757369614513,1300,1500
11.97687292098999,559,166,8,0.002857142857142857,1500.6,1503.5714285714287,1300,1500
11.998427867889404,560,168,7,0.0026041666666666665,1500.8,1501.0416666666667,1300,1500
12.01996397972107,561,169,7,0.0026595744680851063,1500.9,1501.595744680851,1300,1500
12.04150390625,562,169,7,0.0019342359767891683,1500.9,1494.3423597678916,1300,1500
12.063064813613892,563,169,8,0.0023148148148148147,1500.9,1498.148148148148,1300,1500
12.084619998931885,564,169,8,0.002364066193853428,1500.9,1498.6406619385343,1300,1500
12.106300830841064,565,168,7,0.002,1500.8,1495.0,1300,1500
12.128102779388428,566,171,8,0.002,1501.1,1495.0,1300,1500
12.14963698387146,567,171,8,0.0019342359767891683,1501.1,1494.3423597678916,1300,1500
12.171191930770874,568,171,8,0.001893939393939394,1501.1,1493.939393939394,1300,1500
12.192737817764282,569,171,8,0.0018867924528301887,1501.1,1493.867924528302,1300,1500
12.214309930801392,570,171,8,0.0020833333333333333,1501.1,1495.8333333333333,1300,1500
12.235862970352173,571,171,8,0.002173913043478261,1501.1,1496.7391304347825,1300,1500
12.25741195678711,572,172,8,0.001893939393939394,1501.2,1493.939393939394,1300,1500
12.27895998954773,573,172,9,0.0026595744680851063,1501.2,1501.595744680851,1300,1500
12.30049991607666,574,172,8,0.0020833333333333333,1501.2,1495.8333333333333,1300,1500
12.322038888931274,575,172,8,0.002127659574468085,1501.2,1496.276595744681,1300,1500
12.343585968017578,576,172,8,0.0020833333333333333,1501.2,1495.8333333333333,1300,1500
12.365182876586914,577,171,8,0.0018181818181818182,1501.1,1493.1818181818182,1300,1500
12.386791944503784,578,173,8,0.002127659574468085,1501.3,1496.276595744681,1300,1500
12.408324956893921,579,173,8,0.0019342359767891683,1501.3,1494.3423597678916,1300,1500
12.42988395690918,580,171,7,0.0016666666666666668,1501.1,1491.6666666666667,1300,1500
12.451459884643555,581,173,8,0.0017152658662092624,1501.3,1492.1526586620926,1300,1500
12.473059892654419,582,174,8,0.002,1501.4,1495.0,1300,1500
12.495146989822388,583,173,8,0.0019342359767891683,1501.3,1494.3423597678916,1300,1500
12.517269849777222,584,173,9,0.0024154589371980675,1501.3,1499.1545893719806,1300,1500
12.53937578201294,585,174,8,0.002127659574468085,1501.4,1496.276595744681,1300,1500
12.561410903930664,586,174,8,0.0018867924528301887,1501.4,1493.867924528302,1300,1500
12.583438873291016,587,174,8,0.002127659574468085,1501.4,1496.276595744681,1300,1500
12.605453968048096,588,175,7,0.0016666666666666668,1501.5,1491.6666666666667,1300,1500
12.627497911453247,589,172,8,0.002,1501.2,1495.0,1300,1500
12.649518013000488,590,175,8,0.002,1501.5,1495.0,1300,1500
12.671525001525879,591,175,8,0.0018181818181818182,1501.5,1493.1818181818182,1300,1500
12.69355583190918,592,175,8,0.0018181818181818182,1501.5,1493.1818181818182,1300,1500
12.715598821640015,593,174,8,0.0020833333333333333,1501.4,1495.8333333333333,1300,1500
12.73762583732605,594,173,8,0.002173913043478261,1501.3,1496.7391304347825,1300,1500
12.759675979614258,595,174,8,0.0019342359767891683,1501.4,1494.3423597678916,1300,1500
12.78171181678772,596,174,8,0.002,1501.4,1495.0,1300,1500
12.803684949874878,597,173,8,0.002127659574468085,1501.3,1496.276595744681,1300,1500
12.825682878494263,598,173,8,0.0019342359767891683,1501.3,1494.3423597678916,1300,1500
12.847715854644775,599,173,7,0.001519756838905775,1501.3,1490.1975683890578,1300,1500
12.869760990142822,600,173,9,0.0018181818181818182,1501.3,1493.1818181818182,1300,1500
12.891788959503174,601,173,8,0.0016666666666666668,1501.3,1491.6666666666667,1300,1500
12.913814783096313,602,174,9,0.0017825311942959,1501.4,1492.825311942959,1300,1500
12.935367822647095,603,173,8,0.0015384615384615385,1501.3,1490.3846153846155,1300,1500
12.956954956054688,604,171,8,0.0016666666666666668,1501.1,1491.6666666666667,1300,1500
12.978524923324585,605,171,8,0.0015384615384615385,1501.1,1490.3846153846155,1300,1500
13.00006890296936,606,173,9,0.0019342359767891683,1501.3,1494.3423597678916,1300,1500
13.021607875823975,607,173,9,0.001893939393939394,1501.3,1493.939393939394,1300,1500
13.043141841888428,608,172,8,0.0016339869281045752,1501.2,1491.3398692810458,1300,1500
13.064697980880737,609,173,8,0.0017730496453900709,1501.3,1492.7304964539007,1300,1500
13.086375951766968,610,172,9,0.0017825311942959,1501.2,1492.825311942959,1300,1500
13.107897996902466,611,173,9,0.0019342359767891683,1501.3,1494.3423597678916,1300,1500
13.129438877105713,612,171,8,0.0016666666666666668,1501.1,1491.6666666666667,1300,1500
13.150986909866333,613,174,8,0.0015384615384615385,1501.4,1490.3846153846155,1300,1500
13.172844886779785,614,174,8,0.0016666666666666668,1501.4,1491.6666666666667,1300,1500
13.194408893585205,615,174,8,0.0018181818181818182,1501.4,1493.1818181818182,1300,1500
13.215962886810303,616,174,7,0.0016666666666666668,1501.4,1491.6666666666667,1300,1500
13.237518787384033,617,173,8,0.002127659574468085,1501.3,1496.276595744681,1300,1500
13.259055852890015,618,173,9,0.001893939393939394,1501.3,1493.939393939394,1300,1500
13.280606985092163,619,173,8,0.001736111111111111,1501.3,1492.361111111111,1300,1500
13.302148818969727,620,173,8,0.0016366612111292963,1501.3,1491.3666121112929,1300,1500
13.32368779182434,621,172,8,0.001736111111111111,1501.2,1492.361111111111,1300,1500
13.345257997512817,622,173,8,0.0016666666666666668,1501.3,1491.6666666666667,1300,1500
13.366867780685425,623,171,8,0.0016666666666666668,1501.1,1491.6666666666667,1300,1500
13.38841700553894,624,174,8,0.0016666666666666668,1501.4,1491.6666666666667,1300,1500
13.40995192527771,625,173,8,0.001736111111111111,1501.3,1492.361111111111,1300,1500
13.431504964828491,626,174,8,0.0014285714285714286,1501.4,1489.2857142857142,1300,1500
13.453070878982544,627,174,9,0.0015384615384615385,1501.4,1490.3846153846155,1300,1500
13.474654912948608,628,174,9,0.0015384615384615385,1501.4,1490.3846153846155,1300,1500
13.496307849884033,629,174,9,0.0016666666666666668,1501.4,1491.6666666666667,1300,1500
13.517857789993286,630,174,9,0.0015384615384615385,1501.4,1490.3846153846155,1300,1500
13.539460897445679,631,173,8,0.0013477088948787063,1501.3,1488.477088948787,1300,1500
13.56102991104126,632,174,10,0.0018181818181818182,1501.4,1493.1818181818182,1300,1500
13.58258581161499,633,174,9,0.0014285714285714286,1501.4,1489.2857142857142,1300,1500
13.604136943817139,634,174,9,0.0014285714285714286,1501.4,1489.2857142857142,1300,1500
13.625677824020386,635,175,10,0.0015082956259426848,1501.5,1490.0829562594267,1300,1500
13.647259950637817,636,173,10,0.001451378809869376,1501.3,1489.5137880986938,1300,1500
13.668837785720825,637,174,9,0.0014285714285714286,1501.4,1489.2857142857142,1300,1500
13.690391778945923,638,174,9,0.0014285714285714286,1501.4,1489.2857142857142,1300,1500
13.711936950683594,639,175,9,0.0013605442176870747,1501.5,1488.6054421768708,1300,1500
13.73350191116333,640,174,8,0.0013297872340425532,1501.4,1488.2978723404256,1300,1500
13.755092859268188,641,175,9,0.0014285714285714286,1501.5,1489.2857142857142,1300,1500
13.776724815368652,642,174,9,0.0013477088948787063,1501.4,1488.477088948787,1300,1500
13.79827094078064,643,174,9,0.0012578616352201257,1501.4,1487.5786163522012,1300,1500
13.819801807403564,644,175,10,0.0015384615384615385,1501.5,1490.3846153846155,1300,1500
13.841361999511719,645,175,9,0.0014285714285714286,1501.5,1489.2857142857142,1300,1500
13.862918853759766,646,175,9,0.0014285714285714286,1501.5,1489.2857142857142,1300,1500
13.884454011917114,647,175,9,0.0013333333333333333,1501.5,1488.3333333333333,1300,1500
13.905990839004517,648,175,9,0.0014285714285714286,1501.5,1489.2857142857142,1300,1500
13.927531003952026,649,175,9,0.0014285714285714286,1501.5,1489.2857142857142,1300,1500
13.94911789894104,650,175,10,0.001388888888888889,1501.5,1488.888888888889,1300,1500
13.970722913742065,651,174,10,0.0014792899408284023,1501.4,1489.792899408284,1300,1500
13.992316007614136,652,176,10,0.0014005602240896359,1501.6,1489.0056022408965,1300,1500
14.013901948928833,653,174,10,0.00130718954248366,1501.4,1488.0718954248366,1300,1500
14.03544282913208,654,176,10,0.0013605442176870747,1501.6,1488.6054421768708,1300,1500
14.057007789611816,655,175,10,0.0014184397163120568,1501.5,1489.1843971631206,1300,1500
14.078563928604126,656,174,10,0.0013736263736263737,1501.4,1488.7362637362637,1300,1500
14.100107908248901,657,173,10,0.0013333333333333333,1501.3,1488.3333333333333,1300,1500
14.12165379524231,658,176,10,0.0013605442176870747,1501.6,1488.6054421768708,1300,1500
14.143200874328613,659,175,10,0.001519756838905775,1501.5,1490.1975683890578,1300,1500
14.165128946304321,660,175,10,0.0013333333333333333,1501.5,1488.3333333333333,1300,1500
14.187255859375,661,174,10,0.0012578616352201257,1501.4,1487.5786163522012,1300,1500
14.209109783172607,662,174,9,0.0011792452830188679,1501.4,1486.7924528301887,1300,1500
14.230910778045654,663,175,10,0.0013333333333333333,1501.5,1488.3333333333333,1300,1500
14.252713918685913,664,175,10,0.0014285714285714286,1501.5,1489.2857142857142,1300,1500
14.274572849273682,665,175,10,0.0014285714285714286,1501.5,1489.2857142857142,1300,1500
14.296534776687622,666,174,10,0.0012578616352201257,1501.4,1487.5786163522012,1300,1500
14.318334817886353,667,176,10,0.0014005602240896359,1501.6,1489.0056022408965,1300,1500
14.34013295173645,668,174,11,0.001451378809869376,1501.4,1489.5137880986938,1300,1500
14.36193299293518,669,174,10,0.0013477088948787063,1501.4,1488.477088948787,1300,1500
14.383736848831177,670,174,10,0.0012578616352201257,1501.4,1487.5786163522012,1300,1500
14.405597925186157,671,175,10,0.0013333333333333333,1501.5,1488.3333333333333,1300,1500
14.42741084098816,672,174,10,0.0013477088948787063,1501.4,1488.477088948787,1300,1500
14.44922685623169,673,174,10,0.0013477088948787063,1501.4,1488.477088948787,1300,1500
14.471077919006348,674,174,10,0.0012578616352201257,1501.4,1487.5786163522012,1300,1500
14.492900848388672,675,174,10,0.0013477088948787063,1501.4,1488.477088948787,1300,1500
14.514761924743652,676,174,10,0.0014184397163120568,1501.4,1489.1843971631206,1300,1500
14.53668999671936,677,174,10,0.0012578616352201257,1501.4,1487.5786163522012,1300,1500
14.558493852615356,678,174,9,0.0011792452830188679,1501.4,1486.7924528301887,1300,1500
14.580283880233765,679,174,10,0.0012578616352201257,1501.4,1487.5786163522012,1300,1500
14.60207200050354,680,175,10,0.0013333333333333333,1501.5,1488.3333333333333,1300,1500
14.623936891555786,681,174,10,0.0012578616352201257,1501.4,1487.5786163522012,1300,1500
14.645768880844116,682,175,10,0.0013333333333333333,1501.5,1488.3333333333333,1300,1500
14.667588949203491,683,172,9,0.00125,1501.2,1487.5,1300,1500
14.68934679031372,684,174,10,0.0013297872340425532,1501.4,1488.2978723404256,1300,1500
14.711160898208618,685,172,10,0.00125,1501.2,1487.5,1300,1500
14.732947826385498,686,172,11,0.00130718954248366,1501.2,1488.0718954248366,1300,1500
14.754817008972168,687,173,10,0.0011792452830188679,1501.3,1486.7924528301887,1300,1500
14.776690006256104,688,172,10,0.0012254901960784314,1501.2,1487.2549019607843,1300,1500
14.798489809036255,689,172,10,0.001176470588235294,1501.2,1486.764705882353,1300,1500
14.820308923721313,690,174,11,0.0012578616352201257,1501.4,1487.5786163522012,1300,1500
14.842108011245728,691,175,10,0.00125,1501.5,1487.5,1300,1500
14.863857984542847,692,174,10,0.001282051282051282,1501.4,1487.820512820513,1300,1500
14.885702848434448,693,173,10,0.0013333333333333333,1501.3,1488.3333333333333,1300,1500
14.90749192237854,694,174,10,0.0014005602240896359,1501.4,1489.0056022408965,1300,1500
14.92929196357727,695,175,10,0.0012578616352201257,1501.5,1487.5786163522012,1300,1500
14.951092004776001,696,174,9,0.0014005602240896359,1501.4,1489.0056022408965,1300,1500
14.972931861877441,697,175,9,0.0012578616352201257,1501.5,1487.5786163522012,1300,1500
14.994791984558105,698,175,10,0.001451378809869376,1501.5,1489.5137880986938,1300,1500
15.016680002212524,699,175,9,0.0014184397163120568,1501.5,1489.1843971631206,1300,1500
15.03847885131836,700,175,10,0.001451378809869376,1501.5,1489.5137880986938,1300,1500
15.060276985168457,701,175,9,0.0013477088948787063,1501.5,1488.477088948787,1300,1500
15.082079887390137,702,175,9,0.0015723270440251573,1501.5,1490.7232704402516,1300,1500
15.103875875473022,703,175,9,0.001451378809869376,1501.5,1489.5137880986938,1300,1500
15.125733852386475,704,177,9,0.0015082956259426848,1501.7,1490.0829562594267,1300,1500
15.147541999816895,705,177,8,0.0016666666666666668,1501.7,1491.6666666666667,1300,1500
15.169380903244019,706,177,9,0.0018181818181818182,1501.7,1493.1818181818182,1300,1500
15.191198825836182,707,177,8,0.0016366612111292963,1501.7,1491.3666121112929,1300,1500
15.213006973266602,708,175,8,0.0016666666666666668,1501.5,1491.6666666666667,1300,1500
15.235233783721924,709,179,9,0.0017825311942959,1501.9,1492.825311942959,1300,1500
15.25718092918396,710,178,8,0.002127659574468085,1501.8,1496.276595744681,1300,1500
15.278984785079956,711,180,8,0.002127659574468085,1502.0,1496.276595744681,1300,1500
15.300765991210938,712,180,8,0.0017825311942959,1502.0,1492.825311942959,1300,1500
15.322542905807495,713,182,8,0.002,1502.2,1495.0,1300,1500
15.344352006912231,714,181,8,0.002380952380952381,1502.1,1498.8095238095239,1300,1500
15.36613392829895,715,183,8,0.002777777777777778,1502.3,1502.7777777777778,1300,1500
15.38790488243103,716,185,8,0.0030864197530864196,1502.5,1505.8641975308642,1300,1500
15.409696817398071,717,184,7,0.003968253968253968,1502.4,1514.6825396825398,1300,1500
15.431510925292969,718,185,7,0.006493506493506494,1502.5,1520,1300,1500
15.453305006027222,719,183,4,0.041666666666666664,1502.3,1520,1300,1500
15.475111961364746,720,188,6,0.05555555555555555,1502.8,1520,1300,1500
15.496755838394165,721,,,,1500.0,1500.0,1250.0,1500
15.518248796463013,722,,,,1500.0,1500.0,1250.0,1500
15.5397469997406,723,,,,1500.0,1500.0,1250.0,1500
15.56118893623352,724,,,,1500.0,1500.0,1250.0,1500
15.582634925842285,725,,,,1500.0,1500.0,1250.0,1500
15.604124784469604,726,,,,1500.0,1500.0,1250.0,1500
15.625550985336304,727,,,,1500.0,1500.0,1250.0,1500
15.647031784057617,728,,,,1500.0,1500.0,1250.0,1500
15.668481826782227,729,,,,1500.0,1500.0,1250.0,1500
15.689924955368042,730,,,,1500.0,1500.0,1250.0,1500
15.7113618850708,731,,,,1500.0,1500.0,1250.0,1500
15.732806921005249,732,,,,1500.0,1500.0,1250.0,1500
15.754292011260986,733,,,,1500.0,1500.0,1250.0,1500
15.775734901428223,734,,,,1500.0,1500.0,1250.0,1500
15.797189950942993,735,,,,1500.0,1500.0,1250.0,1500
15.818636894226074,736,,,,1500.0,1500.0,1250.0,1500
15.840082883834839,737,,,,1500.0,1500.0,1250.0,1500
15.861696004867554,738,185,4,0.03571428571428571,1502.5,1520,1300,1500
15.883439779281616,739,181,5,0.011904761904761904,1502.1,1520,1300,1500
15.905252933502197,740,182,5,0.006944444444444444,1502.2,1520,1300,1500
15.927014827728271,741,189,7,0.002857142857142857,1502.9,1503.5714285714287,1300,1500
15.948805809020996,742,184,8,0.00196078431372549,1502.4,1494.6078431372548,1300,1500
15.970609903335571,743,174,11,0.0015527950310559005,1501.4,1490.527950310559,1300,1500
15.992421865463257,744,169,11,0.0012515644555694619,1500.9,1487.5156445556945,1300,1500
16.01426887512207,745,163,12,0.0011111111111111111,1500.3,1486.111111111111,1300,1500
16.036117792129517,746,158,13,0.0011098779134295228,1499.8,1486.0987791342952,1300,1500
16.057921886444092,747,151,13,0.0009615384615384616,1499.1,1484.6153846153845,1300,1500
16.079726934432983,748,147,13,0.0010416666666666667,1498.7,1485.4166666666667,1300,1500
16.10153889656067,749,144,13,0.0011111111111111111,1498.4,1486.111111111111,1300,1500
16.123339891433716,750,143,13,0.001388888888888889,1498.3,1488.888888888889,1300,1500
16.145253896713257,751,139,12,0.001349527665317139,1497.9,1488.4952766531715,1300,1500
16.167113780975342,752,139,12,0.0020161290322580645,1497.9,1495.1612903225807,1300,1500
16.188901901245117,753,134,11,0.002403846153846154,1497.4,1499.0384615384614,1300,1500
16.210694789886475,754,135,12,0.0036231884057971015,1497.5,1511.231884057971,1300,1500
16.232486963272095,755,134,10,0.003787878787878788,1497.4,1512.878787878788,1300,1500
16.254342794418335,756,131,10,0.011111111111111112,1497.1,1520,1300,1500
16.276121854782104,757,133,10,0.004901960784313725,1497.3,1520,1300,1500
16.2978458404541,758,130,13,0.008928571428571428,1497.0,1520,1300,1500
16.31956195831299,759,132,15,0.016666666666666666,1497.2,1520,1300,1500
16.34131383895874,760,135,11,0.004901960784313725,1497.5,1520,1300,1500
16.363075971603394,761,134,10,0.003787878787878788,1497.4,1512.878787878788,1300,1500
16.384912967681885,762,136,12,0.003205128205128205,1497.6,1507.051282051282,1300,1500
16.406805992126465,763,139,12,0.002857142857142857,1497.9,1503.5714285714287,1300,1500
16.43376398086548,764,139,12,0.0021008403361344537,1497.9,1496.0084033613446,1300,1500
16.455705881118774,765,144,13,0.002551020408163265,1498.4,1500.5102040816325,1300,1500
16.477558851242065,766,142,12,0.0015625,1498.2,1490.625,1300,1500
16.499350786209106,767,150,13,0.0016666666666666668,1499.0,1491.6666666666667,1300,1500
16.521174907684326,768,152,12,0.0015503875968992248,1499.2,1490.5038759689924,1300,1500
16.543007850646973,769,157,11,0.001937984496124031,1499.7,1494.3798449612402,1300,1500
16.564873933792114,770,163,10,0.001984126984126984,1500.3,1494.8412698412699,1300,1500
16.58675479888916,771,167,9,0.001984126984126984,1500.7,1494.8412698412699,1300,1500
16.608556985855103,772,176,10,0.0015873015873015873,1501.6,1490.873015873016,1300,1500
16.63036298751831,773,179,10,0.0019723865877712033,1501.9,1494.7238658777121,1300,1500
16.65216898918152,774,179,9,0.0025252525252525255,1501.9,1500.2525252525252,1300,1500
16.67402482032776,775,181,8,0.002976190476190476,1502.1,1504.7619047619048,1300,1500
16.695788860321045,776,183,8,0.005952380952380952,1502.3,1520,1300,1500
16.717519998550415,777,182,8,0.012987012987012988,1502.2,1520,1300,1500
16.73923683166504,778,184,6,0.013888888888888888,1502.4,1520,1300,1500
16.76083278656006,779,,,,1500.0,1500.0,1250.0,1500
16.782293796539307,780,,,,1500.0,1500.0,1250.0,1500
16.80378484725952,781,,,,1500.0,1500.0,1250.0,1500
16.825220823287964,782,,,,1500.0,1500.0,1250.0,1500
16.8466579914093,783,,,,1500.0,1500.0,1250.0,1500
16.868096828460693,784,,,,1500.0,1500.0,1250.0,1500
16.889530897140503,785,,,,1500.0,1500.0,1250.0,1500
16.910990953445435,786,,,,1500.0,1500.0,1250.0,1500
16.932419776916504,787,,,,1500.0,1500.0,1250.0,1500
16.953907012939453,788,,,,1500.0,1500.0,1250.0,1500
16.975363969802856,789,,,,1500.0,1500.0,1250.0,1500
16.996688842773438,790,,,,1500.0,1500.0,1250.0,1500
17.017891883850098,791,,,,1500.0,1500.0,1250.0,1500
17.039912939071655,792,,,,1500.0,1500.0,1250.0,1500
17.062135934829712,793,182,6,0.05555555555555555,1502.2,1520,1300,1500
17.084717988967896,794,184,5,0.011111111111111112,1502.4,1520,1300,1500
17.107163906097412,795,178,7,0.016666666666666666,1501.8,1520,1300,1500
17.12950301170349,796,183,8,0.004201680672268907,1502.3,1517.0168067226891,1300,1500
17.15189790725708,797,180,8,0.002777777777777778,1502.0,1502.7777777777778,1300,1500
17.174301862716675,798,184,8,0.00196078431372549,1502.4,1494.6078431372548,1300,1500
17.19704580307007,799,180,9,0.0017482517482517483,1502.0,1492.4825174825176,1300,1500
17.219453811645508,800,177,9,0.0014005602240896359,1501.7,1489.0056022408965,1300,1500
