time,x,y,size_inv,roll,pitch,thrust,yaw
0.00041604042053222656,174,48,0.003787878787878788,1520,1494.0,1325,1514.0
0.02211904525756836,174,48,0.003787878787878788,1520,1494.0,1325,1514.0
0.043601036071777344,174,48,0.003787878787878788,1520,1494.0,1325,1514.0
0.06495904922485352,174,48,0.003787878787878788,1520,1494.0,1325,1514.0
0.08634710311889648,174,48,0.003787878787878788,1520,1494.0,1325,1514.0
0.10777401924133301,174,48,0.003787878787878788,1520,1494.0,1325,1514.0
0.1291670799255371,174,48,0.003787878787878788,1520,1494.0,1325,1514.0
0.15054893493652344,174,48,0.003787878787878788,1520,1494.0,1325,1514.0
0.1719369888305664,174,48,0.003787878787878788,1520,1494.0,1325,1514.0
0.1933269500732422,174,48,0.003787878787878788,1520,1494.0,1325,1514.0
0.21488595008850098,174,48,0.003787878787878788,1520,1494.0,1325,1514.0
0.2366039752960205,174,48,0.003787878787878788,1520,1494.0,1325,1514.0
0.2583029270172119,174,48,0.003787878787878788,1520,1494.0,1325,1514.0
0.28000712394714355,175,48,0.004629629629629629,1520,1494.0,1325,1515.0
0.30171895027160645,173,49,0.003968253968253968,1520,1494.0,1325,1513.0
0.32342100143432617,171,50,0.004132231404958678,1520,1494.0,1325,1511.0
0.3451220989227295,171,49,0.005050505050505051,1520,1494.0,1325,1511.0
0.366832971572876,168,48,0.004329004329004329,1520,1494.0,1325,1508.0
0.38854408264160156,167,48,0.005050505050505051,1520,1494.0,1325,1507.0
0.41025495529174805,166,48,0.0043859649122807015,1520,1494.0,1325,1506.0
0.4319591522216797,163,50,0.005050505050505051,1520,1494.0,1325,1503.0
0.4536631107330322,160,51,0.003968253968253968,1520,1494.0,1325,1500.0
0.4753711223602295,159,52,0.004629629629629629,1520,1494.0,1325,1499.0
0.49709391593933105,154,54,0.003787878787878788,1520,1494.0,1325,1494.0
0.5188100337982178,153,55,0.003787878787878788,1518.0,1494.0,1325,1493.0
0.540571928024292,152,56,0.0034965034965034965,1497.0,1494.0,1325,1492.0
0.5623700618743896,153,56,0.004273504273504274,1481.0,1494.0,1325,1493.0
0.5841701030731201,153,57,0.004273504273504274,1480,1494.0,1325,1493.0
0.605881929397583,151,58,0.0034965034965034965,1480,1494.0,1325,1491.0
0.627587080001831,153,59,0.004273504273504274,1480,1494.0,1325,1493.0
0.649299144744873,153,60,0.004273504273504274,1480,1494.0,1325,1493.0
0.6710150241851807,152,61,0.0034965034965034965,1480,1494.0,1325,1492.0
0.6927721500396729,152,62,0.0034965034965034965,1480,1494.0,1325,1492.0
0.714555025100708,152,63,0.0034965034965034965,1480,1494.0,1325,1492.0
0.7362921237945557,153,64,0.003663003663003663,1480,1494.0,1325,1493.0
0.7580111026763916,153,65,0.003663003663003663,1480,1494.0,1325,1493.0
0.7797369956970215,153,66,0.0034965034965034965,1480,1494.0,1325,1493.0
0.8014471530914307,153,66,0.003787878787878788,1480,1494.0,1325,1493.0
0.8231401443481445,153,67,0.0034965034965034965,1480,1494.0,1325,1493.0
0.8448419570922852,153,68,0.0034965034965034965,1480,1494.0,1325,1493.0
0.8665461540222168,153,68,0.003787878787878788,1480,1494.0,1325,1493.0
0.8882570266723633,154,70,0.003663003663003663,1480,1494.0,1325,1494.0
0.9099740982055664,154,70,0.003968253968253968,1480,1494.0,1325,1494.0
0.9316949844360352,155,71,0.004629629629629629,1480,1494.0,1325,1495.0
0.9534001350402832,155,71,0.004629629629629629,1480,1494.0,1325,1495.0
0.9751250743865967,154,72,0.003787878787878788,1480,1494.0,1324.1500000000001,1494.0
0.9968810081481934,155,73,0.004273504273504274,1480,1494.0,1322.8,1495.0
1.0186409950256348,155,74,0.004273504273504274,1480,1494.0,1321.3,1495.0
1.0403990745544434,155,74,0.004629629629629629,1480,1494.0,1321.45,1495.0
1.062164068222046,154,75,0.003968253968253968,1480,1494.0,1319.8,1494.0
1.0840001106262207,154,76,0.003663003663003663,1480,1494.0,1318.3,1494.0
1.1057829856872559,153,77,0.0034965034965034965,1480,1494.0,1316.6500000000001,1493.0
1.1275379657745361,153,78,0.0034965034965034965,1480,1494.0,1315.1500000000001,1493.0
1.1492879390716553,153,78,0.003787878787878788,1480,1494.0,1315.0,1493.0
1.1710350513458252,153,79,0.003787878787878788,1480,1494.0,1313.5,1493.0
1.1928341388702393,153,80,0.0034965034965034965,1480,1494.0,1312.0,1493.0
1.21486496925354,153,81,0.0034965034965034965,1480,1494.0,1310.5,1493.0
1.2366290092468262,153,83,0.0034965034965034965,1480,1494.0,1307.3499999999999,1493.0
1.2583870887756348,153,84,0.0034965034965034965,1480,1494.0,1305.55,1493.0
1.2801399230957031,153,84,0.0034965034965034965,1480,1494.0,1305.4000000000001,1493.0
1.3018860816955566,154,85,0.0034965034965034965,1480,1494.0,1303.75,1494.0
1.3236160278320312,154,85,0.0034965034965034965,1480,1494.0,1303.75,1494.0
1.345350980758667,154,86,0.0034965034965034965,1480,1494.0,1302.55,1494.0
1.3670940399169922,154,86,0.0034965034965034965,1480,1494.0,1303.1500000000001,1494.0
1.3888370990753174,154,87,0.0034965034965034965,1480,1494.0,1301.95,1494.0
1.4105920791625977,154,87,0.003246753246753247,1480,1494.0,1302.4000000000001,1494.0
1.4323770999908447,154,88,0.0034965034965034965,1480,1494.0,1301.05,1494.0
1.4541821479797363,154,88,0.003246753246753247,1480,1494.0,1301.2,1494.0
1.4759409427642822,154,89,0.0034965034965034965,1480,1494.0,1299.55,1494.0
1.4976840019226074,154,89,0.003246753246753247,1480,1494.0,1299.7,1494.0
1.519423007965088,155,90,0.0034965034965034965,1480,1494.0,1298.05,1495.0
1.5411739349365234,155,90,0.003105590062111801,1480,1494.0,1298.2,1495.0
1.5629150867462158,155,90,0.003246753246753247,1480,1494.0,1298.2,1495.0
1.5846500396728516,155,91,0.0034965034965034965,1480,1494.0,1296.8499999999999,1495.0
1.606395959854126,155,91,0.0034965034965034965,1480,1494.0,1296.8499999999999,1495.0
1.6281421184539795,155,91,0.003246753246753247,1480,1494.0,1297.1500000000001,1495.0
1.6498961448669434,155,92,0.0034965034965034965,1480,1494.0,1295.6500000000001,1495.0
1.6716399192810059,155,92,0.003246753246753247,1480,1494.0,1295.6500000000001,1495.0
1.6933720111846924,155,92,0.003246753246753247,1480,1494.0,1295.8,1495.0
1.7151391506195068,155,92,0.003246753246753247,1480,1494.0,1295.95,1495.0
1.7368800640106201,157,92,0.0037593984962406013,1480,1494.0,1295.95,1497.0
1.7586159706115723,156,92,0.003246753246753247,1480,1494.0,1296.25,1496.0
1.7803659439086914,156,92,0.003246753246753247,1480,1494.0,1296.55,1496.0
1.8021090030670166,156,92,0.003246753246753247,1480,1494.0,1296.7,1496.0
1.8239400386810303,156,92,0.003246753246753247,1480,1494.0,1296.8499999999999,1496.0
1.8456990718841553,157,92,0.003105590062111801,1480,1494.0,1297.0,1497.0
1.8674890995025635,156,92,0.0034965034965034965,1480,1494.0,1297.0,1496.0
1.889389991760254,156,92,0.0034965034965034965,1480,1494.0,1297.0,1496.0
1.9111900329589844,157,92,0.003105590062111801,1480,1494.0,1297.0,1497.0
1.9329581260681152,157,92,0.0034965034965034965,1480,1494.0,1297.0,1497.0
1.9547030925750732,157,92,0.0034965034965034965,1480,1494.0,1297.0,1497.0
1.9764690399169922,157,92,0.003246753246753247,1480,1494.0,1297.0,1497.0
1.9982199668884277,158,91,0.003105590062111801,1480,1494.0,1298.6500000000001,1498.0
2.0199711322784424,158,92,0.0030303030303030303,1480,1494.0,1297.1500000000001,1498.0
2.041733980178833,158,91,0.003246753246753247,1480,1494.0,1298.8,1498.0
2.0634870529174805,158,91,0.003246753246753247,1480,1494.0,1298.95,1498.0
2.085237979888916,159,90,0.003105590062111801,1480,1494.0,1300.75,1499.0
2.1069910526275635,159,90,0.003105590062111801,1480,1494.0,1300.75,1499.0
2.1287341117858887,159,90,0.003246753246753247,1480,1494.0,1301.05,1499.0
2.150480031967163,159,89,0.003246753246753247,1480.0,1494.0,1302.7,1499.0
2.172253131866455,159,89,0.003246753246753247,1482.0,1494.0,1302.8499999999999,1499.0
2.194148063659668,160,88,0.003105590062111801,1487.0,1494.0,1304.3499999999999,1500.0
2.215947151184082,160,88,0.003246753246753247,1489.0,1494.0,1304.5,1500.0
2.237725019454956,160,87,0.003246753246753247,1491.0,1494.0,1306.1500000000001,1500.0
2.2595059871673584,160,87,0.003246753246753247,1493.0,1494.0,1306.1500000000001,1500.0
2.2812910079956055,160,86,0.003246753246753247,1495.0,1494.0,1307.8,1500.0
2.3030779361724854,161,86,0.003105590062111801,1499.0,1494.0,1307.8,1501.0
2.324864149093628,161,86,0.0033444816053511705,1501.0,1494.0,1307.8,1501.0
2.3468730449676514,161,85,0.0034965034965034965,1503.0,1494.0,1309.1500000000001,1501.0
2.368683099746704,161,84,0.003246753246753247,1505.0,1494.0,1310.8,1501.0
2.390468120574951,161,83,0.003246753246753247,1507.0,1494.0,1312.3,1501.0
2.4122660160064697,162,83,0.0033444816053511705,1511.0,1494.0,1312.45,1502.0
2.434159994125366,161,82,0.0034965034965034965,1510.0,1494.0,1314.25,1501.0
2.4559481143951416,162,81,0.0034965034965034965,1514.0,1494.0,1316.05,1502.0
2.477747917175293,162,80,0.003246753246753247,1516.0,1494.0,1317.7,1502.0
2.4995310306549072,162,79,0.003246753246753247,1518.0,1494.0,1319.3499999999999,1502.0
2.5213229656219482,162,79,0.0034965034965034965,1519.0,1494.0,1319.5,1502.0
2.5431110858917236,162,78,0.0034965034965034965,1520.0,1494.0,1321.0,1502.0
2.564871072769165,162,77,0.0034965034965034965,1520,1494.0,1322.5,1502.0
2.5866119861602783,162,76,0.003787878787878788,1520,1494.0,1324.0,1502.0
2.608341932296753,162,76,0.0034965034965034965,1520,1494.0,1323.8499999999999,1502.0
2.63008713722229,164,75,0.004273504273504274,1520,1494.0,1325,1504.0
2.6517770290374756,163,75,0.0034965034965034965,1520,1494.0,1325,1503.0
2.673454999923706,163,74,0.0034965034965034965,1520,1494.0,1325,1503.0
2.6951560974121094,163,73,0.003787878787878788,1520,1494.0,1325,1503.0
2.716856002807617,163,72,0.0034965034965034965,1520,1494.0,1325,1503.0
2.738553047180176,163,71,0.003787878787878788,1520,1494.0,1325,1503.0
2.7602429389953613,163,70,0.003787878787878788,1520,1494.0,1325,1503.0
2.7819390296936035,163,70,0.0034965034965034965,1520,1494.0,1325,1503.0
2.8036410808563232,163,69,0.0034965034965034965,1520,1494.0,1325,1503.0
2.8253250122070312,163,68,0.003787878787878788,1520,1494.0,1325,1503.0
2.8470160961151123,163,68,0.0034965034965034965,1520,1494.0,1325,1503.0
2.868704080581665,163,67,0.003787878787878788,1520,1494.0,1325,1503.0
2.8903980255126953,163,67,0.0034965034965034965,1520,1494.0,1325,1503.0
2.9121110439300537,163,66,0.003787878787878788,1520,1494.0,1325,1503.0
2.9339160919189453,163,66,0.0034965034965034965,1520,1494.0,1325,1503.0
2.9561219215393066,163,66,0.0034965034965034965,1520,1494.0,1325,1503.0
2.9792561531066895,163,66,0.0034965034965034965,1520,1494.0,1325,1503.0
3.002393960952759,163,65,0.0034965034965034965,1520,1494.0,1325,1503.0
3.0255510807037354,162,64,0.0034965034965034965,1520,1494.0,1325,1502.0
3.048630952835083,162,64,0.0034965034965034965,1520,1494.0,1325,1502.0
3.0716991424560547,162,63,0.003663003663003663,1520,1494.0,1325,1502.0
3.0947699546813965,161,62,0.0034965034965034965,1520,1494.0,1325,1501.0
3.1178760528564453,161,62,0.0034965034965034965,1520,1494.0,1325,1501.0
3.14094614982605,161,62,0.0034965034965034965,1520,1494.0,1325,1501.0
3.164018154144287,161,61,0.003246753246753247,1520,1494.0,1325,1501.0
3.187119960784912,161,61,0.0034965034965034965,1519.0,1494.0,1325,1501.0
3.210297107696533,161,61,0.0034965034965034965,1517.0,1494.0,1325,1501.0
3.2334699630737305,160,61,0.0034965034965034965,1512.0,1494.0,1325,1500.0
3.256636142730713,161,61,0.004273504273504274,1513.0,1494.0,1325,1501.0
3.279798984527588,159,60,0.0034965034965034965,1506.0,1494.0,1325,1499.0
3.3030059337615967,160,60,0.004273504273504274,1506.0,1494.0,1325,1500.0
3.3262619972229004,158,59,0.0034965034965034965,1499.0,1494.0,1325,1498.0
3.3494269847869873,158,59,0.0034965034965034965,1496.0,1494.0,1325,1498.0
3.3726789951324463,158,59,0.0034965034965034965,1493.0,1494.0,1325,1498.0
3.395915985107422,160,57,0.004629629629629629,1496.0,1494.0,1325,1500.0
3.4190750122070312,159,57,0.0034965034965034965,1492.0,1494.0,1325,1499.0
3.442223072052002,160,57,0.004273504273504274,1493.0,1494.0,1325,1500.0
3.465640068054199,160,57,0.004273504273504274,1493.0,1494.0,1325,1500.0
3.4888241291046143,159,57,0.003787878787878788,1489.0,1494.0,1325,1499.0
3.5119879245758057,158,57,0.003787878787878788,1486.0,1494.0,1325,1498.0
3.5352909564971924,158,58,0.0034965034965034965,1484.0,1494.0,1325,1498.0
3.558480978012085,158,58,0.003663003663003663,1484.0,1494.0,1325,1498.0
3.5820019245147705,157,57,0.003787878787878788,1481.0,1494.0,1325,1497.0
3.6053669452667236,157,57,0.003787878787878788,1480.0,1494.0,1325,1497.0
3.628559112548828,159,57,0.004629629629629629,1483.0,1494.0,1325,1499.0
3.651737928390503,159,58,0.004273504273504274,1483.0,1494.0,1325,1499.0
3.6750540733337402,158,58,0.0034965034965034965,1480,1494.0,1325,1498.0
3.6981639862060547,158,58,0.003787878787878788,1480,1494.0,1325,1498.0
3.721276044845581,158,58,0.003787878787878788,1480,1494.0,1325,1498.0
3.7443721294403076,158,59,0.003787878787878788,1480,1494.0,1325,1498.0
3.7674710750579834,159,60,0.004273504273504274,1480,1494.0,1325,1499.0
3.790558099746704,157,60,0.003787878787878788,1480,1494.0,1325,1497.0
3.8136250972747803,158,60,0.0036231884057971015,1480,1494.0,1325,1498.0
3.8367040157318115,157,60,0.003787878787878788,1480,1494.0,1325,1497.0
3.8597919940948486,158,60,0.003787878787878788,1480,1494.0,1325,1498.0
3.8830161094665527,158,61,0.0034965034965034965,1480,1494.0,1325,1498.0
3.906259059906006,158,61,0.0034965034965034965,1480,1494.0,1325,1498.0
3.9293770790100098,158,61,0.003787878787878788,1480,1494.0,1325,1498.0
3.952538013458252,158,63,0.0034965034965034965,1480,1494.0,1325,1498.0
3.9757449626922607,158,63,0.003787878787878788,1480,1494.0,1325,1498.0
3.998845100402832,157,64,0.0034965034965034965,1480,1494.0,1325,1497.0
4.02192497253418,157,64,0.003787878787878788,1480,1494.0,1325,1497.0
4.045133113861084,157,65,0.0034965034965034965,1480,1494.0,1325,1497.0
4.06823205947876,157,65,0.0034965034965034965,1480,1494.0,1325,1497.0
4.0913310050964355,157,66,0.0034965034965034965,1480,1494.0,1325,1497.0
4.114439964294434,157,67,0.0034965034965034965,1480,1494.0,1325,1497.0
4.137531995773315,157,68,0.0036231884057971015,1480,1494.0,1325,1497.0
4.1606080532073975,157,69,0.0033444816053511705,1480,1494.0,1325,1497.0
4.183700084686279,156,70,0.0034965034965034965,1480,1494.0,1325,1496.0
4.2067711353302,157,71,0.0033444816053511705,1480,1494.0,1325,1497.0
4.2298500537872314,156,71,0.0034965034965034965,1480,1494.0,1325,1496.0
4.253000974655151,158,71,0.0037593984962406013,1480,1494.0,1325,1498.0
4.276189088821411,157,72,0.0033444816053511705,1480,1494.0,1324.0,1497.0
4.299359083175659,157,72,0.0033444816053511705,1480,1494.0,1324.45,1497.0
4.32257604598999,156,72,0.0034965034965034965,1480,1494.0,1325,1496.0
4.345734119415283,157,72,0.0033444816053511705,1480,1494.0,1325,1497.0
4.3688249588012695,157,72,0.003105590062111801,1480,1494.0,1325,1497.0
4.391902923583984,157,72,0.003105590062111801,1480,1494.0,1325,1497.0
4.41511607170105,157,73,0.0034965034965034965,1480,1494.0,1324.9000000000001,1497.0
4.4382970333099365,157,73,0.003105590062111801,1480,1494.0,1324.9000000000001,1497.0
4.46147894859314,157,73,0.003246753246753247,1480,1494.0,1324.9000000000001,1497.0
4.484687089920044,157,74,0.003246753246753247,1480,1494.0,1323.25,1497.0
4.507858991622925,158,74,0.003105590062111801,1480,1494.0,1322.95,1498.0
4.531036138534546,157,75,0.003246753246753247,1480,1494.0,1321.3,1497.0
4.554224014282227,158,76,0.0034965034965034965,1480,1494.0,1319.5,1498.0
4.577395915985107,158,76,0.003246753246753247,1480,1494.0,1319.2,1498.0
4.600563049316406,158,76,0.003246753246753247,1480,1494.0,1319.2,1498.0
4.62372899055481,159,77,0.003105590062111801,1480,1494.0,1317.55,1499.0
4.646913051605225,159,77,0.003105590062111801,1480,1494.0,1317.55,1499.0
4.670109987258911,159,78,0.0034965034965034965,1480,1494.0,1316.2,1499.0
4.693356037139893,160,78,0.003105590062111801,1483.0,1494.0,1316.3499999999999,1500.0
4.716654062271118,160,78,0.003246753246753247,1486.0,1494.0,1316.3499999999999,1500.0
4.739925146102905,161,79,0.0033444816053511705,1491.0,1494.0,1315.0,1501.0
4.763246059417725,161,79,0.003105590062111801,1495.0,1494.0,1315.0,1501.0
4.786579132080078,162,79,0.003105590062111801,1501.0,1494.0,1315.1500000000001,1502.0
4.809860944747925,162,80,0.003105590062111801,1505.0,1494.0,1313.6500000000001,1502.0
4.833193063735962,161,80,0.003246753246753247,1506.0,1494.0,1313.6500000000001,1501.0
4.856853008270264,162,81,0.003105590062111801,1511.0,1494.0,1312.1500000000001,1502.0
4.880181074142456,162,81,0.003105590062111801,1514.0,1494.0,1312.1500000000001,1502.0
4.903473138809204,162,81,0.003105590062111801,1517.0,1494.0,1312.0,1502.0
4.926785945892334,162,82,0.0033444816053511705,1519.0,1494.0,1310.5,1502.0
4.950096130371094,161,82,0.003246753246753247,1518.0,1494.0,1310.5,1501.0
4.973387956619263,161,82,0.003246753246753247,1518.0,1494.0,1310.6500000000001,1501.0
4.996696949005127,161,82,0.003246753246753247,1518.0,1494.0,1310.8,1501.0
5.019972085952759,160,83,0.0034965034965034965,1514.0,1494.0,1309.3,1500.0
5.043367147445679,160,83,0.003246753246753247,1512.0,1494.0,1309.45,1500.0
5.066772937774658,161,84,0.0033444816053511705,1514.0,1494.0,1307.95,1501.0
5.090058088302612,160,84,0.0034965034965034965,1510.0,1494.0,1307.8,1500.0
5.113368034362793,161,84,0.0033444816053511705,1511.0,1494.0,1307.6500000000001,1501.0
5.136647939682007,161,84,0.0034965034965034965,1510.0,1494.0,1307.8,1501.0
5.159923076629639,162,84,0.004273504273504274,1512.0,1494.0,1307.8,1502.0
5.183269023895264,161,84,0.0034965034965034965,1510.0,1494.0,1308.0999999999999,1501.0
5.206646919250488,161,83,0.0034965034965034965,1510.0,1494.0,1310.05,1501.0
5.229933023452759,161,83,0.0034965034965034965,1510.0,1494.0,1310.5,1501.0
5.253271102905273,161,83,0.0034965034965034965,1511.0,1494.0,1310.8,1501.0
5.276624917984009,161,83,0.0034965034965034965,1512.0,1494.0,1311.0999999999999,1501.0
5.299926042556763,161,83,0.0034965034965034965,1512.0,1494.0,1311.25,1501.0
5.323251962661743,161,83,0.0034965034965034965,1513.0,1494.0,1311.0999999999999,1501.0
5.346621990203857,161,83,0.0034965034965034965,1513.0,1494.0,1310.95,1501.0
5.369915008544922,161,82,0.0034965034965034965,1513.0,1494.0,1312.45,1501.0
5.393254041671753,161,82,0.0034965034965034965,1512.0,1494.0,1312.45,1501.0
5.416600942611694,161,82,0.0034965034965034965,1512.0,1494.0,1312.45,1501.0
5.439876079559326,161,81,0.0034965034965034965,1512.0,1494.0,1314.25,1501.0
5.463222026824951,161,81,0.0034965034965034965,1512.0,1494.0,1314.55,1501.0
5.48659610748291,161,81,0.0034965034965034965,1512.0,1494.0,1314.55,1501.0
5.5098960399627686,161,80,0.0034965034965034965,1512.0,1494.0,1316.2,1501.0
5.533247947692871,161,79,0.003246753246753247,1512.0,1494.0,1318.0,1501.0
5.556584119796753,161,79,0.0034965034965034965,1512.0,1494.0,1318.0,1501.0
5.579843997955322,162,79,0.0033444816053511705,1515.0,1494.0,1318.0,1502.0
5.603168964385986,161,79,0.0034965034965034965,1513.0,1494.0,1318.1500000000001,1501.0
5.626522064208984,161,78,0.003246753246753247,1513.0,1494.0,1319.6500000000001,1501.0
5.649795055389404,161,78,0.0034965034965034965,1513.0,1494.0,1319.3499999999999,1501.0
5.673141002655029,161,78,0.0034965034965034965,1513.0,1494.0,1319.2,1501.0
5.69649600982666,161,77,0.0034965034965034965,1513.0,1494.0,1320.7,1501.0
5.719789981842041,161,76,0.0034965034965034965,1513.0,1494.0,1322.3499999999999,1501.0
5.743200063705444,161,76,0.0034965034965034965,1513.0,1494.0,1322.3499999999999,1501.0
5.766618967056274,161,75,0.0034965034965034965,1513.0,1494.0,1324.1500000000001,1501.0
5.7899041175842285,161,74,0.003246753246753247,1513.0,1494.0,1325,1501.0
5.813135147094727,162,74,0.004273504273504274,1515.0,1494.0,1325,1502.0
5.836383104324341,160,73,0.0034965034965034965,1510.0,1494.0,1325,1500.0
5.859576940536499,160,73,0.0034965034965034965,1509.0,1494.0,1325,1500.0
5.882871150970459,160,72,0.0034965034965034965,1508.0,1494.0,1325,1500.0
5.906177997589111,160,71,0.003105590062111801,1507.0,1494.0,1325,1500.0
5.92938494682312,159,71,0.003246753246753247,1503.0,1494.0,1325,1499.0
5.95265007019043,159,71,0.0034965034965034965,1501.0,1494.0,1325,1499.0
5.975948095321655,159,71,0.0034965034965034965,1499.0,1494.0,1325,1499.0
5.999139070510864,159,70,0.0034965034965034965,1497.0,1494.0,1325,1499.0
6.022385120391846,159,70,0.0034965034965034965,1495.0,1494.0,1325,1499.0
6.045686960220337,159,69,0.003246753246753247,1492.0,1494.0,1325,1499.0
6.069194078445435,159,68,0.003246753246753247,1491.0,1494.0,1325,1499.0
6.09246301651001,159,68,0.0034965034965034965,1490.0,1494.0,1325,1499.0
6.115747928619385,160,67,0.003105590062111801,1492.0,1494.0,1325,1500.0
6.1389501094818115,159,67,0.0034965034965034965,1489.0,1494.0,1325,1499.0
6.1621739864349365,160,66,0.003105590062111801,1492.0,1494.0,1325,1500.0
6.18549108505249,160,66,0.0033444816053511705,1493.0,1494.0,1325,1500.0
6.208684921264648,160,65,0.0034965034965034965,1494.0,1494.0,1325,1500.0
6.2318689823150635,160,64,0.0034965034965034965,1495.0,1494.0,1325,1500.0
6.255211114883423,160,64,0.003663003663003663,1496.0,1494.0,1325,1500.0
6.278402090072632,160,63,0.0034965034965034965,1497.0,1494.0,1325,1500.0
6.3015899658203125,160,63,0.0034965034965034965,1498.0,1494.0,1325,1500.0
6.324772119522095,160,63,0.0033444816053511705,1499.0,1494.0,1325,1500.0
6.347954988479614,160,62,0.003105590062111801,1499.0,1494.0,1325,1500.0
6.371132135391235,159,62,0.0034965034965034965,1497.0,1494.0,1325,1499.0
6.394334077835083,159,62,0.0034965034965034965,1496.0,1494.0,1325,1499.0
6.417525053024292,159,62,0.0034965034965034965,1495.0,1494.0,1325,1499.0
6.4407031536102295,160,62,0.004273504273504274,1497.0,1494.0,1325,1500.0
6.46387505531311,159,62,0.0034965034965034965,1494.0,1494.0,1325,1499.0
6.487082004547119,159,62,0.0033444816053511705,1493.0,1494.0,1325,1499.0
6.510261058807373,158,62,0.0034965034965034965,1489.0,1494.0,1325,1498.0
6.533445119857788,158,61,0.0034965034965034965,1487.0,1494.0,1325,1498.0
6.556623935699463,157,61,0.0034965034965034965,1482.0,1494.0,1325,1497.0
6.579807996749878,157,60,0.0034965034965034965,1480,1494.0,1325,1497.0
6.602997064590454,157,60,0.0033444816053511705,1480,1494.0,1325,1497.0
6.626189947128296,157,60,0.0033444816053511705,1480,1494.0,1325,1497.0
6.649305105209351,157,60,0.0033444816053511705,1480,1494.0,1325,1497.0
6.672459125518799,157,60,0.0033444816053511705,1480,1494.0,1325,1497.0
6.6956329345703125,158,60,0.003968253968253968,1480,1494.0,1325,1498.0
6.718739986419678,157,61,0.0034965034965034965,1480,1494.0,1325,1497.0
6.741833925247192,157,61,0.0034965034965034965,1480,1494.0,1325,1497.0
6.765174150466919,156,61,0.0034965034965034965,1480,1494.0,1325,1496.0
6.788306951522827,156,61,0.0034965034965034965,1480,1494.0,1325,1496.0
6.811402082443237,156,61,0.0034965034965034965,1480,1494.0,1325,1496.0
6.834496021270752,156,61,0.0034965034965034965,1480,1494.0,1325,1496.0
6.857583999633789,156,61,0.0033444816053511705,1480,1494.0,1325,1496.0
6.880690097808838,156,60,0.0033444816053511705,1480,1494.0,1325,1496.0
6.903839111328125,156,60,0.0033444816053511705,1480,1494.0,1325,1496.0
6.926999092102051,156,60,0.0033444816053511705,1480,1494.0,1325,1496.0
6.950144052505493,156,60,0.0033444816053511705,1480,1494.0,1325,1496.0
6.9733381271362305,155,61,0.0034965034965034965,1480,1494.0,1325,1495.0
6.996454954147339,156,61,0.0033444816053511705,1480,1494.0,1325,1496.0
7.01954197883606,156,61,0.0033444816053511705,1480,1494.0,1325,1496.0
7.04272198677063,156,62,0.0033444816053511705,1480,1494.0,1325,1496.0
7.065937042236328,156,62,0.0034965034965034965,1480,1494.0,1325,1496.0
7.089055061340332,156,62,0.0034965034965034965,1480,1494.0,1325,1496.0
7.11214804649353,156,61,0.003246753246753247,1480,1494.0,1325,1496.0
7.135359048843384,156,61,0.003246753246753247,1480,1494.0,1325,1496.0
7.158492088317871,156,60,0.0034965034965034965,1480,1494.0,1325,1496.0
7.181589126586914,157,59,0.003246753246753247,1480,1494.0,1325,1497.0
7.204690933227539,157,59,0.003246753246753247,1480,1494.0,1325,1497.0
7.227795124053955,158,59,0.0033444816053511705,1480,1494.0,1325,1498.0
7.250894069671631,157,59,0.0034965034965034965,1480,1494.0,1325,1497.0
7.2740020751953125,158,59,0.0033444816053511705,1480,1494.0,1325,1498.0
7.297101974487305,158,59,0.003246753246753247,1480,1494.0,1325,1498.0
7.320183992385864,159,59,0.003105590062111801,1480,1494.0,1325,1499.0
7.343477010726929,159,60,0.003105590062111801,1480,1494.0,1325,1499.0
7.366642951965332,159,60,0.003105590062111801,1480,1494.0,1325,1499.0
7.3902130126953125,159,60,0.0034965034965034965,1480,1494.0,1325,1499.0
7.413494110107422,159,59,0.003246753246753247,1481.0,1494.0,1325,1499.0
7.436701059341431,159,59,0.003246753246753247,1483.0,1494.0,1325,1499.0
7.4599010944366455,160,59,0.003105590062111801,1487.0,1494.0,1325,1500.0
7.4832940101623535,160,59,0.003105590062111801,1490.0,1494.0,1325,1500.0
7.506664991378784,161,61,0.003105590062111801,1495.0,1494.0,1325,1501.0
7.5298521518707275,161,62,0.003105590062111801,1498.0,1494.0,1325,1501.0
7.55308198928833,161,63,0.002777777777777778,1500.0,1494.0,1325,1501.0
7.576345920562744,161,63,0.003105590062111801,1502.0,1494.0,1325,1501.0
7.599507093429565,160,63,0.003246753246753247,1501.0,1494.0,1325,1500.0
7.622729063034058,161,63,0.003105590062111801,1505.0,1494.0,1325,1501.0
7.645987033843994,161,62,0.003105590062111801,1507.0,1494.0,1325,1501.0
7.669171094894409,160,62,0.003246753246753247,1506.0,1494.0,1325,1500.0
7.692399024963379,160,62,0.003246753246753247,1506.0,1494.0,1325,1500.0
7.71564507484436,160,62,0.003246753246753247,1506.0,1494.0,1325,1500.0
7.738807916641235,161,63,0.0033444816053511705,1508.0,1494.0,1325,1501.0
7.761997938156128,161,63,0.003105590062111801,1508.0,1494.0,1325,1501.0
7.78537392616272,161,63,0.003105590062111801,1508.0,1494.0,1325,1501.0
7.808732986450195,161,64,0.0033444816053511705,1508.0,1494.0,1325,1501.0
7.831927061080933,161,64,0.003246753246753247,1509.0,1494.0,1325,1501.0
7.855237007141113,161,65,0.0034965034965034965,1509.0,1494.0,1325,1501.0
7.878442049026489,161,65,0.003246753246753247,1509.0,1494.0,1325,1501.0
7.901608943939209,161,65,0.003246753246753247,1510.0,1494.0,1325,1501.0
7.924803972244263,161,66,0.0034965034965034965,1511.0,1494.0,1325,1501.0
7.948013067245483,162,66,0.003105590062111801,1515.0,1494.0,1325,1502.0
7.971230983734131,162,66,0.003246753246753247,1516.0,1494.0,1325,1502.0
7.994411945343018,162,67,0.003246753246753247,1517.0,1494.0,1325,1502.0
8.017584085464478,162,67,0.003246753246753247,1518.0,1494.0,1325,1502.0
8.040750980377197,162,68,0.003246753246753247,1519.0,1494.0,1325,1502.0
8.063920021057129,162,68,0.003246753246753247,1520.0,1494.0,1325,1502.0
8.0870840549469,163,68,0.003968253968253968,1520,1494.0,1325,1503.0
8.11015796661377,162,68,0.003246753246753247,1520,1494.0,1325,1502.0
8.133275032043457,162,68,0.003105590062111801,1520,1494.0,1325,1502.0
8.15640902519226,161,68,0.003246753246753247,1520,1494.0,1325,1501.0
8.179558992385864,161,68,0.003246753246753247,1520,1494.0,1325,1501.0
8.20296311378479,161,68,0.003246753246753247,1520.0,1494.0,1325,1501.0
8.226283073425293,163,69,0.0035087719298245615,1520,1494.0,1325,1503.0
8.249403953552246,161,69,0.003246753246753247,1520.0,1494.0,1325,1501.0
8.27263593673706,162,70,0.003703703703703704,1520,1494.0,1325,1502.0
8.295783996582031,162,70,0.003703703703703704,1520,1494.0,1325,1502.0
8.318871021270752,160,70,0.0030303030303030303,1515.0,1494.0,1325,1500.0
8.342028141021729,160,70,0.0030303030303030303,1513.0,1494.0,1325,1500.0
8.365453958511353,160,70,0.0030303030303030303,1511.0,1494.0,1325,1500.0
8.388663053512573,161,70,0.002898550724637681,1513.0,1494.0,1325,1501.0
8.411842107772827,162,70,0.0026666666666666666,1516.0,1494.0,1325,1502.0
8.435182094573975,161,70,0.002898550724637681,1514.0,1494.0,1325,1501.0
8.458431959152222,160,70,0.0030303030303030303,1509.0,1494.0,1325,1500.0
8.481637001037598,162,70,0.0025,1514.0,1494.0,1325,1502.0
8.504799127578735,162,70,0.0025,1514.0,1494.0,1325,1502.0
8.527939081192017,162,71,0.0026666666666666666,1514.0,1494.0,1325,1502.0
8.551116943359375,161,71,0.003703703703703704,1513.0,1494.0,1325,1501.0
8.574295997619629,161,71,0.0026666666666666666,1514.0,1494.0,1325,1501.0
8.597469091415405,160,70,0.002777777777777778,1512.0,1494.0,1325,1500.0
8.620623111724854,160,70,0.0026666666666666666,1511.0,1494.0,1325,1500.0
8.643805980682373,160,70,0.0026666666666666666,1509.0,1494.0,1325,1500.0
8.667001008987427,160,70,0.0026666666666666666,1508.0,1494.0,1325,1500.0
8.690462112426758,160,70,0.0025,1508.0,1494.0,1325,1500.0
8.713638067245483,158,70,0.002717391304347826,1500.0,1494.0,1325,1498.0
8.736814022064209,159,70,0.0025,1499.0,1494.0,1325,1499.0
8.759968996047974,159,71,0.0026666666666666666,1496.0,1494.0,1325,1499.0
8.783221960067749,158,71,0.0025,1491.0,1494.0,1325,1498.0
8.80646300315857,158,71,0.0026666666666666666,1488.0,1494.0,1325,1498.0
8.82961893081665,159,71,0.0030303030303030303,1489.0,1494.0,1325,1499.0
8.852837085723877,157,71,0.0026666666666666666,1482.0,1494.0,1325,1497.0
8.876094102859497,157,71,0.0026666666666666666,1480,1494.0,1325,1497.0
8.899187088012695,157,71,0.0026666666666666666,1480,1494.0,1325,1497.0
8.922296047210693,157,71,0.0026666666666666666,1480,1494.0,1325,1497.0
8.945555925369263,156,71,0.0026666666666666666,1480,1494.0,1325,1496.0
8.968683004379272,156,71,0.0026666666666666666,1480,1494.0,1325,1496.0
8.991766929626465,156,71,0.0026666666666666666,1480,1494.0,1325,1496.0
9.014918088912964,157,71,0.0030303030303030303,1480,1494.0,1325,1497.0
9.038012027740479,157,71,0.0030303030303030303,1480,1494.0,1325,1497.0
9.061100006103516,155,71,0.002564102564102564,1480,1494.0,1325,1495.0
9.084213972091675,155,71,0.002564102564102564,1480,1494.0,1325,1495.0
9.107326984405518,155,71,0.0026666666666666666,1480,1494.0,1325,1495.0
9.130411148071289,154,71,0.002564102564102564,1480,1494.0,1325,1494.0
9.153512001037598,154,71,0.002564102564102564,1480,1494.0,1325,1494.0
9.176590919494629,154,71,0.0026666666666666666,1480,1494.0,1325,1494.0
9.1996750831604,154,71,0.0026666666666666666,1480,1494.0,1325,1494.0
9.222832918167114,154,71,0.0026666666666666666,1480,1494.0,1325,1494.0
9.246042013168335,154,71,0.0026666666666666666,1480,1494.0,1325,1494.0
9.269142150878906,154,71,0.0026666666666666666,1480,1494.0,1325,1494.0
9.292256116867065,154,71,0.0026666666666666666,1480,1494.0,1325,1494.0
9.315482139587402,154,70,0.002564102564102564,1480,1494.0,1325,1494.0
9.338571071624756,154,70,0.002564102564102564,1480,1494.0,1325,1494.0
9.361647129058838,154,70,0.002564102564102564,1480,1494.0,1325,1494.0
9.38473105430603,154,69,0.002403846153846154,1480,1494.0,1325,1494.0
9.407793998718262,154,69,0.002564102564102564,1480,1494.0,1325,1494.0
9.430870056152344,154,69,0.002564102564102564,1480,1494.0,1325,1494.0
9.453979015350342,154,68,0.002564102564102564,1480,1494.0,1325,1494.0
9.477095127105713,154,68,0.002564102564102564,1480,1494.0,1325,1494.0
9.500178098678589,154,67,0.002403846153846154,1480,1494.0,1325,1494.0
9.52330493927002,154,67,0.002564102564102564,1480,1494.0,1325,1494.0
9.546448945999146,154,67,0.002564102564102564,1480,1494.0,1325,1494.0
9.569549083709717,154,66,0.002403846153846154,1480,1494.0,1325,1494.0
9.592689990997314,155,66,0.0023148148148148147,1480,1494.0,1325,1495.0
9.615864038467407,155,66,0.0023148148148148147,1480,1494.0,1325,1495.0
9.638958930969238,155,66,0.0023148148148148147,1480,1494.0,1325,1495.0
9.662055969238281,155,66,0.002403846153846154,1480,1494.0,1325,1495.0
9.68528699874878,155,66,0.002403846153846154,1480,1494.0,1325,1495.0
9.7084059715271,155,66,0.002403846153846154,1480,1494.0,1325,1495.0
9.731486082077026,155,66,0.002403846153846154,1480,1494.0,1325,1495.0
9.754565000534058,156,66,0.0023148148148148147,1480,1494.0,1325,1496.0
9.777657985687256,156,65,0.002403846153846154,1480,1494.0,1325,1496.0
9.800734043121338,157,65,0.0023148148148148147,1480,1494.0,1325,1497.0
9.82381796836853,156,64,0.002403846153846154,1480,1494.0,1325,1496.0
9.84691309928894,157,64,0.0023148148148148147,1480,1494.0,1325,1497.0
9.8700270652771,157,64,0.0023148148148148147,1480,1494.0,1325,1497.0
9.893208980560303,157,64,0.002403846153846154,1480,1494.0,1325,1497.0
9.916379928588867,158,64,0.002178649237472767,1480,1494.0,1325,1498.0
9.939494132995605,157,63,0.002403846153846154,1480,1494.0,1325,1497.0
9.962648153305054,158,63,0.0023148148148148147,1480,1494.0,1325,1498.0
9.985857963562012,158,62,0.0023148148148148147,1480,1494.0,1325,1498.0
10.008955001831055,158,62,0.0023148148148148147,1480,1494.0,1325,1498.0
10.032424926757812,159,62,0.0023148148148148147,1480,1494.0,1325,1499.0
10.055633068084717,158,61,0.0023148148148148147,1480,1494.0,1325,1498.0
10.078742980957031,158,61,0.0023148148148148147,1480,1494.0,1325,1498.0
10.101855039596558,158,61,0.0021008403361344537,1480,1494.0,1325,1498.0
10.125076055526733,158,61,0.002178649237472767,1480,1494.0,1325,1498.0
10.148163080215454,159,60,0.0023148148148148147,1480,1494.0,1325,1499.0
10.17127513885498,159,60,0.0023148148148148147,1481.0,1494.0,1325,1499.0
10.19445013999939,159,60,0.0023148148148148147,1482.0,1494.0,1325,1499.0
10.217628955841064,159,60,0.0023148148148148147,1483.0,1494.0,1325,1499.0
10.240808010101318,159,60,0.0022624434389140274,1484.0,1494.0,1325,1499.0
10.263986110687256,160,59,0.0023148148148148147,1487.0,1494.0,1325,1500.0
10.287166118621826,160,59,0.0023148148148148147,1489.0,1494.0,1325,1500.0
10.310327053070068,160,59,0.002403846153846154,1491.0,1494.0,1325,1500.0
10.333495140075684,161,59,0.002178649237472767,1496.0,1494.0,1325,1501.0
10.356686115264893,161,59,0.002178649237472767,1499.0,1494.0,1325,1501.0
10.379857063293457,161,58,0.0023148148148148147,1501.0,1494.0,1325,1501.0
10.403090000152588,161,58,0.0023148148148148147,1503.0,1494.0,1325,1501.0
10.426356077194214,162,58,0.002178649237472767,1508.0,1494.0,1325,1502.0
10.449540138244629,161,57,0.002403846153846154,1508.0,1494.0,1325,1501.0
10.472790956497192,161,57,0.002403846153846154,1510.0,1494.0,1325,1501.0
10.496040105819702,161,57,0.0022624434389140274,1511.0,1494.0,1325,1501.0
10.519197940826416,162,56,0.0023148148148148147,1515.0,1494.0,1325,1502.0
10.542469024658203,162,56,0.0023148148148148147,1517.0,1494.0,1325,1502.0
10.565786123275757,161,56,0.002403846153846154,1515.0,1494.0,1325,1501.0
10.58895492553711,162,56,0.0023148148148148147,1518.0,1494.0,1325,1502.0
10.612131118774414,161,56,0.0022624434389140274,1516.0,1494.0,1325,1501.0
10.635436058044434,162,55,0.0023148148148148147,1519.0,1494.0,1325,1502.0
10.658649921417236,162,55,0.0023148148148148147,1519.0,1494.0,1325,1502.0
10.681838989257812,162,55,0.002178649237472767,1520.0,1494.0,1325,1502.0
10.705146074295044,162,55,0.002178649237472767,1520,1494.0,1325,1502.0
10.728291034698486,161,55,0.0022624434389140274,1519.0,1494.0,1325,1501.0
10.751513004302979,161,55,0.0022624434389140274,1518.0,1494.0,1325,1501.0
10.774721145629883,162,54,0.001984126984126984,1520.0,1494.0,1325,1502.0
10.797929048538208,161,55,0.0022624434389140274,1518.0,1494.0,1325,1501.0
10.821120023727417,162,54,0.001984126984126984,1520.0,1494.0,1325,1502.0
10.844321966171265,161,55,0.0022624434389140274,1518.0,1494.0,1325,1501.0
10.867517948150635,162,55,0.0021008403361344537,1520.0,1494.0,1325,1502.0
10.89071798324585,163,55,0.002028397565922921,1520,1494.0,1325,1503.0
10.91385293006897,163,54,0.0019157088122605363,1520,1494.0,1325,1503.0
10.936978101730347,163,54,0.0019157088122605363,1520,1494.0,1325,1503.0
10.960088968276978,163,53,0.0019157088122605363,1520,1494.0,1325,1503.0
10.983298063278198,164,53,0.002136752136752137,1520,1494.0,1325,1504.0
11.006462097167969,163,53,0.002288329519450801,1520,1494.0,1325,1503.0
11.029541015625,162,53,0.0018148820326678765,1520,1494.0,1325,1502.0
11.05268907546997,163,52,0.002136752136752137,1520,1494.0,1325,1503.0
11.075860977172852,161,52,0.001851851851851852,1520,1494.0,1325,1501.0
11.098998069763184,161,52,0.0018148820326678765,1520,1494.0,1325,1501.0
11.122123003005981,161,52,0.0018148820326678765,1520,1494.0,1325,1501.0
11.145409107208252,160,52,0.0017543859649122807,1520,1494.0,1325,1500.0
11.168551921844482,160,52,0.0018148820326678765,1518.0,1494.0,1325,1500.0
11.19176197052002,159,52,0.0017543859649122807,1512.0,1494.0,1325,1499.0
11.21509599685669,159,51,0.0017543859649122807,1507.0,1494.0,1325,1499.0
11.238300085067749,159,51,0.0018148820326678765,1503.0,1494.0,1325,1499.0
11.261495113372803,158,51,0.0017543859649122807,1497.0,1494.0,1325,1498.0
11.284711122512817,158,51,0.0017543859649122807,1492.0,1494.0,1325,1498.0
11.308200120925903,158,50,0.0016666666666666668,1489.0,1494.0,1325,1498.0
11.331421136856079,158,50,0.0016666666666666668,1486.0,1494.0,1325,1498.0
11.354646921157837,158,50,0.0016666666666666668,1483.0,1494.0,1325,1498.0
11.377846956253052,158,50,0.0016666666666666668,1481.0,1494.0,1325,1498.0
11.401018142700195,159,50,0.0017241379310344827,1482.0,1494.0,1325,1499.0
11.424201011657715,159,51,0.0018148820326678765,1482.0,1494.0,1325,1499.0
11.447405099868774,159,50,0.0016666666666666668,1482.0,1494.0,1325,1499.0
11.470632076263428,159,50,0.0016666666666666668,1482.0,1494.0,1325,1499.0
11.493844032287598,159,50,0.0016666666666666668,1483.0,1494.0,1325,1499.0
11.517055034637451,159,50,0.0017543859649122807,1484.0,1494.0,1325,1499.0
11.540243148803711,159,50,0.0017543859649122807,1485.0,1494.0,1325,1499.0
11.56343412399292,158,50,0.0017543859649122807,1483.0,1494.0,1325,1498.0
11.586636066436768,158,50,0.0017543859649122807,1483.0,1494.0,1325,1498.0
11.609823942184448,158,50,0.0017543859649122807,1483.0,1494.0,1325,1498.0
11.633079051971436,158,49,0.001851851851851852,1482.0,1494.0,1325,1498.0
11.656381130218506,158,49,0.001851851851851852,1481.0,1494.0,1325,1498.0
11.679571151733398,157,49,0.0017543859649122807,1480,1494.0,1325,1497.0
11.702744007110596,157,49,0.0017543859649122807,1480,1494.0,1325,1497.0
11.725927114486694,157,49,0.001697792869269949,1480,1494.0,1325,1497.0
11.749052047729492,157,49,0.001697792869269949,1480,1494.0,1325,1497.0
11.772194147109985,156,49,0.0017543859649122807,1480,1494.0,1325,1496.0
11.795505046844482,157,49,0.001697792869269949,1480,1494.0,1325,1497.0
11.818652153015137,156,48,0.001851851851851852,1480,1494.0,1325,1496.0
11.841768980026245,157,48,0.0017921146953405018,1480,1494.0,1325,1497.0
11.865180969238281,156,48,0.001851851851851852,1480,1494.0,1325,1496.0
11.888343095779419,157,48,0.001697792869269949,1480,1494.0,1325,1497.0
11.911461114883423,156,48,0.001644736842105263,1480,1494.0,1325,1496.0
11.93460202217102,156,48,0.001697792869269949,1480,1494.0,1325,1496.0
11.957719087600708,156,48,0.001644736842105263,1480,1494.0,1325,1496.0
11.980852127075195,156,48,0.001644736842105263,1480,1494.0,1325,1496.0
12.003939151763916,156,48,0.001697792869269949,1480,1494.0,1325,1496.0
12.02703595161438,156,47,0.0017921146953405018,1480,1494.0,1325,1496.0
12.050143003463745,156,47,0.0017921146953405018,1480,1494.0,1325,1496.0
12.07333493232727,156,48,0.001697792869269949,1480,1494.0,1325,1496.0
12.09647798538208,156,48,0.001697792869269949,1480,1494.0,1325,1496.0
12.119571924209595,156,48,0.001697792869269949,1480,1494.0,1325,1496.0
12.142882108688354,156,48,0.0017921146953405018,1480,1494.0,1325,1496.0
12.166301965713501,156,48,0.0017921146953405018,1480,1494.0,1325,1496.0
12.189624071121216,156,48,0.001736111111111111,1480,1494.0,1325,1496.0
12.212958097457886,156,49,0.001697792869269949,1480,1494.0,1325,1496.0
12.236292123794556,156,49,0.001697792869269949,1480,1494.0,1325,1496.0
12.259422063827515,156,48,0.0017921146953405018,1480,1494.0,1325,1496.0
12.282719135284424,156,48,0.0017921146953405018,1480,1494.0,1325,1496.0
12.306018114089966,156,48,0.001697792869269949,1480,1494.0,1325,1496.0
12.329117059707642,156,48,0.001644736842105263,1480,1494.0,1325,1496.0
12.35221004486084,157,47,0.0017921146953405018,1480,1494.0,1325,1497.0
12.375677108764648,157,47,0.001697792869269949,1480,1494.0,1325,1497.0
12.398813009262085,157,47,0.0017921146953405018,1480,1494.0,1325,1497.0
12.421905040740967,157,48,0.001644736842105263,1480,1494.0,1325,1497.0
12.445187091827393,157,48,0.001644736842105263,1480,1494.0,1325,1497.0
12.46832013130188,158,48,0.001697792869269949,1480,1494.0,1325,1498.0
12.491414070129395,158,48,0.0015625,1480,1494.0,1325,1498.0
12.514493942260742,158,49,0.001697792869269949,1480,1494.0,1325,1498.0
12.537594079971313,158,49,0.001644736842105263,1480,1494.0,1325,1498.0
12.560707092285156,159,49,0.001697792869269949,1480,1494.0,1325,1499.0
12.583797931671143,159,49,0.001644736842105263,1480,1494.0,1325,1499.0
12.606903076171875,160,48,0.0015625,1481.0,1494.0,1325,1500.0
12.635666131973267,160,48,0.001644736842105263,1484.0,1494.0,1325,1500.0
12.658996105194092,160,48,0.001644736842105263,1487.0,1494.0,1325,1500.0
12.682201147079468,161,48,0.001594896331738437,1493.0,1494.0,1325,1501.0
12.70578908920288,160,48,0.001644736842105263,1493.0,1494.0,1325,1500.0
12.728981971740723,162,48,0.001594896331738437,1501.0,1494.0,1325,1502.0
12.752170085906982,162,48,0.0015479876160990713,1505.0,1494.0,1325,1502.0
12.775723934173584,162,48,0.0015479876160990713,1509.0,1494.0,1325,1502.0
12.798919916152954,163,48,0.0015037593984962407,1515.0,1494.0,1325,1503.0
12.822109937667847,162,48,0.0015479876160990713,1516.0,1494.0,1325,1502.0
12.84565806388855,162,47,0.0014705882352941176,1518.0,1494.0,1325,1502.0
12.868876934051514,162,47,0.0014705882352941176,1520.0,1494.0,1325,1502.0
12.892096042633057,161,47,0.0014705882352941176,1519.0,1494.0,1325,1501.0
12.915658950805664,161,48,0.0014005602240896359,1519.0,1494.0,1325,1501.0
12.938890933990479,161,48,0.0014705882352941176,1520.0,1494.0,1325,1501.0
12.962096929550171,161,48,0.0014285714285714286,1519.0,1494.0,1325,1501.0
12.985685110092163,161,49,0.0013605442176870747,1518.0,1494.0,1325,1501.0
13.008893966674805,160,49,0.0014005602240896359,1514.0,1494.0,1325,1500.0
13.032074928283691,160,48,0.001336898395721925,1511.0,1494.0,1325,1500.0
13.055638074874878,160,48,0.001336898395721925,1509.0,1494.0,1325,1500.0
13.078855037689209,160,48,0.0014005602240896359,1507.0,1494.0,1325,1500.0
13.102077007293701,160,47,0.001336898395721925,1505.0,1494.0,1325,1500.0
13.125618934631348,160,47,0.001336898395721925,1504.0,1494.0,1325,1500.0
13.148816108703613,160,47,0.001336898395721925,1503.0,1494.0,1325,1500.0
13.17199993133545,160,47,0.001336898395721925,1502.0,1494.0,1325,1500.0
13.195574045181274,161,47,0.0012987012987012987,1504.0,1494.0,1325,1501.0
13.218793153762817,161,46,0.001336898395721925,1504.0,1494.0,1325,1501.0
13.241990089416504,162,46,0.0012987012987012987,1508.0,1494.0,1325,1502.0
13.265604019165039,162,46,0.0012422360248447205,1510.0,1494.0,1325,1502.0
13.288824081420898,162,46,0.0012422360248447205,1512.0,1494.0,1325,1502.0
13.31199598312378,162,46,0.0012422360248447205,1514.0,1494.0,1325,1502.0
13.335304021835327,162,45,0.0012987012987012987,1516.0,1494.0,1325,1502.0
13.358498096466064,161,45,0.001336898395721925,1515.0,1494.0,1325,1501.0
13.381686925888062,161,45,0.0012787723785166241,1516.0,1494.0,1325,1501.0
13.404881000518799,161,45,0.0012077294685990338,1517.0,1494.0,1325,1501.0
13.428069114685059,160,45,0.0012787723785166241,1514.0,1494.0,1325,1500.0
13.451251983642578,160,45,0.0012787723785166241,1513.0,1494.0,1325,1500.0
13.474442958831787,160,44,0.0011574074074074073,1511.0,1494.0,1325,1500.0
13.497626066207886,160,44,0.0011904761904761906,1509.0,1494.0,1325,1500.0
13.520798921585083,159,44,0.0012787723785166241,1504.0,1494.0,1325,1499.0
13.543978929519653,159,44,0.0012787723785166241,1501.0,1494.0,1325,1499.0
13.567182064056396,159,43,0.0011904761904761906,1498.0,1494.0,1325,1499.0
13.590366125106812,159,43,0.0011904761904761906,1496.0,1494.0,1325,1499.0
13.61355209350586,159,43,0.0011574074074074073,1494.0,1494.0,1325,1499.0
13.63675308227539,159,43,0.0011904761904761906,1492.0,1494.0,1325,1499.0
13.659929990768433,159,43,0.0011904761904761906,1491.0,1494.0,1325,1499.0
13.683289051055908,159,43,0.001142857142857143,1490.0,1494.0,1325,1499.0
13.7066650390625,159,42,0.0011574074074074073,1489.0,1494.0,1325,1499.0
13.729846954345703,159,42,0.0011574074074074073,1488.0,1494.0,1325,1499.0
13.753198146820068,160,42,0.0010526315789473684,1491.0,1494.0,1325,1500.0
13.776567935943604,160,41,0.0011261261261261261,1492.0,1494.0,1325,1500.0
13.799767971038818,160,41,0.0011261261261261261,1493.0,1494.0,1325,1500.0
13.8231041431427,160,41,0.0010526315789473684,1494.0,1494.0,1325,1500.0
13.84645700454712,160,41,0.0011261261261261261,1495.0,1494.0,1325,1500.0
13.869646072387695,159,40,0.0010964912280701754,1493.0,1494.0,1325,1499.0
13.893006086349487,159,40,0.0010964912280701754,1493.0,1494.0,1325,1499.0
13.916703939437866,159,40,0.0010526315789473684,1493.0,1494.0,1325,1499.0
13.939944982528687,158,39,0.0010526315789473684,1490.0,1494.0,1325,1498.0
13.963212013244629,158,38,0.0010964912280701754,1489.0,1494.0,1325,1498.0
13.986509084701538,158,38,0.001081081081081081,1487.0,1494.0,1325,1498.0
14.009696960449219,157,38,0.0010526315789473684,1482.0,1494.0,1325,1497.0
14.032940149307251,157,38,0.0010526315789473684,1480,1494.0,1325,1497.0
14.056121110916138,157,38,0.0010526315789473684,1480,1494.0,1325,1497.0
14.079251050949097,157,38,0.0010526315789473684,1480,1494.0,1325,1497.0
14.102548122406006,157,38,0.0010526315789473684,1480,1494.0,1325,1497.0
14.125854969024658,157,37,0.0010256410256410256,1480,1494.0,1325,1497.0
14.148965120315552,157,37,0.0010256410256410256,1480,1494.0,1325,1497.0
14.172070980072021,157,36,0.0010683760683760685,1480,1494.0,1325,1497.0
14.195528030395508,157,36,0.001,1480,1494.0,1325,1497.0
14.218626976013184,157,35,0.0010416666666666667,1480,1494.0,1325,1497.0
14.241727113723755,157,35,0.001,1480,1494.0,1325,1497.0
14.264800071716309,157,34,0.0010416666666666667,1480,1494.0,1325,1497.0
14.287914037704468,157,34,0.001,1480,1494.0,1325,1497.0
14.310985088348389,157,33,0.0010683760683760685,1480,1494.0,1325,1497.0
14.334066152572632,157,32,0.0010416666666666667,1480,1494.0,1325,1497.0
14.357155084609985,157,32,0.0010416666666666667,1480,1494.0,1325,1497.0
14.380263090133667,157,31,0.0010416666666666667,1480,1494.0,1325,1497.0
14.403411149978638,157,31,0.0010416666666666667,1480,1494.0,1325,1497.0
14.426516056060791,157,31,0.001,1480,1494.0,1325,1497.0
14.449576139450073,157,30,0.0010162601626016261,1480,1494.0,1325,1497.0
14.472864151000977,158,30,0.000975609756097561,1480,1494.0,1325,1498.0
14.496150970458984,157,30,0.000975609756097561,1480,1494.0,1325,1497.0
14.519246101379395,157,29,0.000992063492063492,1480,1494.0,1325,1497.0
14.542447090148926,158,29,0.000975609756097561,1480,1494.0,1325,1498.0
14.565696001052856,157,28,0.000992063492063492,1480,1494.0,1325,1497.0
14.588789939880371,157,28,0.000975609756097561,1480,1494.0,1325,1497.0
14.611873149871826,158,27,0.000975609756097561,1480,1494.0,1325,1498.0
14.63515305519104,158,27,0.0009523809523809524,1480,1494.0,1325,1498.0
14.658285140991211,158,26,0.000975609756097561,1480,1494.0,1325,1498.0
14.681407928466797,158,26,0.000975609756097561,1480,1494.0,1325,1498.0
14.704494953155518,158,26,0.0009523809523809524,1480,1494.0,1325,1498.0
14.727594137191772,159,25,0.0010162601626016261,1480,1494.0,1325,1499.0
14.750669956207275,159,25,0.0009523809523809524,1480,1494.0,1325,1499.0
14.773771047592163,160,25,0.0009302325581395349,1482.0,1494.0,1325,1500.0
14.796942949295044,160,25,0.0009302325581395349,1485.0,1494.0,1325,1500.0
14.820121049880981,160,24,0.0009090909090909091,1488.0,1494.0,1325,1500.0
14.843394994735718,160,24,0.0009090909090909091,1490.0,1494.0,1325,1500.0
14.86665391921997,161,23,0.0009302325581395349,1495.0,1494.0,1325,1501.0
14.889863014221191,161,22,0.0009090909090909091,1498.0,1494.0,1325,1501.0
14.913227081298828,162,22,0.0008888888888888889,1504.0,1494.0,1325,1502.0
14.936600923538208,162,21,0.0008741258741258741,1508.0,1494.0,1325,1502.0
14.959804058074951,162,21,0.0008741258741258741,1511.0,1494.0,1325,1502.0
14.98318099975586,162,21,0.0008741258741258741,1514.0,1494.0,1325,1502.0
15.006551027297974,162,21,0.0008741258741258741,1516.0,1494.0,1325,1502.0
15.029715061187744,162,21,0.0008547008547008547,1518.0,1494.0,1325,1502.0
15.052958965301514,162,21,0.0008230452674897119,1520.0,1494.0,1325,1502.0
15.076211929321289,162,21,0.0008230452674897119,1520,1494.0,1325,1502.0
15.099337100982666,161,20,0.0008417508417508417,1520.0,1494.0,1325,1501.0
15.122679948806763,161,20,0.0008230452674897119,1520.0,1494.0,1325,1501.0
15.14605712890625,161,19,0.0007936507936507937,1519.0,1494.0,1325,1501.0
15.169263124465942,161,18,0.0007763975155279503,1518.0,1494.0,1325,1501.0
15.192613124847412,161,18,0.0007936507936507937,1517.0,1494.0,1325,1501.0
15.216360092163086,160,18,0.0007496251874062968,1513.0,1494.0,1325,1500.0
15.23973798751831,160,18,0.0007496251874062968,1511.0,1494.0,1325,1500.0
15.263122081756592,160,18,0.0007496251874062968,1509.0,1494.0,1325,1500.0
15.286515951156616,160,18,0.0007246376811594203,1507.0,1494.0,1325,1500.0
15.309706926345825,160,18,0.0007246376811594203,1505.0,1494.0,1325,1500.0
15.333047151565552,160,18,0.0007246376811594203,1504.0,1494.0,1325,1500.0
15.356410026550293,160,18,0.0007246376811594203,1503.0,1494.0,1325,1500.0
15.379617929458618,161,18,0.0006863417982155113,1505.0,1494.0,1325,1501.0
15.402975082397461,161,17,0.0006863417982155113,1505.0,1494.0,1325,1501.0
15.426335096359253,161,16,0.0007092198581560284,1505.0,1494.0,1325,1501.0
15.44947099685669,161,16,0.0006720430107526882,1506.0,1494.0,1325,1501.0
15.472870111465454,161,15,0.0006510416666666666,1507.0,1494.0,1325,1501.0
15.496264934539795,162,15,0.0006583278472679394,1511.0,1494.0,1325,1502.0
15.519451141357422,162,15,0.0006583278472679394,1513.0,1494.0,1325,1502.0
15.542748928070068,162,15,0.0006583278472679394,1515.0,1494.0,1325,1502.0
15.56610107421875,161,15,0.000625,1514.0,1494.0,1325,1501.0
15.589259147644043,161,15,0.000625,1515.0,1494.0,1325,1501.0
15.612576007843018,160,15,0.000625,1512.0,1494.0,1325,1500.0
15.635937929153442,160,15,0.000625,1511.0,1494.0,1325,1500.0
15.659095048904419,160,15,0.0006451612903225806,1510.0,1494.0,1325,1500.0
15.682281017303467,159,15,0.0006451612903225806,1506.0,1494.0,1325,1499.0
15.705811023712158,159,15,0.0006451612903225806,1504.0,1494.0,1325,1499.0
15.72900104522705,159,14,0.00065359477124183,1501.0,1494.0,1325,1499.0
15.752211093902588,158,14,0.000689655172413793,1495.0,1494.0,1325,1498.0
15.77578091621399,159,14,0.000676132521974307,1494.0,1494.0,1325,1499.0
15.79895806312561,159,14,0.000676132521974307,1492.0,1494.0,1325,1499.0
15.822127103805542,158,13,0.0007142857142857143,1487.0,1494.0,1325,1498.0
15.845660924911499,160,13,0.0006738544474393531,1491.0,1494.0,1325,1500.0
15.868858098983765,159,14,0.0006385696040868455,1488.0,1494.0,1325,1499.0
15.892050981521606,159,13,0.0006613756613756613,1487.0,1494.0,1325,1499.0
15.91564393043518,159,13,0.0006613756613756613,1487.0,1494.0,1325,1499.0
15.938857078552246,159,13,0.0006734006734006734,1487.0,1494.0,1325,1499.0
15.962046146392822,159,13,0.0006734006734006734,1487.0,1494.0,1325,1499.0
15.985415935516357,159,12,0.0006993006993006993,1488.0,1494.0,1325,1499.0
16.00863003730774,159,12,0.0006993006993006993,1488.0,1494.0,1325,1499.0
16.03180694580078,159,12,0.0007272727272727272,1488.0,1494.0,1325,1499.0
16.055105924606323,158,11,0.000744047619047619,1486.0,1494.0,1325,1498.0
16.078299045562744,158,11,0.0007905138339920949,1484.0,1494.0,1325,1498.0
16.101516008377075,158,11,0.0007496251874062968,1483.0,1494.0,1325,1498.0
16.124727964401245,158,10,0.0007836990595611285,1482.0,1494.0,1325,1498.0
