time,x,y,size_inv,roll,pitch,thrust,yaw
0.00046706199645996094,151,58,0.030303030303030304,1480,1499.0,1350,1491.0
0.022325992584228516,151,58,0.016666666666666666,1480,1499.0,1350,1491.0
0.04386711120605469,151,54,0.017857142857142856,1480,1499.0,1350,1491.0
0.0653228759765625,,,,1480,1500,1305.2,1500.0
0.08668994903564453,149,58,0.014285714285714285,1480,1499.0,1350,1489.0
0.10822606086730957,150,57,0.01020408163265306,1480,1499.0,1350,1490.0
0.12981390953063965,150,55,0.011363636363636364,1480,1499.0,1350,1490.0
0.15134406089782715,154,58,0.022727272727272728,1480,1499.0,1350,1494.0
0.17288708686828613,,,,1480,1500,1312.0799999999999,1500.0
0.19426894187927246,147,57,0.025,1480,1499.0,1350,1487.0
0.21605801582336426,150,57,0.013888888888888888,1480,1499.0,1350,1490.0
0.23800992965698242,152,55,0.015873015873015872,1480,1499.0,1350,1492.0
0.25989198684692383,150,54,0.027777777777777776,1480,1499.0,1350,1490.0
0.2819240093231201,152,57,0.011111111111111112,1480,1499.0,1350,1492.0
0.3038311004638672,152,59,0.023809523809523808,1480,1499.0,1350,1492.0
0.32575392723083496,154,58,0.015873015873015872,1480,1499.0,1350,1494.0
0.34766602516174316,154,60,0.027777777777777776,1480,1499.0,1350,1494.0
0.3695640563964844,154,56,0.016666666666666666,1480,1499.0,1350,1494.0
0.3915119171142578,156,59,0.047619047619047616,1480,1499.0,1349.52,1496.0
0.4136989116668701,158,56,0.020833333333333332,1480,1499.0,1350,1498.0
0.4355959892272949,159,59,0.023809523809523808,1480,1499.0,1350,1499.0
0.4574730396270752,160,58,0.03571428571428571,1480,1499.0,1350,1500.0
0.47943902015686035,161,58,0.01282051282051282,1480,1499.0,1350,1501.0
0.5012989044189453,165,58,0.010416666666666666,1483.0,1499.0,1350,1505.0
0.5234930515289307,165,58,0.030303030303030304,1496.0,1499.0,1350,1505.0
0.5453009605407715,,,,1492.0,1500,1256.3199999999999,1500.0
0.5671100616455078,171,61,0.023809523809523808,1520,1499.0,1296.0799999999999,1511.0
0.5890820026397705,167,59,0.015384615384615385,1520,1499.0,1299.76,1507.0
0.6109919548034668,169,63,0.015151515151515152,1520,1499.0,1286.4000000000001,1509.0
0.6329569816589355,167,63,0.007407407407407408,1520,1499.0,1281.9200000000001,1507.0
0.6548359394073486,166,64,0.025,1520,1499.0,1350,1506.0
0.6767470836639404,168,66,0.008928571428571428,1520,1499.0,1350,1508.0
0.6986188888549805,167,67,0.008928571428571428,1520,1499.0,1350,1507.0
0.7204868793487549,166,67,0.016666666666666666,1520,1499.0,1350,1506.0
0.7423911094665527,163,57,0.027777777777777776,1520,1499.0,1350,1503.0
0.7642168998718262,165,72,0.016666666666666666,1520,1499.0,1321.4400000000001,1505.0
0.786160945892334,166,60,0.02564102564102564,1520,1499.0,1350,1506.0
0.8080410957336426,164,74,0.009523809523809525,1520,1499.0,1335.28,1504.0
0.8300149440765381,165,71,0.022727272727272728,1520,1499.0,1338.5599999999999,1505.0
0.8521120548248291,164,73,0.010416666666666666,1520,1499.0,1304.96,1504.0
0.8741240501403809,162,73,0.020833333333333332,1520,1499.0,1314.4000000000001,1502.0
0.8960340023040771,164,78,0.008928571428571428,1520,1499.0,1274.3199999999999,1504.0
0.9179790019989014,163,77,0.013888888888888888,1520,1499.0,1280.72,1503.0
0.9399199485778809,164,79,0.017857142857142856,1520,1499.0,1272.24,1504.0
0.9619050025939941,162,78,0.010101010101010102,1520,1499.0,1288.0,1502.0
0.984428882598877,162,79,0.022727272727272728,1520,1499.0,1279.52,1502.0
1.0080749988555908,163,78,0.01098901098901099,1520,1499.0,1305.2,1503.0
1.0318069458007812,166,80,0.022727272727272728,1520,1499.0,1302.5599999999999,1506.0
1.0556459426879883,165,84,0.016666666666666666,1520,1499.0,1301.4400000000001,1505.0
1.0792179107666016,164,80,0.02564102564102564,1520,1499.0,1310.1600000000001,1504.0
1.1027920246124268,161,95,0.008928571428571428,1520,1499.0,1277.28,1501.0
1.1262989044189453,159,89,0.020833333333333332,1520,1499.0,1268.6400000000001,1499.0
1.1500239372253418,160,95,0.006493506493506494,1520,1499.0,1250,1500.0
1.173292875289917,,,,1520,1500,1250,1500.0
1.196523904800415,161,85,0.015384615384615385,1520,1499.0,1250,1501.0
1.2199909687042236,161,89,0.01020408163265306,1520,1499.0,1260.8,1501.0
1.2439000606536865,162,87,0.01282051282051282,1520,1499.0,1281.04,1502.0
1.2674798965454102,161,89,0.008547008547008548,1516.0,1499.0,1307.6800000000001,1501.0
1.2911388874053955,158,103,0.015151515151515152,1503.0,1499.0,1308.3199999999999,1498.0
1.3149969577789307,160,92,0.010101010101010102,1503.0,1499.0,1318.24,1500.0
1.3386669158935547,161,94,0.008333333333333333,1505.0,1499.0,1300.48,1501.0
1.362534999847412,160,106,0.01020408163265306,1504.0,1499.0,1256.0,1500.0
1.386383056640625,156,101,0.047619047619047616,1492.0,1499.0,1250,1496.0
1.4100029468536377,161,94,0.011363636363636364,1503.0,1499.0,1262.0,1501.0
1.4337220191955566,161,97,0.006944444444444444,1503.0,1499.0,1260.72,1501.0
1.4574470520019531,162,98,0.016666666666666666,1506.0,1499.0,1260.5599999999999,1502.0
1.4812860488891602,160,98,0.015625,1500.0,1499.0,1297.9200000000001,1500.0
1.5051438808441162,161,97,0.011904761904761904,1502.0,1499.0,1321.2,1501.0
1.528764009475708,160,111,0.007407407407407408,1502.0,1499.0,1267.6800000000001,1500.0
1.5524260997772217,159,98,0.02,1499.0,1499.0,1288.6400000000001,1499.0
1.576179027557373,159,88,0.01818181818181818,1497.0,1499.0,1320.48,1499.0
1.6005640029907227,160,106,0.013888888888888888,1499.0,1499.0,1276.48,1500.0
1.6241428852081299,160,112,0.00625,1503.0,1499.0,1250,1500.0
1.6477348804473877,161,107,0.011111111111111112,1505.0,1499.0,1277.1199999999999,1501.0
1.6714000701904297,159,99,0.020833333333333332,1499.0,1499.0,1286.6400000000001,1499.0
1.6955170631408691,161,113,0.004784688995215311,1502.0,1499.0,1250,1501.0
1.719115972518921,160,103,0.008547008547008548,1500.0,1499.0,1250,1500.0
1.7427558898925781,161,102,0.008333333333333333,1502.0,1499.0,1283.4400000000001,1501.0
1.7665019035339355,160,106,0.017857142857142856,1500.0,1499.0,1274.6400000000001,1500.0
1.7900810241699219,160,103,0.007142857142857143,1501.0,1499.0,1273.8399999999999,1500.0
1.8137450218200684,158,108,0.003125,1496.0,1499.0,1309.04,1498.0
1.8374300003051758,157,115,0.01020408163265306,1491.0,1499.0,1279.28,1497.0
1.8610949516296387,160,113,0.004048582995951417,1497.0,1499.0,1252.24,1500.0
1.884861946105957,159,116,0.007936507936507936,1493.0,1499.0,1250,1499.0
1.908371925354004,159,114,0.005555555555555556,1493.0,1499.0,1250,1499.0
1.9320149421691895,158,116,0.008403361344537815,1488.0,1499.0,1250,1498.0
1.955880880355835,158,114,0.005555555555555556,1486.0,1499.0,1250,1498.0
1.9794518947601318,159,114,0.005263157894736842,1486.0,1499.0,1250,1499.0
2.003143072128296,159,111,0.006578947368421052,1485.0,1499.0,1262.24,1499.0
2.0271339416503906,159,113,0.004784688995215311,1484.0,1499.0,1276.24,1499.0
2.051163911819458,158,113,0.0058823529411764705,1482.0,1499.0,1291.4400000000001,1498.0
2.075129985809326,158,112,0.004901960784313725,1483.0,1499.0,1294.1600000000001,1498.0
2.0989038944244385,157,112,0.005555555555555556,1480,1499.0,1298.4000000000001,1497.0
2.122554063796997,157,112,0.005555555555555556,1480,1499.0,1290.1600000000001,1497.0
2.146320104598999,158,112,0.005263157894736842,1480,1499.0,1290.24,1498.0
2.1699628829956055,157,112,0.005050505050505051,1480,1499.0,1287.5999999999999,1497.0
2.193563938140869,158,111,0.005,1480,1499.0,1287.52,1498.0
2.2172179222106934,158,111,0.004784688995215311,1480,1499.0,1286.24,1498.0
2.2408719062805176,158,111,0.004784688995215311,1480,1499.0,1289.04,1498.0
2.264730930328369,156,110,0.00625,1480,1499.0,1291.76,1496.0
2.2883310317993164,157,109,0.005555555555555556,1480,1499.0,1295.9200000000001,1497.0
2.3121368885040283,157,109,0.0058823529411764705,1480,1499.0,1297.4400000000001,1497.0
2.3357949256896973,157,108,0.005050505050505051,1480,1499.0,1301.5999999999999,1497.0
2.359247922897339,157,107,0.004901960784313725,1480,1499.0,1307.2,1497.0
2.3828608989715576,158,106,0.0043859649122807015,1480,1499.0,1311.4400000000001,1498.0
2.4064700603485107,157,107,0.005555555555555556,1480,1499.0,1309.04,1497.0
2.430094003677368,158,106,0.005263157894736842,1480,1499.0,1311.8399999999999,1498.0
2.4540469646453857,157,106,0.005555555555555556,1480,1499.0,1310.6400000000001,1497.0
2.4774980545043945,158,105,0.005263157894736842,1480,1499.0,1309.28,1498.0
2.501038074493408,158,105,0.0053475935828877,1480,1499.0,1305.28,1498.0
2.5248849391937256,158,104,0.005555555555555556,1480,1499.0,1308.0799999999999,1498.0
2.5485329627990723,158,104,0.005050505050505051,1480,1499.0,1306.8800000000001,1498.0
2.5723021030426025,158,102,0.005555555555555556,1480,1499.0,1312.3199999999999,1498.0
2.5960159301757812,159,102,0.0053475935828877,1480,1499.0,1313.9200000000001,1499.0
2.6195809841156006,159,101,0.005555555555555556,1480,1499.0,1319.52,1499.0
2.643172025680542,159,101,0.005050505050505051,1480.0,1499.0,1319.76,1499.0
2.6670188903808594,160,99,0.0043859649122807015,1484.0,1499.0,1326.6400000000001,1500.0
2.6907100677490234,160,99,0.0058823529411764705,1487.0,1499.0,1325.52,1500.0
2.7145299911499023,160,99,0.005050505050505051,1489.0,1499.0,1325.76,1500.0
2.738274097442627,161,98,0.005263157894736842,1494.0,1499.0,1325.8399999999999,1501.0
2.762118101119995,160,98,0.005555555555555556,1494.0,1499.0,1326.0799999999999,1500.0
2.7858970165252686,161,98,0.006535947712418301,1499.0,1499.0,1320.72,1501.0
2.809619903564453,160,97,0.0058823529411764705,1499.0,1499.0,1320.72,1500.0
2.8333680629730225,161,97,0.0058823529411764705,1503.0,1499.0,1319.52,1501.0
2.857008934020996,161,96,0.004629629629629629,1505.0,1499.0,1319.52,1501.0
2.8806850910186768,161,96,0.006172839506172839,1507.0,1499.0,1318.3199999999999,1501.0
2.9043989181518555,162,96,0.006535947712418301,1511.0,1499.0,1319.8399999999999,1502.0
2.9281060695648193,161,95,0.005555555555555556,1510.0,1499.0,1321.2,1501.0
2.951848030090332,161,95,0.005050505050505051,1511.0,1499.0,1321.3599999999999,1501.0
2.9755699634552,161,95,0.005555555555555556,1511.0,1499.0,1320.0799999999999,1501.0
2.99924898147583,161,95,0.006172839506172839,1512.0,1499.0,1318.8,1501.0
3.0228629112243652,161,94,0.005555555555555556,1512.0,1499.0,1320.1600000000001,1501.0
3.0467700958251953,162,94,0.004784688995215311,1516.0,1499.0,1318.8800000000001,1502.0
3.0710818767547607,161,94,0.006172839506172839,1514.0,1499.0,1317.5999999999999,1501.0
3.0949840545654297,162,93,0.004784688995215311,1517.0,1499.0,1320.3199999999999,1502.0
3.118565082550049,161,93,0.005050505050505051,1515.0,1499.0,1321.8399999999999,1501.0
3.1422879695892334,161,92,0.005050505050505051,1514.0,1499.0,1323.2,1501.0
3.16617488861084,161,92,0.0058823529411764705,1514.0,1499.0,1324.72,1501.0
3.1898880004882812,161,91,0.005555555555555556,1514.0,1499.0,1328.8800000000001,1501.0
3.213696002960205,161,92,0.006172839506172839,1514.0,1499.0,1326.4000000000001,1501.0
3.2373809814453125,161,92,0.006535947712418301,1514.0,1499.0,1325.1199999999999,1501.0
3.261157989501953,160,92,0.006172839506172839,1511.0,1499.0,1322.4000000000001,1500.0
3.284980058670044,160,91,0.005050505050505051,1509.0,1499.0,1322.3199999999999,1500.0
3.3086400032043457,160,91,0.005050505050505051,1508.0,1499.0,1318.24,1500.0
3.3323729038238525,160,91,0.006172839506172839,1506.0,1499.0,1318.3199999999999,1500.0
3.3560750484466553,160,90,0.005555555555555556,1505.0,1499.0,1321.04,1500.0
3.3798000812530518,160,90,0.006172839506172839,1504.0,1499.0,1323.9200000000001,1500.0
3.403596878051758,161,90,0.006535947712418301,1506.0,1499.0,1324.0,1501.0
3.4272968769073486,160,89,0.005555555555555556,1503.0,1499.0,1328.0799999999999,1500.0
3.4510629177093506,161,89,0.006172839506172839,1505.0,1499.0,1329.5999999999999,1501.0
3.4749600887298584,160,89,0.006172839506172839,1502.0,1499.0,1328.3199999999999,1500.0
3.498753070831299,161,88,0.006172839506172839,1505.0,1499.0,1329.6800000000001,1501.0
3.5225729942321777,160,88,0.005555555555555556,1503.0,1499.0,1331.2,1500.0
3.5463790893554688,160,88,0.005555555555555556,1503.0,1499.0,1329.9200000000001,1500.0
3.5700199604034424,160,88,0.005555555555555556,1503.0,1499.0,1328.6400000000001,1500.0
3.5935659408569336,160,88,0.005050505050505051,1503.0,1499.0,1328.72,1500.0
3.617321014404297,161,88,0.005263157894736842,1506.0,1499.0,1326.0,1501.0
3.64143705368042,160,88,0.005555555555555556,1503.0,1499.0,1323.28,1500.0
3.66554594039917,160,88,0.005555555555555556,1503.0,1499.0,1321.9200000000001,1500.0
3.689189910888672,160,89,0.005555555555555556,1502.0,1499.0,1317.9200000000001,1500.0
3.7127668857574463,161,89,0.004784688995215311,1505.0,1499.0,1315.1199999999999,1501.0
3.736448049545288,160,89,0.005050505050505051,1502.0,1499.0,1313.6800000000001,1500.0
3.7602310180664062,160,89,0.005050505050505051,1502.0,1499.0,1312.24,1500.0
3.7839179039001465,159,89,0.007407407407407408,1499.0,1499.0,1310.8,1499.0
3.8075599670410156,159,88,0.005050505050505051,1498.0,1499.0,1314.8,1499.0
3.831162929534912,159,88,0.005050505050505051,1497.0,1499.0,1317.5999999999999,1499.0
3.8550829887390137,159,88,0.005050505050505051,1495.0,1499.0,1320.4000000000001,1499.0
3.878664016723633,160,88,0.004784688995215311,1497.0,1499.0,1323.2,1500.0
3.9024930000305176,159,89,0.006535947712418301,1494.0,1499.0,1323.3599999999999,1499.0
3.9263880252838135,158,89,0.005050505050505051,1490.0,1499.0,1320.5599999999999,1498.0
3.9501519203186035,158,90,0.006172839506172839,1487.0,1499.0,1315.1199999999999,1498.0
3.973841905593872,158,90,0.005050505050505051,1485.0,1499.0,1310.8800000000001,1498.0
3.9977169036865234,157,91,0.007407407407407408,1480.0,1499.0,1304.0,1497.0
4.021523952484131,156,91,0.007936507936507936,1480,1499.0,1301.1199999999999,1496.0
4.045480966567993,157,91,0.005555555555555556,1480,1499.0,1299.5999999999999,1497.0
4.069122076034546,157,91,0.005050505050505051,1480,1499.0,1300.8800000000001,1497.0
4.0927159786224365,158,91,0.006172839506172839,1480,1499.0,1302.1600000000001,1498.0
4.116313934326172,158,90,0.005050505050505051,1480,1499.0,1308.8800000000001,1498.0
4.139998912811279,158,90,0.005050505050505051,1480,1499.0,1313.04,1498.0
4.163623094558716,158,90,0.005050505050505051,1480,1499.0,1317.2,1498.0
4.187268018722534,158,90,0.005050505050505051,1480,1499.0,1320.0,1498.0
4.211159944534302,158,89,0.005050505050505051,1480,1499.0,1325.4400000000001,1498.0
4.23508095741272,159,90,0.005050505050505051,1480,1499.0,1322.8800000000001,1499.0
4.2588560581207275,159,89,0.005555555555555556,1480,1499.0,1324.1600000000001,1499.0
4.282594919204712,160,90,0.005050505050505051,1483.0,1499.0,1321.5999999999999,1500.0
4.306396007537842,160,90,0.005050505050505051,1486.0,1499.0,1320.24,1500.0
4.330032110214233,161,90,0.0043859649122807015,1491.0,1499.0,1316.0799999999999,1501.0
4.353595018386841,161,91,0.004784688995215311,1494.0,1499.0,1313.4400000000001,1501.0
4.377245903015137,161,91,0.005050505050505051,1497.0,1499.0,1309.2,1501.0
4.400952100753784,161,90,0.005555555555555556,1500.0,1499.0,1310.4000000000001,1501.0
4.424721956253052,160,90,0.005050505050505051,1500.0,1499.0,1310.4000000000001,1500.0
4.4484639167785645,160,90,0.005050505050505051,1502.0,1499.0,1311.76,1500.0
4.472322940826416,160,90,0.005050505050505051,1503.0,1499.0,1314.5599999999999,1500.0
4.496104955673218,160,90,0.005050505050505051,1504.0,1499.0,1318.72,1500.0
4.519788980484009,160,90,0.005050505050505051,1504.0,1499.0,1318.72,1500.0
4.543508052825928,160,90,0.006666666666666667,1504.0,1499.0,1318.72,1500.0
4.567205905914307,161,91,0.005050505050505051,1506.0,1499.0,1316.0799999999999,1501.0
4.590970993041992,161,91,0.005050505050505051,1506.0,1499.0,1313.28,1501.0
4.614793062210083,161,91,0.005050505050505051,1506.0,1499.0,1310.48,1501.0
4.6384429931640625,161,91,0.005555555555555556,1506.0,1499.0,1309.04,1501.0
4.6621339321136475,161,91,0.005555555555555556,1507.0,1499.0,1307.5999999999999,1501.0
4.685976028442383,161,91,0.006060606060606061,1508.0,1499.0,1308.96,1501.0
4.709513902664185,161,92,0.005050505050505051,1509.0,1499.0,1307.6800000000001,1501.0
4.7331719398498535,161,92,0.005681818181818182,1510.0,1499.0,1307.5999999999999,1501.0
4.756788015365601,162,92,0.005555555555555556,1514.0,1499.0,1307.52,1502.0
4.780472993850708,162,92,0.005050505050505051,1516.0,1499.0,1307.4400000000001,1502.0
4.80408501625061,162,92,0.005050505050505051,1517.0,1499.0,1306.0,1502.0
4.8280251026153564,162,92,0.005050505050505051,1518.0,1499.0,1307.3599999999999,1502.0
4.8518218994140625,161,92,0.00625,1516.0,1499.0,1308.72,1501.0
4.8756139278411865,162,92,0.005050505050505051,1519.0,1499.0,1310.0799999999999,1502.0
4.8993918895721436,161,92,0.005555555555555556,1517.0,1499.0,1311.4400000000001,1501.0
4.92304801940918,162,92,0.005555555555555556,1520.0,1499.0,1312.8,1502.0
4.9467079639434814,161,92,0.005555555555555556,1518.0,1499.0,1312.8,1501.0
4.970407009124756,162,92,0.0053475935828877,1520,1499.0,1312.8,1502.0
4.99419093132019,162,92,0.004784688995215311,1520,1499.0,1312.8,1502.0
5.017904996871948,161,92,0.005050505050505051,1518.0,1499.0,1312.8,1501.0
5.041724920272827,161,92,0.005050505050505051,1517.0,1499.0,1312.8,1501.0
5.065458059310913,161,92,0.005050505050505051,1516.0,1499.0,1312.8,1501.0
5.089073896408081,161,91,0.005555555555555556,1516.0,1499.0,1315.4400000000001,1501.0
5.112720966339111,161,92,0.005050505050505051,1515.0,1499.0,1314.24,1501.0
5.136436939239502,161,91,0.005555555555555556,1515.0,1499.0,1316.8800000000001,1501.0
5.160146951675415,161,91,0.005555555555555556,1514.0,1499.0,1318.3199999999999,1501.0
5.1839540004730225,160,90,0.005555555555555556,1511.0,1499.0,1322.4000000000001,1500.0
5.207642078399658,160,90,0.005050505050505051,1509.0,1499.0,1322.48,1500.0
5.231429100036621,161,90,0.004784688995215311,1510.0,1499.0,1325.3599999999999,1501.0
5.255385875701904,160,90,0.005050505050505051,1507.0,1499.0,1325.4400000000001,1500.0
5.279047012329102,160,90,0.005050505050505051,1506.0,1499.0,1325.52,1500.0
5.302742004394531,160,90,0.005555555555555556,1505.0,1499.0,1322.8,1500.0
5.326203107833862,160,90,0.005555555555555556,1504.0,1499.0,1321.4400000000001,1500.0
5.349720001220703,160,91,0.006172839506172839,1503.0,1499.0,1316.0799999999999,1500.0
5.3732008934021,159,90,0.005208333333333333,1499.0,1499.0,1315.9200000000001,1499.0
5.397593021392822,160,91,0.006535947712418301,1500.0,1499.0,1311.9200000000001,1500.0
5.422122955322266,160,90,0.004784688995215311,1500.0,1499.0,1313.1199999999999,1500.0
5.446722030639648,159,90,0.005050505050505051,1497.0,1499.0,1313.1199999999999,1499.0
5.471307039260864,159,90,0.005263157894736842,1495.0,1499.0,1315.9200000000001,1499.0
5.495879888534546,158,91,0.005050505050505051,1491.0,1499.0,1313.28,1498.0
5.520257949829102,158,91,0.005050505050505051,1489.0,1499.0,1314.6400000000001,1498.0
5.544610023498535,159,91,0.004784688995215311,1490.0,1499.0,1313.2,1499.0
5.569555997848511,158,91,0.005050505050505051,1486.0,1499.0,1311.76,1498.0
5.593950986862183,158,91,0.005555555555555556,1484.0,1499.0,1308.96,1498.0
5.618401050567627,158,91,0.005263157894736842,1483.0,1499.0,1310.3199999999999,1498.0
5.642770051956177,157,91,0.005555555555555556,1480,1499.0,1310.3199999999999,1497.0
5.667126893997192,157,91,0.005050505050505051,1480,1499.0,1311.6800000000001,1497.0
5.6917901039123535,157,91,0.005050505050505051,1480,1499.0,1313.04,1497.0
5.716253042221069,157,91,0.005555555555555556,1480,1499.0,1314.4000000000001,1497.0
5.740617036819458,157,91,0.005555555555555556,1480,1499.0,1314.4000000000001,1497.0
5.765089988708496,157,92,0.005050505050505051,1480,1499.0,1311.76,1497.0
5.789719104766846,157,92,0.005050505050505051,1480,1499.0,1310.3199999999999,1497.0
5.814052104949951,157,92,0.004629629629629629,1480,1499.0,1308.8800000000001,1497.0
5.838464975357056,157,92,0.005050505050505051,1480,1499.0,1307.4400000000001,1497.0
5.862868070602417,158,92,0.005050505050505051,1480,1499.0,1306.0,1498.0
5.887181997299194,158,92,0.005050505050505051,1480,1499.0,1307.3599999999999,1498.0
5.911463975906372,158,92,0.005050505050505051,1480,1499.0,1308.72,1498.0
5.9360010623931885,159,92,0.004784688995215311,1480,1499.0,1310.0799999999999,1499.0
5.960447072982788,158,92,0.005050505050505051,1480,1499.0,1311.4400000000001,1498.0
5.985342979431152,159,92,0.0043859649122807015,1480,1499.0,1312.8,1499.0
6.009708881378174,158,92,0.004629629629629629,1480,1499.0,1312.8,1498.0
6.034298896789551,159,92,0.0043859649122807015,1480,1499.0,1312.8,1499.0
6.058631896972656,158,93,0.005050505050505051,1480,1499.0,1310.1600000000001,1498.0
6.083188056945801,159,93,0.004784688995215311,1482.0,1499.0,1308.72,1499.0
6.107614994049072,159,93,0.004784688995215311,1483.0,1499.0,1307.28,1499.0
6.132106065750122,159,93,0.0043859649122807015,1484.0,1499.0,1305.8399999999999,1499.0
6.156584024429321,159,94,0.005050505050505051,1485.0,1499.0,1301.76,1499.0
6.180974960327148,160,94,0.0043859649122807015,1488.0,1499.0,1301.6800000000001,1500.0
6.20574688911438,159,94,0.004629629629629629,1487.0,1499.0,1301.5999999999999,1499.0
6.230191946029663,160,95,0.004784688995215311,1490.0,1499.0,1298.8800000000001,1500.0
6.254581928253174,160,95,0.005050505050505051,1492.0,1499.0,1297.3599999999999,1500.0
6.27892804145813,160,95,0.005050505050505051,1493.0,1499.0,1298.6400000000001,1500.0
6.303308010101318,161,94,0.0043859649122807015,1498.0,1499.0,1301.2,1501.0
6.327686071395874,161,95,0.004784688995215311,1500.0,1499.0,1299.9200000000001,1501.0
6.352257966995239,161,94,0.0043859649122807015,1502.0,1499.0,1305.28,1501.0
6.376807928085327,161,94,0.004784688995215311,1504.0,1499.0,1309.4400000000001,1501.0
6.40120792388916,161,94,0.004629629629629629,1506.0,1499.0,1312.24,1501.0
6.426004886627197,161,94,0.004629629629629629,1507.0,1499.0,1312.24,1501.0
6.450387954711914,162,94,0.004166666666666667,1512.0,1499.0,1315.04,1502.0
6.474833011627197,161,95,0.005050505050505051,1511.0,1499.0,1311.04,1501.0
6.499430894851685,162,95,0.004784688995215311,1515.0,1499.0,1308.24,1502.0
6.523838996887207,162,95,0.0043859649122807015,1517.0,1499.0,1305.4400000000001,1502.0
6.548261880874634,162,96,0.004784688995215311,1518.0,1499.0,1301.3599999999999,1502.0
6.572824001312256,162,96,0.004784688995215311,1519.0,1499.0,1297.1199999999999,1502.0
6.597395896911621,162,96,0.004784688995215311,1520.0,1499.0,1297.04,1502.0
6.621880054473877,161,95,0.005050505050505051,1518.0,1499.0,1299.5999999999999,1501.0
6.646338939666748,162,95,0.004784688995215311,1520,1499.0,1300.96,1502.0
6.670913934707642,162,94,0.0043859649122807015,1520,1499.0,1307.76,1502.0
6.6960649490356445,162,94,0.004784688995215311,1520,1499.0,1313.3599999999999,1502.0
6.720515966415405,162,94,0.004784688995215311,1520,1499.0,1317.5999999999999,1502.0
6.745222091674805,162,94,0.004784688995215311,1520,1499.0,1319.04,1502.0
6.769553899765015,162,94,0.004784688995215311,1520,1499.0,1320.48,1502.0
6.793842077255249,162,94,0.004545454545454545,1520,1499.0,1317.76,1502.0
6.8184568881988525,162,94,0.004784688995215311,1520,1499.0,1315.04,1502.0
6.842983961105347,162,94,0.004784688995215311,1520,1499.0,1312.3199999999999,1502.0
6.867331027984619,162,93,0.004784688995215311,1520,1499.0,1313.5999999999999,1502.0
6.89171290397644,162,93,0.004784688995215311,1520,1499.0,1313.6800000000001,1502.0
6.916093111038208,161,92,0.005555555555555556,1520,1499.0,1317.76,1501.0
6.9404520988464355,161,92,0.005050505050505051,1520.0,1499.0,1320.6400000000001,1501.0
6.9652791023254395,161,91,0.005555555555555556,1519.0,1499.0,1326.1600000000001,1501.0
6.98981499671936,161,91,0.005050505050505051,1518.0,1499.0,1327.6800000000001,1501.0
7.014348030090332,161,91,0.004784688995215311,1517.0,1499.0,1329.2,1501.0
7.0390400886535645,160,91,0.005050505050505051,1513.0,1499.0,1327.9200000000001,1500.0
7.063395977020264,160,91,0.005050505050505051,1511.0,1499.0,1326.6400000000001,1500.0
7.087774038314819,160,91,0.005050505050505051,1509.0,1499.0,1322.5599999999999,1500.0
7.112229108810425,160,92,0.004784688995215311,1507.0,1499.0,1317.2,1500.0
7.136908054351807,159,92,0.005050505050505051,1502.0,1499.0,1313.04,1499.0
7.161679983139038,161,92,0.004784688995215311,1506.0,1499.0,1310.24,1501.0
7.186126947402954,160,91,0.005050505050505051,1503.0,1499.0,1310.0799999999999,1500.0
7.2106568813323975,160,91,0.005050505050505051,1502.0,1499.0,1310.0799999999999,1500.0
7.2353410720825195,160,91,0.005050505050505051,1501.0,1499.0,1312.8800000000001,1500.0
7.259928941726685,161,90,0.004784688995215311,1503.0,1499.0,1318.3199999999999,1501.0
7.28463888168335,162,90,0.004784688995215311,1507.0,1499.0,1322.5599999999999,1502.0
7.309103965759277,161,90,0.005050505050505051,1506.0,1499.0,1324.0,1501.0
7.333616018295288,161,90,0.005050505050505051,1507.0,1499.0,1325.4400000000001,1501.0
7.358135938644409,161,90,0.005050505050505051,1508.0,1499.0,1325.52,1501.0
7.3827478885650635,161,90,0.005050505050505051,1510.0,1499.0,1322.8,1501.0
7.4071691036224365,162,91,0.004784688995215311,1513.0,1499.0,1317.4400000000001,1502.0
7.431617021560669,162,91,0.004784688995215311,1515.0,1499.0,1314.6400000000001,1502.0
7.456080913543701,161,91,0.004784688995215311,1514.0,1499.0,1311.8399999999999,1501.0
7.48068904876709,161,92,0.004784688995215311,1515.0,1499.0,1306.4000000000001,1501.0
7.5052430629730225,160,92,0.004784688995215311,1512.0,1499.0,1303.52,1500.0
7.529650926589966,159,92,0.005050505050505051,1507.0,1499.0,1303.4400000000001,1499.0
7.554035902023315,160,92,0.004784688995215311,1508.0,1499.0,1303.3599999999999,1500.0
7.578407049179077,158,91,0.005050505050505051,1501.0,1499.0,1305.9200000000001,1498.0
7.602812051773071,159,91,0.004784688995215311,1501.0,1499.0,1310.0799999999999,1499.0
7.627319097518921,159,91,0.004784688995215311,1499.0,1499.0,1314.24,1499.0
7.651887893676758,158,92,0.004545454545454545,1493.0,1499.0,1314.4000000000001,1498.0
7.676349878311157,157,93,0.005050505050505051,1486.0,1499.0,1313.1199999999999,1497.0
7.700798034667969,157,93,0.004545454545454545,1482.0,1499.0,1310.24,1497.0
7.725292921066284,156,94,0.005050505050505051,1480,1499.0,1303.3599999999999,1496.0
7.749737977981567,157,94,0.004784688995215311,1480,1499.0,1297.6800000000001,1497.0
7.774159908294678,156,95,0.004784688995215311,1480,1499.0,1292.1600000000001,1496.0
7.798508882522583,155,96,0.004784688995215311,1480,1499.0,1288.0,1495.0
7.822793960571289,155,96,0.005050505050505051,1480,1499.0,1286.4000000000001,1495.0
7.8471879959106445,154,96,0.005050505050505051,1480,1499.0,1287.5999999999999,1494.0
7.871737957000732,155,96,0.004784688995215311,1480,1499.0,1288.8,1495.0
7.896184921264648,154,95,0.0053475935828877,1480,1499.0,1294.0799999999999,1494.0
7.920527935028076,154,95,0.004784688995215311,1480,1499.0,1299.5999999999999,1494.0
7.945363998413086,154,94,0.0043859649122807015,1480,1499.0,1307.76,1494.0
7.9697160720825195,154,94,0.004545454545454545,1480,1499.0,1313.3599999999999,1494.0
7.994282007217407,154,93,0.005050505050505051,1480,1499.0,1321.5999999999999,1494.0
8.018646001815796,154,92,0.005050505050505051,1480,1499.0,1327.1199999999999,1494.0
8.043000936508179,155,92,0.0053475935828877,1480,1499.0,1330.0799999999999,1495.0
8.067369937896729,156,91,0.004784688995215311,1480,1499.0,1332.8800000000001,1496.0
8.091758966445923,155,92,0.005050505050505051,1480,1499.0,1331.8399999999999,1495.0
8.116169929504395,156,92,0.004784688995215311,1480,1499.0,1329.2,1496.0
8.140793085098267,156,93,0.005050505050505051,1480,1499.0,1322.48,1496.0
8.16541600227356,157,94,0.005050505050505051,1480,1499.0,1314.3199999999999,1497.0
8.189748048782349,157,94,0.005050505050505051,1480,1499.0,1305.9200000000001,1497.0
8.214063882827759,157,93,0.005050505050505051,1480,1499.0,1302.96,1497.0
8.238497972488403,157,93,0.005050505050505051,1480,1499.0,1300.1600000000001,1497.0
8.262907981872559,158,93,0.0053475935828877,1480,1499.0,1301.52,1498.0
8.287694931030273,159,92,0.0043859649122807015,1480,1499.0,1308.3199999999999,1499.0
8.312257051467896,159,92,0.004629629629629629,1480,1499.0,1315.28,1499.0
8.336864948272705,159,92,0.004629629629629629,1480,1499.0,1318.0799999999999,1499.0
8.361301898956299,160,92,0.004545454545454545,1480,1499.0,1320.8800000000001,1500.0
8.386207103729248,159,92,0.004629629629629629,1480.0,1499.0,1322.3199999999999,1499.0
8.41083288192749,159,92,0.004629629629629629,1482.0,1499.0,1319.5999999999999,1499.0
8.435401916503906,160,92,0.004166666666666667,1487.0,1499.0,1316.8800000000001,1500.0
8.460139989852905,160,92,0.0043859649122807015,1490.0,1499.0,1315.52,1500.0
8.485299110412598,159,93,0.005050505050505051,1490.0,1499.0,1311.52,1499.0
8.50979495048523,160,93,0.005050505050505051,1494.0,1499.0,1308.72,1500.0
8.534363985061646,161,94,0.004048582995951417,1498.0,1499.0,1304.6400000000001,1501.0
8.558780908584595,160,97,0.006944444444444444,1497.0,1499.0,1293.8399999999999,1500.0
8.583196878433228,161,95,0.004784688995215311,1501.0,1499.0,1291.9200000000001,1501.0
8.607424974441528,161,95,0.005555555555555556,1502.0,1499.0,1290.4000000000001,1501.0
8.631392002105713,162,94,0.005263157894736842,1507.0,1499.0,1291.52,1502.0
8.655529975891113,162,95,0.0043859649122807015,1510.0,1499.0,1291.5999999999999,1502.0
8.679272890090942,162,97,0.008333333333333333,1512.0,1499.0,1296.0,1502.0
8.703007936477661,162,94,0.004629629629629629,1514.0,1499.0,1305.1199999999999,1502.0
8.726753950119019,162,96,0.008771929824561403,1517.0,1499.0,1304.0,1502.0
8.750480890274048,162,94,0.004629629629629629,1519.0,1499.0,1307.76,1502.0
8.774220943450928,162,94,0.005050505050505051,1520.0,1499.0,1310.5599999999999,1502.0
8.798036098480225,162,95,0.005050505050505051,1520,1499.0,1312.24,1502.0
8.821803092956543,162,95,0.004784688995215311,1520,1499.0,1309.4400000000001,1502.0
8.845560073852539,163,96,0.004545454545454545,1520,1499.0,1309.5999999999999,1503.0
8.869194984436035,162,96,0.005050505050505051,1520,1499.0,1306.72,1502.0
8.892806053161621,163,96,0.004784688995215311,1520,1499.0,1302.48,1503.0
8.916539907455444,162,96,0.005050505050505051,1520,1499.0,1298.3199999999999,1502.0
8.94031310081482,163,96,0.004545454545454545,1520,1499.0,1298.24,1503.0
8.963937997817993,162,96,0.0053475935828877,1520,1499.0,1298.24,1502.0
8.987606048583984,163,95,0.005263157894736842,1520,1499.0,1303.5999999999999,1503.0
9.011243104934692,163,95,0.0043859649122807015,1520,1499.0,1307.76,1503.0
9.034986019134521,163,95,0.004166666666666667,1520,1499.0,1310.5599999999999,1503.0
9.058609962463379,163,95,0.004784688995215311,1520,1499.0,1313.3599999999999,1503.0
9.082364082336426,163,95,0.004784688995215311,1520,1499.0,1314.8,1503.0
9.106088876724243,163,95,0.005050505050505051,1520,1499.0,1313.4400000000001,1503.0
9.129878044128418,163,94,0.004784688995215311,1520,1499.0,1314.72,1503.0
9.15353798866272,162,94,0.005555555555555556,1520,1499.0,1314.8,1502.0
9.177167892456055,163,94,0.004545454545454545,1520,1499.0,1314.8800000000001,1503.0
9.200890064239502,162,93,0.006172839506172839,1520,1499.0,1317.5999999999999,1502.0
9.224772930145264,162,94,0.005050505050505051,1520,1499.0,1317.8399999999999,1502.0
9.248492002487183,162,94,0.004784688995215311,1520,1499.0,1316.48,1502.0
9.272485971450806,162,91,0.006578947368421052,1520,1499.0,1323.04,1502.0
9.297133922576904,161,92,0.005847953216374269,1520,1499.0,1323.3599999999999,1501.0
9.320791006088257,161,93,0.004784688995215311,1520,1499.0,1319.4400000000001,1501.0
9.344621896743774,161,93,0.004784688995215311,1520,1499.0,1319.52,1501.0
9.36835503578186,160,93,0.004784688995215311,1516.0,1499.0,1320.96,1500.0
9.3922278881073,160,92,0.0043859649122807015,1514.0,1499.0,1316.6400000000001,1500.0
9.416101932525635,160,92,0.0043859649122807015,1511.0,1499.0,1313.9200000000001,1500.0
9.439815998077393,159,92,0.004166666666666667,1506.0,1499.0,1315.3599999999999,1499.0
9.463494062423706,160,92,0.0043859649122807015,1506.0,1499.0,1315.4400000000001,1500.0
9.487215995788574,159,92,0.004784688995215311,1501.0,1499.0,1315.52,1499.0
9.510952949523926,159,90,0.006578947368421052,1498.0,1499.0,1322.1600000000001,1499.0
9.534903049468994,159,92,0.0043859649122807015,1496.0,1499.0,1319.76,1499.0
9.558724880218506,158,94,0.005555555555555556,1491.0,1499.0,1313.1199999999999,1498.0
9.582602977752686,157,91,0.005050505050505051,1485.0,1499.0,1316.8,1497.0
9.606399059295654,158,92,0.005847953216374269,1485.0,1499.0,1314.24,1498.0
9.630099058151245,158,90,0.0043859649122807015,1483.0,1499.0,1313.9200000000001,1498.0
9.653899908065796,158,90,0.0043859649122807015,1481.0,1499.0,1316.8,1498.0
9.677606105804443,157,90,0.004545454545454545,1480,1499.0,1325.28,1497.0
9.701682090759277,157,90,0.004784688995215311,1480,1499.0,1325.3599999999999,1497.0
9.725903987884521,156,90,0.004545454545454545,1480,1499.0,1328.24,1496.0
9.749567031860352,156,90,0.004545454545454545,1480,1499.0,1328.24,1496.0
9.773207902908325,157,90,0.004784688995215311,1480,1499.0,1325.52,1497.0
9.796839952468872,156,90,0.004545454545454545,1480,1499.0,1320.0799999999999,1496.0
9.820580005645752,156,91,0.004784688995215311,1480,1499.0,1316.0799999999999,1496.0
9.844312906265259,156,91,0.004784688995215311,1480,1499.0,1311.9200000000001,1496.0
9.86795687675476,155,91,0.0043859649122807015,1480,1499.0,1310.48,1495.0
9.89166808128357,155,91,0.005050505050505051,1480,1499.0,1309.04,1495.0
9.915332078933716,155,91,0.004545454545454545,1480,1499.0,1307.5999999999999,1495.0
9.938968896865845,154,88,0.007936507936507936,1480,1499.0,1316.8800000000001,1494.0
9.962716102600098,155,88,0.007518796992481203,1480,1499.0,1322.5599999999999,1495.0
9.986533880233765,155,90,0.004545454545454545,1480,1499.0,1322.96,1495.0
10.010256052017212,155,87,0.008771929824561403,1480,1499.0,1333.6800000000001,1495.0
10.034215927124023,155,90,0.0043859649122807015,1480,1499.0,1332.8800000000001,1495.0
10.057868003845215,156,90,0.0043859649122807015,1480,1499.0,1325.9200000000001,1496.0
10.081487894058228,156,91,0.005263157894736842,1480,1499.0,1316.3199999999999,1496.0
10.105228900909424,156,91,0.004784688995215311,1480,1499.0,1313.52,1496.0
10.128980875015259,155,91,0.004629629629629629,1480,1499.0,1302.3199999999999,1495.0
10.1527259349823,156,91,0.0043859649122807015,1480,1499.0,1299.52,1496.0
10.17632508277893,157,91,0.004629629629629629,1480,1499.0,1300.8,1497.0
10.200000047683716,156,92,0.005263157894736842,1480,1499.0,1302.24,1496.0
10.223702907562256,157,89,0.0125,1480,1499.0,1310.0799999999999,1497.0
10.247292041778564,157,90,0.0043859649122807015,1480,1499.0,1315.76,1497.0
10.270931959152222,157,90,0.004166666666666667,1480,1499.0,1318.5599999999999,1497.0
10.294862985610962,158,89,0.005263157894736842,1480,1499.0,1324.0,1498.0
10.318598985671997,158,91,0.0043859649122807015,1480,1499.0,1324.4000000000001,1498.0
10.342443943023682,158,92,0.004048582995951417,1480,1499.0,1316.1600000000001,1498.0
10.366125106811523,159,93,0.004048582995951417,1480,1499.0,1309.28,1499.0
10.389729976654053,159,92,0.0043859649122807015,1480,1499.0,1306.24,1499.0
10.4133939743042,159,94,0.0038461538461538464,1480,1499.0,1293.9200000000001,1499.0
10.437208890914917,159,93,0.0043859649122807015,1480,1499.0,1290.8800000000001,1499.0
10.460937023162842,159,93,0.004629629629629629,1481.0,1499.0,1293.52,1499.0
10.484848022460938,160,94,0.0043859649122807015,1486.0,1499.0,1294.96,1500.0
10.508548974990845,160,94,0.004166666666666667,1489.0,1499.0,1294.8,1500.0
10.53230595588684,160,95,0.005,1491.0,1499.0,1298.96,1500.0
10.556066989898682,160,94,0.004545454545454545,1493.0,1499.0,1301.4400000000001,1500.0
10.57984209060669,161,94,0.003968253968253968,1498.0,1499.0,1301.3599999999999,1501.0
10.60376501083374,161,93,0.003968253968253968,1500.0,1499.0,1305.3599999999999,1501.0
10.627604961395264,161,94,0.005847953216374269,1502.0,1499.0,1306.8800000000001,1501.0
10.65143609046936,160,94,0.004545454545454545,1501.0,1499.0,1309.6800000000001,1500.0
10.675266981124878,160,93,0.004166666666666667,1502.0,1499.0,1313.6800000000001,1500.0
10.698951005935669,160,94,0.004784688995215311,1503.0,1499.0,1313.8399999999999,1500.0
10.722630977630615,159,93,0.004166666666666667,1500.0,1499.0,1313.6800000000001,1499.0
10.746362924575806,160,92,0.005,1502.0,1499.0,1317.76,1500.0
10.770173072814941,160,93,0.003787878787878788,1502.0,1499.0,1316.6400000000001,1500.0
10.793875932693481,160,93,0.004166666666666667,1502.0,1499.0,1315.28,1500.0
10.817593097686768,160,93,0.004166666666666667,1501.0,1499.0,1316.72,1500.0
10.841269969940186,160,92,0.004166666666666667,1500.0,1499.0,1319.3599999999999,1500.0
10.865051984786987,161,92,0.003968253968253968,1502.0,1499.0,1316.6400000000001,1501.0
10.888763904571533,160,92,0.004166666666666667,1500.0,1499.0,1316.72,1500.0
10.913011074066162,161,91,0.005263157894736842,1503.0,1499.0,1320.8,1501.0
10.936745882034302,160,96,0.005555555555555556,1501.0,1499.0,1309.1199999999999,1500.0
10.96044397354126,160,93,0.0043859649122807015,1502.0,1499.0,1309.9200000000001,1500.0
10.98415207862854,160,95,0.005,1502.0,1499.0,1303.2,1500.0
11.00787901878357,160,96,0.005555555555555556,1502.0,1499.0,1294.8800000000001,1500.0
11.03153109550476,160,94,0.004545454545454545,1502.0,1499.0,1290.24,1500.0
11.055331945419312,160,94,0.005847953216374269,1502.0,1499.0,1297.2,1500.0
11.079070091247559,160,94,0.004784688995215311,1502.0,1499.0,1297.1199999999999,1500.0
11.10298490524292,160,94,0.004784688995215311,1501.0,1499.0,1302.6400000000001,1500.0
11.126708984375,160,94,0.004166666666666667,1501.0,1499.0,1310.96,1500.0
11.150382995605469,160,94,0.0043859649122807015,1500.0,1499.0,1315.04,1500.0
11.174154043197632,161,96,0.005291005291005291,1503.0,1499.0,1307.04,1501.0
11.197932958602905,161,94,0.0043859649122807015,1504.0,1499.0,1310.8,1501.0
11.222073078155518,161,94,0.0043859649122807015,1505.0,1499.0,1309.4400000000001,1501.0
11.245858907699585,161,94,0.0043859649122807015,1506.0,1499.0,1306.72,1501.0
11.269558906555176,161,95,0.004166666666666667,1507.0,1499.0,1304.0799999999999,1501.0
11.293261051177979,162,95,0.003663003663003663,1511.0,1499.0,1308.24,1502.0
11.316982984542847,161,94,0.004784688995215311,1510.0,1499.0,1309.4400000000001,1501.0
11.340789079666138,161,93,0.0043859649122807015,1511.0,1499.0,1312.0799999999999,1501.0
11.364945888519287,161,93,0.0038461538461538464,1512.0,1499.0,1313.52,1501.0
11.388753890991211,161,91,0.005847953216374269,1513.0,1499.0,1323.04,1501.0
11.412597894668579,161,94,0.007518796992481203,1513.0,1499.0,1319.52,1501.0
11.436357021331787,162,92,0.004329004329004329,1516.0,1499.0,1324.8,1502.0
11.460078001022339,162,88,0.008771929824561403,1517.0,1499.0,1335.4400000000001,1502.0
11.483789920806885,161,92,0.006578947368421052,1515.0,1499.0,1330.72,1501.0
11.507529020309448,162,91,0.004166666666666667,1518.0,1499.0,1326.48,1502.0
11.531246900558472,161,93,0.005847953216374269,1515.0,1499.0,1324.1600000000001,1501.0
11.555317878723145,162,91,0.0043859649122807015,1518.0,1499.0,1325.28,1502.0
11.579065084457397,162,91,0.004166666666666667,1519.0,1499.0,1314.1600000000001,1502.0
11.602767944335938,162,91,0.004545454545454545,1520.0,1499.0,1314.24,1502.0
11.626455068588257,161,91,0.005050505050505051,1518.0,1499.0,1314.24,1501.0
11.650228023529053,162,91,0.005,1520,1499.0,1315.76,1502.0
11.673728942871094,163,88,0.006944444444444444,1520,1499.0,1322.3199999999999,1503.0
11.697367906570435,162,90,0.004545454545454545,1520,1499.0,1325.4400000000001,1502.0
11.721091985702515,162,89,0.005263157894736842,1520,1499.0,1328.1600000000001,1502.0
11.745208978652954,162,88,0.005555555555555556,1520,1499.0,1333.6800000000001,1502.0
11.768857955932617,161,89,0.004273504273504274,1520,1499.0,1332.6400000000001,1501.0
11.792603015899658,161,89,0.004545454545454545,1520.0,1499.0,1327.1199999999999,1501.0
11.816312074661255,161,85,0.008771929824561403,1519.0,1499.0,1337.76,1501.0
11.840115070343018,161,87,0.004166666666666667,1518.0,1499.0,1335.52,1501.0
11.863980054855347,160,87,0.004166666666666667,1515.0,1499.0,1332.8800000000001,1500.0
11.887680053710938,161,89,0.005291005291005291,1516.0,1499.0,1327.76,1501.0
11.911482095718384,160,87,0.0043859649122807015,1511.0,1499.0,1334.4000000000001,1500.0
11.935292959213257,161,87,0.0043859649122807015,1512.0,1499.0,1324.72,1501.0
11.959012985229492,159,86,0.006172839506172839,1505.0,1499.0,1324.6400000000001,1499.0
11.982712984085083,160,87,0.004784688995215311,1505.0,1499.0,1322.0799999999999,1500.0
12.00648307800293,159,89,0.008403361344537815,1501.0,1499.0,1319.6800000000001,1499.0
12.030227899551392,160,86,0.004166666666666667,1502.0,1499.0,1322.0,1500.0
12.053981065750122,159,86,0.004545454545454545,1498.0,1499.0,1326.1600000000001,1499.0
12.077687978744507,159,89,0.007518796992481203,1496.0,1499.0,1316.8800000000001,1499.0
12.10173487663269,159,89,0.007352941176470588,1495.0,1499.0,1314.0,1499.0
12.12572193145752,160,90,0.008771929824561403,1496.0,1499.0,1311.3599999999999,1500.0
12.149427890777588,159,88,0.004784688995215311,1493.0,1499.0,1309.52,1499.0
12.173145055770874,158,88,0.0043859649122807015,1488.0,1499.0,1305.28,1498.0
12.196875095367432,158,88,0.007142857142857143,1487.0,1499.0,1310.8,1498.0
12.220586061477661,158,88,0.004784688995215311,1485.0,1499.0,1314.96,1498.0
12.244390964508057,159,88,0.003968253968253968,1487.0,1499.0,1319.2,1499.0
12.268094062805176,158,89,0.005,1483.0,1499.0,1319.28,1498.0
12.291860103607178,158,90,0.006578947368421052,1482.0,1499.0,1317.9200000000001,1498.0
12.31580400466919,158,88,0.005555555555555556,1481.0,1499.0,1318.96,1498.0
12.339524030685425,158,87,0.005847953216374269,1480.0,1499.0,1320.24,1498.0
12.363214015960693,157,88,0.005555555555555556,1480,1499.0,1316.3199999999999,1497.0
12.386868953704834,156,89,0.004166666666666667,1480,1499.0,1316.48,1496.0
12.410610914230347,156,90,0.004545454545454545,1480,1499.0,1318.0,1496.0
12.43433403968811,155,89,0.006172839506172839,1480,1499.0,1317.76,1495.0
12.4579598903656,158,86,0.013888888888888888,1480,1499.0,1321.4400000000001,1498.0
12.481628894805908,156,90,0.004545454545454545,1480,1499.0,1313.76,1496.0
12.505337953567505,156,89,0.004166666666666667,1480,1499.0,1314.96,1496.0
12.528963088989258,156,89,0.0043859649122807015,1480,1499.0,1316.4000000000001,1496.0
12.552609920501709,156,89,0.004166666666666667,1480,1499.0,1317.76,1496.0
12.576243877410889,156,90,0.003663003663003663,1480,1499.0,1309.4400000000001,1496.0
12.599883079528809,156,90,0.004329004329004329,1480,1499.0,1312.1600000000001,1496.0
12.623696088790894,156,90,0.004329004329004329,1480,1499.0,1310.72,1496.0
12.647341012954712,156,90,0.003663003663003663,1480,1499.0,1307.9200000000001,1496.0
12.670959949493408,155,87,0.00980392156862745,1480,1499.0,1314.4000000000001,1495.0
12.694880962371826,156,87,0.008333333333333333,1480,1499.0,1324.1600000000001,1496.0
12.718605041503906,156,90,0.004545454545454545,1480,1499.0,1320.5599999999999,1496.0
12.742407083511353,156,88,0.010416666666666666,1480,1499.0,1327.2,1496.0
12.766062021255493,155,90,0.004166666666666667,1480,1499.0,1326.1600000000001,1495.0
12.789715051651001,156,90,0.0043859649122807015,1480,1499.0,1319.1199999999999,1496.0
12.813457012176514,156,90,0.004166666666666667,1480,1499.0,1310.72,1496.0
12.83707594871521,156,91,0.005263157894736842,1480,1499.0,1308.0799999999999,1496.0
12.860697984695435,156,90,0.004784688995215311,1480,1499.0,1303.6800000000001,1496.0
12.88437795639038,156,90,0.004166666666666667,1480,1499.0,1303.6800000000001,1496.0
12.908042907714844,157,91,0.0043859649122807015,1480,1499.0,1305.1199999999999,1497.0
12.93182897567749,158,91,0.004784688995215311,1480,1499.0,1307.76,1498.0
12.955550909042358,158,91,0.004545454545454545,1480,1499.0,1309.1199999999999,1498.0
12.979187965393066,158,93,0.005847953216374269,1480,1499.0,1305.1199999999999,1498.0
13.002837896347046,156,93,0.010416666666666666,1480,1499.0,1300.8,1496.0
13.026473045349121,158,92,0.005,1480,1499.0,1301.9200000000001,1498.0
13.050296068191528,157,94,0.011111111111111112,1480,1499.0,1296.5599999999999,1497.0
13.074023008346558,159,91,0.003968253968253968,1480,1499.0,1300.1600000000001,1499.0
13.097766876220703,159,93,0.008771929824561403,1480,1499.0,1301.8399999999999,1499.0
13.121417045593262,159,91,0.005,1480,1499.0,1311.2,1499.0
13.145241022109985,159,94,0.008403361344537815,1480,1499.0,1306.0799999999999,1499.0
13.168864011764526,160,90,0.006578947368421052,1483.0,1499.0,1320.72,1500.0
13.192609071731567,160,89,0.00625,1485.0,1499.0,1324.8,1500.0
13.21638298034668,160,92,0.004048582995951417,1487.0,1499.0,1322.6400000000001,1500.0
13.240309953689575,160,92,0.004545454545454545,1491.0,1499.0,1318.48,1500.0
13.264107942581177,162,89,0.008928571428571428,1499.0,1499.0,1332.0,1502.0
13.287780046463013,162,88,0.006578947368421052,1504.0,1499.0,1330.6400000000001,1502.0
13.311820030212402,161,91,0.005,1504.0,1499.0,1321.4400000000001,1501.0
13.335695028305054,159,89,0.006666666666666667,1500.0,1499.0,1326.8,1499.0
13.359509944915771,163,89,0.00625,1512.0,1499.0,1332.48,1503.0
13.383235931396484,161,90,0.004545454545454545,1510.0,1499.0,1323.04,1501.0
13.406958103179932,161,90,0.004784688995215311,1511.0,1499.0,1317.4400000000001,1501.0
13.430660963058472,161,91,0.004545454545454545,1512.0,1499.0,1318.96,1501.0
13.454437017440796,161,91,0.005847953216374269,1513.0,1499.0,1312.0,1501.0
13.478118896484375,161,90,0.0043859649122807015,1514.0,1499.0,1307.6800000000001,1501.0
13.502212047576904,162,92,0.004329004329004329,1516.0,1499.0,1303.76,1502.0
13.526088953018188,161,90,0.004166666666666667,1513.0,1499.0,1308.8800000000001,1501.0
13.549889087677002,163,87,0.0125,1519.0,1499.0,1318.24,1503.0
13.573559999465942,163,87,0.010526315789473684,1520,1499.0,1326.72,1503.0
13.597189903259277,162,89,0.005,1520.0,1499.0,1327.1199999999999,1502.0
13.620852947235107,163,90,0.0043859649122807015,1520,1499.0,1331.52,1503.0
13.64465594291687,162,90,0.004901960784313725,1520,1499.0,1331.52,1502.0
13.6682710647583,162,93,0.007936507936507936,1520,1499.0,1313.8399999999999,1502.0
13.691993951797485,160,89,0.008928571428571428,1519.0,1499.0,1310.3199999999999,1500.0
13.715766906738281,162,91,0.005050505050505051,1520,1499.0,1303.6800000000001,1502.0
13.739368915557861,163,88,0.008771929824561403,1520,1499.0,1307.4400000000001,1503.0
13.76294994354248,163,91,0.004784688995215311,1520,1499.0,1302.4000000000001,1503.0
13.786575078964233,162,89,0.006944444444444444,1520,1499.0,1318.72,1502.0
13.81044602394104,163,88,0.008403361344537815,1520,1499.0,1324.0799999999999,1503.0
13.834152936935425,164,90,0.004784688995215311,1520,1499.0,1325.8399999999999,1504.0
13.857887983322144,164,89,0.005555555555555556,1520,1499.0,1322.8800000000001,1504.0
13.88150691986084,163,92,0.008771929824561403,1520,1499.0,1319.2,1503.0
13.905230045318604,163,90,0.005050505050505051,1520,1499.0,1314.72,1503.0
13.928853034973145,163,90,0.004784688995215311,1520,1499.0,1310.48,1503.0
13.952588081359863,163,89,0.005847953216374269,1520,1499.0,1311.76,1503.0
13.976402044296265,162,92,0.007352941176470588,1520,1499.0,1305.2,1502.0
14.000060081481934,163,90,0.0043859649122807015,1520,1499.0,1311.8399999999999,1503.0
14.023706912994385,162,91,0.004784688995215311,1520,1499.0,1310.5599999999999,1502.0
14.047343015670776,161,92,0.007352941176470588,1520,1499.0,1309.2,1501.0
14.070969104766846,161,91,0.005050505050505051,1520,1499.0,1306.1600000000001,1501.0
14.09489393234253,161,92,0.005555555555555556,1520,1499.0,1309.04,1501.0
14.118730068206787,161,91,0.004545454545454545,1520,1499.0,1306.0799999999999,1501.0
14.142532110214233,161,90,0.004784688995215311,1520.0,1499.0,1310.0799999999999,1501.0
14.166491985321045,160,91,0.004784688995215311,1515.0,1499.0,1313.04,1500.0
14.190183877944946,162,92,0.011904761904761904,1518.0,1499.0,1313.1199999999999,1502.0
14.21390700340271,160,90,0.0043859649122807015,1512.0,1499.0,1318.4000000000001,1500.0
14.237663984298706,159,90,0.004166666666666667,1506.0,1499.0,1321.2,1499.0
14.261369943618774,158,92,0.006944444444444444,1500.0,1499.0,1314.5599999999999,1498.0
14.285268068313599,158,93,0.009259259259259259,1497.0,1499.0,1309.1199999999999,1498.0
14.309194087982178,159,89,0.006578947368421052,1497.0,1499.0,1319.5999999999999,1499.0
14.332937955856323,159,90,0.003968253968253968,1495.0,1499.0,1315.6800000000001,1499.0
14.35664987564087,159,90,0.004784688995215311,1493.0,1499.0,1314.3199999999999,1499.0
14.380342960357666,159,89,0.004166666666666667,1491.0,1499.0,1322.5599999999999,1499.0
14.404165029525757,158,90,0.006944444444444444,1487.0,1499.0,1328.4000000000001,1498.0
14.427974939346313,159,90,0.006578947368421052,1486.0,1499.0,1322.8800000000001,1499.0
14.451698064804077,157,89,0.005050505050505051,1480,1499.0,1325.52,1497.0
14.475377082824707,158,89,0.004545454545454545,1480.0,1499.0,1326.96,1498.0
14.499169111251831,158,90,0.006578947368421052,1480.0,1499.0,1320.24,1498.0
14.523154973983765,158,88,0.005555555555555556,1480.0,1499.0,1321.4400000000001,1498.0
14.546885967254639,158,88,0.0043859649122807015,1480,1499.0,1325.6800000000001,1498.0
14.57052493095398,157,90,0.006172839506172839,1480,1499.0,1320.48,1497.0
14.594444036483765,158,88,0.007936507936507936,1480,1499.0,1322.96,1498.0
14.618016958236694,158,85,0.011111111111111112,1480,1499.0,1335.1199999999999,1498.0
14.641722917556763,158,89,0.007518796992481203,1480,1499.0,1326.1600000000001,1498.0
14.665390014648438,158,87,0.004784688995215311,1480,1499.0,1327.28,1498.0
14.6890230178833,157,87,0.0053475935828877,1480,1499.0,1332.96,1497.0
14.712770938873291,158,86,0.005263157894736842,1480,1499.0,1335.6800000000001,1498.0
14.73653507232666,158,90,0.01,1480,1499.0,1316.8800000000001,1498.0
14.760159015655518,157,85,0.006944444444444444,1480,1499.0,1330.0,1497.0
14.783849000930786,157,87,0.005050505050505051,1480,1499.0,1326.24,1497.0
14.807485103607178,157,87,0.0053475935828877,1480,1499.0,1322.1600000000001,1497.0
14.831089973449707,157,87,0.005,1480,1499.0,1318.0,1497.0
14.85486888885498,158,86,0.005847953216374269,1480,1499.0,1331.76,1498.0
14.878475904464722,155,89,0.011111111111111112,1480,1499.0,1316.96,1495.0
14.902175903320312,158,87,0.0043859649122807015,1480,1499.0,1319.3599999999999,1498.0
14.926093101501465,158,88,0.004784688995215311,1480,1499.0,1316.72,1498.0
14.949722051620483,157,88,0.005050505050505051,1480,1499.0,1316.6400000000001,1497.0
14.973359107971191,158,88,0.004784688995215311,1480,1499.0,1308.3199999999999,1498.0
14.997015953063965,158,87,0.005555555555555556,1480,1499.0,1317.8399999999999,1498.0
15.02074408531189,158,89,0.005847953216374269,1480,1499.0,1312.5599999999999,1498.0
15.04463505744934,158,88,0.0043859649122807015,1480,1499.0,1315.1199999999999,1498.0
15.068264961242676,158,89,0.004784688995215311,1480,1499.0,1313.8399999999999,1498.0
15.091985940933228,158,88,0.004166666666666667,1480,1499.0,1317.76,1498.0
15.115712881088257,159,88,0.0043859649122807015,1480,1499.0,1313.5999999999999,1499.0
15.139360904693604,158,88,0.004629629629629629,1480,1499.0,1317.76,1498.0
15.162975072860718,158,88,0.004629629629629629,1480,1499.0,1317.76,1498.0
15.18660306930542,159,88,0.005263157894736842,1480.0,1499.0,1320.5599999999999,1499.0
15.210361003875732,159,88,0.005263157894736842,1481.0,1499.0,1320.5599999999999,1499.0
15.234287977218628,159,90,0.004166666666666667,1482.0,1499.0,1316.6400000000001,1499.0
15.258016109466553,158,92,0.005,1480.0,1499.0,1307.1199999999999,1498.0
15.281788110733032,158,90,0.0043859649122807015,1480.0,1499.0,1306.6400000000001,1498.0
15.305660009384155,158,92,0.006944444444444444,1480.0,1499.0,1297.1199999999999,1498.0
15.329485893249512,159,89,0.007518796992481203,1483.0,1499.0,1299.28,1499.0
15.35329008102417,158,90,0.004166666666666667,1480.0,1499.0,1300.8,1498.0
15.377000093460083,158,90,0.004784688995215311,1480.0,1499.0,1309.1199999999999,1498.0
15.400726079940796,158,89,0.005050505050505051,1480.0,1499.0,1314.48,1498.0
15.424500942230225,159,90,0.005555555555555556,1482.0,1499.0,1321.5999999999999,1499.0
15.448200941085815,158,86,0.006944444444444444,1480,1499.0,1332.0799999999999,1498.0
15.471934080123901,159,88,0.004629629629629629,1481.0,1499.0,1332.5599999999999,1499.0
15.495882987976074,160,89,0.004048582995951417,1485.0,1499.0,1330.0799999999999,1500.0
15.519927978515625,160,89,0.004629629629629629,1487.0,1499.0,1328.72,1500.0
15.543755054473877,158,85,0.020833333333333332,1483.0,1499.0,1338.0,1498.0
15.567434072494507,160,90,0.006172839506172839,1488.0,1499.0,1322.1600000000001,1500.0
15.591150045394897,162,89,0.006578947368421052,1496.0,1499.0,1319.2,1502.0
15.61506199836731,162,89,0.005,1500.0,1499.0,1317.8399999999999,1502.0
15.638854026794434,162,90,0.004784688995215311,1504.0,1499.0,1315.2,1502.0
15.662589073181152,163,91,0.004784688995215311,1510.0,1499.0,1298.5599999999999,1503.0
15.686513900756836,163,90,0.004545454545454545,1515.0,1499.0,1305.2,1503.0
15.710241079330444,163,89,0.004545454545454545,1519.0,1499.0,1307.76,1503.0
15.734220027923584,163,87,0.005263157894736842,1520,1499.0,1313.04,1503.0
15.75796890258789,161,91,0.009523809523809525,1519.0,1499.0,1308.1600000000001,1501.0
15.781819105148315,163,86,0.008333333333333333,1520,1499.0,1329.52,1503.0
15.805613040924072,163,90,0.005847953216374269,1520,1499.0,1324.72,1503.0
15.829211950302124,160,89,0.006944444444444444,1520,1499.0,1325.9200000000001,1500.0
15.852799892425537,160,86,0.0078125,1520,1499.0,1328.24,1500.0
15.876430034637451,162,88,0.004166666666666667,1520,1499.0,1331.52,1502.0
15.900089979171753,161,89,0.005050505050505051,1520,1499.0,1319.2,1501.0
15.923723936080933,161,88,0.0053475935828877,1519.0,1499.0,1323.28,1501.0
15.94743800163269,161,88,0.004629629629629629,1517.0,1499.0,1324.72,1501.0
15.971158981323242,161,88,0.005263157894736842,1515.0,1499.0,1320.48,1501.0
15.995495080947876,161,88,0.004784688995215311,1515.0,1499.0,1316.4000000000001,1501.0
16.01919198036194,160,84,0.013888888888888888,1510.0,1499.0,1332.48,1500.0
16.04290008544922,161,88,0.004784688995215311,1510.0,1499.0,1324.96,1501.0
16.06659197807312,160,87,0.005555555555555556,1508.0,1499.0,1326.24,1500.0
16.090365886688232,160,88,0.004784688995215311,1508.0,1499.0,1327.76,1500.0
16.114259958267212,160,88,0.004784688995215311,1506.0,1499.0,1327.76,1500.0
16.137967109680176,160,90,0.005050505050505051,1505.0,1499.0,1309.9200000000001,1500.0
16.16175889968872,159,88,0.011111111111111112,1501.0,1499.0,1312.3199999999999,1499.0
16.185522079467773,159,91,0.004629629629629629,1499.0,1499.0,1301.5999999999999,1499.0
16.209266901016235,160,90,0.005263157894736842,1500.0,1499.0,1299.9200000000001,1500.0
16.23300004005432,159,92,0.005050505050505051,1496.0,1499.0,1291.76,1499.0
16.256731033325195,159,91,0.005263157894736842,1495.0,1499.0,1299.6800000000001,1499.0
16.280450105667114,159,91,0.005263157894736842,1493.0,1499.0,1295.3599999999999,1499.0
16.304177045822144,159,93,0.007936507936507936,1492.0,1499.0,1295.52,1499.0
16.327889919281006,160,89,0.005263157894736842,1494.0,1499.0,1304.48,1500.0
16.351635932922363,159,90,0.004784688995215311,1491.0,1499.0,1311.5999999999999,1499.0
16.37543487548828,159,90,0.004784688995215311,1490.0,1499.0,1314.4000000000001,1499.0
16.399172067642212,159,87,0.00980392156862745,1490.0,1499.0,1327.8399999999999,1499.0
16.422908067703247,158,90,0.0053475935828877,1487.0,1499.0,1331.28,1498.0
16.446628093719482,157,91,0.00625,1482.0,1499.0,1325.8399999999999,1497.0
16.47030210494995,159,90,0.004784688995215311,1486.0,1499.0,1324.3199999999999,1499.0
16.49402904510498,159,91,0.004784688995215311,1486.0,1499.0,1320.3199999999999,1499.0
16.51787495613098,159,91,0.005555555555555556,1486.0,1499.0,1309.1199999999999,1499.0
16.541425943374634,157,88,0.016666666666666666,1480.0,1499.0,1311.52,1497.0
16.56527090072632,158,93,0.006944444444444444,1480.0,1499.0,1305.3599999999999,1498.0
16.5890109539032,159,93,0.004784688995215311,1482.0,1499.0,1301.04,1499.0
16.612746953964233,159,91,0.0043859649122807015,1482.0,1499.0,1304.8,1499.0
16.63645100593567,159,91,0.009259259259259259,1482.0,1499.0,1310.24,1499.0
16.660248041152954,159,92,0.007352941176470588,1483.0,1499.0,1300.5599999999999,1499.0
16.68398904800415,159,90,0.004629629629629629,1485.0,1499.0,1310.0,1499.0
16.707695960998535,160,89,0.00980392156862745,1488.0,1499.0,1321.04,1500.0
16.731409072875977,160,89,0.0043859649122807015,1489.0,1499.0,1323.9200000000001,1500.0
16.755225896835327,160,91,0.006172839506172839,1490.0,1499.0,1321.52,1500.0
16.779053926467896,160,89,0.005847953216374269,1493.0,1499.0,1333.6800000000001,1500.0
16.802769899368286,159,90,0.004629629629629629,1492.0,1499.0,1328.4000000000001,1499.0
16.826519012451172,159,87,0.013333333333333334,1492.0,1499.0,1329.4400000000001,1499.0
16.85025191307068,160,91,0.0053475935828877,1495.0,1499.0,1319.04,1500.0
16.874043941497803,160,91,0.0053475935828877,1496.0,1499.0,1319.04,1500.0
16.897769927978516,160,91,0.0053475935828877,1497.0,1499.0,1312.0799999999999,1500.0
16.921473026275635,161,91,0.005,1501.0,1499.0,1310.6400000000001,1501.0
16.945609092712402,162,92,0.004784688995215311,1505.0,1499.0,1299.52,1502.0
16.969348907470703,162,91,0.004784688995215311,1507.0,1499.0,1303.4400000000001,1502.0
16.992886066436768,161,92,0.0053475935828877,1506.0,1499.0,1300.8,1501.0
17.016681909561157,161,90,0.005555555555555556,1507.0,1499.0,1307.3599999999999,1501.0
17.040415048599243,160,89,0.008928571428571428,1506.0,1499.0,1312.8,1500.0
17.064193964004517,160,89,0.00625,1507.0,1499.0,1323.9200000000001,1500.0
17.08789896965027,161,86,0.007352941176470588,1510.0,1499.0,1334.72,1501.0
17.111695051193237,161,88,0.005050505050505051,1511.0,1499.0,1339.4400000000001,1501.0
17.13548707962036,162,88,0.0043859649122807015,1515.0,1499.0,1340.96,1502.0
17.159226894378662,162,88,0.005050505050505051,1516.0,1499.0,1339.6800000000001,1502.0
17.182955980300903,162,87,0.006535947712418301,1516.0,1499.0,1339.6800000000001,1502.0
17.206687927246094,161,87,0.0058823529411764705,1513.0,1499.0,1331.4400000000001,1501.0
17.230454921722412,162,89,0.005050505050505051,1516.0,1499.0,1322.1600000000001,1502.0
17.254142999649048,162,89,0.005050505050505051,1517.0,1499.0,1318.0,1502.0
17.277837991714478,162,92,0.011764705882352941,1519.0,1499.0,1307.28,1502.0
17.301619052886963,162,89,0.005263157894736842,1520,1499.0,1305.28,1502.0
17.32534098625183,160,88,0.0078125,1516.0,1499.0,1306.4000000000001,1500.0
17.349061012268066,162,89,0.0053475935828877,1520,1499.0,1306.5599999999999,1502.0
17.372693061828613,160,89,0.008928571428571428,1515.0,1499.0,1307.9200000000001,1500.0
17.396425008773804,161,86,0.005555555555555556,1516.0,1499.0,1325.5999999999999,1501.0
17.4201340675354,160,89,0.008928571428571428,1512.0,1499.0,1324.72,1500.0
17.44383192062378,161,87,0.005050505050505051,1514.0,1499.0,1329.9200000000001,1501.0
17.467560052871704,161,89,0.007936507936507936,1513.0,1499.0,1327.52,1501.0
17.491297006607056,162,85,0.010416666666666666,1515.0,1499.0,1338.0799999999999,1502.0
17.515151977539062,160,88,0.005555555555555556,1509.0,1499.0,1323.4400000000001,1500.0
17.53890109062195,160,88,0.005555555555555556,1507.0,1499.0,1324.8800000000001,1500.0
17.562630891799927,159,90,0.015625,1504.0,1499.0,1316.8,1499.0
17.586323022842407,156,89,0.011111111111111112,1492.0,1499.0,1318.0,1496.0
17.61002492904663,160,88,0.005050505050505051,1500.0,1499.0,1309.4400000000001,1500.0
17.633785009384155,160,88,0.005555555555555556,1499.0,1499.0,1312.1600000000001,1500.0
17.657469034194946,160,87,0.005555555555555556,1499.0,1499.0,1313.4400000000001,1500.0
