time,frame,x,y,size_inv,roll,pitch,thrust,yaw
0.0005400180816650391,1,148,79,0.0023148148148148147,1498.5,1490.0,1355.25,1500
0.02274799346923828,2,148,80,0.002178649237472767,1498.2,1488.5021786492375,1355.0,1500
0.044595956802368164,3,148,79,0.0023148148148148147,1497.9000000000001,1489.8638344226579,1355.25,1500
0.06640386581420898,4,148,80,0.0021008403361344537,1497.5999999999999,1487.5101151571739,1355.0,1500
0.08818602561950684,5,148,80,0.0021008403361344537,1497.3,1487.2961406784937,1355.0,1500
0.1100010871887207,6,148,79,0.0023148148148148147,1497.0,1489.4358854652971,1355.25,1500
0.13182497024536133,7,148,79,0.002232142857142857,1496.7,1488.5264939309056,1355.25,1500
0.15355706214904785,8,148,80,0.002178649237472767,1496.4000000000001,1487.8553921568628,1355.0,1500
0.17528200149536133,9,147,80,0.0022624434389140274,1495.9749999999999,1488.6409627953747,1355.0,1500
0.19731807708740234,10,148,80,0.002178649237472767,1495.7750000000001,1487.6668552036199,1355.0,1500
0.2193300724029541,11,148,80,0.002178649237472767,1495.8050000000001,1487.5306896262778,1355.0,1500
0.2414379119873047,12,148,80,0.002178649237472767,1495.8050000000001,1487.5306896262778,1355.0,1500
0.26345300674438477,13,148,80,0.002178649237472767,1495.8050000000001,1487.3945240489359,1355.0,1500
0.28560686111450195,14,148,80,0.002178649237472767,1495.7449999999999,1487.4723329502742,1355.0,1500
0.307689905166626,15,148,80,0.002178649237472767,1495.7449999999999,1487.5501418516124,1355.0,1500
0.32984209060668945,16,148,80,0.0022624434389140274,1495.7449999999999,1488.3357124901243,1355.0,1500
0.3518710136413574,17,149,80,0.002178649237472767,1495.8399999999999,1487.4442768560416,1355.0,1500
0.3739190101623535,18,149,80,0.002178649237472767,1495.835,1487.4442768560416,1355.0,1500
0.39594101905822754,19,149,80,0.002178649237472767,1495.885,1487.3604826546002,1355.0,1500
0.4179699420928955,20,149,80,0.002178649237472767,1495.8800000000001,1487.3604826546002,1355.0,1500
0.440079927444458,21,149,80,0.002178649237472767,1495.875,1487.3604826546002,1355.0,1500
0.46221399307250977,22,149,80,0.002178649237472767,1495.9300000000001,1487.3604826546002,1355.0,1500
0.48455190658569336,23,149,80,0.002178649237472767,1495.9849999999999,1487.3604826546002,1355.0,1500
0.5067589282989502,24,149,80,0.002178649237472767,1496.04,1487.3604826546002,1355.0,1500
0.5287890434265137,25,149,80,0.002178649237472767,1496.095,1487.3604826546002,1355.0,1500
0.550879955291748,26,149,80,0.002178649237472767,1496.1500000000001,1487.2766884531591,1355.0,1500
0.5729000568389893,27,149,80,0.002178649237472767,1496.1500000000001,1487.2766884531591,1355.0,1500
0.5950520038604736,28,149,80,0.002178649237472767,1496.1500000000001,1487.2766884531591,1355.0,1500
0.6174869537353516,29,149,80,0.002178649237472767,1496.1500000000001,1487.2766884531591,1355.0,1500
0.6396808624267578,30,149,80,0.002178649237472767,1496.1500000000001,1487.2766884531591,1355.0,1500
0.6617109775543213,31,149,80,0.002178649237472767,1496.1500000000001,1487.2766884531591,1355.0,1500
0.6837248802185059,32,149,80,0.002178649237472767,1496.1500000000001,1487.2766884531591,1355.0,1500
0.7059359550476074,33,149,80,0.002178649237472767,1496.1500000000001,1487.2766884531591,1355.0,1500
0.7282130718231201,34,149,80,0.002178649237472767,1496.1500000000001,1487.2766884531591,1355.0,1500
0.7502410411834717,35,149,80,0.002178649237472767,1496.1500000000001,1487.2766884531591,1355.0,1500
0.7722699642181396,36,149,80,0.002178649237472767,1496.1500000000001,1487.2766884531591,1355.0,1500
0.7945859432220459,37,149,80,0.002178649237472767,1496.1500000000001,1487.2766884531591,1355.0,1500
0.8168430328369141,38,149,80,0.002178649237472767,1496.1500000000001,1487.2766884531591,1355.0,1500
0.8392179012298584,39,149,80,0.002178649237472767,1496.1500000000001,1487.2766884531591,1355.0,1500
0.8613560199737549,40,149,80,0.002178649237472767,1496.1500000000001,1487.2766884531591,1355.0,1500
0.8834719657897949,41,149,80,0.002178649237472767,1496.1500000000001,1487.2766884531591,1355.0,1500
0.9055869579315186,42,149,80,0.002178649237472767,1496.1500000000001,1487.2766884531591,1355.0,1500
0.9279508590698242,43,149,80,0.002178649237472767,1496.1500000000001,1487.2766884531591,1355.0,1500
0.9499819278717041,44,149,80,0.002178649237472767,1496.1500000000001,1487.2766884531591,1355.0,1500
0.9720430374145508,45,149,80,0.002178649237472767,1496.1500000000001,1487.2766884531591,1355.0,1500
0.9940049648284912,46,149,80,0.002178649237472767,1496.1500000000001,1487.2766884531591,1355.0,1500
1.0161640644073486,47,149,80,0.002178649237472767,1496.1500000000001,1487.2766884531591,1355.0,1500
1.0381159782409668,48,149,80,0.002178649237472767,1496.1500000000001,1487.2766884531591,1355.0,1500
1.0601398944854736,49,149,80,0.002178649237472767,1496.1500000000001,1487.2766884531591,1355.0,1500
1.0820939540863037,50,149,80,0.002178649237472767,1496.1500000000001,1487.2766884531591,1355.0,1500
1.104132890701294,51,149,80,0.002178649237472767,1496.1500000000001,1487.2766884531591,1355.0,1500
1.1261019706726074,52,149,80,0.002178649237472767,1496.1500000000001,1487.2766884531591,1355.0,1500
1.148141860961914,53,149,80,0.002178649237472767,1496.1500000000001,1487.2766884531591,1355.0,1500
1.1700959205627441,54,149,80,0.002178649237472767,1496.1500000000001,1487.2766884531591,1355.0,1500
1.1921379566192627,55,149,80,0.002178649237472767,1496.1500000000001,1487.2766884531591,1355.0,1500
1.2141940593719482,56,149,80,0.002178649237472767,1496.1500000000001,1487.2766884531591,1355.0,1500
1.2366909980773926,57,149,80,0.002178649237472767,1496.1500000000001,1487.2766884531591,1355.0,1500
1.258976936340332,58,149,80,0.002178649237472767,1496.1500000000001,1487.2766884531591,1355.0,1500
1.281121015548706,59,149,80,0.002178649237472767,1496.1500000000001,1487.2766884531591,1355.0,1500
1.3031589984893799,60,149,80,0.002178649237472767,1496.1500000000001,1487.2766884531591,1355.0,1500
1.3252909183502197,61,149,80,0.002178649237472767,1496.1500000000001,1487.2766884531591,1355.0,1500
1.3475069999694824,62,149,80,0.002178649237472767,1496.1500000000001,1487.2766884531591,1355.0,1500
1.3695769309997559,63,149,80,0.002178649237472767,1496.1500000000001,1487.2766884531591,1355.0,1500
1.3916959762573242,64,149,80,0.002178649237472767,1496.1500000000001,1487.2766884531591,1355.0,1500
1.4137558937072754,65,149,80,0.002178649237472767,1496.1500000000001,1487.2766884531591,1355.0,1500
1.4358329772949219,66,149,80,0.002178649237472767,1496.1500000000001,1487.2766884531591,1355.0,1500
1.457947015762329,67,149,80,0.002178649237472767,1496.1500000000001,1487.2766884531591,1355.0,1500
1.4802279472351074,68,149,80,0.002178649237472767,1496.1500000000001,1487.2766884531591,1355.0,1500
1.5023488998413086,69,149,80,0.002178649237472767,1496.1500000000001,1487.2766884531591,1355.0,1500
1.5243558883666992,70,149,80,0.002178649237472767,1496.1500000000001,1487.2766884531591,1355.0,1500
1.5473079681396484,71,149,80,0.002178649237472767,1496.1500000000001,1487.2766884531591,1355.0,1500
1.5702250003814697,72,149,80,0.002178649237472767,1496.1500000000001,1487.2766884531591,1355.0,1500
1.5925278663635254,73,149,80,0.002178649237472767,1496.1500000000001,1487.2766884531591,1355.0,1500
1.6145949363708496,74,149,80,0.002178649237472767,1496.1500000000001,1487.2766884531591,1355.0,1500
1.6366300582885742,75,149,80,0.002178649237472767,1496.1500000000001,1487.2766884531591,1355.0,1500
1.6586239337921143,76,149,80,0.002178649237472767,1496.1500000000001,1487.2766884531591,1355.0,1500
1.6807339191436768,77,149,80,0.002178649237472767,1496.1500000000001,1487.2766884531591,1355.0,1500
1.7026939392089844,78,149,80,0.002178649237472767,1496.1500000000001,1487.2766884531591,1355.0,1500
1.7247729301452637,79,149,80,0.002178649237472767,1496.1500000000001,1487.2766884531591,1355.0,1500
1.7475249767303467,80,149,80,0.002178649237472767,1496.1500000000001,1487.2766884531591,1355.0,1500
1.7697770595550537,81,149,80,0.002178649237472767,1496.1500000000001,1487.2766884531591,1355.0,1500
1.791895866394043,82,149,80,0.002178649237472767,1496.1500000000001,1487.2766884531591,1355.0,1500
1.814288854598999,83,149,80,0.002178649237472767,1496.1500000000001,1487.2766884531591,1355.0,1500
1.8367490768432617,84,149,80,0.002178649237472767,1496.1500000000001,1487.2766884531591,1355.0,1500
1.8589398860931396,85,149,80,0.002178649237472767,1496.1500000000001,1487.2766884531591,1355.0,1500
1.8810510635375977,86,149,80,0.002178649237472767,1496.1500000000001,1487.2766884531591,1355.0,1500
1.903136968612671,87,149,80,0.002178649237472767,1496.1500000000001,1487.2766884531591,1355.0,1500
1.925299882888794,88,149,80,0.002178649237472767,1496.1500000000001,1487.2766884531591,1355.0,1500
1.9476919174194336,89,149,80,0.002178649237472767,1496.1500000000001,1487.2766884531591,1355.0,1500
1.969815969467163,90,149,80,0.002178649237472767,1496.1500000000001,1487.2766884531591,1355.0,1500
1.9920849800109863,91,149,80,0.002178649237472767,1496.1500000000001,1487.2766884531591,1355.0,1500
2.014225959777832,92,149,80,0.002178649237472767,1496.1500000000001,1487.2766884531591,1355.0,1500
2.0363049507141113,93,149,80,0.002178649237472767,1496.1500000000001,1487.2766884531591,1355.0,1500
2.058345079421997,94,149,80,0.002178649237472767,1496.1500000000001,1487.2766884531591,1355.0,1500
2.080368995666504,95,149,80,0.002178649237472767,1496.1500000000001,1487.2766884531591,1355.0,1500
2.1023850440979004,96,149,80,0.002178649237472767,1496.1500000000001,1487.2766884531591,1355.0,1500
2.1244089603424072,97,149,80,0.002178649237472767,1496.1500000000001,1487.2766884531591,1355.0,1500
2.1464340686798096,98,149,80,0.002178649237472767,1496.1500000000001,1487.2766884531591,1355.0,1500
2.1685400009155273,99,149,80,0.002178649237472767,1496.1500000000001,1487.2766884531591,1355.0,1500
2.1905269622802734,100,149,80,0.002178649237472767,1496.1500000000001,1487.2766884531591,1355.0,1500
2.212524890899658,101,149,80,0.002178649237472767,1496.1500000000001,1487.2766884531591,1355.0,1500
2.234560966491699,102,149,80,0.002178649237472767,1496.1500000000001,1487.2766884531591,1355.0,1500
2.256960868835449,103,149,80,0.002178649237472767,1496.1500000000001,1487.2766884531591,1355.0,1500
2.2790329456329346,104,149,80,0.002178649237472767,1496.1500000000001,1487.2766884531591,1355.0,1500
2.3011059761047363,105,149,80,0.002178649237472767,1496.1500000000001,1487.2766884531591,1355.0,1500
2.3231120109558105,106,149,80,0.002178649237472767,1496.1500000000001,1487.2766884531591,1355.0,1500
2.345197916030884,107,149,80,0.002178649237472767,1496.1500000000001,1487.2766884531591,1355.0,1500
2.3673079013824463,108,149,80,0.002178649237472767,1496.1500000000001,1487.2766884531591,1355.0,1500
2.3893799781799316,109,149,80,0.002178649237472767,1496.1500000000001,1487.2766884531591,1355.0,1500
2.411426067352295,110,149,80,0.002178649237472767,1496.1500000000001,1487.2766884531591,1355.0,1500
2.43346905708313,111,149,80,0.002178649237472767,1496.1500000000001,1487.2766884531591,1355.0,1500
2.4556519985198975,112,149,80,0.002178649237472767,1496.1500000000001,1487.2766884531591,1355.0,1500
2.477933883666992,113,149,80,0.002178649237472767,1496.1500000000001,1487.2766884531591,1355.0,1500
2.4999639987945557,114,149,80,0.002178649237472767,1496.1500000000001,1487.2766884531591,1355.0,1500
2.5220508575439453,115,149,80,0.002178649237472767,1496.1500000000001,1487.2766884531591,1355.0,1500
2.5446279048919678,116,149,80,0.002178649237472767,1496.1500000000001,1487.2766884531591,1355.0,1500
2.5688328742980957,117,149,80,0.002178649237472767,1496.1500000000001,1487.2766884531591,1355.0,1500
2.592643976211548,118,149,80,0.002178649237472767,1496.1500000000001,1487.2766884531591,1355.0,1500
2.6163899898529053,119,149,80,0.002178649237472767,1496.1500000000001,1487.2766884531591,1355.0,1500
2.6402180194854736,120,149,80,0.002178649237472767,1496.1500000000001,1487.2766884531591,1355.0,1500
2.6640779972076416,121,149,80,0.002178649237472767,1496.1500000000001,1487.2766884531591,1355.0,1500
2.68772292137146,122,149,80,0.002178649237472767,1496.1500000000001,1487.2766884531591,1355.0,1500
2.7115159034729004,123,149,80,0.002178649237472767,1496.1500000000001,1487.2766884531591,1355.0,1500
2.7355449199676514,124,149,80,0.002178649237472767,1496.1500000000001,1487.2766884531591,1355.0,1500
2.7595179080963135,125,149,80,0.002178649237472767,1496.1500000000001,1487.2766884531591,1355.0,1500
2.7831850051879883,126,149,80,0.002178649237472767,1496.1500000000001,1487.2766884531591,1355.0,1500
2.8068928718566895,127,149,80,0.002178649237472767,1496.1500000000001,1487.2766884531591,1355.0,1500
2.8305869102478027,128,149,80,0.002178649237472767,1496.1500000000001,1487.2766884531591,1355.0,1500
2.8544108867645264,129,149,80,0.002178649237472767,1496.1500000000001,1487.2766884531591,1355.0,1500
2.8782260417938232,130,149,80,0.002178649237472767,1496.1500000000001,1487.2766884531591,1355.0,1500
2.9021759033203125,131,149,80,0.002178649237472767,1496.1500000000001,1487.2766884531591,1355.0,1500
2.9261460304260254,132,149,80,0.002178649237472767,1496.1500000000001,1487.2766884531591,1355.0,1500
2.950195074081421,133,149,80,0.002178649237472767,1496.1500000000001,1487.2766884531591,1355.0,1500
2.9738869667053223,134,149,80,0.002178649237472767,1496.1500000000001,1487.2766884531591,1355.0,1500
2.9978039264678955,135,149,80,0.002178649237472767,1496.1500000000001,1487.2766884531591,1355.0,1500
3.021946907043457,136,149,80,0.002178649237472767,1496.1500000000001,1487.2766884531591,1355.0,1500
3.045811891555786,137,149,80,0.002178649237472767,1496.1500000000001,1487.2766884531591,1355.0,1500
3.069551944732666,138,149,80,0.002178649237472767,1496.1500000000001,1487.2766884531591,1355.0,1500
3.0932369232177734,139,149,80,0.002178649237472767,1496.1500000000001,1487.2766884531591,1355.0,1500
3.1168789863586426,140,149,80,0.002178649237472767,1496.1500000000001,1487.2766884531591,1355.0,1500
3.140744924545288,141,149,80,0.002178649237472767,1496.1500000000001,1487.2766884531591,1355.0,1500
3.1644699573516846,142,149,80,0.002178649237472767,1496.1500000000001,1487.2766884531591,1355.0,1500
3.18845796585083,143,149,80,0.002178649237472767,1496.1500000000001,1487.2766884531591,1355.0,1500
3.2121188640594482,144,149,80,0.002178649237472767,1496.1500000000001,1487.2766884531591,1355.0,1500
3.2359910011291504,145,149,80,0.002178649237472767,1496.1500000000001,1487.2766884531591,1355.0,1500
3.259819984436035,146,149,80,0.002178649237472767,1496.1500000000001,1487.2766884531591,1355.0,1500
3.283600091934204,147,149,80,0.002178649237472767,1496.1500000000001,1487.2766884531591,1355.0,1500
3.3072268962860107,148,149,80,0.002178649237472767,1496.1500000000001,1487.2766884531591,1355.0,1500
3.330885887145996,149,149,80,0.002178649237472767,1496.1500000000001,1487.2766884531591,1355.0,1500
3.354517936706543,150,149,80,0.002178649237472767,1496.1500000000001,1487.2766884531591,1355.0,1500
3.3783209323883057,151,149,80,0.002178649237472767,1496.1500000000001,1487.2766884531591,1355.0,1500
3.4020988941192627,152,149,80,0.002178649237472767,1496.1500000000001,1487.2766884531591,1355.0,1500
3.4259209632873535,153,149,80,0.002178649237472767,1496.1500000000001,1487.2766884531591,1355.0,1500
3.449739933013916,154,149,80,0.002178649237472767,1496.1500000000001,1487.2766884531591,1355.0,1500
3.4734909534454346,155,149,80,0.002178649237472767,1496.1500000000001,1487.2766884531591,1355.0,1500
3.497375965118408,156,149,80,0.002178649237472767,1496.1500000000001,1487.2766884531591,1355.0,1500
