time,x,y,size_inv,roll,pitch,thrust,yaw
0.0007450580596923828,255,61,0.007142857142857143,1520,1500.0,1348.3599999999999,1520
0.023712873458862305,256,61,0.01,1520,1500.0,1349.9200000000001,1520
0.04622983932495117,256,61,0.01,1520,1500.0,1350,1520
0.06851696968078613,256,61,0.01,1520,1500.0,1350,1520
0.09072303771972656,255,61,0.007142857142857143,1520,1500.0,1350,1520
0.11287403106689453,256,61,0.01,1520,1500.0,1350,1520
0.13502192497253418,256,61,0.01,1520,1500.0,1350,1520
0.15722393989562988,256,61,0.01,1520,1500.0,1350,1520
0.17942190170288086,256,61,0.01,1520,1500.0,1350,1520
0.20193004608154297,256,61,0.01,1520,1500.0,1350,1520
0.2245769500732422,256,61,0.01,1520,1500.0,1350,1520
0.24751496315002441,256,61,0.01,1520,1500.0,1350,1520
0.27045297622680664,256,61,0.01,1520,1500.0,1350,1520
0.29340600967407227,255,60,0.00909090909090909,1520,1500.0,1350,1520
0.31640195846557617,253,60,0.01,1520,1500.0,1350,1520
0.3393678665161133,251,59,0.007407407407407408,1520,1500.0,1350,1520
0.3624460697174072,249,57,0.007936507936507936,1520,1500.0,1350,1520
0.38542699813842773,247,55,0.007142857142857143,1520,1500.0,1350,1520
0.4083988666534424,246,53,0.008333333333333333,1520,1500.0,1350,1520
0.4313809871673584,243,52,0.00909090909090909,1520,1500.0,1350,1520
0.45436596870422363,240,51,0.00909090909090909,1520,1500.0,1350,1520
0.47736191749572754,237,50,0.008333333333333333,1520,1500.0,1350,1520
0.5004439353942871,231,50,0.008264462809917356,1520,1500.0,1350,1520
0.5235528945922852,226,50,0.006493506493506494,1520,1500.0,1350,1520
0.5465340614318848,224,50,0.008333333333333333,1520,1500.0,1350,1520
0.5695469379425049,222,50,0.007692307692307693,1520,1500.0,1350,1520
0.5925629138946533,219,51,0.006493506493506494,1520,1500.0,1350,1520
0.6155679225921631,216,52,0.006493506493506494,1520,1500.0,1350,1520
0.6385989189147949,213,52,0.006493506493506494,1520,1500.0,1350,1520
0.6615650653839111,210,52,0.006493506493506494,1520,1500.0,1350,1520
0.6845200061798096,204,53,0.007142857142857143,1520,1500.0,1350,1520
0.7074930667877197,200,54,0.007575757575757576,1520,1500.0,1350,1520
0.7304930686950684,197,55,0.006493506493506494,1520,1500.0,1350,1520
0.7534630298614502,194,56,0.005952380952380952,1520,1500.0,1350,1520
0.776432991027832,191,58,0.006493506493506494,1520,1500.0,1342.48,1520
0.7995920181274414,188,60,0.006493506493506494,1520,1500.0,1334.0799999999999,1520
0.8227989673614502,185,61,0.006493506493506494,1520,1500.0,1326.8800000000001,1520
0.8458809852600098,182,63,0.006493506493506494,1520,1500.0,1317.04,1520
0.8689889907836914,175,65,0.005681818181818182,1520,1500.0,1307.1199999999999,1515.0
0.8923158645629883,173,66,0.006493506493506494,1520,1500.0,1302.5599999999999,1513.0
0.9155280590057373,170,67,0.006493506493506494,1520,1500.0,1300.8,1510.0
0.9387128353118896,168,68,0.006060606060606061,1520,1500.0,1299.04,1508.0
0.9618940353393555,164,69,0.005681818181818182,1520,1500.0,1300.0799999999999,1504.0
0.9850659370422363,162,70,0.007142857142857143,1520,1500.0,1303.9200000000001,1502.0
1.008246898651123,160,71,0.006493506493506494,1520,1500.0,1306.4000000000001,1500.0
1.0314249992370605,158,72,0.005952380952380952,1520,1500.0,1307.52,1498.0
1.0546140670776367,154,74,0.004901960784313725,1520,1500.0,1306.0,1494.0
1.077765941619873,154,76,0.006060606060606061,1520,1500.0,1301.6800000000001,1494.0
1.100970983505249,151,77,0.0053475935828877,1496.0,1500.0,1297.2,1491.0
1.1242399215698242,149,78,0.005681818181818182,1480,1500.0,1292.72,1489.0
1.147413969039917,151,79,0.006493506493506494,1480,1500.0,1288.24,1491.0
1.1705939769744873,149,80,0.0053475935828877,1480,1500.0,1286.5599999999999,1489.0
1.19380784034729,149,81,0.0053475935828877,1480,1500.0,1287.6800000000001,1489.0
1.216986894607544,149,82,0.0053475935828877,1480,1500.0,1288.8,1489.0
1.2402279376983643,149,83,0.0053475935828877,1480,1500.0,1289.9200000000001,1489.0
1.2634708881378174,149,83,0.004901960784313725,1480,1500.0,1293.6800000000001,1489.0
1.2866449356079102,149,84,0.00909090909090909,1480,1500.0,1294.8800000000001,1489.0
1.3102610111236572,149,85,0.00909090909090909,1480,1500.0,1294.72,1489.0
1.3335809707641602,151,85,0.006493506493506494,1480,1500.0,1297.2,1491.0
1.3567688465118408,150,86,0.0053475935828877,1480,1500.0,1298.48,1490.0
1.380025863647461,148,87,0.006493506493506494,1480,1500.0,1296.96,1488.0
1.4032840728759766,149,88,0.006493506493506494,1480,1500.0,1295.4400000000001,1489.0
1.426499843597412,149,88,0.006493506493506494,1480,1500.0,1296.5599999999999,1489.0
1.4497358798980713,149,88,0.006493506493506494,1480,1500.0,1296.3199999999999,1489.0
1.4730010032653809,151,87,0.0058823529411764705,1480,1500.0,1300.1600000000001,1491.0
1.496182918548584,149,87,0.006493506493506494,1480,1500.0,1305.5999999999999,1489.0
1.519355058670044,151,87,0.00909090909090909,1480,1500.0,1312.48,1491.0
1.5426709651947021,150,87,0.006493506493506494,1480,1500.0,1318.0,1490.0
1.565863847732544,150,87,0.006493506493506494,1480,1500.0,1323.52,1490.0
1.5890450477600098,152,87,0.00909090909090909,1480,1500.0,1324.8800000000001,1492.0
1.612372875213623,152,87,0.00909090909090909,1480,1500.0,1324.8800000000001,1492.0
1.6356799602508545,151,87,0.006493506493506494,1480,1500.0,1323.52,1491.0
1.6590700149536133,151,87,0.006493506493506494,1480,1500.0,1322.1600000000001,1491.0
1.6824970245361328,151,87,0.006493506493506494,1480,1500.0,1320.8,1491.0
1.705711841583252,151,87,0.006493506493506494,1480,1500.0,1320.8,1491.0
1.7289588451385498,152,86,0.005555555555555556,1480,1500.0,1323.4400000000001,1492.0
1.752274990081787,153,86,0.00909090909090909,1480,1500.0,1324.8800000000001,1493.0
1.7754650115966797,152,86,0.006493506493506494,1480,1500.0,1326.3199999999999,1492.0
1.7986550331115723,153,85,0.005952380952380952,1480,1500.0,1330.4000000000001,1493.0
1.8218269348144531,152,85,0.006493506493506494,1480,1500.0,1333.28,1492.0
1.8450279235839844,152,84,0.005952380952380952,1480,1500.0,1336.0,1492.0
1.8682138919830322,152,84,0.006493506493506494,1480,1500.0,1337.52,1492.0
1.8914718627929688,152,83,0.005952380952380952,1480,1500.0,1341.6800000000001,1492.0
1.9147138595581055,152,83,0.006493506493506494,1480,1500.0,1341.8399999999999,1492.0
1.9379069805145264,154,82,0.007575757575757576,1480,1500.0,1344.6400000000001,1494.0
1.9610579013824463,152,82,0.005952380952380952,1480,1500.0,1344.8,1492.0
1.9843289852142334,153,82,0.005555555555555556,1480,1500.0,1344.96,1493.0
2.0075490474700928,152,82,0.005952380952380952,1480,1500.0,1342.3199999999999,1492.0
2.0307939052581787,153,82,0.005555555555555556,1480,1500.0,1341.04,1493.0
2.0540130138397217,152,82,0.006493506493506494,1480,1500.0,1336.96,1492.0
2.0771870613098145,152,81,0.006493506493506494,1480,1500.0,1336.8800000000001,1492.0
2.1004750728607178,152,80,0.006493506493506494,1480,1500.0,1338.24,1492.0
2.123790979385376,153,78,0.005555555555555556,1480,1500.0,1345.04,1493.0
2.1469640731811523,152,78,0.006493506493506494,1480,1500.0,1349.4400000000001,1492.0
2.1701788902282715,153,78,0.005952380952380952,1480,1500.0,1350,1493.0
2.193328857421875,153,78,0.006493506493506494,1480,1500.0,1350,1493.0
2.216416835784912,153,78,0.006493506493506494,1480,1500.0,1350,1493.0
2.2395589351654053,153,78,0.006493506493506494,1480,1500.0,1350,1493.0
2.262712001800537,154,77,0.005952380952380952,1480,1500.0,1350,1494.0
2.2858078479766846,154,77,0.005555555555555556,1480,1500.0,1346.0799999999999,1494.0
2.309027910232544,155,75,0.005555555555555556,1480,1500.0,1348.72,1495.0
2.332368850708008,155,75,0.006493506493506494,1480,1500.0,1350,1495.0
2.3554749488830566,155,74,0.006493506493506494,1480,1500.0,1350,1495.0
2.378577947616577,156,73,0.005952380952380952,1480,1500.0,1350,1496.0
2.401679039001465,157,73,0.005555555555555556,1480,1500.0,1350,1497.0
2.424793004989624,157,73,0.005952380952380952,1480,1500.0,1350,1497.0
2.4479050636291504,158,73,0.005555555555555556,1480,1500.0,1350,1498.0
2.471004009246826,158,73,0.005952380952380952,1480,1500.0,1350,1498.0
2.4940788745880127,159,72,0.005952380952380952,1480,1500.0,1350,1499.0
2.517158031463623,160,72,0.005952380952380952,1480,1500.0,1350,1500.0
2.5405540466308594,160,72,0.006493506493506494,1480,1500.0,1350,1500.0
2.5636658668518066,160,72,0.005952380952380952,1480.0,1500.0,1350,1500.0
2.5868358612060547,162,73,0.007575757575757576,1491.0,1500.0,1348.96,1502.0
2.6101629734039307,161,73,0.005555555555555556,1494.0,1500.0,1346.1600000000001,1501.0
2.6335439682006836,161,74,0.005952380952380952,1498.0,1500.0,1340.72,1501.0
2.6568329334259033,161,74,0.005952380952380952,1502.0,1500.0,1336.48,1501.0
2.680140972137451,161,74,0.005952380952380952,1505.0,1500.0,1332.24,1501.0
2.70346999168396,162,74,0.005555555555555556,1511.0,1500.0,1330.8,1502.0
2.7267720699310303,163,73,0.007575757575757576,1517.0,1500.0,1333.3599999999999,1503.0
2.750105857849121,161,73,0.006493506493506494,1514.0,1500.0,1337.52,1501.0
2.7734220027923584,161,72,0.005952380952380952,1515.0,1500.0,1344.3199999999999,1501.0
2.7966949939727783,161,72,0.005555555555555556,1516.0,1500.0,1349.9200000000001,1501.0
2.820011854171753,160,71,0.005952380952380952,1512.0,1500.0,1350,1500.0
2.843261957168579,159,71,0.005952380952380952,1508.0,1500.0,1350,1499.0
2.86641788482666,161,71,0.006944444444444444,1512.0,1500.0,1350,1501.0
2.889636993408203,158,72,0.005952380952380952,1503.0,1500.0,1350,1498.0
2.912868022918701,158,73,0.005952380952380952,1500.0,1500.0,1350,1498.0
2.936048984527588,157,73,0.005952380952380952,1493.0,1500.0,1344.96,1497.0
2.959291934967041,157,74,0.005952380952380952,1487.0,1500.0,1336.72,1497.0
2.9826948642730713,159,74,0.004901960784313725,1489.0,1500.0,1329.6800000000001,1499.0
3.005976915359497,157,74,0.005952380952380952,1481.0,1500.0,1326.8,1497.0
3.029244899749756,158,74,0.004807692307692308,1480.0,1500.0,1326.72,1498.0
3.052618980407715,157,73,0.005952380952380952,1480,1500.0,1330.6400000000001,1497.0
3.075795888900757,159,73,0.004524886877828055,1480,1500.0,1336.1600000000001,1499.0
3.0989649295806885,159,72,0.004901960784313725,1480,1500.0,1344.3199999999999,1499.0
3.122364044189453,158,72,0.005128205128205128,1480,1500.0,1349.9200000000001,1498.0
3.145573854446411,160,72,0.005494505494505495,1481.0,1500.0,1350,1500.0
3.1687259674072266,158,72,0.005128205128205128,1480,1500.0,1350,1498.0
3.1918230056762695,159,72,0.004901960784313725,1482.0,1500.0,1350,1499.0
3.2149739265441895,159,72,0.004901960784313725,1482.0,1500.0,1350,1499.0
3.2381339073181152,159,72,0.004901960784313725,1484.0,1500.0,1350,1499.0
3.2613070011138916,161,72,0.005555555555555556,1491.0,1500.0,1347.52,1501.0
3.2845709323883057,159,72,0.004629629629629629,1489.0,1500.0,1346.1600000000001,1499.0
3.307844877243042,160,72,0.004901960784313725,1492.0,1500.0,1344.8,1500.0
3.3311479091644287,160,72,0.004901960784313725,1493.0,1500.0,1344.8,1500.0
3.3545100688934326,160,72,0.004524886877828055,1495.0,1500.0,1344.8,1500.0
3.3779990673065186,160,71,0.004629629629629629,1495.0,1500.0,1347.4400000000001,1500.0
3.401334047317505,160,71,0.004273504273504274,1497.0,1500.0,1348.8800000000001,1500.0
3.424644947052002,160,71,0.004273504273504274,1498.0,1500.0,1350,1500.0
3.4478259086608887,160,71,0.004273504273504274,1499.0,1500.0,1350,1500.0
3.471000909805298,160,71,0.004273504273504274,1500.0,1500.0,1350,1500.0
3.4941699504852295,160,71,0.004273504273504274,1499.0,1500.0,1350,1500.0
3.5173449516296387,161,72,0.004524886877828055,1503.0,1500.0,1347.8399999999999,1501.0
3.5406370162963867,161,72,0.004273504273504274,1504.0,1500.0,1345.04,1501.0
3.5639469623565674,161,72,0.004629629629629629,1505.0,1500.0,1342.24,1501.0
3.587254047393799,162,72,0.004048582995951417,1509.0,1500.0,1339.4400000000001,1502.0
3.610714912414551,162,72,0.004273504273504274,1511.0,1500.0,1338.0,1502.0
3.634023904800415,162,72,0.004273504273504274,1513.0,1500.0,1339.3599999999999,1502.0
3.657315969467163,162,72,0.004273504273504274,1515.0,1500.0,1340.72,1502.0
3.680614948272705,163,72,0.004524886877828055,1520.0,1500.0,1342.0799999999999,1503.0
3.7038919925689697,163,72,0.004273504273504274,1520,1500.0,1343.4400000000001,1503.0
3.7271230220794678,163,73,0.004273504273504274,1520,1500.0,1342.1600000000001,1503.0
3.750624895095825,163,73,0.003968253968253968,1520,1500.0,1340.72,1503.0
3.7738289833068848,163,74,0.004273504273504274,1520,1500.0,1336.6400000000001,1503.0
3.7970099449157715,163,74,0.004273504273504274,1520,1500.0,1333.76,1503.0
3.8202309608459473,163,74,0.004273504273504274,1520,1500.0,1330.8800000000001,1503.0
3.843492031097412,164,73,0.0037593984962406013,1520,1500.0,1333.4400000000001,1504.0
3.8666930198669434,164,73,0.004048582995951417,1520,1500.0,1334.8,1504.0
3.8899378776550293,166,72,0.004761904761904762,1520,1500.0,1341.5999999999999,1506.0
3.9132039546966553,164,72,0.003968253968253968,1520,1500.0,1347.2,1504.0
3.9363698959350586,163,72,0.004273504273504274,1520,1500.0,1350,1503.0
3.959437847137451,163,72,0.004273504273504274,1520,1500.0,1350,1503.0
3.9826319217681885,163,72,0.004273504273504274,1520,1500.0,1350,1503.0
4.005717039108276,164,71,0.0037593984962406013,1520,1500.0,1350,1504.0
4.028800010681152,164,72,0.005494505494505495,1520,1500.0,1350,1504.0
4.051888942718506,164,72,0.00510204081632653,1520,1500.0,1348.96,1504.0
4.075060844421387,163,72,0.0037593984962406013,1520,1500.0,1347.5999999999999,1503.0
4.098238945007324,162,72,0.003968253968253968,1520,1500.0,1346.24,1502.0
4.121408939361572,163,72,0.0037593984962406013,1520,1500.0,1343.4400000000001,1503.0
4.144623041152954,162,72,0.003968253968253968,1520,1500.0,1343.4400000000001,1502.0
4.1677939891815186,162,72,0.003968253968253968,1520,1500.0,1343.4400000000001,1502.0
4.190953016281128,162,72,0.003968253968253968,1520,1500.0,1343.4400000000001,1502.0
4.214117050170898,164,72,0.004464285714285714,1520,1500.0,1343.4400000000001,1504.0
4.237315893173218,164,72,0.004464285714285714,1520,1500.0,1344.8,1504.0
4.260500907897949,164,73,0.004464285714285714,1520,1500.0,1342.1600000000001,1504.0
4.283679962158203,162,74,0.003703703703703704,1520,1500.0,1338.0799999999999,1502.0
4.306861877441406,162,74,0.0033333333333333335,1520,1500.0,1335.2,1502.0
4.330114841461182,162,74,0.0037593984962406013,1520,1500.0,1332.3199999999999,1502.0
4.353344917297363,162,75,0.0035087719298245615,1520,1500.0,1326.8,1502.0
4.3765318393707275,161,75,0.003703703703703704,1520,1500.0,1325.28,1501.0
4.399801969528198,162,75,0.00510204081632653,1520,1500.0,1326.5599999999999,1502.0
4.423120021820068,162,76,0.004761904761904762,1520,1500.0,1325.2,1502.0
4.4462878704071045,161,76,0.0035714285714285713,1520,1500.0,1325.04,1501.0
4.4694600105285645,161,77,0.0033333333333333335,1520,1500.0,1325.04,1501.0
4.4927568435668945,160,77,0.003703703703703704,1515.0,1500.0,1324.8800000000001,1500.0
4.516057968139648,161,77,0.0033333333333333335,1516.0,1500.0,1323.3599999999999,1501.0
4.539340019226074,160,77,0.003703703703703704,1512.0,1500.0,1324.6400000000001,1500.0
4.562718868255615,161,76,0.0035087719298245615,1513.0,1500.0,1328.5599999999999,1501.0
4.585996866226196,160,76,0.003703703703703704,1509.0,1500.0,1332.72,1500.0
4.609262943267822,163,76,0.00392156862745098,1517.0,1500.0,1336.8800000000001,1503.0
4.63272500038147,161,76,0.003125,1512.0,1500.0,1341.04,1501.0
4.6559898853302,160,77,0.0035087719298245615,1508.0,1500.0,1341.2,1500.0
4.679239988327026,159,77,0.003703703703703704,1504.0,1500.0,1339.76,1499.0
4.702643871307373,159,77,0.003703703703703704,1502.0,1500.0,1336.96,1499.0
4.725951910018921,160,78,0.0035087719298245615,1504.0,1500.0,1331.52,1500.0
4.749230861663818,160,78,0.0033333333333333335,1503.0,1500.0,1327.28,1500.0
4.772634029388428,161,78,0.0044444444444444444,1506.0,1500.0,1325.8399999999999,1501.0
4.795928001403809,160,78,0.004761904761904762,1503.0,1500.0,1325.76,1500.0
4.819198846817017,159,78,0.003703703703703704,1500.0,1500.0,1325.6800000000001,1499.0
4.84259295463562,161,78,0.0044444444444444444,1502.0,1500.0,1328.4000000000001,1501.0
4.865871906280518,160,78,0.0031746031746031746,1499.0,1500.0,1331.1199999999999,1500.0
4.889159917831421,160,78,0.0031746031746031746,1499.0,1500.0,1332.48,1500.0
4.912569046020508,161,78,0.003703703703703704,1503.0,1500.0,1333.8399999999999,1501.0
4.936167001724243,160,77,0.00390625,1502.0,1500.0,1337.8399999999999,1500.0
4.959457874298096,159,77,0.002976190476190476,1499.0,1500.0,1339.28,1499.0
4.982853889465332,159,77,0.002976190476190476,1498.0,1500.0,1340.72,1499.0
5.006105899810791,158,77,0.0031746031746031746,1493.0,1500.0,1342.1600000000001,1498.0
5.029379844665527,158,77,0.002976190476190476,1491.0,1500.0,1343.5999999999999,1498.0
5.052753925323486,159,77,0.003472222222222222,1493.0,1500.0,1342.24,1499.0
5.076005935668945,156,77,0.003289473684210526,1482.0,1500.0,1340.8800000000001,1496.0
5.099263906478882,157,77,0.002976190476190476,1481.0,1500.0,1339.52,1497.0
5.1227898597717285,158,77,0.003472222222222222,1481.0,1500.0,1338.1600000000001,1498.0
5.146075963973999,157,77,0.002976190476190476,1480,1500.0,1336.8,1497.0
5.16926383972168,158,77,0.003472222222222222,1480,1500.0,1336.8,1498.0
5.192584991455078,158,77,0.003703703703703704,1480,1500.0,1336.8,1498.0
5.215781927108765,158,77,0.003703703703703704,1480,1500.0,1336.8,1498.0
5.2389678955078125,157,76,0.002976190476190476,1480,1500.0,1339.4400000000001,1497.0
5.262263059616089,157,76,0.0031746031746031746,1480,1500.0,1340.8800000000001,1497.0
5.285472869873047,157,76,0.0031746031746031746,1480,1500.0,1342.3199999999999,1497.0
5.308696985244751,157,75,0.002976190476190476,1480,1500.0,1346.4000000000001,1497.0
5.331946849822998,158,75,0.003472222222222222,1480,1500.0,1349.28,1498.0
5.355169057846069,157,75,0.002976190476190476,1480,1500.0,1349.3599999999999,1497.0
5.378375053405762,157,75,0.002976190476190476,1480,1500.0,1349.4400000000001,1497.0
5.40156888961792,157,75,0.002976190476190476,1480,1500.0,1349.52,1497.0
5.424778938293457,157,75,0.002840909090909091,1480,1500.0,1346.8,1497.0
5.447991847991943,157,75,0.002976190476190476,1480,1500.0,1344.0799999999999,1497.0
5.471184968948364,158,75,0.003125,1480,1500.0,1342.72,1498.0
5.494349956512451,157,75,0.002717391304347826,1480,1500.0,1341.3599999999999,1497.0
5.517569065093994,157,75,0.0030303030303030303,1480,1500.0,1340.0,1497.0
5.540755033493042,157,74,0.002840909090909091,1480,1500.0,1342.6400000000001,1497.0
5.563947916030884,157,74,0.002840909090909091,1480,1500.0,1344.0799999999999,1497.0
5.5871498584747314,159,74,0.003289473684210526,1480,1500.0,1345.52,1499.0
5.610410928726196,157,74,0.002840909090909091,1480,1500.0,1346.96,1497.0
5.633697986602783,157,74,0.002840909090909091,1480,1500.0,1348.4000000000001,1497.0
5.656911849975586,157,74,0.002840909090909091,1480,1500.0,1347.04,1497.0
5.680163860321045,158,74,0.002717391304347826,1480,1500.0,1345.6800000000001,1498.0
5.703466892242432,158,74,0.002717391304347826,1480,1500.0,1344.3199999999999,1498.0
5.72672700881958,158,74,0.002717391304347826,1480,1500.0,1342.96,1498.0
5.7499659061431885,158,75,0.00267379679144385,1480,1500.0,1338.96,1498.0
5.773213863372803,158,75,0.00267379679144385,1480,1500.0,1337.52,1498.0
5.796403884887695,158,75,0.002840909090909091,1480,1500.0,1336.0799999999999,1498.0
5.819659948348999,159,75,0.002840909090909091,1480,1500.0,1334.6400000000001,1499.0
5.842916965484619,159,76,0.00267379679144385,1480,1500.0,1330.5599999999999,1499.0
5.866127014160156,160,76,0.0025575447570332483,1483.0,1500.0,1330.48,1500.0
5.889391899108887,160,76,0.00267379679144385,1486.0,1500.0,1330.4000000000001,1500.0
5.912786960601807,160,76,0.00267379679144385,1488.0,1500.0,1330.3199999999999,1500.0
5.936079025268555,160,76,0.00267379679144385,1490.0,1500.0,1330.24,1500.0
5.959344863891602,161,76,0.0025575447570332483,1495.0,1500.0,1332.96,1501.0
5.982754945755005,161,76,0.0025575447570332483,1498.0,1500.0,1334.3199999999999,1501.0
6.006063938140869,161,76,0.0025575447570332483,1501.0,1500.0,1335.6800000000001,1501.0
6.0293779373168945,161,76,0.00267379679144385,1504.0,1500.0,1337.04,1501.0
6.052767038345337,162,76,0.00267379679144385,1509.0,1500.0,1338.4000000000001,1502.0
6.076063871383667,161,76,0.0025252525252525255,1509.0,1500.0,1338.4000000000001,1501.0
6.0993499755859375,162,76,0.0024154589371980675,1513.0,1500.0,1338.4000000000001,1502.0
6.1231138706207275,162,77,0.0025575447570332483,1515.0,1500.0,1335.76,1502.0
6.1464738845825195,161,77,0.00267379679144385,1514.0,1500.0,1334.3199999999999,1501.0
6.169869899749756,161,77,0.00267379679144385,1515.0,1500.0,1332.8800000000001,1501.0
6.193258047103882,161,77,0.0025252525252525255,1515.0,1500.0,1331.4400000000001,1501.0
6.216556072235107,162,77,0.0024154589371980675,1518.0,1500.0,1330.0,1502.0
6.23987603187561,162,77,0.0025252525252525255,1519.0,1500.0,1331.3599999999999,1502.0
6.263232946395874,163,77,0.0023148148148148147,1520,1500.0,1332.72,1503.0
6.286438941955566,162,77,0.0025252525252525255,1520,1500.0,1334.0799999999999,1502.0
6.309705018997192,162,77,0.0025252525252525255,1520,1500.0,1335.4400000000001,1502.0
6.333008050918579,164,77,0.0022222222222222222,1520,1500.0,1336.8,1504.0
6.356217861175537,164,76,0.0022222222222222222,1520,1500.0,1339.4400000000001,1504.0
6.379432916641235,164,76,0.0022222222222222222,1520,1500.0,1340.8800000000001,1504.0
6.402756929397583,164,76,0.0022222222222222222,1520,1500.0,1342.3199999999999,1504.0
6.425973892211914,164,76,0.002105263157894737,1520,1500.0,1343.76,1504.0
6.449168920516968,164,76,0.002105263157894737,1520,1500.0,1345.2,1504.0
6.472486972808838,165,76,0.0023923444976076554,1520,1500.0,1343.8399999999999,1505.0
6.495684862136841,163,76,0.0020242914979757085,1520,1500.0,1342.48,1503.0
6.518887042999268,163,76,0.0020242914979757085,1520,1500.0,1341.1199999999999,1503.0
6.5422258377075195,164,76,0.0023923444976076554,1520,1500.0,1339.76,1504.0
6.565470933914185,162,76,0.0020242914979757085,1520,1500.0,1338.4000000000001,1502.0
6.58867883682251,164,76,0.002288329519450801,1520,1500.0,1338.4000000000001,1504.0
6.611861944198608,163,76,0.0023923444976076554,1520,1500.0,1338.4000000000001,1503.0
6.63507604598999,162,75,0.001851851851851852,1520,1500.0,1341.04,1502.0
6.658263921737671,161,75,0.0019230769230769232,1520,1500.0,1342.48,1501.0
6.68143105506897,163,75,0.002173913043478261,1520,1500.0,1343.9200000000001,1503.0
6.70461893081665,162,75,0.0021645021645021645,1520,1500.0,1345.3599999999999,1502.0
6.72785496711731,160,74,0.0019230769230769232,1520,1500.0,1349.4400000000001,1500.0
6.751065969467163,162,74,0.002070393374741201,1520,1500.0,1349.52,1502.0
6.774252891540527,159,74,0.0018315018315018315,1516.0,1500.0,1349.5999999999999,1499.0
6.797528028488159,159,74,0.0018315018315018315,1513.0,1500.0,1349.6800000000001,1499.0
6.820796966552734,160,74,0.001763668430335097,1511.0,1500.0,1349.76,1500.0
6.844080924987793,159,74,0.0018315018315018315,1505.0,1500.0,1347.04,1499.0
6.867358922958374,160,73,0.0016233766233766235,1505.0,1500.0,1348.3199999999999,1500.0
6.890653848648071,159,73,0.0016835016835016834,1501.0,1500.0,1348.4000000000001,1499.0
6.913949966430664,159,73,0.0016835016835016834,1497.0,1500.0,1348.48,1499.0
6.9372398853302,159,73,0.0016233766233766235,1494.0,1500.0,1348.5599999999999,1499.0
6.960520029067993,160,73,0.001567398119122257,1496.0,1500.0,1350.0,1500.0
6.983754873275757,160,73,0.001567398119122257,1494.0,1500.0,1348.6400000000001,1500.0
7.007025957107544,159,73,0.0016233766233766235,1492.0,1500.0,1347.28,1499.0
7.030345916748047,158,73,0.0017482517482517483,1489.0,1500.0,1345.9200000000001,1498.0
7.053704023361206,159,73,0.0016835016835016834,1490.0,1500.0,1344.5599999999999,1499.0
7.076987028121948,159,73,0.001567398119122257,1490.0,1500.0,1343.2,1499.0
7.100360870361328,158,73,0.0016233766233766235,1486.0,1500.0,1343.2,1498.0
7.123748064041138,159,72,0.001567398119122257,1488.0,1500.0,1345.8399999999999,1499.0
7.147032976150513,159,72,0.001567398119122257,1488.0,1500.0,1347.28,1499.0
7.170363903045654,159,72,0.001567398119122257,1488.0,1500.0,1348.72,1499.0
7.193701982498169,160,72,0.0017482517482517483,1490.0,1500.0,1350,1500.0
7.216903924942017,159,72,0.001567398119122257,1487.0,1500.0,1350,1499.0
7.240139961242676,158,72,0.0015151515151515152,1484.0,1500.0,1350,1498.0
7.263409852981567,158,72,0.0015151515151515152,1484.0,1500.0,1348.8800000000001,1498.0
7.286705017089844,158,72,0.0015151515151515152,1483.0,1500.0,1347.52,1498.0
7.310335874557495,158,73,0.0014992503748125937,1482.0,1500.0,1343.52,1498.0
7.333716869354248,157,73,0.0014492753623188406,1480,1500.0,1340.72,1497.0
7.356904983520508,157,73,0.0014492753623188406,1480,1500.0,1339.28,1497.0
7.380171060562134,157,73,0.0015151515151515152,1480,1500.0,1337.8399999999999,1497.0
7.403455018997192,157,73,0.0015151515151515152,1480,1500.0,1336.4000000000001,1497.0
7.426658868789673,157,74,0.001402524544179523,1480,1500.0,1335.1199999999999,1497.0
7.449899911880493,157,74,0.001358695652173913,1480,1500.0,1335.04,1497.0
7.473155975341797,157,74,0.001402524544179523,1480,1500.0,1334.96,1497.0
7.496327877044678,157,74,0.001402524544179523,1480,1500.0,1334.8800000000001,1497.0
7.51957106590271,157,74,0.001402524544179523,1480,1500.0,1334.8,1497.0
7.542862892150879,156,74,0.0014492753623188406,1480,1500.0,1336.1600000000001,1496.0
7.566087961196899,156,74,0.0014492753623188406,1480,1500.0,1337.52,1496.0
7.589278936386108,156,74,0.0013440860215053765,1480,1500.0,1338.8800000000001,1496.0
7.612624883651733,156,75,0.0013440860215053765,1480,1500.0,1337.5999999999999,1496.0
7.635885000228882,156,75,0.0013020833333333333,1480,1500.0,1337.52,1496.0
7.659080982208252,156,75,0.0013440860215053765,1480,1500.0,1336.0799999999999,1496.0
7.682420015335083,156,76,0.0012903225806451613,1480,1500.0,1332.0,1496.0
