time,x,y,size_inv,roll,pitch,thrust,yaw
0.0012421607971191406,153,50.0,3880.6252569390663,1498.4949999999999,1493.2305321934816,1350,1500.0
0.025187015533447266,154,49.5535,3880.6252569390663,1498.605,1493.2689542257285,1350,1500.0
0.049198150634765625,154,49.5535,3880.6252569390663,1498.5150000000001,1493.3073762579754,1350,1500.0
0.07345700263977051,154,49.5535,3880.6252569390663,1498.425,1493.3457982902223,1350,1500.0
0.09741902351379395,154,49.5535,3880.6252569390663,1498.335,1493.3842203224692,1350,1500.0
0.12147116661071777,154,49.5535,3919.0472891859877,1498.2449999999999,1493.6531745481977,1350,1500.0
0.1454460620880127,154,49.5535,3919.0472891859877,1498.155,1493.7300186126915,1350,1500.0
0.16942906379699707,154,49.5535,3957.4693214329091,1498.0650000000001,1494.037394870667,1350,1500.0
0.19362211227416992,153,49.5535,3995.8913536798304,1497.76,1494.3831931608893,1350,1500.0
0.2176051139831543,154,49.5535,4034.3133859267518,1497.8699999999999,1494.7674134833585,1350,1500.0
0.24191522598266602,154,50.5535,4034.3133859267518,1495.085,1514.9005583807452,1350,1500.0
0.26656103134155273,154,50.577,4072.7354181736728,1495.085,1519.8954225728448,1350,1500.0
0.2911829948425293,154,50.577,4111.1574504205946,1495.085,1523,1350,1500.0
0.315723180770874,154,50.6005,4149.5794826675155,1500.6849999999999,1523,1350,1500.0
0.34026002883911133,153,51.6005,4188.0015149144365,1497.6700000000001,1523,1350,1500.0
0.36489415168762207,153,51.6475,4234.9617765495623,1494.855,1523,1350,1500.0
0.38935208320617676,153,52.671,4273.3838087964841,1492.04,1523,1350,1500.0
0.41394519805908203,154,53.671,4320.3440704316108,1492.24,1523,1350,1500.0
0.43843913078308105,154,54.6475,4320.3440704316108,1489.4549999999999,1523,1350,1500.0
0.46300601959228516,155,54.6475,4367.3043320667366,1498.0699999999999,1523,1350,1500.0
0.48749208450317383,155,54.624,4414.2645937018624,1506.4849999999999,1523,1350,1500.0
0.5121080875396729,155,55.577,4414.2645937018624,1514.9000000000001,1523,1349.5983600000002,1500.0
0.5368220806121826,156,55.53,4414.2645937018624,1520,1523,1350,1500.0
0.5612380504608154,157,55.483,4414.2645937018624,1520,1523,1350,1500.0
0.5857231616973877,156,54.4125,4461.2248553369882,1520,1523,1350,1500.0
0.6101291179656982,157,55.389,4414.2645937018624,1520,1518.1578928923452,1350,1500.0
0.6346590518951416,156,55.3655,4414.2645937018624,1520,1512.6635422810355,1350,1500.0
0.6593940258026123,156,56.3655,4367.3043320667366,1518.155,1506.8404698382799,1350,1500.0
0.6843161582946777,156,58.3655,4367.3043320667366,1506.9849999999999,1501.2521987036998,1350,1500.0
0.7089920043945312,156,59.389,4320.3440704316108,1504.2,1491.5783848068638,1350,1500.0
0.7335882186889648,156,60.389,4273.383808796485,1495.8150000000001,1485.5674713175679,1346.0063600000001,1500.0
0.7582850456237793,157,61.389,4273.383808796485,1496.0450000000001,1479.7913591364475,1335.8448800000001,1500.0
0.7831711769104004,156,63.389,4273.383808796485,1495.845,1477.7720678861369,1324.46732,1500.0
0.807805061340332,157,64.4125,4273.383808796485,1501.645,1475.7527766358266,1318.45164,1500.0
0.8324930667877197,156,66.5065,4226.4235471613592,1501.4449999999999,1477.1615844848804,1312.45768,1500.0
0.8571901321411133,157,68.6005,4273.383808796485,1507.2449999999999,1482.8907364043657,1304.9203199999999,1500.0
0.8818690776824951,157,71.6945,4273.383808796485,1504.46,1488.3850870156755,1294.5595599999999,1500.0
0.9065461158752441,155,77.859,4273.383808796485,1501.2449999999999,1492.0479874232153,1275.8773200000001,1500.0
0.9312810897827148,155,80.9295,4273.383808796485,1492.8299999999999,1495.7108878307549,1256.6321600000001,1500.0
0.955996036529541,155,83.0235,4273.383808796485,1490.0150000000001,1501.299158965335,1250,1500.0
0.9806652069091797,155,84.047,4320.3440704316108,1481.5999999999999,1503.4593310005507,1250,1500.0
1.0052921772003174,155,85.047,4367.3043320667366,1480,1507.5448737628067,1250,1500.0
1.029771089553833,155,86.0,4367.3043320667366,1480,1511.3956152168871,1250,1500.0
1.0543980598449707,156,85.9765,4367.3043320667366,1487.3399999999999,1515.2463566709673,1250,1500.0
1.0793240070343018,156,85.9295,4367.3043320667366,1492.9400000000001,1517.2656479212778,1261.67012,1500.0
1.1041350364685059,154,85.8825,4320.3440704316108,1495.2950000000001,1515.1993964093322,1280.0906400000001,1500.0
1.1287941932678223,156,85.859,4320.3440704316108,1504.0799999999999,1509.6111252747523,1297.10896,1500.0
1.1534621715545654,154,85.812,4320.3440704316108,1500.865,1504.0228541401723,1308.50784,1500.0
1.1781141757965088,155,84.7885,4281.922038184689,1495.4649999999999,1496.667169522234,1318.31068,1500.0
1.2027781009674072,153,84.7415,4281.922038184689,1483.835,1489.5035950655301,1324.0299600000001,1500.0
1.2274601459503174,153,84.718,4234.9617765495623,1483.8050000000001,1485.7681197081904,1328.2313200000001,1500.0
1.2521510124206543,152,84.718,4188.0015149144365,1480,1481.9387238275806,1330.9786799999999,1500.0
1.2767760753631592,151,84.7415,4149.5794826675155,1480,1476.576715771788,1332.23632,1500.0
1.30134916305542,151,85.7885,4111.1574504205946,1480,1472.7131669736254,1327.9242400000001,1500.0
1.3259251117706299,151,87.8825,4111.1574504205946,1480,1469.0417283366974,1319.2727199999999,1500.0
1.3505830764770508,151,88.9765,4111.1574504205946,1480,1467.2956604268097,1310.24396,1500.0
1.3752391338348389,151,91.0705,4111.1574504205946,1480,1469.306413447732,1297.0318,1500.0
1.3998939990997314,152,94.235,4072.7354181736728,1480,1472.6235155650495,1278.10788,1500.0
1.4245409965515137,150,96.329,4072.7354181736728,1482.7249999999999,1477.7080311657253,1261.77676,1500.0
1.4492130279541016,150,98.423,4034.3133859267518,1485.48,1481.0251332830428,1250,1500.0
1.4739341735839844,151,100.5405,4034.3133859267518,1491.25,1482.7028953578251,1250,1500.0
1.4985811710357666,151,101.611,4034.3133859267518,1494.0350000000001,1482.5492072288373,1250,1500.0
1.5231611728668213,149,102.6345,4034.3133859267518,1482.405,1483.9708224219735,1250,1500.0
1.5477471351623535,150,102.6815,4034.3133859267518,1485.3900000000001,1483.8939783574797,1250,1500.0
1.5722970962524414,149,102.705,3995.8913536798304,1485.1600000000001,1485.1234833893811,1250,1500.0
1.5968351364135742,149,102.705,3957.4693214329091,1480,1484.7776850991588,1252.6019999999999,1500.0
1.621514081954956,148,101.6815,3919.0472891859877,1480,1482.8565834868127,1268.06376,1500.0
1.6460912227630615,147,101.6815,3957.4693214329091,1480,1481.3965462614296,1280.8594000000001,1500.0
1.6707160472869873,149,99.6815,3957.4693214329091,1480,1479.7443988748121,1296.2188000000001,1500.0
1.6960182189941406,147,99.6815,3995.8913536798304,1480,1481.4349682936768,1306.39616,1500.0
1.7217600345611572,148,98.6815,3957.4693214329091,1480,1484.239776647702,1316.3337200000001,1500.0
1.746413230895996,147,97.6815,3919.0472891859877,1480,1488.5430442593572,1323.3896,1500.0
1.7710950374603271,148,97.7285,3957.4693214329091,1484.6300000000001,1491.7320729358516,1327.7294400000001,1500.0
1.795851230621338,148,96.7755,3957.4693214329091,1484.5999999999999,1494.7289914511114,1328.97768,1500.0
1.8206372261047363,147,96.799,3957.4693214329091,1489.97,1493.1536881289876,1328.9883199999999,1500.0
1.8454570770263672,148,96.8225,3957.4693214329091,1492.9549999999999,1493.1536881289876,1326.1651199999999,1500.0
1.8702020645141602,150,95.8225,3957.4693214329091,1504.585,1494.7289914511114,1324.6020799999999,1500.0
1.894970178604126,150,93.799,3957.4693214329091,1507.4300000000001,1494.7289914511114,1327.31268,1500.0
1.9200382232666016,148,92.752,3995.8913536798304,1509.8150000000001,1496.4964049344699,1330.41076,1500.0
1.9451501369476318,149,90.705,3957.4693214329091,1515.645,1497.8027540308651,1337.7223200000001,1500.0
1.9697320461273193,151,89.658,3995.8913536798304,1520,1499.5701675142236,1346.7673600000001,1500.0
1.9953432083129883,151,87.611,3995.8913536798304,1518.95,1499.6470115787174,1350,1500.0
2.0200791358947754,149,85.5875,3995.8913536798304,1510.165,1501.2223149008412,1350,1500.0
2.0448110103607178,149,84.564,4034.3133859267518,1512.98,1501.4912691265697,1350,1500.0
2.0694031715393066,149,83.5405,4072.7354181736728,1507.4100000000001,1506.4092892541755,1350,1500.0
2.0944859981536865,149,82.517,4111.1574504205946,1493.425,1509.8288501241516,1350,1500.0
2.1191160678863525,150,79.47,4196.5397443026422,1488.0250000000001,1516.9838863514672,1350,1500.0
2.1439261436462402,150,78.423,4196.5397443026422,1493.625,1523,1350,1500.0
2.168394088745117,149,77.3995,4196.5397443026422,1490.6400000000001,1523,1350,1500.0
2.192784070968628,149,76.376,4234.9617765495632,1490.6400000000001,1523,1350,1500.0
2.2171552181243896,149,75.376,4281.9220381846899,1496.21,1523,1350,1500.0
2.2416810989379883,149,74.3525,4367.3043320667375,1496.1800000000001,1523,1350,1500.0
2.266235113143921,149,72.3055,4414.2645937018633,1490.5799999999999,1523,1350,1500.0
2.2907891273498535,151,71.2585,4461.2248553369891,1496.6099999999999,1523,1350,1500.0
2.315308094024658,151,69.141,4508.1851169721149,1502.24,1523,1350,1500.0
2.3397600650787354,150,68.047,4555.1453786072407,1504.855,1523,1350,1500.0
2.364384174346924,150,65.953,4555.1453786072407,1510.4549999999999,1523,1350,1500.0
2.3888540267944336,150,62.859,4602.1056402423665,1516.0550000000001,1523,1350,1500.0
2.4133870601654053,150,61.7885,4649.0659018774923,1507.6700000000001,1523,1350,1500.0
2.4378550052642822,150,60.7415,4696.026163512618,1499.2850000000001,1523,1350,1500.0
2.4623160362243652,150,59.6945,4696.026163512618,1496.5,1523,1350,1500.0
2.486798048019409,150,59.671,4696.026163512618,1493.7149999999999,1523,1350,1500.0
2.5113542079925537,150,59.6475,4696.026163512618,1490.9300000000001,1523,1350,1500.0
2.5358362197875977,150,59.6005,4754.7264905565262,1493.7149999999999,1523,1350,1500.0
2.560380220413208,150,59.577,4813.4268176004334,1496.5,1523,1350,1500.0
2.584907054901123,150,58.53,4813.4268176004334,1496.5,1523,1350,1500.0
2.6093711853027344,150,58.483,4813.4268176004334,1496.5,1523,1350,1500.0
2.6340930461883545,150,57.436,4813.4268176004334,1496.5,1523,1350,1500.0
2.658489227294922,150,56.342,4813.4268176004334,1496.5,1523,1350,1500.0
2.6826682090759277,150,56.295,4813.4268176004334,1496.5,1523,1350,1500.0
2.70683217048645,151,56.248,4813.4268176004334,1499.5150000000001,1519.0149176671864,1350,1500.0
2.731192111968994,151,56.2245,4813.4268176004334,1502.3299999999999,1514.4362921577617,1350,1500.0
2.7556140422821045,149,56.201,4813.4268176004334,1499.115,1509.8576666483368,1350,1500.0
2.7799811363220215,149,57.153999999999996,4813.4268176004334,1496.3,1507.5683538936244,1350,1500.0
2.804375171661377,149,57.107,4813.4268176004334,1493.4849999999999,1507.5683538936244,1350,1500.0
2.828705072402954,149,57.0835,4872.1271446443407,1485.0699999999999,1510.268568937644,1350,1500.0
2.853062152862549,149,57.06,4872.1271446443407,1480,1512.6752823464442,1350,1500.0
2.8772501945495605,149,57.0835,4872.1271446443407,1480,1515.0819957552444,1350,1500.0
2.9014270305633545,148,59.0835,4872.1271446443407,1480,1517.4887091640446,1350,1500.0
2.925640106201172,148,60.1305,4872.1271446443407,1480,1519.8954225728448,1350,1500.0
2.949909210205078,148,62.1775,4930.8274716882488,1481.9349999999999,1520.3063248621522,1345.7438,1500.0
2.9743871688842773,148,63.201,4930.8274716882488,1484.6900000000001,1520.4237255162402,1336.8088400000001,1500.0
2.998789072036743,148,64.2245,4930.8274716882488,1481.875,1520.541126170328,1326.4977999999999,1500.0
3.0231711864471436,148,65.248,4872.1271446443407,1484.6600000000001,1517.9583117803961,1319.01684,1500.0
3.0475590229034424,148,66.2245,4813.4268176004334,1487.4449999999999,1512.968783981664,1313.18164,1500.0
3.0720431804656982,148,66.201,4754.7264905565262,1490.23,1503.1658293653313,1314.34384,1500.0
3.0964300632476807,148,66.1305,4754.7264905565262,1493.0150000000001,1493.6563763842182,1318.5617199999999,1500.0
3.1209421157836914,148,66.107,4754.7264905565262,1495.8,1484.1469234031051,1325.59088,1500.0
3.1454710960388184,148,66.107,4754.7264905565262,1495.8,1479.3334965855047,1332.7376399999998,1500.0
3.1699390411376953,148,68.1305,4754.7264905565262,1495.8,1479.2160959314169,1335.8526400000001,1500.0
3.1944022178649902,148,69.1775,4696.026163512618,1495.8,1483.3838191515345,1335.7820400000001,1500.0
3.2190661430358887,148,71.248,4696.026163512618,1495.8,1487.8450440068716,1329.91236,1500.0
3.2435050010681152,148,74.4125,4754.7264905565262,1495.8,1495.0064839062281,1316.71524,1500.0
3.267937183380127,148,76.53,4754.7264905565262,1495.8,1499.5851094156531,1300.3333600000001,1500.0
3.2923312187194824,147,82.6945,4754.7264905565262,1492.7850000000001,1501.8744221703653,1274.5559599999999,1500.0
3.316721200942993,147,84.7885,4754.7264905565262,1489.97,1506.5704483338777,1253.6113599999999,1500.0
3.341123104095459,147,85.812,4754.7264905565262,1487.155,1511.2664744973904,1250,1500.0
3.365469217300415,147,86.812,4754.7264905565262,1484.3399999999999,1511.2664744973904,1250,1500.0
3.3897581100463867,147,86.765,4754.7264905565262,1481.5250000000001,1511.2664744973904,1250,1500.0
3.414182186126709,148,85.718,4754.7264905565262,1487.325,1511.2664744973904,1250,1500.0
3.4384801387786865,147,84.6475,4754.7264905565262,1489.9100000000001,1508.9771617426782,1269.5324800000001,1500.0
3.4628632068634033,147,84.6005,4754.7264905565262,1492.6949999999999,1506.6878489879657,1291.14048,1500.0
3.487230062484741,147,83.577,4696.026163512618,1495.48,1503.9876339439461,1313.8904,1500.0
3.511587142944336,147,83.53,4696.026163512618,1498.2650000000001,1501.5809205351459,1332.5247999999999,1500.0
3.535980224609375,147,83.5065,4696.026163512618,1492.665,1499.1742071263454,1339.84952,1500.0
3.5604441165924072,147,83.5065,4696.026163512618,1492.665,1496.7674937175452,1341.3008,1500.0
3.5848701000213623,147,83.5535,4696.026163512618,1492.665,1494.360780308745,1341.1044400000001,1500.0
3.609187126159668,147,84.6005,4696.026163512618,1492.665,1496.6500930634575,1333.9746,1500.0
3.6337220668792725,147,84.6475,4696.026163512618,1492.665,1498.9394058181699,1327.9094,1500.0
3.658137083053589,146,85.6945,4696.026163512618,1492.4349999999999,1501.2287185728824,1320.4946399999999,1500.0
3.6825640201568604,148,86.718,4696.026163512618,1495.6500000000001,1503.5180313275946,1313.0901200000001,1500.0
3.7069640159606934,148,87.765,4754.7264905565262,1498.4649999999999,1508.5075591263269,1304.3452400000001,1500.0
3.7316770553588867,148,87.7885,4754.7264905565262,1501.28,1510.9142725351271,1301.1182799999999,1500.0
3.756362199783325,148,87.7885,4754.7264905565262,1504.095,1513.3209859439273,1298.1150399999999,1500.0
3.7811660766601562,148,87.7885,4754.7264905565262,1512.51,1515.7276993527275,1298.07536,1500.0
3.805968999862671,149,86.765,4754.7264905565262,1512.74,1518.134412761528,1303.6035199999999,1500.0
3.830749034881592,150,86.765,4754.7264905565262,1515.7850000000001,1515.8451000068155,1310.77116,1500.0
3.8555641174316406,148,85.718,4754.7264905565262,1512.5999999999999,1513.5557872521031,1319.34476,1500.0
3.880420207977295,148,84.671,4754.7264905565262,1509.8150000000001,1511.2664744973906,1329.36212,1500.0
3.9052670001983643,149,83.577,4754.7264905565262,1507.26,1508.9771617426782,1339.5873200000001,1500.0
3.9301340579986572,150,81.53,4813.4268176004334,1507.49,1509.3880640319856,1349.6460400000001,1500.0
3.954953193664551,150,80.483,4813.4268176004334,1501.9200000000001,1511.7947774407858,1350,1500.0
3.9795050621032715,150,79.4595,4813.4268176004334,1507.55,1514.201490849586,1350,1500.0
4.004202127456665,150,79.483,4872.1271446443407,1513.1800000000001,1519.3084193024058,1350,1500.0
4.028794050216675,149,79.53,4930.8274716882488,1510.1949999999999,1523,1350,1500.0
4.0533130168914795,149,80.5535,4989.527798732156,1504.595,1523,1350,1500.0
4.077827215194702,149,80.577,5048.2281257760642,1501.78,1523,1350,1500.0
4.102370023727417,151,80.577,5106.9284528199714,1499.425,1523,1343.4899600000001,1500.0
4.126911163330078,149,79.53,5165.6287798638787,1490.6400000000001,1523,1337.623,1500.0
4.151559114456177,149,78.4595,5224.3291069077868,1490.6400000000001,1523,1334.9451999999999,1500.0
4.176119089126587,151,75.3655,5224.3291069077868,1499.4549999999999,1523,1344.8006800000001,1500.0
4.200839996337891,151,73.295,5224.3291069077868,1507.8699999999999,1523,1350,1500.0
4.225767135620117,151,72.248,5283.029433951694,1505.085,1523,1350,1500.0
4.250450134277344,151,71.1775,5283.029433951694,1513.5,1523,1350,1500.0
4.275119066238403,150,70.1775,5283.029433951694,1516.115,1523,1350,1500.0
4.2996110916137695,150,69.1775,5283.029433951694,1507.73,1523,1350,1500.0
4.324334144592285,150,69.1775,5283.029433951694,1499.345,1523,1350,1500.0
4.348779201507568,150,69.1775,5283.029433951694,1496.53,1523,1350,1500.0
4.373239994049072,152,68.1305,5283.029433951694,1494.175,1521.4803314030305,1350,1500.0
4.397836208343506,149,68.107,5283.029433951694,1487.9749999999999,1519.191018648318,1350,1500.0
4.42240309715271,149,66.0835,5283.029433951694,1487.9449999999999,1516.9017058936056,1350,1500.0
4.447122097015381,149,65.0365,5283.029433951694,1487.915,1514.6123931388931,1350,1500.0
4.471705198287964,149,65.013,5283.029433951694,1487.885,1514.6123931388931,1350,1500.0
4.496315002441406,149,63.966,5283.029433951694,1480,1514.6123931388931,1350,1500.0
4.520989179611206,151,62.966,5283.029433951694,1485.47,1514.6123931388931,1350,1500.0
4.545785188674927,150,62.966,5283.029433951694,1490.8699999999999,1514.6123931388934,1350,1500.0
4.570525169372559,151,63.013,5283.029433951694,1499.4849999999999,1514.6123931388934,1350,1500.0
4.595274209976196,149,64.0365,5283.029433951694,1501.8699999999999,1514.6123931388934,1350,1500.0
4.62007999420166,149,64.0835,5283.029433951694,1510.2249999999999,1514.6123931388934,1350,1500.0
4.644876003265381,149,64.107,5283.029433951694,1499.0250000000001,1514.6123931388934,1350,1500.0
4.6694722175598145,149,65.1305,5283.029433951694,1493.425,1514.6123931388931,1350,1500.0
4.694410085678101,150,65.1305,5283.029433951694,1485.24,1514.6123931388931,1349.8373200000001,1500.0
4.7190961837768555,148,65.1305,5283.029433951694,1482.0250000000001,1514.6123931388931,1346.9339199999999,1500.0
4.743967056274414,149,64.107,5224.3291069077868,1482.2249999999999,1511.9121780948735,1348.2880799999998,1500.0
4.76866602897644,148,64.0835,5224.3291069077868,1484.78,1509.5054646860733,1349.9018799999999,1500.0
4.79343318939209,148,63.06,5224.3291069077868,1484.75,1507.0987512772731,1350,1500.0
4.818002223968506,148,63.06,5224.3291069077868,1481.905,1504.6920378684729,1350,1500.0
4.842605113983154,148,63.06,5224.3291069077868,1484.6900000000001,1502.2853244596729,1350,1500.0
4.867186069488525,148,63.06,5224.3291069077868,1481.875,1504.5746372143851,1350,1500.0
4.891788005828857,149,63.0835,5224.3291069077868,1487.675,1506.8639499690976,1350,1500.0
4.916381120681763,150,64.1305,5224.3291069077868,1496.29,1509.1532627238098,1350,1500.0
4.941070079803467,148,65.201,5224.3291069077868,1501.46,1511.4425754785223,1350,1500.0
4.965731143951416,148,65.248,5165.6287798638787,1501.46,1511.0316731892149,1350,1500.0
4.990447044372559,150,66.3185,5165.6287798638787,1510.2750000000001,1508.6249597804147,1344.0844,1500.0
5.0152411460876465,149,67.342,5106.9284528199714,1507.29,1503.5180313275946,1335.3639600000001,1500.0
5.040067195892334,148,68.3655,5106.9284528199714,1495.8900000000001,1498.7046045099942,1329.49324,1500.0
5.0648322105407715,150,68.3655,5048.2281257760642,1501.9200000000001,1491.1909626483741,1327.8481200000001,1500.0
5.089485168457031,149,68.3655,4989.527798732156,1504.5350000000001,1485.9666335414663,1326.3345999999999,1500.0
5.114284038543701,147,69.389,4989.527798732156,1490.1199999999999,1481.0358060697781,1325.11644,1500.0
5.138958215713501,147,69.4125,4989.527798732156,1484.49,1480.8010047616024,1327.8982800000001,1500.0
5.163645029067993,149,70.436,4930.8274716882488,1493.2750000000001,1477.8659884094072,1329.4481599999999,1500.0
5.188338041305542,148,71.53,4930.8274716882488,1481.875,1479.9204998559437,1327.8822,1500.0
5.21299409866333,149,72.6005,4930.8274716882488,1480,1484.3817247112809,1324.739,1500.0
5.237723112106323,149,74.6945,4989.527798732156,1493.2750000000001,1491.5431646106376,1318.76216,1500.0
5.26245903968811,148,76.8355,5048.2281257760642,1501.46,1498.8220051640822,1308.31972,1500.0
5.287147045135498,147,80.9295,5048.2281257760642,1492.845,1510.5033702458197,1291.1121599999999,1500.0
5.312126159667969,147,82.047,5048.2281257760642,1495.5999999999999,1519.8954225728451,1278.9304,1500.0
5.336863040924072,148,83.094,5048.2281257760642,1492.9849999999999,1523,1268.32296,1500.0
5.361423015594482,149,83.0705,4989.527798732156,1487.615,1523,1263.5052000000001,1500.0
5.3860321044921875,148,82.0,4930.8274716882488,1484.6300000000001,1519.3084193024058,1267.4482,1500.0
5.41080117225647,148,78.8825,4930.8274716882488,1493.0150000000001,1509.9163669753807,1288.40804,1500.0
5.435577154159546,148,76.718,4872.1271446443407,1498.615,1497.8240996043355,1312.9823200000001,1500.0
5.4604651927948,148,74.6005,4930.8274716882488,1501.4000000000001,1488.72554891253,1342.02512,1500.0
5.485209226608276,146,72.53,4930.8274716882488,1492.5550000000001,1486.3188355037298,1350,1500.0
5.509777069091797,148,70.483,4872.1271446443407,1492.9549999999999,1488.1972459691347,1350,1500.0
5.5345752239227295,148,70.5065,4813.4268176004334,1490.1700000000001,1487.6689430257397,1350,1500.0
5.5591912269592285,149,71.577,4813.4268176004334,1490.4000000000001,1492.1301678810767,1350,1500.0
5.584033012390137,148,73.765,4872.1271446443407,1490.2,1494.5955816169208,1350,1500.0
5.608591079711914,148,75.8825,4930.8274716882488,1504.1849999999999,1497.1783960068526,1350,1500.0
5.633207082748413,149,77.9765,4989.527798732156,1507.2,1504.5746372143851,1341.6204399999999,1500.0
5.658395051956177,148,79.0705,4989.527798732156,1507.0,1516.3734029502104,1316.5841200000002,1500.0
5.683525085449219,148,79.0705,4989.527798732156,1501.4000000000001,1523,1298.8017199999999,1500.0
5.708177089691162,149,79.047,4930.8274716882488,1504.415,1523,1290.0875600000002,1500.0
5.7329161167144775,147,77.9765,4872.1271446443407,1495.6300000000001,1523,1292.9162000000001,1500.0
5.757526159286499,149,75.9295,4930.8274716882488,1493.2449999999999,1520.8933281325913,1308.51144,1500.0
5.782219171524048,149,73.8355,4989.527798732156,1496.0599999999999,1514.3188915036737,1330.2096799999999,1500.0
5.806876182556152,149,71.718,4989.527798732156,1501.6600000000001,1507.4509532395366,1350,1500.0
5.831465005874634,149,69.624,4930.8274716882488,1498.875,1504.8681388496047,1350,1500.0
5.8560450077056885,149,68.5535,4930.8274716882488,1507.29,1509.5641650131172,1350,1500.0
5.880726099014282,149,65.5065,4872.1271446443407,1507.29,1509.1532627238098,1350,1500.0
5.905397176742554,150,65.5065,4930.8274716882488,1507.52,1507.0400509502292,1350,1500.0
5.930098056793213,149,65.577,4930.8274716882488,1504.5350000000001,1504.633337541429,1350,1500.0
5.954770088195801,149,66.6475,4930.8274716882488,1504.5350000000001,1504.633337541429,1350,1500.0
5.979365110397339,149,67.718,4989.527798732156,1498.9649999999999,1505.0442398307362,1350,1500.0
6.00411319732666,149,68.7415,4989.527798732156,1498.9649999999999,1512.146979403049,1350,1500.0
6.028708219528198,149,67.7415,4930.8274716882488,1493.365,1514.1427905225421,1350,1500.0
6.053299188613892,149,67.6945,4989.527798732156,1493.365,1519.1323183212742,1346.5484799999999,1500.0
6.077946186065674,149,66.671,5048.2281257760642,1493.365,1523,1343.6948,1500.0
6.102530002593994,151,65.6475,4989.527798732156,1499.395,1521.6564323841621,1346.7682400000001,1500.0
6.127202033996582,150,64.624,5048.2281257760642,1502.01,1519.7780219187571,1350,1500.0
6.151808023452759,150,63.6005,4989.527798732156,1507.6099999999999,1521.8912336923377,1350,1500.0
6.176389217376709,151,62.5535,4989.527798732156,1513.4400000000001,1519.6019209376254,1350,1500.0
6.201049089431763,151,62.5065,5048.2281257760642,1519.0699999999999,1515.3167970634202,1350,1500.0
6.225723028182983,150,61.4595,5048.2281257760642,1510.4849999999999,1517.7235104722204,1350,1500.0
6.250460147857666,150,60.436,5048.2281257760642,1507.7,1515.4341977175079,1350,1500.0
6.275180101394653,149,59.4125,5048.2281257760642,1501.9000000000001,1515.5515983715957,1350,1500.0
6.299753189086914,149,59.4125,4989.527798732156,1490.7,1515.2580967363763,1350,1500.0
6.324441194534302,148,59.436,4930.8274716882488,1480,1510.1511682835564,1350,1500.0
6.349276065826416,149,60.4595,4989.527798732156,1480,1505.7486437552632,1350,1500.0
6.37392520904541,148,60.4595,4930.8274716882488,1480,1500.6417153024433,1350,1500.0
6.398420095443726,148,60.483,4930.8274716882488,1480,1493.5389757301305,1350,1500.0
6.422880172729492,147,60.483,4930.8274716882488,1480,1491.1322623213302,1350,1500.0
6.447408199310303,149,60.483,4872.1271446443407,1482.105,1493.0106727867351,1350,1500.0
6.471741199493408,148,60.483,4813.4268176004334,1481.875,1487.7863436798275,1350,1500.0
6.496326208114624,148,60.5065,4754.7264905565262,1487.4449999999999,1484.8513273276319,1350,1500.0
6.5210771560668945,148,61.5535,4754.7264905565262,1490.23,1482.2098126106562,1350,1500.0
6.545833110809326,148,62.624,4754.7264905565262,1498.615,1477.278985138968,1350,1500.0
6.570552110671997,147,63.671,4754.7264905565262,1490.0,1474.75487107608,1350,1500.0
6.595318078994751,147,65.7415,4696.026163512618,1489.97,1476.5158808873971,1340.06368,1500.0
6.62014102935791,147,67.8825,4754.7264905565262,1487.155,1483.6773207867539,1326.93696,1500.0
6.6449902057647705,146,70.9765,4754.7264905565262,1481.325,1490.5452590508912,1311.1109199999999,1500.0
6.669651031494141,147,73.0705,4754.7264905565262,1480,1497.4131973150284,1296.4669200000001,1500.0
6.694993019104004,147,75.2115,4754.7264905565262,1481.4949999999999,1501.991822824453,1281.61508,1500.0
6.719419002532959,145,77.235,4754.7264905565262,1480,1508.9771617426782,1269.7878000000001,1500.0
6.7440571784973145,145,77.235,4754.7264905565262,1480,1508.9771617426782,1266.3515600000001,1500.0
6.76839804649353,145,77.188,4707.7662289214004,1480,1506.8169897074624,1270.2786799999999,1500.0
6.7926812171936035,145,76.1175,4660.8059672862746,1480,1502.7314469452065,1281.38284,1500.0
6.816992998123169,145,75.0235,4613.8457056511488,1480,1496.7205334559103,1298.6614400000001,1500.0
6.841342210769653,145,73.9765,4566.885444016023,1480,1486.4949364848615,1320.2412400000001,1500.0
6.865664005279541,145,72.9295,4461.2248553369882,1480.825,1473.9330664974652,1340.41696,1500.0
6.890068054199219,145,71.9295,4414.2645937018624,1483.6099999999999,1463.4961483490588,1350,1500.0
6.91438102722168,145,71.9295,4414.2645937018624,1489.1800000000001,1463,1350,1500.0
6.938581228256226,145,73.0,4367.3043320667366,1494.75,1463,1350,1500.0
6.962766170501709,145,74.094,4320.3440704316108,1494.75,1463,1350,1500.0
6.986974000930786,146,76.2115,4273.383808796485,1497.7650000000001,1463,1350,1500.0
7.011223077774048,146,81.4465,4320.3440704316108,1500.5799999999999,1463,1323.01088,1500.0
7.035581111907959,144,84.611,4367.3043320667366,1497.365,1468.4504559515644,1295.2564400000001,1500.0
7.060044050216675,144,87.752,4367.3043320667366,1494.55,1478.0655695213563,1267.4924000000001,1500.0
7.0844950675964355,144,89.8695,4367.3043320667366,1491.7349999999999,1489.6060538181887,1250,1500.0
7.108782052993774,144,91.9635,4367.3043320667366,1483.3199999999999,1500.7825960873486,1250,1500.0
7.133065223693848,144,93.0105,4367.3043320667366,1480,1506.3708672219286,1250,1500.0
7.157267093658447,144,93.0105,4367.3043320667366,1480,1508.2023174256985,1250,1500.0
7.181434154510498,144,92.9635,4367.3043320667366,1480.4749999999999,1508.2023174256985,1250,1500.0
7.205708026885986,144,90.9165,4414.2645937018624,1483.26,1508.5310392571444,1256.8664000000001,1500.0
7.230229139328003,144,89.846,4414.2645937018624,1488.8299999999999,1506.7935095766447,1282.62292,1500.0
7.254752159118652,144,87.6815,4367.3043320667366,1494.4000000000001,1504.7272580646991,1308.62112,1500.0
7.279128074645996,144,83.611,4320.3440704316108,1494.4000000000001,1502.5670860294833,1338.46432,1500.0
7.303598165512085,146,81.4935,4320.3440704316108,1500.4300000000001,1500.6417153024431,1350,1500.0
7.327922105789185,144,79.423,4367.3043320667366,1500.03,1497.1196956798087,1350,1500.0
7.3522210121154785,144,78.3995,4414.2645937018624,1500.03,1495.5230467842146,1350,1500.0
7.376500129699707,144,78.423,4414.2645937018624,1500.03,1497.4484175112548,1350,1500.0
7.40086817741394,144,77.4465,4414.2645937018624,1500.03,1503.1306091691049,1350,1500.0
7.425559997558594,145,78.47,4414.2645937018624,1491.845,1508.8128008269553,1350,1500.0
7.449947118759155,145,78.517,4367.3043320667366,1494.6600000000001,1510.4094497225494,1350,1500.0
7.474341154098511,145,78.564,4414.2645937018624,1497.4749999999999,1510.6442510307252,1350,1500.0
7.4986560344696045,145,78.5875,4461.2248553369882,1500.29,1510.972972862171,1347.6486,1500.0
7.52307915687561,145,78.564,4508.185116972114,1503.105,1511.3956152168871,1337.68388,1500.0
7.547471046447754,147,76.517,4508.185116972114,1511.9200000000001,1511.5834562634275,1338.8406400000001,1500.0
7.571835041046143,146,74.3525,4461.2248553369882,1511.75,1515.1993964093322,1346.2027599999999,1500.0
7.596179008483887,148,71.2585,4461.2248553369882,1517.8099999999999,1517.1247671363724,1350,1500.0
7.620575189590454,146,69.1645,4508.185116972114,1517.4400000000001,1517.4534889678184,1350,1500.0
7.645026206970215,147,68.0705,4508.185116972114,1520,1513.7905885602786,1350,1500.0
7.669227123260498,147,66.0235,4555.1453786072398,1514.915,1512.2878601879545,1350,1500.0
7.693940162658691,147,65.0,4602.1056402423656,1514.9449999999999,1514.6358732697108,1350,1500.0
7.718505144119263,147,64.9765,4602.1056402423656,1503.7750000000001,1518.5805352470613,1350,1500.0
7.742834091186523,147,64.953,4602.1056402423656,1503.8050000000001,1520.5998264973716,1350,1500.0
7.76712703704834,147,63.9295,4602.1056402423656,1498.2349999999999,1523,1350,1500.0
7.791311025619507,149,63.906,4649.0659018774913,1504.2650000000001,1523,1350,1500.0
7.815498113632202,148,63.859,4754.7264905565253,1504.095,1523,1350,1500.0
7.839667081832886,148,62.812,4754.7264905565253,1509.6949999999999,1523,1350,1500.0
7.86397910118103,149,61.6945,4754.7264905565253,1512.74,1523,1350,1500.0
7.888106107711792,151,60.624,4813.4268176004325,1520,1523,1350,1500.0
7.912132024765015,150,59.577,4872.1271446443407,1520,1523,1350,1500.0
7.936185121536255,150,57.483,4872.1271446443407,1520,1523,1350,1500.0
7.9603271484375,150,57.4595,4872.1271446443407,1520,1523,1350,1500.0
7.984479188919067,150,57.436,4872.1271446443407,1520,1523,1350,1500.0
8.008533000946045,150,58.4125,4930.8274716882479,1510.425,1523,1350,1500.0
8.032716035842896,150,58.4125,4930.8274716882479,1507.6400000000001,1523,1350,1500.0
8.056921005249023,150,58.389,4872.1271446443407,1502.0699999999999,1523,1350,1500.0
8.081155061721802,150,58.342,4872.1271446443407,1496.5,1520.1302238810206,1350,1500.0
8.10550308227539,150,58.3185,4872.1271446443407,1493.7149999999999,1515.5515983715959,1350,1500.0
8.129780054092407,150,58.295,4813.4268176004325,1496.5,1505.8660444093509,1350,1500.0
8.155013084411621,150,58.248,4754.7264905565253,1496.5,1496.0630897930184,1350,1500.0
8.1804940700531,150,58.201,4754.7264905565253,1496.5,1491.249662975418,1350,1500.0
8.205060005187988,152,57.1305,4754.7264905565253,1502.53,1486.4362361578176,1350,1500.0
8.229550123214722,152,57.1305,4754.7264905565253,1508.1600000000001,1481.6228093402169,1350,1500.0
8.25414514541626,151,58.1305,4696.0261635126171,1510.7750000000001,1481.094506396822,1350,1500.0
8.278416156768799,151,59.248,4696.0261635126171,1513.5899999999999,1485.5557312521587,1350,1500.0
8.302648067474365,150,62.248,4754.7264905565253,1513.3900000000001,1490.4278583968032,1350,1500.0
8.326901197433472,150,68.5065,4813.4268176004325,1502.1900000000001,1497.7066989502478,1332.8752400000001,1500.0
8.351332187652588,149,71.624,4872.1271446443407,1487.9749999999999,1507.3922529124925,1306.6479200000001,1500.0
8.375669002532959,149,73.7885,4872.1271446443407,1480,1519.191018648318,1281.27928,1500.0
8.399970054626465,149,75.859,4872.1271446443407,1480,1523,1256.2348400000001,1500.0
8.42419719696045,150,77.8825,4825.166883009214,1480,1523,1250,1500.0
8.448222160339355,150,77.812,4825.166883009214,1480,1523,1250,1500.0
8.472264051437378,150,75.7415,4825.166883009214,1488.085,1523,1255.21948,1500.0
8.496512174606323,149,74.6005,4825.166883009214,1493.4549999999999,1514.2484511112211,1276.7142800000001,1500.0
8.520940065383911,150,73.5065,4825.166883009214,1502.04,1505.4551421200435,1304.0056400000001,1500.0
8.54570722579956,150,72.436,4719.50629433018,1502.04,1497.8475797351532,1334.3961200000001,1500.0
8.570118188858032,149,71.342,4613.8457056511452,1499.0250000000001,1488.1972459691347,1350,1500.0
8.594455003738403,148,70.3185,4555.1453786072379,1490.4100000000001,1478.6643128572041,1350,1500.0
8.61871600151062,148,70.342,4555.1453786072379,1487.595,1469.4248813804929,1350,1500.0
8.643047094345093,149,71.4125,4555.1453786072379,1482.1949999999999,1463,1350,1500.0
8.667340993881226,147,73.5065,4602.1056402423637,1480,1463,1350,1500.0
8.691442012786865,147,75.624,4602.1056402423637,1480,1467.487770588044,1349.0902000000001,1500.0
8.715719223022461,147,77.8355,4602.1056402423637,1480,1479.9439799867612,1328.2366400000001,1500.0
8.740065097808838,147,83.9765,4602.1056402423637,1480,1492.4001893854784,1295.4422,1500.0
8.76445722579956,148,87.141,4602.1056402423637,1480,1504.8563987841956,1266.1479199999999,1500.0
8.78868317604065,148,90.3525,4649.0659018774895,1484.5699999999999,1511.5951963288362,1250,1500.0
8.812934160232544,148,92.423,4649.0659018774895,1492.9549999999999,1513.978429606819,1250,1500.0
8.837223052978516,147,93.423,4602.1056402423637,1495.54,1511.9121780948735,1250,1500.0
8.861463069915771,146,91.3525,4602.1056402423637,1495.3099999999999,1510.0807278911036,1250,1500.0
8.885700225830078,146,89.282,4602.1056402423637,1492.4649999999999,1508.2492776873337,1250,1500.0
8.910043001174927,146,88.188,4555.1453786072379,1484.05,1502.3322847213078,1263.7558799999999,1500.0
8.934518098831177,146,86.047,4555.1453786072379,1480,1496.6500930634575,1298.3531600000001,1500.0
8.959188222885132,146,83.9765,4555.1453786072379,1480,1494.7247223364172,1335.6397200000001,1500.0
8.983672142028809,146,82.953,4555.1453786072379,1480,1492.7993516093773,1350,1500.0
9.00791621208191,146,81.9295,4508.1851169721122,1481.175,1488.7138088471213,1350,1500.0
9.03236722946167,146,80.9295,4508.1851169721122,1486.7449999999999,1490.4513385276209,1350,1500.0
9.056995153427124,147,81.9765,4508.1851169721122,1495.3299999999999,1492.1888682081205,1350,1500.0
9.081484079360962,146,82.0705,4508.1851169721122,1497.915,1492.0949476848505,1350,1500.0
9.105807065963745,146,82.1175,4508.1851169721122,1497.915,1492.0010271615802,1350,1500.0
9.130208015441895,146,84.188,4461.2248553369864,1497.915,1493.503755533904,1342.13616,1500.0
9.154700994491577,147,84.235,4461.2248553369864,1500.9300000000001,1493.409835010634,1327.4482800000001,1500.0
9.179076194763184,147,84.2585,4414.2645937018606,1498.145,1491.1557424521479,1318.5981200000001,1500.0
9.203472137451172,145,84.3055,4414.2645937018606,1494.9300000000001,1489.1364512018374,1312.73116,1500.0
9.227843046188354,145,84.3055,4367.3043320667348,1492.115,1484.9569879163112,1308.44416,1500.0
9.252242088317871,145,83.3055,4414.2645937018606,1489.3,1485.0978687012166,1313.9865200000002,1500.0
9.276676177978516,147,83.282,4367.3043320667348,1486.915,1482.8437761427306,1319.8825200000001,1500.0
9.30112910270691,145,82.282,4414.2645937018606,1480.885,1486.7414778584459,1327.0322000000001,1500.0
9.325602054595947,145,81.282,4461.2248553369864,1483.6700000000001,1492.5645503012017,1335.62564,1500.0
9.350059032440186,145,81.3055,4461.2248553369864,1486.4549999999999,1501.9096423665917,1342.89312,1500.0
9.374540090560913,145,81.329,4461.2248553369864,1489.24,1505.6664632974016,1344.51088,1500.0
9.39890718460083,147,81.376,4508.1851169721122,1489.6400000000001,1515.3402771942376,1345.9030399999999,1500.0
9.423277139663696,146,81.3995,4555.1453786072379,1497.825,1521.3511906835338,1344.4576,1500.0
9.447635173797607,146,81.3995,4508.1851169721122,1500.6400000000001,1521.2103098986283,1340.17644,1500.0
9.4719820022583,146,80.376,4555.1453786072379,1503.4549999999999,1521.6329522533445,1338.6631199999999,1500.0
9.496441125869751,146,79.329,4555.1453786072379,1506.27,1523,1340.1114799999998,1500.0
9.520822048187256,146,76.2585,4660.8059672862719,1503.4549999999999,1523,1348.57312,1500.0
9.545170068740845,146,74.1175,4719.50629433018,1500.6700000000001,1523,1350,1500.0
9.569647073745728,146,71.0,4719.50629433018,1497.885,1523,1350,1500.0
9.593927145004272,146,68.9295,4719.50629433018,1495.0999999999999,1523,1350,1500.0
9.618112087249756,146,67.8825,4766.4665559653058,1492.3150000000001,1523,1350,1500.0
9.642314195632935,146,66.8825,4766.4665559653058,1495.0999999999999,1523,1350,1500.0
9.666450023651123,146,66.8825,4766.4665559653058,1495.0999999999999,1523,1350,1500.0
9.690693140029907,146,65.8355,4813.4268176004316,1495.0999999999999,1523,1350,1500.0
9.714854001998901,148,64.765,4813.4268176004316,1501.1300000000001,1523,1350,1500.0
9.738808155059814,147,62.671,4813.4268176004316,1503.7449999999999,1522.4899770281854,1350,1500.0
9.762891054153442,147,61.53,4813.4268176004316,1506.5599999999999,1520.2945847967433,1350,1500.0
9.786926031112671,148,57.4595,4754.7264905565244,1512.3900000000001,1517.6882902759939,1350,1500.0
9.8110191822052,148,56.3655,4813.4268176004316,1518.02,1514.3188915036737,1350,1500.0
9.835212230682373,148,55.2715,4872.1271446443398,1512.45,1513.3562061401537,1350,1500.0
9.859324216842651,148,54.2245,4930.827471688247,1512.48,1516.6316843892037,1350,1500.0
9.883503198623657,148,53.201,4930.827471688247,1512.51,1519.6136610030342,1350,1500.0
9.907509088516235,148,53.201,4930.827471688247,1506.9400000000001,1523,1350,1500.0
9.93143105506897,148,54.2245,4930.827471688247,1501.3699999999999,1523,1350,1500.0
9.95531702041626,148,55.248,4989.5277987321551,1501.3699999999999,1523,1350,1500.0
9.979188203811646,148,55.248,4989.5277987321551,1498.585,1523,1350,1500.0
10.003066062927246,148,55.2245,4930.827471688247,1495.8,1523,1350,1500.0
10.026960134506226,150,55.201,4930.827471688247,1501.8299999999999,1521.0107287866792,1350,1500.0
10.051124095916748,149,55.1305,4930.827471688247,1504.4449999999999,1516.4321032772543,1350,1500.0
10.075314044952393,149,54.06,4930.827471688247,1507.26,1509.4467643590292,1350,1500.0
10.099314212799072,149,53.013,4872.1271446443398,1510.075,1502.0505231514969,1350,1500.0
10.123448133468628,149,52.966,4930.827471688247,1512.8900000000001,1502.3440247867165,1350,1500.0
10.147457122802734,149,52.9425,4989.5277987321551,1504.5050000000001,1505.0442398307364,1350,1500.0
10.171455144882202,149,52.966,4989.5277987321551,1501.72,1507.4509532395364,1350,1500.0
10.195533037185669,149,54.013,4930.827471688247,1498.9349999999999,1509.4467643590294,1350,1500.0
10.21971607208252,148,58.153999999999996,4930.827471688247,1493.135,1516.4321032772543,1350,1500.0
10.244088172912598,148,61.248,4989.5277987321551,1487.5350000000001,1519.1323183212742,1350,1500.0
10.268456220626831,148,63.342,5048.2281257760624,1487.5050000000001,1519.5432206105816,1331.4208000000001,1500.0
10.293097019195557,148,64.389,4989.5277987321551,1484.6900000000001,1516.9604062206495,1310.7715600000001,1500.0
10.317730188369751,149,65.389,4930.827471688247,1484.8900000000001,1516.6669045854301,1293.1262000000002,1500.0
10.342119216918945,150,64.295,4930.827471688247,1493.5050000000001,1514.3775918307176,1292.5877200000002,1500.0
10.366514205932617,152,63.201,4872.1271446443398,1507.95,1506.9813506231851,1302.3517200000001,1500.0
10.390977144241333,151,62.107,4872.1271446443398,1518.98,1497.4718976420722,1319.5862399999999,1500.0
10.415412187576294,151,61.013,4872.1271446443398,1520,1492.6584708244718,1341.29576,1500.0
10.439683198928833,153,60.9895,4930.827471688247,1520,1492.9519724596912,1350,1500.0
10.464030027389526,153,61.0365,4930.827471688247,1520,1492.9519724596912,1350,1500.0
10.488218069076538,151,63.0835,4872.1271446443398,1520,1497.2370963338965,1350,1500.0
10.512403011322021,151,65.154,4872.1271446443398,1520,1504.1050345980339,1350,1500.0
10.536566019058228,153,67.248,4930.827471688247,1519.71,1511.3838751514782,1350,1500.0
10.560891151428223,151,69.3655,4989.5277987321551,1502.54,1514.084090195498,1331.2668800000001,1500.0
10.58535122871399,151,70.4125,4989.5277987321551,1488.5550000000001,1516.4908036042982,1312.0774799999999,1500.0
10.609724998474121,151,72.436,4989.5277987321551,1491.3399999999999,1521.3042304218986,1296.0218799999998,1500.0
10.634719133377075,153,72.436,4930.827471688247,1497.3699999999999,1523,1289.6797199999999,1500.0
10.659242153167725,152,72.389,4930.827471688247,1488.7850000000001,1521.128129440767,1290.81268,1500.0
10.684348106384277,154,72.3185,4930.827471688247,1503.2,1516.4321032772543,1298.0363199999999,1500.0
10.708880186080933,153,71.2715,4930.827471688247,1514.2,1511.7360771137419,1310.8071199999999,1500.0
10.733343124389648,153,69.201,4930.827471688247,1519.8299999999999,1504.7507381955168,1330.6695200000001,1500.0
10.757779121398926,153,69.1305,4872.1271446443398,1514.26,1499.7612103967847,1345.4175600000001,1500.0
10.782129049301147,154,68.107,4813.4268176004316,1520,1494.6542819439644,1350,1500.0
10.806318998336792,152,68.107,4754.7264905565244,1508.49,1489.4299528370568,1350,1500.0
10.830689191818237,153,69.154,4754.7264905565244,1503.1199999999999,1484.4991253653684,1350,1500.0
10.855102062225342,152,71.2245,4754.7264905565244,1494.5350000000001,1479.5682978936804,1350,1500.0
10.879412174224854,152,73.295,4813.4268176004316,1491.72,1479.7443988748121,1350,1500.0
10.90386414527893,152,74.4125,4813.4268176004316,1480.52,1484.323024384237,1333.82584,1500.0
10.928247213363647,151,76.5065,4754.7264905565244,1483.075,1490.8974610131545,1313.4901199999999,1500.0
10.952635049819946,152,78.671,4754.7264905565244,1480.46,1497.7653992772916,1294.3084399999998,1500.0
10.977022171020508,150,80.7415,4754.7264905565244,1480,1504.6333375414288,1280.87132,1500.0
11.001338005065918,150,83.8355,4754.7264905565244,1480,1504.515936887341,1267.64392,1500.0
11.025614023208618,150,84.906,4754.7264905565244,1480,1502.109223478541,1259.8241599999999,1500.0
11.049951076507568,151,84.906,4754.7264905565244,1480,1502.109223478541,1259.1522,1500.0
11.074323177337646,149,84.8825,4754.7264905565244,1480,1502.109223478541,1263.17896,1500.0
11.09861421585083,149,83.859,4754.7264905565244,1480,1502.109223478541,1272.8610800000001,1500.0
11.122891187667847,150,82.812,4696.0261635126171,1480,1501.6983211892336,1289.9264000000001,1500.0
11.147188186645508,148,82.7885,4696.0261635126171,1480,1501.5809205351457,1307.27496,1500.0
11.171468019485474,149,82.7885,4649.0659018774913,1480,1497.0140350911297,1321.74748,1500.0
11.195746183395386,149,82.812,4602.1056402423656,1482.2249999999999,1490.5217789200735,1333.1484399999999,1500.0
11.220198154449463,147,82.8355,4555.1453786072398,1480,1482.1041520219771,1338.8338800000001,1500.0
11.244686126708984,147,82.8355,4508.185116972114,1480,1476.4571805603534,1337.4080799999999,1500.0
11.269026041030884,146,81.8825,4508.185116972114,1480,1471.0450104069052,1336.9765199999999,1500.0
11.293297052383423,146,82.906,4461.2248553369882,1480,1467.2294891490512,1332.6993199999999,1500.0
11.317576169967651,147,82.953,4414.2645937018624,1480,1465.2454180949671,1329.624,1500.0
11.3418710231781,146,83.047,4414.2645937018624,1480,1467.2529692798689,1327.81468,1500.0
11.366167068481445,147,84.1175,4414.2645937018624,1480,1470.7280286408682,1324.71596,1500.0
11.390512228012085,145,87.235,4414.2645937018624,1480,1474.2030880018674,1312.0352,1500.0
11.414890050888062,145,89.3995,4461.2248553369882,1480.9749999999999,1481.7636901251226,1300.2469599999999,1500.0
11.439303159713745,145,91.517,4508.185116972114,1480.915,1493.1750337024582,1285.56556,1500.0
11.463861227035522,145,92.658,4555.1453786072398,1480.885,1504.6802978030639,1270.6441600000001,1500.0
11.488242149353027,145,93.705,4602.1056402423656,1480,1516.2794824269401,1257.32528,1500.0
11.512529134750366,145,93.7285,4602.1056402423656,1480,1523,1255.2258400000001,1500.0
11.53685212135315,144,92.6815,4649.0659018774913,1480,1523,1260.5873200000001,1500.0
11.561298131942749,144,91.6345,4649.0659018774913,1480.5650000000001,1523,1273.3215600000001,1500.0
11.585642099380493,144,88.517,4649.0659018774913,1480.5350000000001,1523,1296.09656,1500.0
11.60995602607727,144,86.329,4707.7662289213986,1483.29,1523,1322.3825999999999,1500.0
11.634321212768555,145,83.2115,4766.4665559653058,1483.49,1523,1350,1500.0
11.659089088439941,145,77.094,4766.4665559653058,1489.0899999999999,1523,1350,1500.0
11.683378219604492,144,73.953,4766.4665559653058,1491.675,1523,1350,1500.0
11.70756220817566,146,71.906,4766.4665559653058,1500.49,1523,1350,1500.0
11.731751203536987,145,70.8825,4766.4665559653058,1505.8900000000001,1523,1350,1500.0
11.755977153778076,145,69.8825,4766.4665559653058,1505.8900000000001,1522.8891392520841,1350,1500.0
11.780341148376465,146,68.8825,4766.4665559653058,1506.1199999999999,1518.3105137426594,1350,1500.0
11.804741144180298,145,67.8825,4813.4268176004316,1508.7349999999999,1515.8920602684505,1350,1500.0
11.82903003692627,146,66.859,4813.4268176004316,1503.365,1513.2388054860658,1350,1500.0
11.85333514213562,145,65.859,4754.7264905565244,1500.3800000000001,1510.1746484143739,1350,1500.0
11.877806186676025,146,65.8355,4696.0261635126171,1503.395,1506.9930906885938,1350,1500.0
11.90265417098999,144,64.7885,4696.0261635126171,1494.5799999999999,1504.1050345980336,1350,1500.0
11.926976203918457,146,62.7415,4754.7264905565244,1495.01,1500.1603726206831,1350,1500.0
11.95130705833435,146,61.6945,4813.4268176004316,1495.01,1498.6224240521328,1350,1500.0
11.97565507888794,145,60.671,4872.1271446443398,1494.8099999999999,1504.1872150558952,1350,1500.0
12.000012159347534,145,59.671,4872.1271446443398,1489.21,1514.1545305879508,1350,1500.0
12.024395227432251,145,59.6945,4872.1271446443398,1497.595,1523,1350,1500.0
12.048580169677734,145,60.718,4872.1271446443398,1491.9949999999999,1523,1350,1500.0
12.072760105133057,145,60.7415,4872.1271446443398,1489.1800000000001,1523,1350,1500.0
12.096927165985107,143,61.7415,4930.827471688247,1483.1500000000001,1523,1350,1500.0
12.121206998825073,146,61.6945,4989.5277987321551,1489.3499999999999,1523,1350,1500.0
12.14552617073059,146,60.6475,5048.2281257760624,1489.3800000000001,1523,1350,1500.0
12.169686079025269,146,59.483,5048.2281257760624,1494.98,1523,1350,1500.0
12.19398808479309,148,56.389,5048.2281257760624,1506.6099999999999,1523,1350,1500.0
12.21816110610962,149,55.3185,5048.2281257760624,1520,1523,1350,1500.0
12.24225115776062,149,54.2245,5048.2281257760624,1520,1523,1350,1500.0
12.266338109970093,151,54.201,5106.9284528199696,1520,1523,1350,1500.0
12.290464162826538,150,54.1775,5165.6287798638778,1520,1523,1350,1500.0
12.31461501121521,150,54.1305,5224.329106907785,1520,1523,1350,1500.0
12.338653087615967,149,54.107,5165.6287798638778,1520,1523,1350,1500.0
12.362664222717285,149,54.06,5106.9284528199696,1520,1523,1350,1500.0
12.386662006378174,149,54.013,5048.2281257760624,1507.3499999999999,1523,1350,1500.0
12.410908222198486,149,53.9895,4989.5277987321551,1493.395,1515.9625006609031,1350,1500.0
12.43533706665039,150,53.9425,4930.827471688247,1488.0250000000001,1496.7674937175452,1350,1500.0
12.459717035293579,148,53.8955,4872.1271446443398,1484.8099999999999,1479.8617995289001,1350,1500.0
12.484212160110474,148,54.8955,4930.827471688247,1481.9949999999999,1470.6458481830066,1350,1500.0
12.508525133132935,148,55.9425,4930.827471688247,1484.75,1468.1217341201184,1350,1500.0
12.532838106155396,148,56.9895,4872.1271446443398,1484.72,1469.8827439314355,1350,1500.0
12.557180166244507,150,59.0835,4872.1271446443398,1485.1199999999999,1478.9225942961973,1350,1500.0
12.581516027450562,149,65.2715,4930.827471688247,1490.52,1493.0693731137792,1327.9960800000001,1500.0
12.605914115905762,149,68.436,4989.5277987321551,1496.1199999999999,1502.6375264219362,1305.83664,1500.0
12.630389213562012,149,72.6005,5048.2281257760624,1501.72,1512.3230803841809,1279.4758400000001,1500.0
12.654889106750488,150,75.812,5048.2281257760624,1510.335,1523,1252.59764,1500.0
12.679180145263672,146,78.906,5048.2281257760624,1498.2750000000001,1523,1250,1500.0
12.703400135040283,148,80.906,5106.9284528199696,1493.075,1523,1250,1500.0
12.727620124816895,148,80.859,5106.9284528199696,1487.4749999999999,1523,1250,1500.0
12.75183916091919,149,78.718,5048.2281257760624,1484.8900000000001,1523,1250,1500.0
12.77600908279419,148,77.6005,5106.9284528199696,1480,1523,1259.25128,1500.0
12.800571203231812,147,75.483,5048.2281257760624,1487.2449999999999,1523,1293.6800000000001,1500.0
12.825066089630127,148,73.3185,4989.5277987321551,1490.23,1513.2035852898396,1328.46632,1500.0
12.849510192871094,148,71.248,4989.5277987321551,1493.0150000000001,1503.8115329628142,1350,1500.0
12.873972177505493,148,70.1775,4930.827471688247,1490.2,1498.7046045099942,1350,1500.0
12.898717164993286,148,69.154,4930.827471688247,1495.77,1489.1951515288813,1350,1500.0
12.9235680103302,149,70.154,4930.827471688247,1498.8150000000001,1484.3817247112809,1350,1500.0
12.947892189025879,148,70.248,4872.1271446443398,1498.615,1483.8534217678857,1350,1500.0
12.972218036651611,147,73.3185,4813.4268176004316,1495.5999999999999,1480.9184054156901,1350,1500.0
12.996575117111206,147,75.4125,4813.4268176004316,1495.5699999999999,1480.6836041075146,1350,1500.0
13.0210440158844,147,77.577,4754.7264905565244,1492.7550000000001,1480.0379005100315,1327.6033600000001,1500.0
13.045597076416016,147,79.6945,4754.7264905565244,1481.5550000000001,1477.3963857930557,1304.0765999999999,1500.0
13.07007122039795,147,81.7885,4754.7264905565244,1480,1477.16158448488,1280.7696000000001,1500.0
13.09450101852417,146,83.9295,4696.0261635126171,1480,1478.9225942961975,1265.7364400000001,1500.0
13.118841171264648,146,86.9765,4696.0261635126171,1480,1478.6877929880218,1252.54748,1500.0
13.14315915107727,146,88.0235,4696.0261635126171,1480,1483.1490178433587,1250,1500.0
13.167397022247314,146,88.094,4696.0261635126171,1481.2049999999999,1487.6102426986959,1250,1500.0
13.191718101501465,146,89.141,4696.0261635126171,1481.175,1489.7821547993203,1252.34968,1500.0
13.216127157211304,146,90.235,4696.0261635126171,1483.96,1494.3607803087452,1256.3879199999999,1500.0
13.24063515663147,145,91.282,4696.0261635126171,1483.73,1498.9394058181699,1264.6586399999999,1500.0
13.265181064605713,145,92.329,4696.0261635126171,1483.7,1501.2287185728824,1271.4095600000001,1500.0
13.289570093154907,145,92.329,4696.0261635126171,1483.6700000000001,1503.5180313275948,1276.7344800000001,1500.0
13.314122200012207,145,91.329,4696.0261635126171,1483.6400000000001,1505.8073440823071,1284.78316,1500.0
13.338521003723145,145,90.282,4696.0261635126171,1480.825,1505.8073440823071,1294.54736,1500.0
13.362950086593628,145,87.2115,4696.0261635126171,1483.6099999999999,1505.8073440823071,1309.9489599999999,1500.0
13.387372016906738,145,86.141,4696.0261635126171,1486.395,1505.8073440823071,1325.9997599999999,1500.0
13.411773204803467,145,84.0705,4696.0261635126171,1489.1800000000001,1505.8073440823071,1346.1361999999999,1500.0
13.436193227767944,145,83.047,4696.0261635126171,1491.9649999999999,1505.8073440823071,1350,1500.0
13.460584163665771,145,82.0235,4696.0261635126171,1494.75,1505.8073440823071,1350,1500.0
13.484986066818237,146,81.047,4696.0261635126171,1497.7650000000001,1505.8073440823071,1350,1500.0
13.509327173233032,146,80.047,4696.0261635126171,1500.5799999999999,1505.8073440823071,1350,1500.0
13.533837080001831,146,80.0705,4696.0261635126171,1503.395,1505.8073440823071,1350,1500.0
13.558166027069092,146,80.094,4696.0261635126171,1506.21,1505.8073440823071,1350,1500.0
13.582472085952759,147,79.1175,4696.0261635126171,1512.04,1505.8073440823071,1350,1500.0
13.606816053390503,147,79.1175,4696.0261635126171,1512.0699999999999,1505.8073440823071,1350,1500.0
13.631195068359375,147,78.1175,4696.0261635126171,1512.0999999999999,1505.8073440823071,1350,1500.0
13.655594110488892,147,78.141,4696.0261635126171,1512.1300000000001,1505.8073440823071,1350,1500.0
13.679980993270874,148,78.1175,4754.7264905565244,1515.175,1508.5075591263267,1349.36268,1500.0
13.704418182373047,148,77.1175,4754.7264905565244,1512.4200000000001,1510.9142725351271,1349.4905199999998,1500.0
13.728759050369263,148,76.141,4754.7264905565244,1512.45,1513.3209859439273,1350,1500.0
13.753116130828857,149,76.1645,4754.7264905565244,1515.4949999999999,1515.7276993527275,1350,1500.0
13.777492046356201,148,76.1645,4754.7264905565244,1515.325,1518.1344127615278,1350,1500.0
13.802145004272461,149,76.188,4754.7264905565244,1512.77,1515.8451000068153,1350,1500.0
13.82648515701294,149,76.188,4813.4268176004316,1512.8,1516.2560022961225,1350,1500.0
13.850889205932617,149,75.094,4872.1271446443398,1512.8299999999999,1519.0736179942301,1350,1500.0
13.87528920173645,149,72.9765,4930.827471688247,1507.26,1523,1350,1500.0
13.89950704574585,149,68.8825,4989.5277987321551,1507.29,1523,1350,1500.0
13.9238600730896,150,66.7885,4930.827471688247,1507.52,1523,1350,1500.0
13.948082208633423,151,65.671,4989.5277987321551,1510.5650000000001,1523,1350,1500.0
13.972261190414429,149,64.6005,5048.2281257760624,1507.3800000000001,1523,1350,1500.0
13.996451139450073,151,62.5065,5106.9284528199696,1513.4100000000001,1523,1350,1500.0
14.020763158798218,150,60.4595,5165.6287798638778,1513.24,1523,1350,1500.0
14.045132160186768,151,60.436,5224.329106907785,1513.47,1523,1350,1500.0
14.06932520866394,150,59.4125,5165.6287798638778,1504.885,1523,1350,1500.0
14.093640089035034,150,59.389,5106.9284528199696,1507.7,1523,1350,1500.0
14.11782717704773,152,59.389,5048.2281257760624,1505.345,1523,1350,1500.0
14.142055034637451,152,59.3655,4989.5277987321551,1508.1900000000001,1522.8304389250402,1350,1500.0
14.166413068771362,152,59.342,4989.5277987321551,1508.22,1501.7570215162773,1350,1500.0
14.190792083740234,152,59.295,4989.5277987321551,1516.635,1487.6689430257397,1350,1500.0
14.215159177780151,151,58.2245,4930.827471688247,1516.4649999999999,1477.8659884094072,1350,1500.0
14.239456176757812,151,58.1775,4930.827471688247,1510.865,1475.3418743465193,1350,1500.0
14.263936996459961,153,57.153999999999996,4872.1271446443398,1508.51,1477.1028841578363,1350,1500.0
14.2882080078125,153,59.1775,4872.1271446443398,1508.54,1481.4467083590855,1350,1500.0
14.312449216842651,153,61.2715,4930.827471688247,1505.7850000000001,1486.2014348496418,1350,1500.0
14.336727142333984,151,64.5065,4989.5277987321551,1502.5999999999999,1495.7695881577988,1350,1500.0
14.3610520362854,152,68.671,5048.2281257760624,1508.4000000000001,1505.4551421200435,1330.461,1500.0
14.385407209396362,153,71.812,5106.9284528199696,1505.8150000000001,1519.9541228998887,1302.57664,1500.0
14.409718036651611,152,74.953,5165.6287798638778,1500.0150000000001,1523,1275.867,1500.0
14.433966159820557,152,77.9765,5165.6287798638778,1494.415,1523,1250.8716400000001,1500.0
14.457961082458496,150,77.953,5165.6287798638778,1491.2,1523,1250,1500.0
14.481889009475708,153,76.859,5106.9284528199696,1491.8299999999999,1523,1250,1500.0
14.505928039550781,152,75.6945,5165.6287798638778,1488.8150000000001,1523,1259.6151200000002,1500.0
14.530122995376587,152,74.577,5165.6287798638778,1491.5999999999999,1523,1282.9522400000001,1500.0
14.554339170455933,152,72.483,5165.6287798638778,1494.385,1523,1316.09448,1500.0
14.578351020812988,150,69.342,5165.6287798638778,1496.77,1517.312608182913,1350,1500.0
14.602344036102295,150,68.295,5165.6287798638778,1485.54,1517.4300088370007,1350,1500.0
14.626329183578491,150,67.2245,5106.9284528199696,1482.6949999999999,1512.4404810382687,1350,1500.0
14.650418043136597,150,67.201,5106.9284528199696,1480,1510.0337676294685,1350,1500.0
14.674472093582153,150,67.1775,5106.9284528199696,1480,1507.627054220668,1350,1500.0
14.698390007019043,151,67.1775,5165.6287798638778,1480,1507.9205558558876,1350,1500.0
14.722361087799072,152,67.1775,5224.329106907785,1488.635,1508.331458145195,1350,1500.0
14.746405124664307,153,67.2245,5165.6287798638778,1502.8499999999999,1512.7339826734881,1350,1500.0
14.770487070083618,151,68.2715,5165.6287798638778,1510.835,1517.4300088370007,1350,1500.0
14.794558048248291,153,69.3185,5165.6287798638778,1520,1522.1260350005134,1349.7801200000001,1500.0
14.818576097488403,152,70.3655,5165.6287798638778,1520,1522.1260350005134,1340.98928,1500.0
14.842616081237793,152,71.389,5165.6287798638778,1519.51,1517.4300088370007,1332.1767199999999,1500.0
14.866704225540161,150,71.389,5224.329106907785,1502.3099999999999,1517.8409111263081,1326.17984,1500.0
14.890943050384521,150,71.3185,5224.329106907785,1496.71,1517.9583117803959,1323.3326400000001,1500.0
14.915634155273438,151,70.2715,5224.329106907785,1482.925,1518.0757124344836,1326.1284799999999,1500.0
14.939998149871826,151,69.201,5224.329106907785,1480,1520.4824258432839,1333.4256399999999,1500.0
14.964218139648438,151,67.1305,5165.6287798638778,1480,1522.4782369627767,1347.7701200000001,1500.0
14.98827600479126,151,66.0835,5224.329106907785,1485.6800000000001,1520.4824258432839,1350,1500.0
15.012303113937378,150,65.0365,5165.6287798638778,1488.2650000000001,1515.4928980445518,1350,1500.0
15.036339044570923,150,65.0365,5165.6287798638778,1491.02,1510.7968718810394,1350,1500.0
15.060493230819702,152,65.013,5165.6287798638778,1497.02,1506.1008457175267,1350,1500.0
15.084683179855347,152,63.9895,5165.6287798638778,1502.6199999999999,1506.1008457175267,1350,1500.0
15.108702182769775,152,63.966,5165.6287798638778,1502.6500000000001,1503.6941323087265,1350,1500.0
15.132726192474365,150,63.9895,5165.6287798638778,1502.25,1505.9834450634389,1350,1500.0
15.15670919418335,152,65.013,5165.6287798638778,1511.0650000000001,1508.2727578181511,1350,1500.0
15.180830001831055,149,65.06,5165.6287798638778,1499.2349999999999,1510.5620705728636,1350,1500.0
15.205052137374878,150,66.1305,5224.329106907785,1491.02,1513.2622856168832,1350,1500.0
15.229248046875,148,67.1775,5224.329106907785,1480,1517.9583117803959,1347.3099199999999,1500.0
15.253761053085327,149,69.2245,5283.0294339516931,1480,1523,1335.8912,1500.0
15.27775502204895,147,69.248,5283.0294339516931,1480,1523,1329.7326399999999,1500.0
15.301785230636597,147,69.2245,5283.0294339516931,1480,1523,1323.8278800000001,1500.0
15.325741052627563,148,69.2245,5283.0294339516931,1480,1523,1322.2842800000001,1500.0
15.349639177322388,147,68.154,5283.0294339516931,1480,1523,1326.53036,1500.0
15.373882055282593,147,68.107,5283.0294339516931,1480,1523,1335.31556,1500.0
15.397882223129272,147,66.06,5283.0294339516931,1480,1523,1348.12228,1500.0
15.421940088272095,147,64.9895,5283.0294339516931,1481.5550000000001,1519.191018648318,1350,1500.0
15.445987224578857,147,63.966,5283.0294339516931,1484.3099999999999,1516.9017058936056,1350,1500.0
15.47012710571289,147,63.9425,5283.0294339516931,1487.095,1514.6123931388934,1350,1500.0
15.494319200515747,148,62.9425,5224.329106907785,1495.6800000000001,1511.9121780948735,1350,1500.0
15.518404006958008,147,62.9425,5165.6287798638778,1495.48,1506.8052496420532,1350,1500.0
15.542534112930298,147,62.9425,5106.9284528199696,1495.48,1499.2916077804332,1350,1500.0
