time,x,y,size_inv,roll,pitch,thrust,yaw
0.0004150867462158203,163,54,0.006060606060606061,1509.0,1494.0,1325,1503.0
0.022129058837890625,163,54,0.006493506493506494,1512.0,1494.0,1325,1503.0
0.043665170669555664,162,54,0.004784688995215311,1512.0,1494.0,1325,1502.0
0.06504011154174805,161,54,0.005050505050505051,1511.0,1494.0,1325,1501.0
0.08642101287841797,162,54,0.004784688995215311,1515.0,1494.0,1325,1502.0
0.1077730655670166,162,54,0.004784688995215311,1517.0,1494.0,1325,1502.0
0.12924814224243164,162,54,0.004784688995215311,1519.0,1494.0,1325,1502.0
0.15067815780639648,162,54,0.005050505050505051,1520,1494.0,1325,1502.0
0.1720731258392334,163,54,0.006493506493506494,1520,1494.0,1325,1503.0
0.19358301162719727,162,54,0.004784688995215311,1520,1494.0,1325,1502.0
0.21515512466430664,162,54,0.005050505050505051,1520,1494.0,1325,1502.0
0.23690009117126465,163,54,0.006493506493506494,1520,1494.0,1325,1503.0
0.25861310958862305,162,54,0.005050505050505051,1520,1494.0,1325,1502.0
0.2803230285644531,161,54,0.005050505050505051,1520,1494.0,1325,1501.0
0.3020310401916504,160,56,0.005050505050505051,1519.0,1494.0,1325,1500.0
0.3237781524658203,159,56,0.005555555555555556,1514.0,1494.0,1325,1499.0
0.3455491065979004,160,56,0.007142857142857143,1514.0,1494.0,1325,1500.0
0.36730408668518066,159,56,0.007142857142857143,1509.0,1494.0,1325,1499.0
0.3890841007232666,159,56,0.006666666666666667,1505.0,1494.0,1325,1499.0
0.41085314750671387,157,58,0.005050505050505051,1496.0,1494.0,1325,1497.0
0.4326591491699219,156,60,0.005050505050505051,1488.0,1494.0,1325,1496.0
0.454456090927124,157,62,0.006493506493506494,1484.0,1494.0,1325,1497.0
0.47620320320129395,155,63,0.005555555555555556,1480,1494.0,1325,1495.0
0.49792003631591797,156,64,0.005050505050505051,1480,1494.0,1325,1496.0
0.5196352005004883,156,64,0.005050505050505051,1480,1494.0,1325,1496.0
0.5413532257080078,157,64,0.005050505050505051,1480,1494.0,1325,1497.0
0.5630450248718262,158,64,0.005050505050505051,1480,1494.0,1325,1498.0
0.5847601890563965,158,64,0.005050505050505051,1480,1494.0,1325,1498.0
0.6064691543579102,160,64,0.007142857142857143,1480,1494.0,1325,1500.0
0.6281740665435791,159,65,0.005050505050505051,1480,1494.0,1325,1499.0
0.6498961448669434,161,66,0.007142857142857143,1480,1494.0,1325,1501.0
0.6716001033782959,160,67,0.005555555555555556,1480.0,1494.0,1325,1500.0
0.6933591365814209,161,70,0.006493506493506494,1488.0,1494.0,1325,1501.0
0.7151041030883789,161,71,0.007142857142857143,1493.0,1494.0,1325,1501.0
0.7368471622467041,161,72,0.006493506493506494,1498.0,1494.0,1325,1501.0
0.7585961818695068,161,73,0.006493506493506494,1502.0,1494.0,1325,1501.0
0.7803411483764648,160,73,0.005050505050505051,1502.0,1494.0,1325,1500.0
0.8020801544189453,160,73,0.004784688995215311,1504.0,1494.0,1325,1500.0
0.8238990306854248,159,73,0.005050505050505051,1501.0,1494.0,1325,1499.0
0.8456480503082275,159,73,0.005050505050505051,1501.0,1494.0,1325,1499.0
0.8673892021179199,158,74,0.005050505050505051,1496.0,1494.0,1325,1498.0
0.8891401290893555,159,75,0.006493506493506494,1497.0,1494.0,1325,1499.0
0.9109010696411133,157,76,0.005555555555555556,1489.0,1494.0,1325,1497.0
0.932685136795044,157,78,0.005050505050505051,1485.0,1494.0,1325,1497.0
0.9544892311096191,158,79,0.006493506493506494,1484.0,1494.0,1325,1498.0
0.9762492179870605,157,80,0.005555555555555556,1480,1494.0,1325,1497.0
0.997962236404419,156,81,0.005555555555555556,1480,1494.0,1325,1496.0
1.0196781158447266,157,82,0.004784688995215311,1480,1494.0,1325,1497.0
1.041398048400879,158,83,0.006493506493506494,1480,1494.0,1325,1498.0
1.0631051063537598,158,84,0.006493506493506494,1480,1494.0,1325,1498.0
1.084813117980957,157,84,0.005050505050505051,1480,1494.0,1325,1497.0
1.106518030166626,157,85,0.005050505050505051,1480,1494.0,1325,1497.0
1.128223180770874,158,85,0.006493506493506494,1480,1494.0,1325,1498.0
1.149921178817749,157,86,0.005050505050505051,1480,1494.0,1325,1497.0
1.1716320514678955,158,87,0.006493506493506494,1480,1494.0,1324.0,1498.0
1.1933910846710205,157,88,0.005050505050505051,1480,1494.0,1321.6600000000001,1497.0
1.2154040336608887,158,89,0.006493506493506494,1480,1494.0,1319.3199999999999,1498.0
1.2372150421142578,157,90,0.005050505050505051,1480,1494.0,1316.74,1497.0
1.2589941024780273,157,91,0.005050505050505051,1480,1494.0,1314.1600000000001,1497.0
1.2807562351226807,157,92,0.005050505050505051,1480,1494.0,1311.5799999999999,1497.0
1.3025641441345215,157,92,0.004629629629629629,1480,1494.0,1310.1400000000001,1497.0
1.3243751525878906,157,93,0.005050505050505051,1480,1494.0,1307.8,1497.0
1.346144199371338,157,94,0.005050505050505051,1480,1494.0,1305.4000000000001,1497.0
1.3679051399230957,157,95,0.005050505050505051,1480,1494.0,1303.0,1497.0
1.389672040939331,157,95,0.004629629629629629,1480,1494.0,1301.8,1497.0
1.4114351272583008,158,96,0.0043859649122807015,1480,1494.0,1299.46,1498.0
1.4331881999969482,158,98,0.004784688995215311,1480,1494.0,1295.9200000000001,1498.0
1.4549400806427002,157,98,0.004629629629629629,1480,1494.0,1294.48,1497.0
1.4766931533813477,157,99,0.004629629629629629,1480,1494.0,1292.1400000000001,1497.0
1.4984521865844727,158,100,0.0043859649122807015,1480,1494.0,1289.5599999999999,1498.0
1.5202100276947021,158,101,0.0043859649122807015,1480,1494.0,1286.9200000000001,1498.0
1.5419621467590332,157,101,0.004629629629629629,1480,1494.0,1285.72,1497.0
1.5637061595916748,157,102,0.004629629629629629,1480,1494.0,1283.3800000000001,1497.0
1.5854592323303223,157,103,0.004166666666666667,1480,1494.0,1281.04,1497.0
1.607215166091919,157,103,0.004901960784313725,1480,1494.0,1279.8399999999999,1497.0
1.6289751529693604,157,104,0.0043859649122807015,1480,1494.0,1277.74,1497.0
1.6507341861724854,157,104,0.0043859649122807015,1480,1494.0,1276.6600000000001,1497.0
1.67252516746521,157,105,0.0043859649122807015,1480,1494.0,1274.6199999999999,1497.0
1.6943440437316895,157,105,0.0043859649122807015,1480,1494.0,1273.78,1497.0
1.7161152362823486,156,105,0.004629629629629629,1480,1494.0,1273.0,1496.0
1.737861156463623,156,105,0.004629629629629629,1480,1494.0,1272.52,1496.0
1.759627103805542,158,106,0.005208333333333333,1480,1494.0,1270.8399999999999,1498.0
1.7813911437988281,157,106,0.004629629629629629,1480,1494.0,1270.3599999999999,1497.0
1.8031511306762695,157,106,0.004629629629629629,1480,1494.0,1269.9400000000001,1497.0
1.8249051570892334,158,106,0.0043859649122807015,1480,1494.0,1269.52,1498.0
1.8466651439666748,158,107,0.0043859649122807015,1480,1494.0,1267.96,1498.0
1.8684251308441162,158,107,0.004048582995951417,1480,1494.0,1267.54,1498.0
1.890294075012207,158,107,0.004629629629629629,1480,1494.0,1267.1800000000001,1498.0
1.9122881889343262,159,107,0.0043859649122807015,1480,1494.0,1266.8199999999999,1499.0
1.9342520236968994,158,106,0.004629629629629629,1480,1494.0,1267.6600000000001,1498.0
1.9560692310333252,159,107,0.004273504273504274,1480,1494.0,1266.6400000000001,1499.0
1.9778501987457275,160,106,0.005555555555555556,1482.0,1494.0,1267.78,1500.0
1.999643087387085,160,106,0.0043859649122807015,1485.0,1494.0,1268.02,1500.0
2.0214450359344482,160,105,0.0043859649122807015,1488.0,1494.0,1269.46,1500.0
2.043236017227173,160,105,0.0043859649122807015,1490.0,1494.0,1269.76,1500.0
2.0650360584259033,160,105,0.0038461538461538464,1492.0,1494.0,1270.3599999999999,1500.0
2.086851119995117,159,104,0.004629629629629629,1491.0,1494.0,1271.9200000000001,1499.0
2.1086602210998535,161,103,0.0043859649122807015,1498.0,1494.0,1273.78,1501.0
2.1304612159729004,160,103,0.004629629629629629,1497.0,1494.0,1274.5,1500.0
2.152269124984741,161,102,0.0043859649122807015,1502.0,1494.0,1276.3599999999999,1501.0
2.1741690635681152,161,102,0.004048582995951417,1504.0,1494.0,1277.3800000000001,1501.0
2.195993185043335,162,101,0.005555555555555556,1508.0,1494.0,1279.3,1502.0
2.217801094055176,161,101,0.004166666666666667,1507.0,1494.0,1280.0799999999999,1501.0
2.240187168121338,161,100,0.004629629629629629,1508.0,1494.0,1282.0,1501.0
2.2637250423431396,162,99,0.0043859649122807015,1512.0,1494.0,1283.98,1502.0
2.2871451377868652,161,98,0.004629629629629629,1511.0,1494.0,1286.26,1501.0
2.3107821941375732,161,97,0.004629629629629629,1513.0,1494.0,1288.54,1501.0
2.3343870639801025,162,97,0.004784688995215311,1516.0,1494.0,1289.8599999999999,1502.0
2.3579771518707275,163,95,0.0043859649122807015,1520,1494.0,1293.3399999999999,1503.0
2.381491184234619,162,94,0.004901960784313725,1520.0,1494.0,1295.9200000000001,1502.0
2.404849052429199,163,93,0.005952380952380952,1520,1494.0,1298.5599999999999,1503.0
2.4280850887298584,163,93,0.006493506493506494,1520,1494.0,1300.0,1503.0
2.451273202896118,162,92,0.005050505050505051,1520,1494.0,1302.6400000000001,1502.0
2.4744842052459717,163,91,0.006493506493506494,1520,1494.0,1305.04,1503.0
2.4977052211761475,161,90,0.005050505050505051,1520,1494.0,1307.4400000000001,1501.0
2.520930051803589,161,89,0.005050505050505051,1520,1494.0,1309.8399999999999,1501.0
2.5441391468048096,162,87,0.006493506493506494,1520,1494.0,1313.6800000000001,1502.0
2.567352056503296,163,85,0.005555555555555556,1520,1494.0,1317.8800000000001,1503.0
2.590700149536133,161,85,0.005050505050505051,1520,1494.0,1319.9200000000001,1501.0
2.6139330863952637,161,84,0.005050505050505051,1520,1494.0,1322.8599999999999,1501.0
2.6371710300445557,160,83,0.005050505050505051,1517.0,1494.0,1325,1500.0
2.66037917137146,160,82,0.005050505050505051,1514.0,1494.0,1325,1500.0
2.6835741996765137,160,81,0.005050505050505051,1512.0,1494.0,1325,1500.0
2.7067811489105225,161,80,0.006493506493506494,1512.0,1494.0,1325,1501.0
2.7299561500549316,160,78,0.005050505050505051,1509.0,1494.0,1325,1500.0
2.75319504737854,161,77,0.006493506493506494,1511.0,1494.0,1325,1501.0
2.7764651775360107,161,76,0.006493506493506494,1510.0,1494.0,1325,1501.0
2.799696207046509,160,75,0.005050505050505051,1505.0,1494.0,1325,1500.0
2.823092222213745,161,74,0.006493506493506494,1507.0,1494.0,1325,1501.0
2.846379041671753,160,72,0.005555555555555556,1504.0,1494.0,1325,1500.0
2.8695690631866455,160,71,0.005050505050505051,1504.0,1494.0,1325,1500.0
2.8928041458129883,161,69,0.006493506493506494,1507.0,1494.0,1325,1501.0
2.9160752296447754,160,68,0.0043859649122807015,1505.0,1494.0,1325,1500.0
2.939235210418701,159,68,0.005050505050505051,1501.0,1494.0,1325,1499.0
2.962463140487671,159,67,0.005050505050505051,1500.0,1494.0,1325,1499.0
2.9857170581817627,159,66,0.005050505050505051,1498.0,1494.0,1325,1499.0
3.008918046951294,159,65,0.005050505050505051,1496.0,1494.0,1325,1499.0
3.032116174697876,159,64,0.005050505050505051,1495.0,1494.0,1325,1499.0
3.055554151535034,159,63,0.005050505050505051,1493.0,1494.0,1325,1499.0
3.0787532329559326,159,62,0.005050505050505051,1492.0,1494.0,1325,1499.0
3.1019251346588135,159,61,0.005050505050505051,1491.0,1494.0,1325,1499.0
3.1252400875091553,159,60,0.005050505050505051,1489.0,1494.0,1325,1499.0
3.148447036743164,159,59,0.005555555555555556,1488.0,1494.0,1325,1499.0
3.1716232299804688,159,59,0.005050505050505051,1488.0,1494.0,1325,1499.0
3.1948020458221436,159,59,0.005050505050505051,1488.0,1494.0,1325,1499.0
3.2180240154266357,159,59,0.005050505050505051,1488.0,1494.0,1325,1499.0
3.241239070892334,159,59,0.005050505050505051,1488.0,1494.0,1325,1499.0
3.264449119567871,159,58,0.005555555555555556,1488.0,1494.0,1325,1499.0
3.2876241207122803,159,58,0.005050505050505051,1488.0,1494.0,1325,1499.0
3.310800075531006,159,58,0.005050505050505051,1488.0,1494.0,1325,1499.0
3.33396315574646,159,58,0.005050505050505051,1488.0,1494.0,1325,1499.0
3.3571600914001465,159,58,0.005050505050505051,1488.0,1494.0,1325,1499.0
3.3803482055664062,159,58,0.005050505050505051,1488.0,1494.0,1325,1499.0
3.40356707572937,159,59,0.005050505050505051,1488.0,1494.0,1325,1499.0
3.42673921585083,159,61,0.005050505050505051,1488.0,1494.0,1325,1499.0
3.449920177459717,160,61,0.007142857142857143,1491.0,1494.0,1325,1500.0
3.4731571674346924,159,62,0.005050505050505051,1489.0,1494.0,1325,1499.0
3.4964101314544678,159,63,0.005050505050505051,1489.0,1494.0,1325,1499.0
3.5195891857147217,159,63,0.005050505050505051,1489.0,1494.0,1325,1499.0
3.542819023132324,159,63,0.005050505050505051,1489.0,1494.0,1325,1499.0
3.5663740634918213,160,63,0.006493506493506494,1492.0,1494.0,1325,1500.0
3.5895771980285645,159,63,0.004784688995215311,1490.0,1494.0,1325,1499.0
3.61281418800354,158,65,0.005050505050505051,1487.0,1494.0,1325,1498.0
3.6360599994659424,158,66,0.005050505050505051,1486.0,1494.0,1325,1498.0
3.6592321395874023,158,67,0.005050505050505051,1485.0,1494.0,1325,1498.0
3.6825361251831055,157,68,0.005050505050505051,1480.0,1494.0,1325,1497.0
3.7059922218322754,157,68,0.004629629629629629,1480,1494.0,1325,1497.0
3.7291290760040283,157,69,0.005050505050505051,1480,1494.0,1325,1497.0
3.7522411346435547,157,69,0.005050505050505051,1480,1494.0,1325,1497.0
3.7754790782928467,157,69,0.004629629629629629,1480,1494.0,1325,1497.0
3.798598051071167,159,70,0.006493506493506494,1480,1494.0,1325,1499.0
3.8217010498046875,158,71,0.005050505050505051,1480,1494.0,1325,1498.0
3.8447890281677246,158,72,0.005050505050505051,1480,1494.0,1325,1498.0
3.8678832054138184,158,73,0.005050505050505051,1480,1494.0,1325,1498.0
3.890963077545166,158,74,0.005050505050505051,1480,1494.0,1325,1498.0
3.914069175720215,159,74,0.005952380952380952,1480,1494.0,1325,1499.0
3.9371612071990967,157,75,0.004629629629629629,1480,1494.0,1325,1497.0
3.9602651596069336,157,75,0.004629629629629629,1480,1494.0,1325,1497.0
3.983365058898926,158,76,0.0043859649122807015,1480,1494.0,1325,1498.0
4.0064780712127686,158,76,0.004629629629629629,1480,1494.0,1325,1498.0
4.029579162597656,158,76,0.004629629629629629,1480,1494.0,1325,1498.0
4.052747011184692,160,77,0.003968253968253968,1481.0,1494.0,1325,1500.0
4.076021194458008,159,78,0.004048582995951417,1480.0,1494.0,1325,1499.0
4.099183082580566,160,78,0.003968253968253968,1484.0,1494.0,1325,1500.0
4.122345209121704,159,79,0.004629629629629629,1483.0,1494.0,1325,1499.0
4.1456592082977295,160,80,0.0043859649122807015,1486.0,1494.0,1325,1500.0
4.168851137161255,159,81,0.004629629629629629,1486.0,1494.0,1325,1499.0
4.192028045654297,160,82,0.0038461538461538464,1491.0,1494.0,1325,1500.0
4.215370178222656,160,82,0.004166666666666667,1493.0,1494.0,1325,1500.0
4.2385900020599365,161,82,0.003968253968253968,1498.0,1494.0,1325,1501.0
4.261811017990112,161,83,0.003968253968253968,1501.0,1494.0,1325,1501.0
4.2851221561431885,160,84,0.004048582995951417,1499.0,1494.0,1325,1500.0
4.308335065841675,160,85,0.004048582995951417,1500.0,1494.0,1325,1500.0
4.331502199172974,161,86,0.003968253968253968,1503.0,1494.0,1325,1501.0
4.354692220687866,161,86,0.003968253968253968,1505.0,1494.0,1325,1501.0
4.3778932094573975,161,87,0.003968253968253968,1506.0,1494.0,1323.7,1501.0
4.401189088821411,159,88,0.004273504273504274,1502.0,1494.0,1321.4200000000001,1499.0
4.4244630336761475,160,88,0.003968253968253968,1504.0,1494.0,1320.3399999999999,1500.0
4.447770118713379,158,89,0.004629629629629629,1498.0,1494.0,1318.3,1498.0
4.471099138259888,160,89,0.004166666666666667,1501.0,1494.0,1317.1600000000001,1500.0
4.494440078735352,159,90,0.004629629629629629,1497.0,1494.0,1315.1199999999999,1499.0
4.51776909828186,161,91,0.003968253968253968,1502.0,1494.0,1313.0799999999999,1501.0
4.541069030761719,161,92,0.003968253968253968,1503.0,1494.0,1310.8,1501.0
4.564329147338867,161,93,0.003663003663003663,1503.0,1494.0,1308.52,1501.0
4.587595224380493,161,93,0.003968253968253968,1503.0,1494.0,1307.1400000000001,1501.0
4.610851049423218,161,94,0.003663003663003663,1503.0,1494.0,1304.8599999999999,1501.0
4.634128093719482,161,94,0.003968253968253968,1505.0,1494.0,1303.78,1501.0
4.657416105270386,161,95,0.003663003663003663,1506.0,1494.0,1301.74,1501.0
4.6806640625,161,95,0.003968253968253968,1509.0,1494.0,1300.9000000000001,1501.0
4.703920125961304,162,96,0.004629629629629629,1513.0,1494.0,1298.8599999999999,1502.0
4.7271950244903564,161,96,0.003968253968253968,1513.0,1494.0,1298.02,1501.0
4.750462055206299,161,97,0.003968253968253968,1513.0,1494.0,1296.04,1501.0
4.773736000061035,160,97,0.003968253968253968,1510.0,1494.0,1295.26,1500.0
4.796995162963867,160,98,0.003968253968253968,1509.0,1494.0,1293.3399999999999,1500.0
4.820555210113525,160,99,0.003663003663003663,1508.0,1494.0,1291.3599999999999,1500.0
4.8438661098480225,161,99,0.004629629629629629,1510.0,1494.0,1290.3399999999999,1501.0
4.867154121398926,160,100,0.003663003663003663,1507.0,1494.0,1288.3599999999999,1500.0
4.890419006347656,160,100,0.003968253968253968,1506.0,1494.0,1287.3399999999999,1500.0
4.913685083389282,158,100,0.004629629629629629,1499.0,1494.0,1286.5599999999999,1498.0
4.936941146850586,157,100,0.004629629629629629,1492.0,1494.0,1286.0799999999999,1497.0
4.960208177566528,157,100,0.004629629629629629,1488.0,1494.0,1285.5999999999999,1497.0
4.9834840297698975,159,100,0.003787878787878788,1490.0,1494.0,1285.4200000000001,1499.0
5.006774187088013,159,100,0.003787878787878788,1489.0,1494.0,1285.24,1499.0
5.030092000961304,161,101,0.004273504273504274,1494.0,1494.0,1283.9200000000001,1501.0
5.05338716506958,160,101,0.003663003663003663,1492.0,1494.0,1283.5599999999999,1500.0
5.076649188995361,160,101,0.003968253968253968,1491.0,1494.0,1283.2,1500.0
5.099883079528809,160,101,0.003968253968253968,1491.0,1494.0,1282.9000000000001,1500.0
5.123194217681885,160,101,0.003787878787878788,1491.0,1494.0,1282.5999999999999,1500.0
5.1465442180633545,160,101,0.0034965034965034965,1493.0,1494.0,1282.54,1500.0
5.169838190078735,160,101,0.0034965034965034965,1496.0,1494.0,1282.48,1500.0
5.193152189254761,160,100,0.003787878787878788,1499.0,1494.0,1283.6199999999999,1500.0
5.2165281772613525,160,99,0.003787878787878788,1500.0,1494.0,1285.0599999999999,1500.0
5.2398362159729,160,99,0.0034965034965034965,1501.0,1494.0,1285.5999999999999,1500.0
5.263381004333496,162,98,0.004629629629629629,1506.0,1494.0,1287.4000000000001,1502.0
5.2869651317596436,162,98,0.004273504273504274,1508.0,1494.0,1288.3,1502.0
5.310303211212158,162,98,0.004273504273504274,1510.0,1494.0,1288.96,1502.0
5.333605051040649,161,97,0.003968253968253968,1509.0,1494.0,1290.5799999999999,1501.0
5.356917142868042,162,97,0.004273504273504274,1513.0,1494.0,1291.3,1502.0
5.380212068557739,160,96,0.0034965034965034965,1509.0,1494.0,1292.98,1500.0
5.403890132904053,160,95,0.003787878787878788,1509.0,1494.0,1294.96,1500.0
5.42744517326355,161,94,0.004629629629629629,1512.0,1494.0,1297.1800000000001,1501.0
5.451020002365112,160,93,0.003968253968253968,1510.0,1494.0,1299.4000000000001,1500.0
5.474590063095093,159,93,0.0034965034965034965,1507.0,1494.0,1300.72,1499.0
5.498693227767944,159,92,0.003787878787878788,1504.0,1494.0,1302.9400000000001,1499.0
5.52235221862793,159,91,0.003787878787878788,1501.0,1494.0,1305.22,1499.0
5.546003103256226,159,89,0.003787878787878788,1498.0,1494.0,1308.76,1499.0
5.569577217102051,160,88,0.004629629629629629,1499.0,1494.0,1311.4000000000001,1500.0
5.593193054199219,159,88,0.003663003663003663,1494.0,1494.0,1313.1400000000001,1499.0
5.6168200969696045,159,87,0.003663003663003663,1493.0,1494.0,1315.78,1499.0
5.640440225601196,158,86,0.003787878787878788,1489.0,1494.0,1318.4200000000001,1498.0
5.663982152938843,158,86,0.0034965034965034965,1486.0,1494.0,1319.6199999999999,1498.0
5.687591075897217,158,85,0.003787878787878788,1484.0,1494.0,1321.72,1498.0
5.711166143417358,158,84,0.0034965034965034965,1483.0,1494.0,1324.1199999999999,1498.0
5.734732151031494,158,83,0.0034965034965034965,1482.0,1494.0,1325,1498.0
5.758217096328735,158,82,0.003787878787878788,1481.0,1494.0,1325,1498.0
5.781675100326538,158,81,0.003787878787878788,1480.0,1494.0,1325,1498.0
5.8053600788116455,158,80,0.003787878787878788,1480,1494.0,1325,1498.0
5.8287482261657715,159,80,0.0034965034965034965,1480.0,1494.0,1325,1499.0
5.852220058441162,159,78,0.0034965034965034965,1480.0,1494.0,1325,1499.0
5.875870227813721,159,77,0.0034965034965034965,1481.0,1494.0,1325,1499.0
5.899343013763428,159,76,0.003787878787878788,1482.0,1494.0,1325,1499.0
5.922900199890137,159,75,0.003787878787878788,1483.0,1494.0,1325,1499.0
5.946474075317383,160,74,0.003787878787878788,1487.0,1494.0,1325,1500.0
5.970036029815674,160,74,0.0034965034965034965,1489.0,1494.0,1325,1500.0
5.993775129318237,160,73,0.0034965034965034965,1491.0,1494.0,1325,1500.0
6.017036199569702,160,71,0.0034965034965034965,1493.0,1494.0,1325,1500.0
6.040257215499878,160,70,0.0034965034965034965,1495.0,1494.0,1325,1500.0
6.063492059707642,160,69,0.0034965034965034965,1496.0,1494.0,1325,1500.0
6.086695194244385,160,68,0.0034965034965034965,1497.0,1494.0,1325,1500.0
6.109864234924316,160,67,0.0034965034965034965,1498.0,1494.0,1325,1500.0
6.1331610679626465,160,66,0.003787878787878788,1499.0,1494.0,1325,1500.0
6.1565070152282715,160,66,0.0034965034965034965,1500.0,1494.0,1325,1500.0
6.17970609664917,160,65,0.003787878787878788,1500.0,1494.0,1325,1500.0
6.2029712200164795,160,65,0.0034965034965034965,1500.0,1494.0,1325,1500.0
6.226254224777222,160,64,0.003787878787878788,1500.0,1494.0,1325,1500.0
6.249449014663696,160,64,0.003787878787878788,1500.0,1494.0,1325,1500.0
6.272724151611328,160,63,0.003787878787878788,1500.0,1494.0,1325,1500.0
6.295981168746948,160,62,0.003787878787878788,1500.0,1494.0,1325,1500.0
6.3191540241241455,160,62,0.0034965034965034965,1500.0,1494.0,1325,1500.0
6.342334032058716,160,61,0.0034965034965034965,1500.0,1494.0,1325,1500.0
6.3656721115112305,160,60,0.003787878787878788,1500.0,1494.0,1325,1500.0
6.3888771533966064,160,60,0.0033444816053511705,1500.0,1494.0,1325,1500.0
6.412062168121338,159,60,0.0034965034965034965,1497.0,1494.0,1325,1499.0
6.435401201248169,159,59,0.003787878787878788,1496.0,1494.0,1325,1499.0
6.4586122035980225,159,59,0.003787878787878788,1495.0,1494.0,1325,1499.0
6.481810092926025,160,59,0.004273504273504274,1497.0,1494.0,1325,1500.0
6.505117177963257,161,58,0.004048582995951417,1500.0,1494.0,1325,1501.0
6.528327226638794,159,57,0.003787878787878788,1495.0,1494.0,1325,1499.0
6.551521062850952,159,56,0.0034965034965034965,1494.0,1494.0,1325,1499.0
6.574725151062012,159,55,0.003787878787878788,1493.0,1494.0,1325,1499.0
6.5978920459747314,159,55,0.0034965034965034965,1492.0,1494.0,1325,1499.0
6.621082067489624,159,55,0.0034965034965034965,1491.0,1494.0,1325,1499.0
6.644296169281006,160,54,0.004048582995951417,1494.0,1494.0,1325,1500.0
6.667506217956543,159,54,0.0033444816053511705,1492.0,1494.0,1325,1499.0
6.690690040588379,158,53,0.003787878787878788,1489.0,1494.0,1325,1498.0
6.713884115219116,159,53,0.0033444816053511705,1490.0,1494.0,1325,1499.0
6.737106084823608,159,53,0.0034965034965034965,1488.0,1494.0,1325,1499.0
6.7603631019592285,159,53,0.0034965034965034965,1488.0,1494.0,1325,1499.0
6.783566236495972,159,52,0.003787878787878788,1488.0,1494.0,1325,1499.0
6.8067262172698975,159,52,0.003787878787878788,1488.0,1494.0,1325,1499.0
6.829899072647095,159,53,0.0034965034965034965,1488.0,1494.0,1325,1499.0
6.853146076202393,159,53,0.0034965034965034965,1488.0,1494.0,1325,1499.0
6.876444101333618,159,54,0.0034965034965034965,1487.0,1494.0,1325,1499.0
6.899606227874756,159,55,0.0034965034965034965,1487.0,1494.0,1325,1499.0
6.922847032546997,159,56,0.0034965034965034965,1488.0,1494.0,1325,1499.0
6.946119070053101,160,56,0.0033444816053511705,1491.0,1494.0,1325,1500.0
6.969334125518799,159,56,0.0034965034965034965,1489.0,1494.0,1325,1499.0
6.992603063583374,159,56,0.0034965034965034965,1489.0,1494.0,1325,1499.0
7.015947103500366,159,56,0.0034965034965034965,1489.0,1494.0,1325,1499.0
7.03934907913208,159,56,0.0034965034965034965,1489.0,1494.0,1325,1499.0
7.062672138214111,159,56,0.0033444816053511705,1489.0,1494.0,1325,1499.0
7.085973024368286,159,57,0.0033444816053511705,1489.0,1494.0,1325,1499.0
7.109190225601196,158,58,0.0034965034965034965,1486.0,1494.0,1325,1498.0
7.132479190826416,159,58,0.0033444816053511705,1488.0,1494.0,1325,1499.0
7.155816078186035,158,59,0.0034965034965034965,1485.0,1494.0,1325,1498.0
7.179027080535889,158,59,0.003246753246753247,1483.0,1494.0,1325,1498.0
7.202238082885742,158,60,0.0034965034965034965,1482.0,1494.0,1325,1498.0
7.225576162338257,158,60,0.0034965034965034965,1481.0,1494.0,1325,1498.0
7.24877405166626,158,60,0.0034965034965034965,1480.0,1494.0,1325,1498.0
7.272036075592041,158,60,0.0034965034965034965,1480,1494.0,1325,1498.0
7.295750141143799,159,60,0.003105590062111801,1481.0,1494.0,1325,1499.0
7.318972110748291,158,61,0.003246753246753247,1480,1494.0,1325,1498.0
7.34207010269165,158,62,0.0034965034965034965,1480,1494.0,1325,1498.0
7.365347146987915,159,63,0.0034965034965034965,1480.0,1494.0,1325,1499.0
7.388573169708252,159,63,0.003246753246753247,1481.0,1494.0,1325,1499.0
7.411742210388184,159,64,0.003246753246753247,1482.0,1494.0,1325,1499.0
7.434924125671387,159,66,0.003246753246753247,1483.0,1494.0,1325,1499.0
7.458112001419067,159,66,0.003246753246753247,1484.0,1494.0,1325,1499.0
7.481285095214844,159,67,0.0030303030303030303,1485.0,1494.0,1325,1499.0
7.504484176635742,159,67,0.003246753246753247,1486.0,1494.0,1325,1499.0
7.527667999267578,160,67,0.003105590062111801,1489.0,1494.0,1325,1500.0
7.5508410930633545,159,67,0.003246753246753247,1488.0,1494.0,1325,1499.0
7.574029207229614,159,68,0.0030303030303030303,1489.0,1494.0,1325,1499.0
7.597227096557617,159,68,0.003246753246753247,1489.0,1494.0,1325,1499.0
7.620397090911865,161,69,0.0026666666666666666,1495.0,1494.0,1325,1501.0
7.6435770988464355,159,69,0.003246753246753247,1491.0,1494.0,1325,1499.0
7.666762113571167,161,70,0.0026666666666666666,1497.0,1494.0,1325,1501.0
7.689930200576782,161,70,0.0026666666666666666,1499.0,1494.0,1325,1501.0
7.713196039199829,161,70,0.0026666666666666666,1501.0,1494.0,1325,1501.0
7.7364561557769775,159,70,0.003246753246753247,1497.0,1494.0,1325,1499.0
7.759664058685303,161,71,0.0026666666666666666,1502.0,1494.0,1325,1501.0
7.7829270362854,161,71,0.002857142857142857,1504.0,1494.0,1325,1501.0
7.8061912059783936,161,72,0.002857142857142857,1506.0,1494.0,1325,1501.0
7.829377174377441,161,73,0.0026666666666666666,1508.0,1494.0,1325,1501.0
7.852612018585205,161,74,0.0026666666666666666,1508.0,1494.0,1325,1501.0
7.875880002975464,161,74,0.002564102564102564,1510.0,1494.0,1325,1501.0
7.899046182632446,161,75,0.002564102564102564,1510.0,1494.0,1325,1501.0
7.922208070755005,161,75,0.002564102564102564,1510.0,1494.0,1325,1501.0
7.945549011230469,161,76,0.002564102564102564,1510.0,1494.0,1325,1501.0
7.9687340259552,162,76,0.0026666666666666666,1515.0,1494.0,1325,1502.0
7.991919040679932,161,77,0.002564102564102564,1513.0,1494.0,1325,1501.0
8.015342235565186,162,77,0.002857142857142857,1516.0,1494.0,1325,1502.0
8.038579225540161,163,78,0.0030303030303030303,1520.0,1494.0,1325,1503.0
8.06180715560913,162,78,0.002857142857142857,1519.0,1494.0,1325,1502.0
8.085114002227783,162,79,0.0026666666666666666,1520.0,1494.0,1325,1502.0
8.108314037322998,162,79,0.002403846153846154,1520,1494.0,1325,1502.0
8.131432056427002,162,80,0.0026666666666666666,1520,1494.0,1325,1502.0
8.154528141021729,161,81,0.002564102564102564,1520.0,1494.0,1325,1501.0
8.177736043930054,161,81,0.0025,1520.0,1494.0,1325,1501.0
8.200923204421997,160,81,0.002403846153846154,1516.0,1494.0,1325,1500.0
8.224124193191528,160,82,0.002564102564102564,1515.0,1494.0,1325,1500.0
8.247339010238647,160,82,0.002403846153846154,1513.0,1494.0,1325,1500.0
8.270565032958984,160,82,0.0025,1510.0,1494.0,1325,1500.0
8.293740034103394,159,83,0.002403846153846154,1505.0,1494.0,1325,1499.0
8.316926002502441,159,83,0.002403846153846154,1502.0,1494.0,1325,1499.0
8.340116024017334,159,84,0.002403846153846154,1499.0,1494.0,1325,1499.0
8.363409042358398,159,85,0.0022624434389140274,1496.0,1494.0,1325,1499.0
8.38670301437378,159,85,0.0023148148148148147,1494.0,1494.0,1325,1499.0
8.409889221191406,158,86,0.0022624434389140274,1489.0,1494.0,1325,1498.0
8.433176040649414,158,86,0.002403846153846154,1487.0,1494.0,1325,1498.0
8.456504106521606,158,86,0.002403846153846154,1485.0,1494.0,1324.3599999999999,1498.0
8.479795217514038,159,86,0.002840909090909091,1486.0,1494.0,1323.8800000000001,1499.0
8.50312614440918,159,86,0.002840909090909091,1485.0,1494.0,1323.4000000000001,1499.0
8.526473045349121,159,87,0.002840909090909091,1485.0,1494.0,1322.02,1499.0
8.549752235412598,158,87,0.002403846153846154,1482.0,1494.0,1321.54,1498.0
8.573373079299927,157,88,0.0022624434389140274,1480,1494.0,1319.9200000000001,1497.0
8.596675157546997,157,88,0.002403846153846154,1480,1494.0,1319.26,1497.0
8.619863033294678,158,88,0.002840909090909091,1480,1494.0,1318.5999999999999,1498.0
8.643133163452148,156,89,0.0022624434389140274,1480,1494.0,1317.04,1496.0
8.666423082351685,156,89,0.002403846153846154,1480,1494.0,1316.3800000000001,1496.0
8.6896231174469,157,89,0.002840909090909091,1480,1494.0,1315.96,1497.0
8.712871074676514,155,90,0.0022624434389140274,1480,1494.0,1314.3399999999999,1495.0
8.736165046691895,156,90,0.002178649237472767,1480,1494.0,1313.6199999999999,1496.0
8.759421110153198,155,90,0.002403846153846154,1480,1494.0,1313.2,1495.0
8.782677173614502,156,91,0.002178649237472767,1480,1494.0,1311.5799999999999,1496.0
8.805955171585083,155,91,0.0022624434389140274,1480,1494.0,1310.9200000000001,1495.0
8.82915210723877,155,91,0.0022624434389140274,1480,1494.0,1310.5,1495.0
8.85233211517334,155,92,0.0022624434389140274,1480,1494.0,1308.8800000000001,1495.0
8.875689029693604,155,92,0.0022624434389140274,1480,1494.0,1308.22,1495.0
8.898889064788818,155,92,0.002178649237472767,1480,1494.0,1307.8,1495.0
8.922091007232666,155,92,0.0022624434389140274,1480,1494.0,1307.3800000000001,1495.0
8.94542407989502,155,92,0.0022624434389140274,1480,1494.0,1307.02,1495.0
8.968653202056885,155,92,0.0022624434389140274,1480,1494.0,1306.9000000000001,1495.0
8.99186110496521,155,92,0.0022624434389140274,1480,1494.0,1306.78,1495.0
9.01521110534668,155,91,0.002136752136752137,1480,1494.0,1307.9200000000001,1495.0
9.03841519355774,156,92,0.00205761316872428,1480,1494.0,1306.96,1496.0
9.061620235443115,156,92,0.00205761316872428,1480,1494.0,1306.9000000000001,1496.0
9.08481216430664,156,92,0.001984126984126984,1480,1494.0,1306.9000000000001,1496.0
9.107989072799683,156,92,0.001984126984126984,1480,1494.0,1306.9000000000001,1496.0
9.131172180175781,156,92,0.00205761316872428,1480,1494.0,1306.6600000000001,1496.0
9.154377222061157,157,91,0.001851851851851852,1480,1494.0,1307.8599999999999,1497.0
9.177610158920288,157,91,0.001851851851851852,1480,1494.0,1308.1600000000001,1497.0
9.200846195220947,157,91,0.0017543859649122807,1480,1494.0,1308.46,1497.0
9.22407603263855,158,90,0.001851851851851852,1480,1494.0,1309.96,1498.0
9.247299194335938,158,90,0.0017543859649122807,1480,1494.0,1310.5,1498.0
9.270523071289062,158,90,0.0017543859649122807,1480,1494.0,1310.8599999999999,1498.0
9.293728113174438,158,89,0.0017543859649122807,1480,1494.0,1312.4200000000001,1498.0
9.316932201385498,158,89,0.0017543859649122807,1480,1494.0,1313.0799999999999,1498.0
9.340148210525513,158,89,0.0017543859649122807,1480,1494.0,1313.5,1498.0
9.363392114639282,158,88,0.0017543859649122807,1480,1494.0,1315.1199999999999,1498.0
9.38663911819458,159,88,0.001697792869269949,1480,1494.0,1315.78,1499.0
9.40985918045044,159,87,0.0017543859649122807,1480,1494.0,1317.4000000000001,1499.0
9.433187007904053,159,87,0.0017543859649122807,1481.0,1494.0,1318.1199999999999,1499.0
9.456605195999146,159,86,0.0017543859649122807,1482.0,1494.0,1319.98,1499.0
9.47986102104187,159,86,0.0017543859649122807,1483.0,1494.0,1320.7,1499.0
9.503184080123901,160,85,0.001697792869269949,1487.0,1494.0,1322.6199999999999,1500.0
9.526544094085693,160,85,0.001697792869269949,1489.0,1494.0,1323.3399999999999,1500.0
9.54982614517212,160,84,0.001697792869269949,1491.0,1494.0,1325,1500.0
9.5730881690979,160,83,0.0016666666666666668,1493.0,1494.0,1325,1500.0
9.596366167068481,160,83,0.0017543859649122807,1495.0,1494.0,1325,1500.0
9.619542121887207,160,82,0.0016666666666666668,1496.0,1494.0,1325,1500.0
9.642790079116821,160,82,0.0016666666666666668,1497.0,1494.0,1325,1500.0
9.666065216064453,160,82,0.0017543859649122807,1498.0,1494.0,1325,1500.0
9.689240217208862,160,82,0.0017543859649122807,1499.0,1494.0,1325,1500.0
9.712464094161987,160,81,0.0016666666666666668,1500.0,1494.0,1325,1500.0
9.735734224319458,160,81,0.0017543859649122807,1500.0,1494.0,1325,1500.0
9.758950233459473,160,80,0.0017543859649122807,1500.0,1494.0,1325,1500.0
9.782498121261597,161,79,0.001697792869269949,1503.0,1494.0,1325,1501.0
9.805788040161133,161,79,0.001697792869269949,1504.0,1494.0,1325,1501.0
9.828968048095703,160,78,0.0017543859649122807,1502.0,1494.0,1325,1500.0
9.852151155471802,161,78,0.001697792869269949,1505.0,1494.0,1325,1501.0
9.875489234924316,162,77,0.001697792869269949,1509.0,1494.0,1325,1502.0
9.898714065551758,162,77,0.001697792869269949,1511.0,1494.0,1325,1502.0
9.92190408706665,161,76,0.0017543859649122807,1510.0,1494.0,1325,1501.0
9.945220232009888,161,75,0.0017543859649122807,1511.0,1494.0,1325,1501.0
9.968417167663574,161,74,0.0016666666666666668,1512.0,1494.0,1325,1501.0
9.99160122871399,161,74,0.0017543859649122807,1513.0,1494.0,1325,1501.0
10.014779090881348,161,73,0.0017543859649122807,1513.0,1494.0,1325,1501.0
10.037979125976562,162,73,0.001697792869269949,1516.0,1494.0,1325,1502.0
10.061200141906738,161,72,0.0017543859649122807,1515.0,1494.0,1325,1501.0
10.084427118301392,162,71,0.0016129032258064516,1518.0,1494.0,1325,1502.0
10.107651233673096,162,70,0.0017543859649122807,1518.0,1494.0,1325,1502.0
10.13085412979126,163,69,0.0019230769230769232,1520,1494.0,1325,1503.0
10.153956174850464,164,68,0.001851851851851852,1520,1494.0,1325,1504.0
10.17707109451294,165,67,0.0016666666666666668,1520,1494.0,1325,1505.0
10.200186014175415,165,67,0.0016666666666666668,1520,1494.0,1325,1505.0
10.223357200622559,162,66,0.0015625,1520,1494.0,1325,1502.0
10.246511220932007,163,66,0.001443001443001443,1520,1494.0,1325,1503.0
10.269655227661133,163,65,0.001443001443001443,1520,1494.0,1325,1503.0
10.292802095413208,163,63,0.0015151515151515152,1520,1494.0,1325,1503.0
10.3159761428833,163,63,0.001443001443001443,1520,1494.0,1325,1503.0
10.339069128036499,162,62,0.0014005602240896359,1520,1494.0,1325,1502.0
10.362162113189697,162,61,0.001443001443001443,1520,1494.0,1325,1502.0
10.385402202606201,161,60,0.0014005602240896359,1520,1494.0,1325,1501.0
10.408528089523315,161,59,0.001336898395721925,1520,1494.0,1325,1501.0
10.431633234024048,162,58,0.0015151515151515152,1520,1494.0,1325,1502.0
10.454734086990356,160,58,0.001336898395721925,1520.0,1494.0,1325,1500.0
10.477951049804688,160,56,0.001336898395721925,1517.0,1494.0,1325,1500.0
10.501174211502075,160,56,0.0013175230566534915,1514.0,1494.0,1325,1500.0
10.524378061294556,159,55,0.001336898395721925,1508.0,1494.0,1325,1499.0
10.547575235366821,159,54,0.001336898395721925,1504.0,1494.0,1325,1499.0
10.570781230926514,158,53,0.001336898395721925,1498.0,1494.0,1325,1498.0
10.593989133834839,158,53,0.0012787723785166241,1494.0,1494.0,1325,1498.0
10.617193222045898,158,52,0.0012787723785166241,1491.0,1494.0,1325,1498.0
10.640385150909424,157,51,0.001336898395721925,1485.0,1494.0,1325,1497.0
10.663584232330322,158,50,0.0012422360248447205,1483.0,1494.0,1325,1498.0
10.686760187149048,157,50,0.0012787723785166241,1480,1494.0,1325,1497.0
10.709863185882568,157,49,0.001336898395721925,1480,1494.0,1325,1497.0
10.733086109161377,157,49,0.0012787723785166241,1480,1494.0,1325,1497.0
10.756341218948364,158,48,0.0012422360248447205,1480,1494.0,1325,1498.0
10.779466152191162,157,48,0.0012787723785166241,1480,1494.0,1325,1497.0
10.802678108215332,157,47,0.001336898395721925,1480,1494.0,1325,1497.0
10.82586121559143,157,46,0.0012987012987012987,1480,1494.0,1325,1497.0
10.848992109298706,156,45,0.001336898395721925,1480,1494.0,1325,1496.0
10.87210202217102,157,45,0.0015151515151515152,1480,1494.0,1325,1497.0
10.89534306526184,156,44,0.0012987012987012987,1480,1494.0,1325,1496.0
10.918471097946167,155,44,0.001336898395721925,1480,1494.0,1325,1495.0
10.941585063934326,156,43,0.0012626262626262627,1480,1494.0,1325,1496.0
10.96470022201538,156,42,0.0012987012987012987,1480,1494.0,1325,1496.0
10.98780608177185,155,42,0.0013605442176870747,1480,1494.0,1325,1495.0
11.010918140411377,155,41,0.0013605442176870747,1480,1494.0,1325,1495.0
11.034041166305542,155,39,0.0013227513227513227,1480,1494.0,1325,1495.0
11.057153224945068,154,38,0.0012626262626262627,1480,1494.0,1325,1494.0
11.080541133880615,155,37,0.0012285012285012285,1480,1494.0,1325,1495.0
11.103666067123413,154,37,0.0012987012987012987,1480,1494.0,1325,1494.0
11.126765012741089,154,37,0.0012626262626262627,1480,1494.0,1325,1494.0
11.149880170822144,155,37,0.0012285012285012285,1480,1494.0,1325,1495.0
11.17313003540039,154,37,0.0012077294685990338,1480,1494.0,1325,1494.0
11.196393013000488,153,36,0.0012626262626262627,1480,1494.0,1325,1493.0
