time,x,y,size_inv,roll,pitch,thrust,yaw
0.0008971691131591797,164,70,0.022222222222222223,1512.0,1502.0,1337.2,1504.0
0.024381160736083984,163,67,0.007936507936507936,1513.0,1502.0,1342.1199999999999,1503.0
0.04742717742919922,164,68,0.009523809523809525,1519.0,1502.0,1342.2,1504.0
0.0708010196685791,164,67,0.007407407407407408,1520,1502.0,1344.72,1504.0
0.09378504753112793,164,67,0.007407407407407408,1520,1502.0,1346.04,1504.0
0.11670899391174316,164,67,0.007407407407407408,1520,1502.0,1347.3599999999999,1504.0
0.13956809043884277,163,67,0.009259259259259259,1520,1502.0,1348.6800000000001,1503.0
0.1625521183013916,164,68,0.009523809523809525,1520,1502.0,1348.76,1504.0
0.1854112148284912,164,67,0.007407407407407408,1520,1502.0,1350,1504.0
0.20831704139709473,164,67,0.007407407407407408,1520,1502.0,1350,1504.0
0.2315971851348877,164,67,0.006944444444444444,1520,1502.0,1350,1504.0
0.25505805015563965,164,67,0.007407407407407408,1520,1502.0,1350,1504.0
0.27858901023864746,163,69,0.014285714285714285,1520,1502.0,1348.8800000000001,1503.0
0.3023240566253662,163,67,0.007936507936507936,1520,1502.0,1350,1503.0
0.32596516609191895,163,66,0.008333333333333333,1520,1502.0,1350,1503.0
0.3495330810546875,161,64,0.008928571428571428,1520,1502.0,1350,1501.0
0.3729522228240967,161,63,0.007407407407407408,1520,1502.0,1350,1501.0
0.3962740898132324,160,63,0.007936507936507936,1520,1502.0,1350,1500.0
0.41974520683288574,159,64,0.007936507936507936,1520.0,1502.0,1350,1499.0
0.443371057510376,159,65,0.006666666666666667,1515.0,1502.0,1350,1499.0
0.4669620990753174,159,67,0.007407407407407408,1510.0,1502.0,1350,1499.0
0.49070215225219727,159,68,0.006666666666666667,1505.0,1502.0,1350,1499.0
0.5146942138671875,158,70,0.007936507936507936,1498.0,1502.0,1334.3199999999999,1498.0
0.5384700298309326,159,69,0.006666666666666667,1496.0,1502.0,1324.24,1499.0
0.5622231960296631,159,69,0.007407407407407408,1492.0,1502.0,1317.1199999999999,1499.0
0.5858161449432373,159,70,0.010416666666666666,1490.0,1502.0,1315.6800000000001,1499.0
0.6095681190490723,159,68,0.007936507936507936,1488.0,1502.0,1324.8800000000001,1499.0
0.633432149887085,160,68,0.007407407407407408,1490.0,1502.0,1337.28,1500.0
0.6570320129394531,159,71,0.006944444444444444,1488.0,1502.0,1337.5999999999999,1499.0
0.6808249950408936,158,72,0.008928571428571428,1485.0,1502.0,1337.52,1498.0
0.7043821811676025,157,76,0.02,1481.0,1502.0,1328.1600000000001,1497.0
0.728208065032959,159,76,0.007407407407407408,1485.0,1502.0,1316.6400000000001,1499.0
0.7520952224731445,158,75,0.011904761904761904,1483.0,1502.0,1305.04,1498.0
0.7757952213287354,159,78,0.006666666666666667,1485.0,1502.0,1294.0799999999999,1499.0
0.7995121479034424,159,79,0.007407407407407408,1485.0,1502.0,1286.8800000000001,1499.0
0.8232672214508057,158,80,0.007407407407407408,1482.0,1502.0,1288.0799999999999,1498.0
0.8468990325927734,158,80,0.007407407407407408,1481.0,1502.0,1293.2,1498.0
0.8707680702209473,158,80,0.007407407407407408,1480,1502.0,1295.52,1498.0
0.8942379951477051,158,81,0.009523809523809525,1480,1502.0,1299.52,1498.0
0.9180722236633301,157,81,0.008547008547008548,1480,1502.0,1306.1600000000001,1497.0
0.9418179988861084,157,81,0.008547008547008548,1480,1502.0,1310.1600000000001,1497.0
0.9653301239013672,157,81,0.009523809523809525,1480,1502.0,1314.1600000000001,1497.0
0.9888660907745361,157,83,0.007407407407407408,1480,1502.0,1314.24,1497.0
1.0122630596160889,157,83,0.0078125,1480,1502.0,1315.4400000000001,1497.0
1.0359041690826416,157,84,0.008333333333333333,1480,1502.0,1312.6400000000001,1497.0
1.0595781803131104,157,85,0.007407407407407408,1480,1502.0,1307.04,1497.0
1.0831561088562012,157,84,0.011111111111111112,1480,1502.0,1305.28,1497.0
1.1066210269927979,156,86,0.007407407407407408,1480,1502.0,1302.6400000000001,1496.0
1.1301400661468506,156,85,0.010416666666666666,1480,1502.0,1303.6800000000001,1496.0
1.1538550853729248,155,88,0.007936507936507936,1480,1502.0,1298.4000000000001,1495.0
1.1773791313171387,155,88,0.007936507936507936,1480,1502.0,1299.52,1495.0
1.2013850212097168,155,90,0.014285714285714285,1480,1502.0,1292.5599999999999,1495.0
1.2254080772399902,155,89,0.007936507936507936,1480,1502.0,1293.52,1495.0
1.2489521503448486,156,90,0.007407407407407408,1480,1502.0,1287.8399999999999,1496.0
1.2725250720977783,155,91,0.007936507936507936,1480,1502.0,1287.76,1495.0
1.2961881160736084,156,92,0.007407407407407408,1480,1502.0,1284.8800000000001,1496.0
1.3198270797729492,156,91,0.008333333333333333,1480,1502.0,1292.8,1496.0
1.3435170650482178,156,93,0.008333333333333333,1480,1502.0,1288.72,1496.0
1.3670930862426758,155,92,0.01020408163265306,1480,1502.0,1293.8399999999999,1495.0
1.390963077545166,156,94,0.010416666666666666,1480,1502.0,1291.2,1496.0
1.4145760536193848,156,92,0.01282051282051282,1480,1502.0,1299.04,1496.0
1.4382500648498535,156,95,0.007407407407407408,1480,1502.0,1291.04,1496.0
1.462015151977539,156,95,0.007936507936507936,1480,1502.0,1293.5999999999999,1496.0
1.4856040477752686,158,94,0.020833333333333332,1480,1502.0,1294.6400000000001,1498.0
1.509263038635254,156,98,0.017857142857142856,1480,1502.0,1288.1600000000001,1496.0
1.532844066619873,156,99,0.023809523809523808,1480,1502.0,1276.8800000000001,1496.0
1.5564181804656982,157,95,0.009523809523809525,1480,1502.0,1287.1199999999999,1497.0
1.5801501274108887,157,97,0.007407407407407408,1480,1502.0,1284.5599999999999,1497.0
1.6038482189178467,156,97,0.007142857142857143,1480,1502.0,1282.96,1496.0
1.6276562213897705,157,98,0.006944444444444444,1480,1502.0,1287.2,1497.0
1.6513311862945557,157,97,0.008333333333333333,1480,1502.0,1300.8,1497.0
1.6747360229492188,157,98,0.007407407407407408,1480,1502.0,1295.28,1497.0
1.6984851360321045,157,99,0.011111111111111112,1480,1502.0,1293.9200000000001,1497.0
1.7221860885620117,156,98,0.007936507936507936,1480,1502.0,1297.76,1496.0
1.745880126953125,157,99,0.008333333333333333,1480,1502.0,1295.1199999999999,1497.0
1.7694861888885498,157,99,0.007407407407407408,1480,1502.0,1289.52,1497.0
1.7929761409759521,158,99,0.007407407407407408,1480,1502.0,1292.1600000000001,1498.0
1.8164751529693604,157,99,0.007142857142857143,1480,1502.0,1294.8800000000001,1497.0
1.8402330875396729,158,99,0.006666666666666667,1480,1502.0,1294.8,1498.0
1.863962173461914,158,99,0.00625,1480,1502.0,1296.1600000000001,1498.0
1.8876311779022217,158,100,0.007407407407407408,1480,1502.0,1296.24,1498.0
1.9114351272583008,159,99,0.006666666666666667,1480,1502.0,1298.8,1499.0
1.9349911212921143,158,99,0.006944444444444444,1480,1502.0,1298.8,1498.0
1.9588861465454102,159,98,0.0125,1480,1502.0,1302.8,1499.0
1.9825770854949951,159,99,0.007407407407407408,1480,1502.0,1301.5999999999999,1499.0
2.00610613822937,159,99,0.006666666666666667,1481.0,1502.0,1304.4000000000001,1499.0
2.029860019683838,159,99,0.006666666666666667,1482.0,1502.0,1304.4000000000001,1499.0
2.0535712242126465,159,99,0.007407407407407408,1484.0,1502.0,1304.4000000000001,1499.0
2.0772061347961426,159,99,0.008928571428571428,1485.0,1502.0,1301.5999999999999,1499.0
2.1010360717773438,160,100,0.007407407407407408,1489.0,1502.0,1298.96,1500.0
2.1246399879455566,159,99,0.008928571428571428,1488.0,1502.0,1298.8,1499.0
2.1482930183410645,159,99,0.008547008547008548,1488.0,1502.0,1298.8,1499.0
2.172032117843628,159,99,0.007142857142857143,1489.0,1502.0,1298.8,1499.0
2.195686101913452,160,99,0.007407407407407408,1492.0,1502.0,1300.1600000000001,1500.0
2.219353199005127,159,96,0.013888888888888888,1490.0,1502.0,1310.8800000000001,1499.0
2.2428781986236572,160,98,0.007936507936507936,1493.0,1502.0,1309.9200000000001,1500.0
2.2664802074432373,161,97,0.007407407407407408,1497.0,1502.0,1314.0,1501.0
2.2901360988616943,161,99,0.013333333333333334,1499.0,1502.0,1311.5999999999999,1501.0
2.313920021057129,161,96,0.00625,1501.0,1502.0,1319.52,1501.0
2.337743043899536,161,96,0.007407407407407408,1502.0,1502.0,1314.0799999999999,1501.0
2.361556053161621,161,96,0.007407407407407408,1504.0,1502.0,1315.5999999999999,1501.0
2.385338068008423,162,96,0.006944444444444444,1509.0,1502.0,1314.3199999999999,1502.0
2.4089770317077637,161,97,0.007936507936507936,1509.0,1502.0,1316.0,1501.0
2.432868003845215,162,97,0.007407407407407408,1513.0,1502.0,1310.48,1502.0
2.4564430713653564,162,96,0.007407407407407408,1516.0,1502.0,1311.6800000000001,1502.0
2.480142116546631,162,95,0.008333333333333333,1518.0,1502.0,1311.5999999999999,1502.0
2.5039000511169434,162,95,0.007407407407407408,1519.0,1502.0,1311.6800000000001,1502.0
2.5278050899505615,162,93,0.006666666666666667,1520.0,1502.0,1317.1199999999999,1502.0
2.5515501499176025,162,93,0.006944444444444444,1520,1502.0,1324.24,1502.0
2.575169086456299,162,92,0.006666666666666667,1520,1502.0,1331.2,1502.0
2.5986111164093018,162,92,0.006944444444444444,1520,1502.0,1334.1600000000001,1502.0
2.6221280097961426,161,92,0.009615384615384616,1520.0,1502.0,1337.1199999999999,1501.0
2.645853042602539,162,92,0.007407407407407408,1520,1502.0,1333.1199999999999,1502.0
2.669420003890991,162,92,0.007407407407407408,1520,1502.0,1329.1199999999999,1502.0
2.6929640769958496,162,92,0.007407407407407408,1520,1502.0,1323.6800000000001,1502.0
2.716391086578369,162,91,0.007407407407407408,1520,1502.0,1322.24,1502.0
2.7399370670318604,162,91,0.007407407407407408,1520,1502.0,1319.5999999999999,1502.0
2.7634470462799072,162,90,0.008333333333333333,1520,1502.0,1322.3199999999999,1502.0
2.7869110107421875,161,90,0.007936507936507936,1520.0,1502.0,1323.8399999999999,1501.0
2.810636043548584,162,89,0.008333333333333333,1520,1502.0,1329.3599999999999,1502.0
2.8342480659484863,160,90,0.011904761904761904,1516.0,1502.0,1328.24,1500.0
2.8580031394958496,160,89,0.007936507936507936,1515.0,1502.0,1330.96,1500.0
2.881826162338257,161,88,0.007407407407407408,1516.0,1502.0,1332.3199999999999,1501.0
2.9054431915283203,160,88,0.008547008547008548,1512.0,1502.0,1332.48,1500.0
2.9290101528167725,161,88,0.006944444444444444,1513.0,1502.0,1329.8399999999999,1501.0
2.95261812210083,161,88,0.007407407407407408,1512.0,1502.0,1331.3599999999999,1501.0
2.9763431549072266,160,85,0.011904761904761904,1508.0,1502.0,1338.0,1500.0
3.000171184539795,160,87,0.007936507936507936,1506.0,1502.0,1334.3199999999999,1500.0
3.023858070373535,161,87,0.007407407407407408,1508.0,1502.0,1333.04,1501.0
3.0477402210235596,161,86,0.008333333333333333,1507.0,1502.0,1335.76,1501.0
3.071712017059326,160,87,0.01282051282051282,1505.0,1502.0,1333.28,1500.0
3.0956151485443115,161,86,0.007407407407407408,1508.0,1502.0,1327.5999999999999,1501.0
3.119392156600952,161,86,0.007407407407407408,1508.0,1502.0,1327.6800000000001,1501.0
3.1431682109832764,161,86,0.0078125,1509.0,1502.0,1327.76,1501.0
3.166910171508789,161,84,0.011904761904761904,1509.0,1502.0,1330.3199999999999,1501.0
3.190608024597168,161,86,0.006944444444444444,1509.0,1502.0,1328.0,1501.0
3.214143991470337,160,86,0.007936507936507936,1507.0,1502.0,1329.3599999999999,1500.0
3.237866163253784,161,86,0.006944444444444444,1510.0,1502.0,1328.0,1501.0
3.2615251541137695,160,83,0.011904761904761904,1507.0,1502.0,1334.5599999999999,1500.0
3.285384178161621,161,85,0.006944444444444444,1509.0,1502.0,1328.0,1501.0
3.309077024459839,161,85,0.007407407407407408,1510.0,1502.0,1328.0799999999999,1501.0
3.3327691555023193,161,86,0.013333333333333334,1510.0,1502.0,1326.8800000000001,1501.0
3.3565239906311035,161,84,0.008333333333333333,1510.0,1502.0,1332.1600000000001,1501.0
3.380113124847412,160,84,0.007936507936507936,1507.0,1502.0,1326.6400000000001,1500.0
3.4037020206451416,161,84,0.007407407407407408,1509.0,1502.0,1329.4400000000001,1501.0
3.4273550510406494,160,84,0.006944444444444444,1506.0,1502.0,1329.52,1500.0
3.4513611793518066,160,82,0.013333333333333334,1506.0,1502.0,1337.6800000000001,1500.0
3.4750821590423584,160,84,0.007407407407407408,1505.0,1502.0,1332.5599999999999,1500.0
3.498756170272827,160,83,0.0058823529411764705,1505.0,1502.0,1336.5599999999999,1500.0
3.522346019744873,159,83,0.007407407407407408,1501.0,1502.0,1336.6400000000001,1499.0
3.5459201335906982,158,84,0.008547008547008548,1496.0,1502.0,1334.0799999999999,1498.0
3.5696752071380615,159,84,0.009523809523809525,1496.0,1502.0,1325.76,1499.0
3.593636989593506,159,83,0.006944444444444444,1494.0,1502.0,1328.4000000000001,1499.0
3.6174089908599854,158,83,0.006944444444444444,1490.0,1502.0,1327.04,1498.0
3.641306161880493,158,82,0.008928571428571428,1487.0,1502.0,1328.3199999999999,1498.0
3.665127992630005,158,83,0.006944444444444444,1485.0,1502.0,1328.5599999999999,1498.0
3.688789129257202,158,82,0.008928571428571428,1483.0,1502.0,1335.3599999999999,1498.0
3.7125840187072754,158,83,0.006944444444444444,1481.0,1502.0,1332.8,1498.0
3.7362852096557617,158,83,0.006944444444444444,1480,1502.0,1332.8,1498.0
3.7598390579223633,158,83,0.007407407407407408,1480,1502.0,1330.0,1498.0
3.783543109893799,158,83,0.006944444444444444,1480,1502.0,1328.6400000000001,1498.0
3.80716609954834,158,83,0.007407407407407408,1480,1502.0,1324.48,1498.0
3.8309130668640137,158,84,0.011904761904761904,1480,1502.0,1321.8399999999999,1498.0
3.854478120803833,158,84,0.006944444444444444,1480,1502.0,1320.4000000000001,1498.0
3.878188133239746,158,84,0.007407407407407408,1480,1502.0,1320.3199999999999,1498.0
3.901832103729248,158,84,0.00625,1480,1502.0,1318.8800000000001,1498.0
3.925352096557617,159,85,0.006535947712418301,1480,1502.0,1316.1600000000001,1499.0
3.9490790367126465,157,85,0.007142857142857143,1480,1502.0,1316.0799999999999,1497.0
3.9726290702819824,158,85,0.00625,1480,1502.0,1316.0,1498.0
3.9960620403289795,158,85,0.007407407407407408,1480,1502.0,1315.9200000000001,1498.0
4.019576072692871,158,85,0.00625,1480,1502.0,1315.8399999999999,1498.0
4.043179988861084,158,85,0.006666666666666667,1480,1502.0,1318.5599999999999,1498.0
4.066711187362671,158,85,0.00625,1480,1502.0,1319.9200000000001,1498.0
4.090728044509888,158,84,0.009523809523809525,1480,1502.0,1323.9200000000001,1498.0
4.114238023757935,157,87,0.011904761904761904,1480,1502.0,1318.8,1497.0
4.137792110443115,158,86,0.006535947712418301,1480,1502.0,1319.9200000000001,1498.0
4.161485195159912,157,89,0.013333333333333334,1480,1502.0,1310.5599999999999,1497.0
4.1850972175598145,158,86,0.0058823529411764705,1480,1502.0,1312.72,1498.0
4.208893060684204,158,86,0.006666666666666667,1480,1502.0,1308.48,1498.0
4.232621192932129,157,85,0.008928571428571428,1480,1502.0,1315.28,1497.0
4.25636100769043,157,86,0.006944444444444444,1480,1502.0,1315.4400000000001,1497.0
4.2798521518707275,157,86,0.006666666666666667,1480,1502.0,1325.2,1497.0
4.303455114364624,157,86,0.00625,1480,1502.0,1326.5599999999999,1497.0
4.327041149139404,158,84,0.013333333333333334,1480,1502.0,1334.5599999999999,1498.0
4.350703001022339,157,86,0.005681818181818182,1480,1502.0,1328.0,1497.0
4.374194145202637,157,83,0.01282051282051282,1480,1502.0,1335.9200000000001,1497.0
4.3978400230407715,157,85,0.00625,1480,1502.0,1330.8800000000001,1497.0
4.421532154083252,157,85,0.0078125,1480,1502.0,1332.3199999999999,1497.0
4.445016145706177,158,86,0.006944444444444444,1480,1502.0,1325.52,1498.0
4.468693017959595,158,86,0.010416666666666666,1480,1502.0,1326.8800000000001,1498.0
4.492523193359375,158,86,0.006944444444444444,1480,1502.0,1318.48,1498.0
4.516209125518799,159,86,0.005681818181818182,1480,1502.0,1315.6800000000001,1499.0
4.540160179138184,158,84,0.01020408163265306,1480,1502.0,1318.1600000000001,1498.0
4.5641701221466064,159,86,0.005681818181818182,1480,1502.0,1318.48,1499.0
4.58797812461853,160,85,0.00625,1481.0,1502.0,1321.1199999999999,1500.0
4.611931085586548,160,86,0.008333333333333333,1484.0,1502.0,1324.0,1500.0
4.635693073272705,160,88,0.011111111111111112,1487.0,1502.0,1320.0799999999999,1500.0
4.6594719886779785,160,85,0.00625,1490.0,1502.0,1320.8800000000001,1500.0
4.683420181274414,160,86,0.005681818181818182,1492.0,1502.0,1319.6800000000001,1500.0
4.70768404006958,161,86,0.006535947712418301,1497.0,1502.0,1316.8800000000001,1501.0
4.731499195098877,161,85,0.0058823529411764705,1500.0,1502.0,1319.52,1501.0
4.755293130874634,161,86,0.005555555555555556,1502.0,1502.0,1323.9200000000001,1501.0
4.779100179672241,161,86,0.006944444444444444,1505.0,1502.0,1323.8399999999999,1501.0
4.803113222122192,162,86,0.00980392156862745,1510.0,1502.0,1323.8399999999999,1502.0
4.826961040496826,162,86,0.0058823529411764705,1512.0,1502.0,1325.2,1502.0
4.85126519203186,159,83,0.015151515151515152,1505.0,1502.0,1330.3199999999999,1499.0
4.8752281665802,162,86,0.006535947712418301,1513.0,1502.0,1324.0,1502.0
4.899011135101318,160,87,0.008928571428571428,1509.0,1502.0,1322.72,1500.0
4.922875165939331,160,87,0.008928571428571428,1509.0,1502.0,1321.28,1500.0
4.946780204772949,160,86,0.00625,1508.0,1502.0,1322.48,1500.0
4.970887184143066,160,86,0.00625,1507.0,1502.0,1315.4400000000001,1500.0
4.994953155517578,159,86,0.006493506493506494,1503.0,1502.0,1315.4400000000001,1499.0
5.018752098083496,161,86,0.0058823529411764705,1507.0,1502.0,1318.24,1501.0
5.042575120925903,160,86,0.006944444444444444,1503.0,1502.0,1321.04,1500.0
5.066373109817505,160,86,0.0078125,1501.0,1502.0,1321.04,1500.0
5.090376138687134,160,85,0.00625,1502.0,1502.0,1327.76,1500.0
5.114318132400513,161,85,0.006666666666666667,1503.0,1502.0,1329.2,1501.0
5.1382222175598145,162,84,0.0058823529411764705,1507.0,1502.0,1331.9200000000001,1502.0
5.162122011184692,161,85,0.00625,1506.0,1502.0,1330.8,1501.0
5.185889005661011,162,85,0.006535947712418301,1510.0,1502.0,1332.24,1502.0
5.209824085235596,161,87,0.016666666666666666,1509.0,1502.0,1325.5999999999999,1501.0
5.233777046203613,161,84,0.006944444444444444,1511.0,1502.0,1329.28,1501.0
5.257944107055664,161,85,0.00625,1511.0,1502.0,1323.9200000000001,1501.0
5.281965017318726,161,84,0.008333333333333333,1512.0,1502.0,1325.2,1501.0
5.305882215499878,162,85,0.007352941176470588,1516.0,1502.0,1322.6400000000001,1502.0
5.329653024673462,162,86,0.00980392156862745,1518.0,1502.0,1325.5999999999999,1502.0
5.353403091430664,162,84,0.0058823529411764705,1519.0,1502.0,1326.6400000000001,1502.0
5.377155065536499,162,86,0.008403361344537815,1519.0,1502.0,1324.1600000000001,1502.0
5.401656150817871,161,84,0.0078125,1517.0,1502.0,1325.2,1501.0
5.425523042678833,162,85,0.008333333333333333,1519.0,1502.0,1324.0,1502.0
5.449366092681885,162,86,0.008403361344537815,1520.0,1502.0,1321.4400000000001,1502.0
5.473299026489258,161,81,0.016666666666666666,1518.0,1502.0,1331.76,1501.0
5.4973461627960205,160,84,0.007142857142857143,1515.0,1502.0,1332.4000000000001,1500.0
5.5214221477508545,161,84,0.00625,1517.0,1502.0,1332.4000000000001,1501.0
5.545412063598633,161,84,0.005555555555555556,1516.0,1502.0,1333.8399999999999,1501.0
5.569274187088013,160,84,0.006944444444444444,1512.0,1502.0,1336.72,1500.0
5.593147039413452,161,83,0.0058823529411764705,1513.0,1502.0,1330.96,1501.0
5.617224216461182,160,83,0.006666666666666667,1509.0,1502.0,1329.6800000000001,1500.0
5.641147136688232,161,83,0.0058823529411764705,1511.0,1502.0,1331.1199999999999,1501.0
5.6649510860443115,160,86,0.0125,1507.0,1502.0,1323.28,1500.0
5.688974142074585,160,83,0.006944444444444444,1505.0,1502.0,1325.5999999999999,1500.0
5.712643146514893,,,,1504.0,1503,1283.4400000000001,1500.0
5.736295223236084,160,83,0.005555555555555556,1504.0,1502.0,1302.48,1500.0
5.760131120681763,159,83,0.00625,1500.0,1502.0,1301.1199999999999,1499.0
5.783981084823608,159,81,0.010416666666666666,1498.0,1502.0,1313.4400000000001,1499.0
5.807938098907471,159,83,0.00625,1497.0,1502.0,1309.6800000000001,1499.0
5.831888198852539,159,83,0.007407407407407408,1495.0,1502.0,1350,1499.0
5.855825185775757,160,82,0.0058823529411764705,1497.0,1502.0,1350,1500.0
5.879737138748169,159,83,0.007407407407407408,1493.0,1502.0,1350,1499.0
5.903635025024414,161,83,0.011904761904761904,1498.0,1502.0,1349.04,1501.0
5.927577018737793,159,82,0.006944444444444444,1493.0,1502.0,1350,1499.0
5.951557159423828,160,83,0.007352941176470588,1495.0,1502.0,1327.3599999999999,1500.0
5.9753382205963135,159,84,0.010416666666666666,1492.0,1502.0,1321.9200000000001,1499.0
5.999126195907593,159,82,0.010416666666666666,1492.0,1502.0,1325.76,1499.0
6.02324104309082,160,87,0.016666666666666666,1495.0,1502.0,1316.72,1500.0
6.046929121017456,159,82,0.010416666666666666,1493.0,1502.0,1321.3599999999999,1499.0
6.071240186691284,160,84,0.007352941176470588,1496.0,1502.0,1317.52,1500.0
6.095005989074707,159,82,0.008928571428571428,1493.0,1502.0,1325.52,1499.0
6.118937015533447,159,85,0.014705882352941176,1493.0,1502.0,1316.24,1499.0
6.142722129821777,157,84,0.01020408163265306,1485.0,1502.0,1327.2,1497.0
6.166736125946045,159,84,0.008403361344537815,1489.0,1502.0,1324.3199999999999,1499.0
6.19074010848999,156,81,0.01818181818181818,1480,1502.0,1333.5999999999999,1496.0
6.214460134506226,159,84,0.006172839506172839,1485.0,1502.0,1324.4000000000001,1499.0
6.238409042358398,157,85,0.011904761904761904,1480,1502.0,1327.28,1497.0
6.262272119522095,159,84,0.0058823529411764705,1482.0,1502.0,1324.4000000000001,1499.0
6.2861621379852295,160,85,0.007352941176470588,1485.0,1502.0,1324.48,1500.0
6.309962034225464,159,83,0.0078125,1482.0,1502.0,1319.9200000000001,1499.0
6.333880186080933,159,83,0.00625,1482.0,1502.0,1324.0799999999999,1499.0
6.357742071151733,159,83,0.006666666666666667,1482.0,1502.0,1326.96,1499.0
6.381584167480469,159,84,0.006944444444444444,1484.0,1502.0,1325.76,1499.0
6.405606031417847,159,84,0.0078125,1484.0,1502.0,1328.5599999999999,1499.0
6.429632186889648,160,84,0.007352941176470588,1490.0,1502.0,1329.8399999999999,1500.0
6.453472137451172,160,83,0.0053475935828877,1491.0,1502.0,1329.6800000000001,1500.0
6.4773101806640625,159,82,0.00625,1491.0,1502.0,1329.5999999999999,1499.0
6.501521110534668,160,83,0.006944444444444444,1494.0,1502.0,1329.8399999999999,1500.0
6.52538800239563,159,84,0.010416666666666666,1491.0,1502.0,1327.28,1499.0
6.549347162246704,160,84,0.011764705882352941,1494.0,1502.0,1328.6400000000001,1500.0
6.573320150375366,158,84,0.014285714285714285,1489.0,1502.0,1327.2,1498.0
6.597261190414429,158,83,0.008928571428571428,1488.0,1502.0,1325.5999999999999,1498.0
6.621250152587891,159,82,0.006060606060606061,1490.0,1502.0,1326.8800000000001,1499.0
6.645018100738525,160,82,0.004784688995215311,1493.0,1502.0,1329.76,1500.0
6.668817043304443,159,82,0.006944444444444444,1490.0,1502.0,1332.6400000000001,1499.0
6.692742109298706,159,84,0.010416666666666666,1489.0,1502.0,1331.5999999999999,1499.0
6.717159032821655,160,80,0.008403361344537815,1492.0,1502.0,1342.0799999999999,1500.0
6.7414751052856445,160,83,0.0053475935828877,1492.0,1502.0,1335.6800000000001,1500.0
6.765365123748779,160,83,0.005050505050505051,1493.0,1502.0,1331.52,1500.0
6.789731025695801,160,83,0.005555555555555556,1493.0,1502.0,1327.3599999999999,1500.0
6.813663005828857,163,81,0.013333333333333334,1504.0,1502.0,1334.0799999999999,1503.0
6.837625026702881,157,81,0.011363636363636364,1491.0,1502.0,1328.5599999999999,1497.0
6.861736059188843,158,84,0.008928571428571428,1492.0,1502.0,1324.8800000000001,1498.0
6.885650157928467,161,85,0.009523809523809525,1499.0,1502.0,1322.1600000000001,1501.0
6.909531116485596,159,87,0.015625,1495.0,1502.0,1315.3599999999999,1499.0
6.933431148529053,160,86,0.006172839506172839,1498.0,1502.0,1305.28,1500.0
6.957301139831543,160,84,0.0058823529411764705,1498.0,1502.0,1304.72,1500.0
6.9814770221710205,160,84,0.008403361344537815,1498.0,1502.0,1306.0799999999999,1500.0
7.005526065826416,161,84,0.004784688995215311,1501.0,1502.0,1310.24,1501.0
7.029350996017456,161,84,0.007352941176470588,1502.0,1502.0,1320.0,1501.0
7.053325176239014,161,83,0.005050505050505051,1500.0,1502.0,1332.3199999999999,1501.0
7.07715106010437,160,83,0.006060606060606061,1501.0,1502.0,1337.8399999999999,1500.0
7.101222038269043,162,83,0.004784688995215311,1509.0,1502.0,1339.28,1502.0
7.1250410079956055,161,83,0.005050505050505051,1507.0,1502.0,1339.3599999999999,1501.0
7.148782014846802,160,85,0.010416666666666666,1506.0,1502.0,1331.4400000000001,1500.0
7.172446012496948,161,82,0.008928571428571428,1509.0,1502.0,1332.4000000000001,1501.0
7.196106195449829,159,83,0.006944444444444444,1504.0,1502.0,1329.8399999999999,1499.0
7.21965217590332,160,86,0.010416666666666666,1506.0,1502.0,1320.5599999999999,1500.0
7.2432661056518555,160,85,0.006944444444444444,1505.0,1502.0,1317.52,1500.0
7.267122030258179,161,84,0.0043859649122807015,1507.0,1502.0,1321.52,1501.0
7.290889024734497,161,85,0.004545454545454545,1507.0,1502.0,1314.6400000000001,1501.0
7.314551115036011,161,84,0.004629629629629629,1508.0,1502.0,1314.4000000000001,1501.0
7.33850622177124,161,85,0.005263157894736842,1507.0,1502.0,1318.72,1501.0
7.3623480796813965,161,84,0.005555555555555556,1507.0,1502.0,1324.0799999999999,1501.0
7.385975122451782,160,85,0.005050505050505051,1505.0,1502.0,1320.0799999999999,1500.0
7.409574031829834,160,83,0.006944444444444444,1504.0,1502.0,1329.4400000000001,1500.0
7.433396100997925,161,86,0.005847953216374269,1508.0,1502.0,1324.3199999999999,1501.0
7.4571239948272705,161,85,0.0043859649122807015,1509.0,1502.0,1324.1600000000001,1501.0
7.480929136276245,160,86,0.007352941176470588,1507.0,1502.0,1318.72,1500.0
7.504564046859741,161,84,0.005263157894736842,1509.0,1502.0,1323.9200000000001,1501.0
7.528250217437744,159,88,0.011111111111111112,1503.0,1502.0,1309.2,1499.0
7.552096128463745,160,84,0.005263157894736842,1504.0,1502.0,1319.5999999999999,1500.0
7.575730085372925,159,82,0.008403361344537815,1500.0,1502.0,1326.3199999999999,1499.0
7.599407196044922,159,84,0.0043859649122807015,1498.0,1502.0,1329.52,1499.0
7.622972011566162,159,86,0.006578947368421052,1497.0,1502.0,1322.8800000000001,1499.0
7.646804094314575,158,84,0.004166666666666667,1493.0,1502.0,1337.8399999999999,1498.0
7.670579195022583,157,87,0.00980392156862745,1487.0,1502.0,1327.2,1497.0
7.694136142730713,158,85,0.0043859649122807015,1486.0,1502.0,1321.2,1498.0
7.717839002609253,157,85,0.004545454545454545,1481.0,1502.0,1317.04,1497.0
7.7417590618133545,157,85,0.0043859649122807015,1480,1502.0,1321.2,1497.0
7.765436172485352,157,85,0.004166666666666667,1480,1502.0,1314.3199999999999,1497.0
7.78889799118042,157,85,0.0043859649122807015,1480,1502.0,1321.28,1497.0
7.812434196472168,157,85,0.004166666666666667,1480,1502.0,1325.3599999999999,1497.0
7.835949182510376,158,85,0.003787878787878788,1480,1502.0,1326.72,1498.0
7.85936713218689,157,84,0.004166666666666667,1480,1502.0,1328.0,1497.0
7.882936000823975,156,86,0.005555555555555556,1480,1502.0,1325.52,1496.0
7.906654119491577,157,85,0.0038461538461538464,1480,1502.0,1324.0,1497.0
7.930237054824829,158,85,0.003968253968253968,1480,1502.0,1324.0,1498.0
7.9537200927734375,157,85,0.004166666666666667,1480,1502.0,1324.0,1497.0
7.977157115936279,158,85,0.003663003663003663,1480,1502.0,1321.2,1498.0
8.001200199127197,157,85,0.004166666666666667,1480,1502.0,1324.0,1497.0
8.024761199951172,157,85,0.0038461538461538464,1480,1502.0,1324.0,1497.0
8.048432111740112,157,85,0.004166666666666667,1480,1502.0,1324.0,1497.0
8.072151184082031,157,87,0.00625,1480,1502.0,1318.72,1497.0
8.095906019210815,157,85,0.0038461538461538464,1480,1502.0,1322.48,1497.0
8.119786024093628,158,84,0.0034965034965034965,1480,1502.0,1323.76,1498.0
8.143251180648804,158,86,0.005291005291005291,1480,1502.0,1319.9200000000001,1498.0
8.166864156723022,158,84,0.0034965034965034965,1480,1502.0,1323.76,1498.0
8.190765142440796,158,84,0.0038461538461538464,1480,1502.0,1330.8,1498.0
8.214476108551025,158,84,0.004048582995951417,1480,1502.0,1332.24,1498.0
8.238290071487427,159,83,0.003968253968253968,1480,1502.0,1333.52,1499.0
8.262104034423828,159,84,0.003246753246753247,1480,1502.0,1336.5599999999999,1499.0
8.285621166229248,159,85,0.003401360544217687,1480,1502.0,1332.5599999999999,1499.0
8.309061050415039,160,81,0.007936507936507936,1484.0,1502.0,1337.5999999999999,1500.0
8.332844018936157,159,86,0.003787878787878788,1484.0,1502.0,1327.3599999999999,1499.0
8.356595993041992,160,84,0.004166666666666667,1488.0,1502.0,1326.96,1500.0
8.380374193191528,159,85,0.003401360544217687,1487.0,1502.0,1321.5999999999999,1499.0
8.404069185256958,160,84,0.003401360544217687,1491.0,1502.0,1325.5999999999999,1500.0
8.428131103515625,159,83,0.004784688995215311,1490.0,1502.0,1319.8399999999999,1499.0
8.452112197875977,160,87,0.007936507936507936,1494.0,1502.0,1316.3199999999999,1500.0
8.47585916519165,160,86,0.005291005291005291,1495.0,1502.0,1316.0,1500.0
8.49988603591919,161,83,0.003401360544217687,1499.0,1502.0,1323.8399999999999,1501.0
8.523730993270874,161,84,0.003787878787878788,1501.0,1502.0,1321.28,1501.0
8.547382116317749,161,86,0.004329004329004329,1502.0,1502.0,1317.28,1501.0
8.57166600227356,162,85,0.003105590062111801,1507.0,1502.0,1322.72,1502.0
8.595400094985962,162,85,0.003952569169960474,1509.0,1502.0,1326.8800000000001,1502.0
8.619042158126831,161,85,0.0038461538461538464,1509.0,1502.0,1321.28,1501.0
8.642709016799927,162,83,0.004545454545454545,1513.0,1502.0,1325.1199999999999,1502.0
8.666489124298096,162,84,0.003246753246753247,1516.0,1502.0,1330.8800000000001,1502.0
8.690199136734009,159,84,0.005208333333333333,1509.0,1502.0,1329.5999999999999,1499.0
8.713834047317505,162,83,0.0037593984962406013,1517.0,1502.0,1332.3199999999999,1502.0
8.737417221069336,163,83,0.003663003663003663,1520,1502.0,1337.9200000000001,1503.0
8.761359214782715,162,83,0.003787878787878788,1520.0,1502.0,1336.5599999999999,1502.0
8.785024166107178,164,84,0.004629629629629629,1520,1502.0,1332.6400000000001,1504.0
8.808638095855713,163,85,0.005952380952380952,1520,1502.0,1328.6400000000001,1503.0
8.832283020019531,163,84,0.003663003663003663,1520,1502.0,1325.6800000000001,1503.0
8.855836153030396,163,82,0.01,1520,1502.0,1326.8,1503.0
8.879690170288086,162,84,0.004166666666666667,1520,1502.0,1322.96,1502.0
8.903198003768921,163,86,0.004761904761904762,1520,1502.0,1317.6800000000001,1503.0
8.926875114440918,163,81,0.006493506493506494,1520,1502.0,1330.8,1503.0
8.950620174407959,164,83,0.003952569169960474,1520,1502.0,1331.2,1504.0
8.974062204360962,163,85,0.004132231404958678,1520,1502.0,1323.1199999999999,1503.0
8.997985124588013,160,86,0.007407407407407408,1520,1502.0,1320.4000000000001,1500.0
9.021789073944092,164,84,0.003968253968253968,1520,1502.0,1328.4000000000001,1504.0
9.04535698890686,162,84,0.0035714285714285713,1520,1502.0,1318.6400000000001,1502.0
9.06901502609253,163,87,0.005434782608695652,1520,1502.0,1307.9200000000001,1503.0
9.092583179473877,163,85,0.0033444816053511705,1520,1502.0,1314.4000000000001,1503.0
9.11603307723999,163,85,0.0033444816053511705,1520,1502.0,1318.5599999999999,1503.0
9.139626026153564,162,84,0.003246753246753247,1520,1502.0,1317.04,1502.0
9.16326904296875,162,82,0.005050505050505051,1520,1502.0,1326.4000000000001,1502.0
9.186820030212402,161,83,0.003401360544217687,1520,1502.0,1336.4000000000001,1501.0
9.21062707901001,160,84,0.004545454545454545,1520.0,1502.0,1336.6400000000001,1500.0
9.234378099441528,160,79,0.007575757575757576,1520.0,1502.0,1349.9200000000001,1500.0
9.258198022842407,158,81,0.004545454545454545,1510.0,1502.0,1350,1498.0
9.28200101852417,159,87,0.006802721088435374,1509.0,1502.0,1334.72,1499.0
9.305929183959961,159,83,0.003105590062111801,1505.0,1502.0,1334.0799999999999,1499.0
9.329644203186035,157,86,0.004545454545454545,1495.0,1502.0,1326.24,1497.0
9.353410005569458,158,85,0.0034965034965034965,1492.0,1502.0,1310.6400000000001,1498.0
9.377052068710327,158,89,0.006802721088435374,1488.0,1502.0,1290.24,1498.0
9.40102219581604,158,86,0.0036231884057971015,1484.0,1502.0,1302.0799999999999,1498.0
9.424764156341553,158,84,0.003105590062111801,1481.0,1502.0,1303.04,1498.0
9.448573112487793,158,84,0.003105590062111801,1480,1502.0,1308.6400000000001,1498.0
9.47240400314331,157,87,0.005291005291005291,1480,1502.0,1310.3199999999999,1497.0
9.496199131011963,156,80,0.00625,1480,1502.0,1342.5599999999999,1496.0
9.519883155822754,157,83,0.0030303030303030303,1480,1502.0,1341.9200000000001,1497.0
9.543307065963745,152,83,0.01098901098901099,1480,1502.0,1344.72,1492.0
9.56722903251648,156,83,0.0043859649122807015,1480,1502.0,1343.4400000000001,1496.0
9.590946197509766,157,87,0.006944444444444444,1480,1502.0,1341.3599999999999,1497.0
9.614750146865845,157,85,0.004347826086956522,1480,1502.0,1324.3199999999999,1497.0
9.638542175292969,156,80,0.005,1480,1502.0,1330.5599999999999,1496.0
9.662442207336426,156,83,0.003246753246753247,1480,1502.0,1325.5999999999999,1496.0
9.6863272190094,151,87,0.018518518518518517,1480,1502.0,1313.6800000000001,1491.0
9.710057020187378,157,81,0.003787878787878788,1480,1502.0,1329.52,1497.0
9.73366904258728,157,81,0.00909090909090909,1480,1502.0,1342.0799999999999,1497.0
9.757160186767578,158,83,0.002898550724637681,1480,1502.0,1331.28,1498.0
9.781163215637207,155,86,0.00980392156862745,1480,1502.0,1323.3599999999999,1495.0
9.804928064346313,161,80,0.010526315789473684,1480,1502.0,1346.0799999999999,1501.0
9.828520059585571,153,81,0.005494505494505495,1480,1502.0,1336.72,1493.0
9.852213144302368,157,78,0.017543859649122806,1480,1502.0,1339.2,1497.0
9.875888109207153,158,80,0.005,1480,1502.0,1345.2,1498.0
9.899591207504272,159,82,0.006211180124223602,1480,1502.0,1350,1499.0
9.923124074935913,155,83,0.00390625,1480,1502.0,1337.5999999999999,1495.0
9.946747064590454,158,77,0.017857142857142856,1480,1502.0,1350,1498.0
9.970560073852539,158,87,0.006493506493506494,1480,1502.0,1321.52,1498.0
9.994147062301636,164,79,0.008928571428571428,1486.0,1502.0,1328.48,1504.0
10.018043994903564,156,78,0.014285714285714285,1480,1502.0,1330.0,1496.0
10.041881084442139,163,79,0.01020408163265306,1487.0,1502.0,1338.6400000000001,1503.0
10.065528154373169,159,86,0.0078125,1485.0,1502.0,1311.8399999999999,1499.0
10.089198112487793,162,86,0.014705882352941176,1496.0,1502.0,1325.52,1502.0
10.113226175308228,156,85,0.014285714285714285,1482.0,1502.0,1316.72,1496.0
10.137011051177979,165,85,0.0053475935828877,1506.0,1502.0,1301.2,1505.0
10.160961151123047,159,82,0.008333333333333333,1498.0,1502.0,1295.04,1499.0
10.18456220626831,155,87,0.016666666666666666,1487.0,1502.0,1299.8399999999999,1495.0
10.208405017852783,160,87,0.004132231404958678,1499.0,1502.0,1297.04,1500.0
10.232270002365112,160,82,0.006802721088435374,1495.0,1502.0,1315.52,1500.0
10.255879163742065,158,89,0.0078125,1493.0,1502.0,1310.8800000000001,1498.0
10.279555082321167,165,84,0.009259259259259259,1509.0,1502.0,1318.0799999999999,1505.0
10.30318307876587,163,85,0.01818181818181818,1509.0,1502.0,1321.1199999999999,1503.0
10.326820135116577,166,81,0.01282051282051282,1519.0,1502.0,1335.9200000000001,1506.0
10.350659132003784,160,81,0.010416666666666666,1511.0,1502.0,1333.28,1500.0
10.374393224716187,161,86,0.004347826086956522,1509.0,1502.0,1337.04,1501.0
10.398207187652588,162,87,0.0033333333333333335,1514.0,1502.0,1334.24,1502.0
10.421935081481934,160,88,0.004545454545454545,1515.0,1502.0,1326.0,1500.0
10.445531129837036,169,86,0.022222222222222223,1520,1502.0,1313.04,1509.0
10.469165086746216,161,87,0.0033444816053511705,1520,1502.0,1301.8399999999999,1501.0
10.492833137512207,160,92,0.008695652173913044,1520,1502.0,1283.1199999999999,1500.0
10.516487121582031,161,93,0.018518518518518517,1520,1502.0,1277.3599999999999,1501.0
10.5400071144104,160,91,0.004830917874396135,1520.0,1502.0,1279.52,1500.0
10.56358003616333,162,90,0.006172839506172839,1520.0,1502.0,1281.76,1502.0
10.5871741771698,160,87,0.005494505494505495,1516.0,1502.0,1293.52,1500.0
10.611110210418701,158,81,0.017543859649122806,1509.0,1502.0,1324.72,1498.0
10.634826183319092,155,82,0.008333333333333333,1496.0,1502.0,1347.52,1495.0
10.658574104309082,158,83,0.007518796992481203,1500.0,1502.0,1350,1498.0
10.682085037231445,162,90,0.011904761904761904,1501.0,1502.0,1350,1502.0
10.705764055252075,162,81,0.009259259259259259,1502.0,1502.0,1350,1502.0
10.7293860912323,157,91,0.0125,1489.0,1502.0,1337.04,1497.0
10.753031015396118,163,81,0.007518796992481203,1503.0,1502.0,1335.52,1503.0
10.776609182357788,158,79,0.009523809523809525,1491.0,1502.0,1332.8,1498.0
10.80022120475769,164,82,0.009523809523809525,1505.0,1502.0,1340.72,1504.0
10.823806047439575,159,83,0.004830917874396135,1494.0,1502.0,1328.48,1499.0
10.847401142120361,159,82,0.005208333333333333,1495.0,1502.0,1350,1499.0
10.871145009994507,158,87,0.008333333333333333,1496.0,1502.0,1340.24,1498.0
10.894753217697144,159,80,0.00909090909090909,1499.0,1502.0,1341.76,1499.0
10.918522119522095,163,89,0.008333333333333333,1508.0,1502.0,1310.0,1503.0
10.942431211471558,162,79,0.008333333333333333,1506.0,1502.0,1330.48,1502.0
10.965941190719604,160,80,0.00625,1505.0,1502.0,1319.9200000000001,1500.0
10.989436149597168,166,59,0.011363636363636364,1520.0,1502.0,1350,1506.0
11.012983083724976,153,91,0.023809523809523808,1489.0,1502.0,1340.72,1493.0
11.036458015441895,155,80,0.008403361344537815,1484.0,1502.0,1350,1495.0
11.059949159622192,159,82,0.006944444444444444,1492.0,1502.0,1350,1499.0
11.083439111709595,158,88,0.014285714285714285,1489.0,1502.0,1342.8,1498.0
11.106983184814453,150,82,0.010416666666666666,1480,1502.0,1278.8,1490.0
11.130650043487549,160,81,0.008333333333333333,1486.0,1502.0,1309.3599999999999,1500.0
11.154206037521362,153,88,0.006578947368421052,1480,1502.0,1277.2,1493.0
11.177901029586792,156,80,0.005494505494505495,1480,1502.0,1293.76,1496.0
11.201632022857666,158,84,0.004166666666666667,1480,1502.0,1305.5999999999999,1498.0
11.225289106369019,157,91,0.007246376811594203,1480,1502.0,1315.52,1497.0
11.248871088027954,156,90,0.0044444444444444444,1480,1502.0,1290.1600000000001,1496.0
11.272347211837769,154,80,0.011904761904761904,1480,1502.0,1324.5599999999999,1494.0
11.29587721824646,157,89,0.004830917874396135,1480,1502.0,1298.0799999999999,1497.0
11.3193039894104,163,60,0.010101010101010102,1480,1502.0,1350,1503.0
11.34264612197876,157,88,0.004,1480,1502.0,1344.96,1497.0
11.366100072860718,160,79,0.005681818181818182,1480,1502.0,1350,1500.0
11.389577150344849,157,90,0.005952380952380952,1480,1502.0,1345.3599999999999,1497.0
11.413096189498901,158,85,0.004,1480,1502.0,1350,1498.0
11.436596155166626,156,93,0.007142857142857143,1480,1502.0,1279.5999999999999,1496.0
11.460179090499878,158,88,0.005,1480,1502.0,1281.52,1498.0
11.483537197113037,156,89,0.004545454545454545,1480,1502.0,1250.96,1496.0
11.507172107696533,158,90,0.0034965034965034965,1480,1502.0,1263.3599999999999,1498.0
11.531009197235107,158,90,0.005,1480,1502.0,1250.72,1498.0
11.55448603630066,155,89,0.007936507936507936,1480,1502.0,1302.5599999999999,1495.0
11.578204154968262,166,62,0.022222222222222223,1494.0,1502.0,1350,1506.0
11.60193920135498,157,90,0.005291005291005291,1480,1502.0,1350,1497.0
11.625360012054443,165,96,0.006060606060606061,1497.0,1502.0,1335.1199999999999,1505.0
11.649022102355957,152,87,0.008333333333333333,1480,1502.0,1350,1492.0
11.672608137130737,158,93,0.002777777777777778,1480,1502.0,1338.6400000000001,1498.0
11.696315050125122,159,93,0.007246376811594203,1482.0,1502.0,1258.6400000000001,1499.0
11.720460176467896,163,88,0.008333333333333333,1497.0,1502.0,1268.8800000000001,1503.0
11.744168996810913,166,96,0.01020408163265306,1511.0,1502.0,1267.4400000000001,1506.0
11.767743110656738,161,94,0.006666666666666667,1504.0,1502.0,1255.6800000000001,1501.0
11.791386127471924,163,86,0.002857142857142857,1516.0,1502.0,1280.8,1503.0
11.815087080001831,160,91,0.0034965034965034965,1504.0,1502.0,1319.8399999999999,1500.0
11.838685989379883,159,90,0.005681818181818182,1504.0,1502.0,1315.4400000000001,1499.0
11.862194061279297,154,86,0.011904761904761904,1483.0,1502.0,1334.6400000000001,1494.0
11.885683059692383,163,81,0.004166666666666667,1512.0,1502.0,1350,1503.0
11.909337997436523,161,84,0.0022222222222222222,1511.0,1502.0,1350,1501.0
11.932823181152344,156,84,0.007407407407407408,1498.0,1502.0,1350,1496.0
11.956298112869263,162,79,0.005434782608695652,1509.0,1502.0,1350,1502.0
11.979791164398193,164,90,0.008333333333333333,1511.0,1502.0,1350,1504.0
12.00334906578064,163,79,0.003787878787878788,1511.0,1502.0,1350,1503.0
12.02672815322876,171,55,0.010416666666666666,1520,1502.0,1350,1511.0
12.050129175186157,165,77,0.004273504273504274,1520,1502.0,1350,1505.0
12.073536157608032,166,81,0.006944444444444444,1520,1502.0,1350,1506.0
12.096935033798218,165,83,0.002178649237472767,1520,1502.0,1350,1505.0
12.120623111724854,169,78,0.011904761904761904,1520,1502.0,1350,1509.0
12.144184112548828,164,76,0.0026666666666666666,1520,1502.0,1326.3199999999999,1504.0
12.167948007583618,164,77,0.0038461538461538464,1520,1502.0,1315.5999999999999,1504.0
12.19181513786316,170,81,0.008333333333333333,1520,1502.0,1313.52,1510.0
12.215242147445679,164,74,0.004807692307692308,1520,1502.0,1325.3599999999999,1504.0
12.238654136657715,163,82,0.005434782608695652,1520,1502.0,1308.6400000000001,1503.0
12.262273073196411,165,77,0.002849002849002849,1520,1502.0,1341.76,1505.0
12.285644054412842,164,79,0.0027472527472527475,1520,1502.0,1336.48,1504.0
12.309170007705688,164,71,0.005952380952380952,1520,1502.0,1350,1504.0
12.332727193832397,162,71,0.007575757575757576,1520,1502.0,1350,1502.0
12.356114149093628,164,73,0.0026455026455026454,1520,1502.0,1350,1504.0
12.379557132720947,161,79,0.006493506493506494,1520,1502.0,1350,1501.0
12.403168201446533,164,79,0.0030864197530864196,1520,1502.0,1350,1504.0
12.426714181900024,157,78,0.009615384615384616,1520,1502.0,1340.0799999999999,1497.0
12.450240135192871,163,80,0.004273504273504274,1520,1502.0,1320.6400000000001,1503.0
12.473718166351318,164,76,0.002232142857142857,1520,1502.0,1308.8800000000001,1504.0
12.497545003890991,165,78,0.0026455026455026454,1520,1502.0,1310.6400000000001,1505.0
12.521313190460205,165,78,0.00411522633744856,1520,1502.0,1312.0799999999999,1505.0
12.544855117797852,164,81,0.004464285714285714,1520,1502.0,1313.6800000000001,1504.0
12.568397998809814,162,76,0.0044444444444444444,1520,1502.0,1337.6800000000001,1502.0
12.592046022415161,163,74,0.00641025641025641,1520,1502.0,1347.04,1503.0
12.615708112716675,158,79,0.0053475935828877,1520,1502.0,1338.24,1498.0
12.639301061630249,165,82,0.007936507936507936,1520,1502.0,1327.52,1505.0
12.662729024887085,157,76,0.013888888888888888,1520.0,1502.0,1346.0,1497.0
12.68637204170227,156,80,0.0078125,1511.0,1502.0,1330.0,1496.0
12.709989070892334,162,79,0.005747126436781609,1520,1502.0,1321.28,1502.0
12.733544111251831,162,76,0.0024691358024691358,1518.0,1502.0,1330.5599999999999,1502.0
12.757216215133667,157,81,0.00625,1500.0,1502.0,1331.4400000000001,1497.0
12.781033039093018,159,80,0.006211180124223602,1499.0,1502.0,1320.0799999999999,1499.0
12.804580211639404,162,84,0.008620689655172414,1505.0,1502.0,1314.96,1502.0
12.828389167785645,167,80,0.005050505050505051,1519.0,1502.0,1325.1199999999999,1507.0
12.852087020874023,160,81,0.003968253968253968,1507.0,1502.0,1312.6400000000001,1500.0
12.875658988952637,160,78,0.0021008403361344537,1502.0,1502.0,1319.2,1500.0
12.899211168289185,157,72,0.005434782608695652,1496.0,1502.0,1343.3599999999999,1497.0
12.922776222229004,153,78,0.0058823529411764705,1485.0,1502.0,1350,1493.0
12.94630217552185,157,70,0.006172839506172839,1488.0,1502.0,1350,1497.0
12.970116138458252,156,76,0.0015527950310559005,1480.0,1502.0,1350,1496.0
12.993786096572876,156,75,0.0033333333333333335,1480,1502.0,1350,1496.0
13.017328023910522,156,85,0.004166666666666667,1480,1502.0,1342.24,1496.0
13.040975093841553,156,82,0.0024630541871921183,1480,1502.0,1331.9200000000001,1496.0
13.0646390914917,156,70,0.0028735632183908046,1480,1502.0,1332.72,1496.0
13.088402032852173,152,84,0.002976190476190476,1480,1502.0,1297.5999999999999,1492.0
13.112075090408325,154,81,0.0021008403361344537,1480,1502.0,1288.48,1494.0
13.135613203048706,153,77,0.005291005291005291,1480,1502.0,1322.48,1493.0
13.159090042114258,154,76,0.0022222222222222222,1480,1502.0,1337.76,1494.0
13.182605028152466,154,81,0.002551020408163265,1480,1502.0,1315.9200000000001,1494.0
13.206359148025513,153,82,0.002564102564102564,1480,1502.0,1328.48,1493.0
13.229848146438599,153,76,0.001567398119122257,1480,1502.0,1350,1493.0
13.253273010253906,153,79,0.0017543859649122807,1480,1502.0,1333.6800000000001,1493.0
13.276791095733643,151,78,0.0024691358024691358,1480,1502.0,1323.8399999999999,1491.0
13.300676107406616,152,78,0.0019157088122605363,1480,1502.0,1343.1199999999999,1492.0
13.324231147766113,151,79,0.0033333333333333335,1480,1502.0,1343.52,1491.0
13.347717046737671,152,82,0.001736111111111111,1480,1502.0,1324.48,1492.0
13.371259212493896,152,79,0.0017825311942959,1480,1502.0,1330.8,1492.0
13.394832134246826,151,81,0.001358695652173913,1480,1502.0,1326.8,1491.0
13.418846130371094,151,79,0.001358695652173913,1480,1502.0,1323.6800000000001,1491.0
13.442406177520752,151,80,0.0011160714285714285,1480,1502.0,1316.96,1491.0
13.465826034545898,156,51,0.004329004329004329,1480,1502.0,1350,1496.0
13.489396095275879,150,78,0.001358695652173913,1480,1502.0,1350,1490.0
13.512830018997192,152,73,0.0022222222222222222,1480,1502.0,1350,1492.0
13.536164999008179,151,73,0.0022988505747126436,1480,1502.0,1350,1491.0
13.559547185897827,150,76,0.0017543859649122807,1480,1502.0,1350,1490.0
13.58296513557434,150,82,0.00101010101010101,1480,1502.0,1314.72,1490.0
13.606491088867188,149,82,0.00089126559714795,1480,1502.0,1307.5999999999999,1489.0
13.63004207611084,150,77,0.0015625,1480,1502.0,1296.96,1490.0
13.65368103981018,141,84,0.0078125,1480,1502.0,1264.5599999999999,1481.0
13.677139043807983,148,80,0.001176470588235294,1480,1502.0,1258.1600000000001,1488.0
13.700828075408936,147,83,0.001736111111111111,1480,1502.0,1295.28,1487.0
13.724488019943237,149,76,0.001443001443001443,1480,1502.0,1317.76,1489.0
13.748152017593384,150,81,0.0011904761904761906,1480,1502.0,1311.4400000000001,1490.0
13.772000074386597,150,81,0.0012787723785166241,1480,1502.0,1330.72,1490.0
13.795593023300171,151,83,0.0024509803921568627,1480,1502.0,1329.4400000000001,1491.0
13.819231033325195,154,81,0.001893939393939394,1480,1502.0,1336.0799999999999,1494.0
13.842839002609253,151,84,0.001594896331738437,1480,1502.0,1312.8,1491.0
13.866482019424438,151,84,0.0015151515151515152,1480,1502.0,1313.9200000000001,1491.0
13.890032052993774,152,85,0.001893939393939394,1480,1502.0,1302.8800000000001,1492.0
13.91365098953247,152,80,0.0011111111111111111,1480,1502.0,1317.28,1492.0
13.937199115753174,153,82,0.0013605442176870747,1480,1502.0,1310.72,1493.0
13.960905075073242,153,78,0.0015037593984962407,1480,1502.0,1335.04,1493.0
13.984522104263306,151,87,0.003125,1480,1502.0,1324.0,1491.0
14.008153200149536,153,78,0.0010683760683760685,1480,1502.0,1350,1493.0
14.03179407119751,157,53,0.002551020408163265,1480,1502.0,1350,1497.0
14.055207014083862,154,80,0.0011574074074074073,1480,1502.0,1350,1494.0
14.078657150268555,156,75,0.0021645021645021645,1480,1502.0,1350,1496.0
14.10225510597229,156,78,0.0010449320794148381,1480,1502.0,1350,1496.0
14.125595092773438,155,81,0.0010683760683760685,1480,1502.0,1350,1495.0
14.149007081985474,154,82,0.0012077294685990338,1480,1502.0,1305.4400000000001,1494.0
14.17264199256897,155,81,0.0009861932938856016,1480,1502.0,1302.48,1495.0
14.196134090423584,155,81,0.0015082956259426848,1480,1502.0,1289.76,1495.0
14.220008134841919,155,80,0.0010395010395010396,1480,1502.0,1275.8399999999999,1495.0
14.24387001991272,154,82,0.0013157894736842105,1480,1502.0,1276.0799999999999,1494.0
14.267727136611938,154,80,0.0010121457489878543,1480,1502.0,1320.8,1494.0
14.291504144668579,154,78,0.0009398496240601503,1480,1502.0,1328.8800000000001,1494.0
14.315237998962402,154,77,0.0009074410163339383,1480,1502.0,1344.0,1494.0
14.339145183563232,156,76,0.0008547008547008547,1480,1502.0,1350,1496.0
14.362794160842896,155,78,0.0009746588693957114,1480,1502.0,1350,1495.0
14.38651418685913,155,79,0.0009578544061302681,1480,1502.0,1350,1495.0
14.410441160202026,157,79,0.0020161290322580645,1480,1502.0,1350,1497.0
14.434209108352661,154,75,0.0009615384615384616,1480,1502.0,1350,1494.0
14.458099126815796,154,76,0.0008271298593879239,1480,1502.0,1346.0,1494.0
14.48207712173462,154,79,0.0006747638326585695,1480,1502.0,1335.52,1494.0
14.50583004951477,154,78,0.0008841732979664014,1480,1502.0,1336.8,1494.0
14.52974820137024,152,77,0.00078125,1480,1502.0,1342.24,1492.0
14.553814172744751,153,84,0.0009157509157509158,1480,1502.0,1318.1600000000001,1493.0
14.57791018486023,153,79,0.0005952380952380953,1480,1502.0,1319.8399999999999,1493.0
14.602026224136353,154,75,0.00078125,1480,1502.0,1331.76,1494.0
14.626055002212524,154,77,0.0006775067750677507,1480,1502.0,1329.4400000000001,1494.0
14.64999008178711,153,74,0.0007575757575757576,1480,1502.0,1334.6400000000001,1493.0
14.674106121063232,153,80,0.0008333333333333334,1480,1502.0,1345.4400000000001,1493.0
14.698036193847656,155,79,0.0010256410256410256,1480,1502.0,1350,1495.0
14.721859216690063,155,79,0.0011904761904761906,1480,1502.0,1339.52,1495.0
14.745652198791504,155,78,0.0007267441860465116,1480,1502.0,1337.9200000000001,1495.0
14.769411087036133,156,79,0.0006591957811470006,1480,1502.0,1325.4400000000001,1496.0
14.793179988861084,154,85,0.0006756756756756757,1480,1502.0,1305.5999999999999,1494.0
14.81696605682373,155,81,0.0011086474501108647,1480,1502.0,1307.52,1495.0
14.841150045394897,153,86,0.0005980861244019139,1480,1502.0,1296.8800000000001,1493.0
14.864956140518188,154,84,0.0008620689655172414,1480,1502.0,1292.0,1494.0
14.888707160949707,154,86,0.0006887052341597796,1480,1502.0,1286.3199999999999,1494.0
14.912424087524414,155,83,0.0008613264427217916,1480,1502.0,1299.5999999999999,1495.0
14.936074018478394,156,80,0.0006285355122564425,1480,1502.0,1307.3599999999999,1496.0
14.959915161132812,156,81,0.0005698005698005698,1480,1502.0,1322.8800000000001,1496.0
14.983697175979614,156,79,0.0006684491978609625,1480,1502.0,1340.6400000000001,1496.0
15.00770616531372,158,87,0.0011074197120708748,1480,1502.0,1339.1199999999999,1498.0
15.031706094741821,157,85,0.0008944543828264759,1480,1502.0,1335.9200000000001,1497.0
15.055460214614868,158,85,0.000992063492063492,1480,1502.0,1327.3599999999999,1498.0
15.079169034957886,158,86,0.0009881422924901185,1480,1502.0,1312.1600000000001,1498.0
15.102960109710693,159,86,0.0006684491978609625,1480,1502.0,1295.28,1499.0
15.126791000366211,161,85,0.0008210180623973727,1480,1502.0,1300.72,1501.0
15.15084719657898,161,86,0.0006253908692933083,1482.0,1502.0,1300.8,1501.0
15.174830198287964,163,88,0.0006944444444444445,1493.0,1502.0,1300.8800000000001,1503.0
15.19874906539917,163,83,0.0007751937984496124,1500.0,1502.0,1318.0,1503.0
15.222676038742065,164,83,0.0007680491551459293,1510.0,1502.0,1331.8399999999999,1504.0
15.246504068374634,164,84,0.0008741258741258741,1516.0,1502.0,1329.3599999999999,1504.0
15.270470142364502,165,80,0.0007215007215007215,1520,1502.0,1344.1600000000001,1505.0
15.294203996658325,166,84,0.0007047216349541931,1520,1502.0,1349.2,1506.0
15.317991018295288,166,79,0.000744047619047619,1520,1502.0,1350,1506.0
15.341747999191284,166,83,0.0007501875468867217,1520,1502.0,1348.0,1506.0
15.365594148635864,167,85,0.0007936507936507937,1520,1502.0,1342.8,1507.0
15.389381170272827,166,84,0.0006839945280437756,1520,1502.0,1330.0799999999999,1506.0
15.413187026977539,167,83,0.0008503401360544217,1520,1502.0,1327.28,1507.0
15.437048196792603,167,81,0.0007215007215007215,1520,1502.0,1321.3599999999999,1507.0
15.461178064346313,167,79,0.0006285355122564425,1520,1502.0,1329.52,1507.0
15.485058069229126,166,83,0.0008547008547008547,1520,1502.0,1328.96,1506.0
15.508953094482422,166,78,0.0006172839506172839,1520,1502.0,1349.04,1506.0
15.532763004302979,166,80,0.0008064516129032258,1520,1502.0,1349.5999999999999,1506.0
15.556559085845947,164,78,0.0006684491978609625,1520,1502.0,1350,1504.0
15.580658197402954,166,79,0.0009380863039399625,1520,1502.0,1350,1506.0
15.6043381690979,164,75,0.0006944444444444445,1520,1502.0,1350,1504.0
15.628157138824463,163,81,0.0006944444444444445,1520,1502.0,1346.3199999999999,1503.0
15.652097225189209,161,78,0.0008051529790660225,1520,1502.0,1348.72,1501.0
15.67586898803711,162,79,0.0007936507936507937,1520,1502.0,1342.0,1502.0
15.699887037277222,161,78,0.0007012622720897616,1520,1502.0,1344.6400000000001,1501.0
15.72366213798523,163,83,0.0006349206349206349,1520,1502.0,1316.24,1503.0
15.747404098510742,163,80,0.0008333333333333334,1520,1502.0,1325.3599999999999,1503.0
15.77134108543396,163,78,0.0008944543828264759,1520,1502.0,1325.04,1503.0
15.795230150222778,162,80,0.0008305647840531562,1520,1502.0,1322.5599999999999,1502.0
15.81908106803894,162,79,0.0009380863039399625,1520,1502.0,1320.96,1502.0
15.842807054519653,161,81,0.0007246376811594203,1520,1502.0,1332.3199999999999,1501.0
15.86681604385376,161,77,0.0006119951040391676,1520,1502.0,1340.0799999999999,1501.0
15.890945196151733,159,81,0.0007246376811594203,1515.0,1502.0,1330.96,1499.0
15.914910078048706,159,80,0.0007936507936507937,1512.0,1502.0,1333.52,1499.0
15.938796997070312,160,79,0.0008210180623973727,1513.0,1502.0,1336.0799999999999,1500.0
15.962792158126831,159,79,0.0008741258741258741,1507.0,1502.0,1336.24,1499.0
15.986680030822754,160,82,0.0008620689655172414,1506.0,1502.0,1321.3599999999999,1500.0
16.01097822189331,158,82,0.0008613264427217916,1497.0,1502.0,1324.0,1498.0
16.034833192825317,157,83,0.0008305647840531562,1490.0,1502.0,1318.48,1497.0
16.058592081069946,157,82,0.0008503401360544217,1485.0,1502.0,1315.3599999999999,1497.0
16.08258605003357,157,83,0.0009380863039399625,1481.0,1502.0,1305.6800000000001,1497.0
16.106348991394043,154,84,0.0008547008547008547,1480,1502.0,1308.4000000000001,1494.0
16.130219221115112,155,85,0.0008305647840531562,1480,1502.0,1304.24,1495.0
16.154072999954224,154,82,0.0006839945280437756,1480,1502.0,1313.3599999999999,1494.0
16.178107023239136,154,86,0.0008305647840531562,1480,1502.0,1306.8800000000001,1494.0
16.202149152755737,151,85,0.0007092198581560284,1480,1502.0,1310.6400000000001,1491.0
16.226044178009033,152,86,0.0008944543828264759,1480,1502.0,1309.28,1492.0
16.249813079833984,152,87,0.000975609756097561,1480,1502.0,1309.28,1492.0
16.273579120635986,151,88,0.0008210180623973727,1480,1502.0,1298.0799999999999,1491.0
16.297344207763672,150,88,0.0008417508417508417,1480,1502.0,1300.6400000000001,1490.0
16.321367025375366,149,93,0.0013550135501355014,1480,1502.0,1285.8399999999999,1489.0
16.34514617919922,150,88,0.0008944543828264759,1480,1502.0,1291.6800000000001,1490.0
16.369027137756348,149,92,0.0008613264427217916,1480,1502.0,1282.4000000000001,1489.0
16.39295721054077,151,96,0.0023923444976076554,1480,1502.0,1274.24,1491.0
16.416738033294678,148,90,0.0020833333333333333,1480,1502.0,1281.28,1488.0
16.44073510169983,149,94,0.0015873015873015873,1480,1502.0,1285.9200000000001,1489.0
16.464479207992554,149,92,0.0014705882352941176,1480,1502.0,1285.28,1489.0
16.488237142562866,151,78,0.002380952380952381,1480,1502.0,1329.04,1491.0
16.512071132659912,150,90,0.0014005602240896359,1480,1502.0,1334.1600000000001,1490.0
16.535821199417114,151,86,0.0015625,1480,1502.0,1347.4400000000001,1491.0
16.55956506729126,149,88,0.0021929824561403508,1480,1502.0,1350,1489.0
16.583229064941406,153,87,0.0011441647597254005,1480,1502.0,1350,1493.0
16.607023000717163,154,80,0.0011904761904761906,1480,1502.0,1350,1494.0
16.631039142608643,159,86,0.001984126984126984,1480,1502.0,1345.76,1499.0
16.654816150665283,153,87,0.00125,1480,1502.0,1337.6800000000001,1493.0
16.67888116836548,155,84,0.0010582010582010583,1480,1502.0,1338.8800000000001,1495.0
16.702986001968384,156,77,0.0017889087656529517,1480,1502.0,1350,1496.0
16.72672414779663,163,86,0.002028397565922921,1480,1502.0,1338.1600000000001,1503.0
16.75074601173401,160,81,0.0024630541871921183,1480,1502.0,1345.9200000000001,1500.0
16.774495124816895,165,76,0.003134796238244514,1480,1502.0,1350,1505.0
16.79831314086914,150,76,0.007142857142857143,1480,1502.0,1350,1490.0
16.82225012779236,155,82,0.0015625,1480,1502.0,1347.2,1495.0
16.845977067947388,167,81,0.003205128205128205,1497.0,1502.0,1350,1507.0
16.869737148284912,158,85,0.002136752136752137,1480,1502.0,1346.4000000000001,1498.0
16.893649101257324,154,85,0.002777777777777778,1480,1502.0,1318.48,1494.0
16.91757607460022,156,76,0.00267379679144385,1480,1502.0,1318.4000000000001,1496.0
16.941533088684082,164,70,0.004032258064516129,1500.0,1502.0,1349.6800000000001,1504.0
16.965375185012817,158,80,0.0011627906976744186,1483.0,1502.0,1332.3199999999999,1498.0
16.98918604850769,156,73,0.0019723865877712033,1480,1502.0,1350,1496.0
17.012953996658325,158,76,0.004464285714285714,1480,1502.0,1350,1498.0
17.036306142807007,156,74,0.00125,1480,1502.0,1350,1496.0
17.06004500389099,160,71,0.002840909090909091,1487.0,1502.0,1350,1500.0
17.083739042282104,163,87,0.00980392156862745,1489.0,1502.0,1345.52,1503.0
17.107949018478394,159,75,0.0029069767441860465,1482.0,1502.0,1340.72,1499.0
17.131969213485718,165,71,0.002232142857142857,1505.0,1502.0,1340.48,1505.0
17.155874013900757,156,74,0.003472222222222222,1487.0,1502.0,1334.1600000000001,1496.0
17.179758071899414,165,84,0.008064516129032258,1506.0,1502.0,1304.8,1505.0
17.203655004501343,160,75,0.0027100271002710027,1498.0,1502.0,1342.4000000000001,1500.0
17.22763705253601,166,77,0.005050505050505051,1520.0,1502.0,1339.8399999999999,1506.0
17.251631021499634,158,89,0.003401360544217687,1504.0,1502.0,1292.72,1498.0
17.275548219680786,149,84,0.002976190476190476,1480,1502.0,1284.3199999999999,1489.0
17.299386024475098,151,78,0.0038461538461538464,1480,1502.0,1317.8399999999999,1491.0
17.323134183883667,170,75,0.0044444444444444444,1519.0,1502.0,1305.1199999999999,1510.0
17.346886157989502,156,87,0.003968253968253968,1488.0,1502.0,1279.04,1496.0
17.37094807624817,161,79,0.003703703703703704,1494.0,1502.0,1327.52,1501.0
17.39475917816162,168,80,0.002688172043010753,1520.0,1502.0,1345.6800000000001,1508.0
17.418668031692505,155,88,0.006211180124223602,1484.0,1502.0,1313.52,1495.0
17.44262409210205,170,81,0.0029585798816568047,1520,1502.0,1313.28,1510.0
17.466378211975098,177,74,0.011904761904761904,1520,1502.0,1350,1517.0
17.490377187728882,151,89,0.005208333333333333,1490.0,1502.0,1308.0,1491.0
17.514357089996338,151,84,0.004830917874396135,1492.0,1502.0,1302.8,1491.0
17.538341999053955,160,81,0.0012626262626262627,1519.0,1502.0,1330.0799999999999,1500.0
17.562434196472168,168,80,0.006802721088435374,1520,1502.0,1340.8800000000001,1508.0
17.58624505996704,166,80,0.002457002457002457,1520,1502.0,1314.5599999999999,1506.0
17.610096216201782,170,82,0.0034965034965034965,1520,1502.0,1335.8399999999999,1510.0
17.633965015411377,172,75,0.0044444444444444444,1520,1502.0,1350,1512.0
17.657917022705078,163,84,0.0043859649122807015,1520,1502.0,1338.0,1503.0
17.681955099105835,148,88,0.00980392156862745,1502.0,1502.0,1320.3199999999999,1488.0
17.70586109161377,171,94,0.006944444444444444,1520,1502.0,1301.1199999999999,1511.0
17.72960615158081,168,80,0.0034482758620689655,1520,1502.0,1311.28,1508.0
17.753379106521606,168,82,0.007692307692307693,1520,1502.0,1286.5599999999999,1508.0
17.777175188064575,170,79,0.009523809523809525,1520,1502.0,1301.4400000000001,1510.0
17.801358222961426,159,82,0.001876172607879925,1520,1502.0,1317.3599999999999,1499.0
17.82518219947815,160,85,0.001388888888888889,1520,1502.0,1345.76,1500.0
