time,x,y,size_inv,roll,pitch,thrust,yaw
0.0006268024444580078,222,46,0.004048582995951417,1513.02,1502.0,1350,1500.0
0.02258586883544922,222,46,0.004166666666666667,1513.6400000000001,1502.0,1350,1500.0
0.044423818588256836,222,46,0.004166666666666667,1514.26,1502.0,1350,1500.0
0.06614184379577637,222,46,0.004048582995951417,1514.8800000000001,1502.0,1350,1500.0
0.08789491653442383,222,46,0.0043859649122807015,1515.5,1502.0,1350,1500.0
0.1095418930053711,222,46,0.004166666666666667,1516.1199999999999,1502.0,1350,1500.0
0.1311190128326416,222,46,0.004048582995951417,1516.74,1502.0,1350,1500.0
0.15276193618774414,222,46,0.0043859649122807015,1517.3599999999999,1502.0,1350,1500.0
0.17439579963684082,222,46,0.0043859649122807015,1517.98,1502.0,1350,1500.0
0.19608783721923828,222,46,0.004166666666666667,1518.5999999999999,1502.0,1350,1500.0
0.21791982650756836,222,46,0.004048582995951417,1518.5999999999999,1502.0,1350,1500.0
0.24020886421203613,222,46,0.004166666666666667,1518.5999999999999,1502.0,1350,1500.0
0.2620108127593994,222,46,0.004166666666666667,1518.5999999999999,1502.0,1350,1500.0
0.28375983238220215,222,45,0.0043859649122807015,1518.5999999999999,1502.0,1350,1500.0
0.3055129051208496,221,45,0.004166666666666667,1517.1900000000001,1502.0,1350,1500.0
0.3272697925567627,221,45,0.003663003663003663,1515.98,1502.0,1350,1500.0
0.34902000427246094,220,43,0.004166666666666667,1513.3599999999999,1502.0,1350,1500.0
0.3707869052886963,220,42,0.0043859649122807015,1510.9400000000001,1502.0,1350,1500.0
0.3925487995147705,220,42,0.004784688995215311,1508.52,1502.0,1350,1500.0
0.41431093215942383,220,41,0.0043859649122807015,1508.5,1502.0,1350,1500.0
0.43607187271118164,219,42,0.004166666666666667,1507.0699999999999,1502.0,1350,1500.0
0.45783281326293945,218,45,0.004784688995215311,1506.8299999999999,1502.0,1350,1500.0
0.4795989990234375,217,46,0.004166666666666667,1505.3800000000001,1502.0,1350,1500.0
0.5013890266418457,217,48,0.004784688995215311,1504.1300000000001,1502.0,1350,1500.0
0.5231950283050537,217,49,0.004545454545454545,1501.6900000000001,1502.0,1350,1500.0
0.5449519157409668,217,49,0.004545454545454545,1501.6500000000001,1502.0,1345.52,1500.0
0.5667378902435303,217,51,0.004545454545454545,1502.8199999999999,1502.0,1337.2,1500.0
0.588519811630249,217,52,0.004545454545454545,1506.3900000000001,1502.0,1332.8,1500.0
0.6103389263153076,218,53,0.004784688995215311,1511.3699999999999,1502.0,1332.5599999999999,1500.0
0.632159948348999,218,53,0.0043859649122807015,1516.1500000000001,1502.0,1337.6800000000001,1500.0
0.6539909839630127,217,54,0.004166666666666667,1518.3299999999999,1502.0,1338.8,1500.0
0.6758389472961426,218,55,0.003968253968253968,1520,1502.0,1340.0,1500.0
0.6975820064544678,217,56,0.0043859649122807015,1520,1502.0,1341.2,1500.0
0.7193279266357422,217,58,0.004784688995215311,1518.3299999999999,1502.0,1338.4000000000001,1500.0
0.741135835647583,216,59,0.004545454545454545,1514.52,1502.0,1334.0,1500.0
0.7629959583282471,216,59,0.004545454545454545,1513.3099999999999,1502.0,1333.5999999999999,1500.0
0.7847700119018555,216,60,0.0043859649122807015,1509.7,1502.0,1330.6400000000001,1500.0
0.8065648078918457,214,63,0.004166666666666667,1505.6700000000001,1502.0,1322.4000000000001,1500.0
0.8283560276031494,215,64,0.003968253968253968,1504.6400000000001,1502.0,1319.3599999999999,1500.0
0.8501558303833008,214,65,0.003787878787878788,1504.4000000000001,1502.0,1317.6800000000001,1500.0
0.8719408512115479,214,65,0.003787878787878788,1503.1700000000001,1502.0,1315.8399999999999,1500.0
0.8937199115753174,212,67,0.0038461538461538464,1500.3099999999999,1502.0,1310.1600000000001,1500.0
0.9154889583587646,213,68,0.0034965034965034965,1502.8699999999999,1502.0,1311.28,1500.0
0.9372768402099609,213,69,0.003968253968253968,1502.8299999999999,1502.0,1311.04,1500.0
0.9590678215026855,213,70,0.003968253968253968,1504.0,1502.0,1310.8,1500.0
0.980849027633667,212,72,0.003968253968253968,1503.76,1502.0,1306.48,1500.0
1.0027198791503906,212,73,0.003968253968253968,1508.52,1502.0,1306.1600000000001,1500.0
1.0247588157653809,212,73,0.003968253968253968,1508.5,1502.0,1305.76,1500.0
1.0465669631958008,210,76,0.003787878787878788,1506.8499999999999,1502.0,1298.8800000000001,1500.0
1.0683579444885254,210,77,0.003968253968253968,1504.4100000000001,1502.0,1294.4000000000001,1500.0
1.0901498794555664,209,78,0.003968253968253968,1502.96,1502.0,1294.0799999999999,1500.0
1.1119418144226074,208,79,0.003787878787878788,1497.9200000000001,1502.0,1292.4000000000001,1500.0
1.1337378025054932,208,80,0.003663003663003663,1494.27,1502.0,1287.9200000000001,1500.0
1.1555168628692627,205,82,0.004048582995951417,1491.1900000000001,1502.0,1286.4000000000001,1500.0
1.1772918701171875,206,83,0.003663003663003663,1490.1199999999999,1502.0,1286.0799999999999,1500.0
1.199084997177124,204,84,0.0034965034965034965,1487.24,1502.0,1284.4000000000001,1500.0
1.220897912979126,203,85,0.0034965034965034965,1485.75,1502.0,1282.72,1500.0
1.2427489757537842,203,85,0.0034965034965034965,1484.46,1502.0,1285.04,1500.0
1.2645378112792969,201,87,0.0034965034965034965,1485.1700000000001,1502.0,1283.5999999999999,1500.0
1.2863199710845947,201,88,0.003663003663003663,1483.8800000000001,1502.0,1283.3599999999999,1500.0
1.3081259727478027,200,89,0.0034965034965034965,1484.79,1502.0,1283.1199999999999,1500.0
1.3299360275268555,199,90,0.0034965034965034965,1485.7,1502.0,1282.8800000000001,1500.0
1.351733922958374,199,90,0.0034965034965034965,1486.8099999999999,1502.0,1282.48,1500.0
1.373534917831421,197,91,0.003246753246753247,1486.3299999999999,1502.0,1282.3199999999999,1500.0
1.3958399295806885,196,92,0.0034965034965034965,1486.03,1502.0,1282.1600000000001,1500.0
1.4180078506469727,195,93,0.0034965034965034965,1484.54,1502.0,1282.0,1500.0
1.4401438236236572,194,93,0.003246753246753247,1483.05,1502.0,1284.48,1500.0
1.4622559547424316,193,93,0.003105590062111801,1480.3499999999999,1502.0,1286.96,1500.0
1.4843618869781494,191,94,0.003105590062111801,1480,1502.0,1286.8800000000001,1500.0
1.5064330101013184,190,95,0.0034965034965034965,1480,1502.0,1286.8,1500.0
1.5285308361053467,189,95,0.003246753246753247,1480,1502.0,1289.3599999999999,1500.0
1.5506370067596436,189,95,0.003105590062111801,1480,1502.0,1290.5599999999999,1500.0
1.572718858718872,189,95,0.003105590062111801,1480,1502.0,1291.76,1500.0
1.5952539443969727,187,96,0.002898550724637681,1480,1502.0,1291.76,1500.0
1.6190237998962402,186,96,0.003105590062111801,1480.6300000000001,1502.0,1294.4000000000001,1500.0
1.6428627967834473,185,96,0.003105590062111801,1482.73,1502.0,1295.6800000000001,1500.0
1.6667349338531494,184,96,0.003105590062111801,1482.4300000000001,1502.0,1296.96,1500.0
1.690565824508667,181,96,0.002976190476190476,1480,1502.0,1298.24,1500.0
1.7144198417663574,180,96,0.002976190476190476,1480,1502.0,1300.96,1500.0
1.7381508350372314,179,96,0.002976190476190476,1480,1502.0,1302.3199999999999,1500.0
1.761927843093872,178,96,0.002976190476190476,1480,1502.0,1303.6800000000001,1500.0
1.7857170104980469,178,96,0.002976190476190476,1480,1502.0,1305.04,1500.0
1.8094489574432373,177,96,0.002898550724637681,1480,1502.0,1306.4000000000001,1500.0
1.833184003829956,175,96,0.002777777777777778,1480,1502.0,1306.4000000000001,1500.0
1.8569118976593018,175,95,0.003105590062111801,1480,1502.0,1309.04,1500.0
1.8806300163269043,173,95,0.002777777777777778,1480,1502.0,1310.48,1500.0
1.904526948928833,172,94,0.003105590062111801,1480,1502.0,1314.5599999999999,1500.0
1.9282538890838623,171,94,0.002777777777777778,1480,1502.0,1317.4400000000001,1500.0
1.9519999027252197,171,94,0.002898550724637681,1480,1502.0,1320.3199999999999,1500.0
1.9758119583129883,171,94,0.002898550724637681,1480,1502.0,1320.4000000000001,1500.0
1.999513864517212,168,93,0.002898550724637681,1480,1502.0,1323.1199999999999,1500.0
2.02327299118042,167,92,0.002777777777777778,1480,1502.0,1324.48,1500.0
2.0469930171966553,167,92,0.002777777777777778,1480,1502.0,1324.6400000000001,1500.0
2.0706899166107178,166,91,0.002898550724637681,1480,1502.0,1327.4400000000001,1500.0
2.0940229892730713,165,90,0.002777777777777778,1480,1502.0,1333.04,1500.0
2.117569923400879,165,89,0.002898550724637681,1480,1502.0,1337.28,1500.0
2.1407949924468994,165,89,0.002898550724637681,1480,1502.0,1338.8800000000001,1500.0
2.1640968322753906,163,88,0.002777777777777778,1480,1502.0,1343.1199999999999,1500.0
2.187276840209961,162,87,0.002898550724637681,1480,1502.0,1346.0,1500.0
2.210430860519409,162,87,0.002898550724637681,1481.7,1502.0,1344.8800000000001,1500.0
2.233672857284546,161,86,0.002777777777777778,1480.23,1502.0,1344.96,1500.0
2.2568747997283936,160,85,0.0026041666666666665,1480,1502.0,1347.8399999999999,1500.0
2.2800400257110596,159,85,0.002777777777777778,1480,1502.0,1346.72,1500.0
2.3032138347625732,159,84,0.002777777777777778,1480,1502.0,1346.8,1500.0
2.3263800144195557,159,84,0.002777777777777778,1480,1502.0,1347.04,1500.0
2.3495099544525146,157,83,0.002777777777777778,1480,1502.0,1348.48,1500.0
2.372653007507324,157,82,0.002777777777777778,1480,1502.0,1348.5599999999999,1500.0
2.395817995071411,157,82,0.002777777777777778,1481.3299999999999,1502.0,1348.8,1500.0
2.419055938720703,156,81,0.002777777777777778,1481.0699999999999,1502.0,1350,1500.0
2.442211866378784,156,80,0.002976190476190476,1481.01,1502.0,1350,1500.0
2.4653849601745605,155,80,0.002777777777777778,1483.1500000000001,1502.0,1350,1500.0
2.4885659217834473,155,80,0.002777777777777778,1484.3,1502.0,1350,1500.0
2.5118308067321777,155,80,0.002777777777777778,1484.26,1502.0,1350,1500.0
2.5350708961486816,154,79,0.002777777777777778,1485.21,1502.0,1350,1500.0
2.558255910873413,153,78,0.0026041666666666665,1484.95,1502.0,1349.5999999999999,1500.0
2.581624984741211,154,78,0.0026666666666666666,1486.3199999999999,1502.0,1348.4000000000001,1500.0
2.6050829887390137,154,78,0.0026666666666666666,1487.49,1502.0,1348.5599999999999,1500.0
2.628345012664795,153,76,0.0026041666666666665,1487.25,1502.0,1350,1500.0
2.651566982269287,154,76,0.0025,1489.8299999999999,1502.0,1350,1500.0
2.674870014190674,154,76,0.0025,1494.6099999999999,1502.0,1350,1500.0
2.698065996170044,153,76,0.002717391304347826,1494.3900000000001,1502.0,1350,1500.0
2.7212929725646973,153,76,0.002403846153846154,1494.3699999999999,1502.0,1350,1500.0
2.7445268630981445,152,76,0.0026041666666666665,1495.3399999999999,1502.0,1350,1500.0
2.7677018642425537,152,76,0.0026041666666666665,1492.9200000000001,1502.0,1346.5599999999999,1500.0
2.7909610271453857,152,76,0.0026041666666666665,1489.3099999999999,1502.0,1343.8399999999999,1500.0
2.8143699169158936,152,76,0.0026041666666666665,1489.29,1502.0,1341.1199999999999,1500.0
2.8376519680023193,152,77,0.002898550724637681,1489.27,1502.0,1335.76,1500.0
2.8609189987182617,152,77,0.0026666666666666666,1490.46,1502.0,1334.3199999999999,1500.0
2.8843188285827637,153,77,0.0025,1494.25,1502.0,1332.8800000000001,1500.0
2.9075570106506348,153,77,0.0025,1497.8399999999999,1502.0,1331.4400000000001,1500.0
2.9308218955993652,153,77,0.0025,1500.24,1502.0,1330.0,1500.0
2.954152822494507,153,77,0.0025,1502.6400000000001,1502.0,1331.3599999999999,1500.0
2.9773948192596436,153,77,0.002403846153846154,1503.8499999999999,1502.0,1332.72,1500.0
3.000659942626953,153,77,0.0025,1502.6600000000001,1502.0,1334.0799999999999,1500.0
3.024035930633545,153,77,0.0025,1501.47,1502.0,1335.4400000000001,1500.0
3.0472629070281982,153,77,0.002403846153846154,1500.28,1502.0,1336.8,1500.0
3.070511817932129,153,77,0.002403846153846154,1499.0899999999999,1502.0,1336.8,1500.0
3.0937819480895996,153,78,0.002564102564102564,1497.9000000000001,1502.0,1334.1600000000001,1500.0
3.1170639991760254,153,78,0.002403846153846154,1497.9000000000001,1502.0,1332.72,1500.0
3.1403048038482666,153,78,0.002403846153846154,1497.9000000000001,1502.0,1331.28,1500.0
3.163547992706299,154,79,0.002564102564102564,1499.3099999999999,1502.0,1327.2,1500.0
3.186776876449585,154,79,0.002403846153846154,1500.52,1502.0,1324.3199999999999,1500.0
3.21004581451416,154,79,0.002403846153846154,1501.73,1502.0,1324.24,1500.0
3.2332708835601807,155,80,0.002403846153846154,1504.3499999999999,1502.0,1321.52,1500.0
3.2567999362945557,155,80,0.002403846153846154,1506.77,1502.0,1320.0,1500.0
3.2800638675689697,155,80,0.002403846153846154,1506.79,1502.0,1321.28,1500.0
3.3033158779144287,156,81,0.002403846153846154,1508.22,1502.0,1319.9200000000001,1500.0
3.3265559673309326,156,81,0.002403846153846154,1509.45,1502.0,1318.4000000000001,1500.0
3.3498058319091797,156,81,0.002403846153846154,1508.28,1502.0,1319.6800000000001,1500.0
3.3730788230895996,156,81,0.002403846153846154,1507.1099999999999,1502.0,1320.96,1500.0
3.396315813064575,157,82,0.0023148148148148147,1508.54,1502.0,1318.24,1500.0
3.4195728302001953,157,82,0.002403846153846154,1507.3699999999999,1502.0,1319.52,1500.0
3.4428160190582275,158,83,0.0023148148148148147,1507.6099999999999,1502.0,1318.1600000000001,1500.0
3.4660558700561523,158,83,0.0023148148148148147,1508.8399999999999,1502.0,1316.6400000000001,1500.0
3.489301919937134,158,83,0.002178649237472767,1510.0699999999999,1502.0,1315.1199999999999,1500.0
3.512568950653076,158,83,0.002178649237472767,1508.9000000000001,1502.0,1316.4000000000001,1500.0
3.5358309745788574,159,82,0.0023148148148148147,1510.3299999999999,1502.0,1318.96,1500.0
3.55918288230896,159,83,0.002178649237472767,1509.1600000000001,1502.0,1320.48,1500.0
3.582645893096924,159,83,0.0021008403361344537,1507.99,1502.0,1323.2,1500.0
3.6059658527374268,160,83,0.0023148148148148147,1508.23,1502.0,1325.9200000000001,1500.0
3.6292219161987305,160,83,0.002232142857142857,1509.46,1502.0,1327.28,1500.0
3.6525018215179443,160,84,0.0021008403361344537,1508.29,1502.0,1323.2,1500.0
3.67579984664917,160,84,0.0021008403361344537,1508.3099999999999,1502.0,1321.76,1500.0
3.6990599632263184,161,84,0.002178649237472767,1509.74,1502.0,1320.3199999999999,1500.0
3.722334861755371,161,84,0.0021008403361344537,1508.5699999999999,1502.0,1318.8800000000001,1500.0
3.7455899715423584,161,84,0.0021008403361344537,1507.4000000000001,1502.0,1317.4400000000001,1500.0
3.7688539028167725,162,84,0.0021008403361344537,1508.8299999999999,1502.0,1320.1600000000001,1500.0
3.7921478748321533,162,83,0.0023148148148148147,1510.0599999999999,1502.0,1324.1600000000001,1500.0
3.8154819011688232,162,83,0.0023148148148148147,1508.8900000000001,1502.0,1326.96,1500.0
3.838732957839966,162,83,0.0021008403361344537,1508.9100000000001,1502.0,1329.76,1500.0
3.8620588779449463,162,83,0.0021008403361344537,1508.9300000000001,1502.0,1332.5599999999999,1500.0
3.8854010105133057,162,83,0.0021008403361344537,1506.55,1502.0,1334.0,1500.0
3.908639907836914,163,83,0.0021008403361344537,1505.5799999999999,1502.0,1332.6400000000001,1500.0
3.931933879852295,163,83,0.002178649237472767,1505.5999999999999,1502.0,1331.28,1500.0
3.955260992050171,163,83,0.0021008403361344537,1505.6199999999999,1502.0,1329.9200000000001,1500.0
3.97849702835083,164,83,0.0021008403361344537,1507.05,1502.0,1328.5599999999999,1500.0
4.001797914505005,164,83,0.0021008403361344537,1509.47,1502.0,1327.2,1500.0
4.025104999542236,165,82,0.002028397565922921,1510.9000000000001,1502.0,1329.8399999999999,1500.0
4.048344850540161,165,82,0.002028397565922921,1512.1300000000001,1502.0,1331.28,1500.0
4.0716400146484375,165,82,0.002028397565922921,1513.3599999999999,1502.0,1332.72,1500.0
4.094956874847412,164,82,0.002178649237472767,1510.78,1502.0,1334.1600000000001,1500.0
4.118238925933838,165,82,0.00196078431372549,1509.8099999999999,1502.0,1335.5999999999999,1500.0
4.141551971435547,165,82,0.00196078431372549,1507.4300000000001,1502.0,1334.24,1500.0
4.164872884750366,165,82,0.00196078431372549,1505.05,1502.0,1332.8800000000001,1500.0
4.188124895095825,165,82,0.00196078431372549,1502.6700000000001,1502.0,1331.52,1500.0
4.211423873901367,165,82,0.00196078431372549,1503.8800000000001,1502.0,1330.1600000000001,1500.0
4.234742879867554,165,81,0.001851851851851852,1502.6900000000001,1502.0,1331.4400000000001,1500.0
4.2580108642578125,166,81,0.0019157088122605363,1504.0999999999999,1502.0,1332.8800000000001,1500.0
4.2813708782196045,165,81,0.00196078431372549,1503.9000000000001,1502.0,1334.3199999999999,1500.0
4.305084943771362,165,80,0.001851851851851852,1503.9000000000001,1502.0,1338.4000000000001,1500.0
4.328383922576904,166,80,0.0017921146953405018,1504.1199999999999,1502.0,1341.28,1500.0
4.351704835891724,166,80,0.0017921146953405018,1505.3299999999999,1502.0,1341.3599999999999,1500.0
4.375047922134399,166,81,0.0018975332068311196,1504.1400000000001,1502.0,1338.8,1500.0
4.3983519077301025,166,81,0.001851851851851852,1505.3499999999999,1502.0,1337.4400000000001,1500.0
4.421717882156372,166,81,0.001851851851851852,1506.5599999999999,1502.0,1333.28,1500.0
4.445055961608887,166,81,0.0017921146953405018,1505.3699999999999,1502.0,1329.1199999999999,1500.0
