time,x,y,size_inv,roll,pitch,thrust,yaw
0.00041794776916503906,142,63,0.01098901098901099,1480,1494.0,1337.0,1482.0
0.022233009338378906,142,63,0.01098901098901099,1480,1494.0,1337.0,1482.0
0.04380488395690918,143,63,0.014285714285714285,1480,1494.0,1337.0,1483.0
0.06525182723999023,142,63,0.01098901098901099,1480,1494.0,1337.0,1482.0
0.08670496940612793,143,63,0.014285714285714285,1480,1494.0,1337.0,1483.0
0.10815787315368652,144,63,0.011363636363636364,1480,1494.0,1337.0,1484.0
0.12957382202148438,142,63,0.01020408163265306,1480,1494.0,1337.0,1482.0
0.15108489990234375,142,63,0.01098901098901099,1480,1494.0,1337.0,1482.0
0.17275381088256836,143,63,0.014285714285714285,1480,1494.0,1337.0,1483.0
0.19430279731750488,142,63,0.01098901098901099,1480,1494.0,1337.0,1482.0
0.21598386764526367,142,63,0.01098901098901099,1480,1494.0,1337.0,1482.0
0.23783493041992188,142,63,0.01098901098901099,1480,1494.0,1337.0,1482.0
0.259660005569458,142,63,0.009615384615384616,1480,1494.0,1337.0,1482.0
0.28148388862609863,142,64,0.01020408163265306,1480,1494.0,1335.7,1482.0
0.3034238815307617,145,66,0.012987012987012988,1480,1494.0,1332.8,1485.0
0.32529282569885254,144,67,0.01020408163265306,1480,1494.0,1330.5999999999999,1484.0
0.3471188545227051,145,68,0.008928571428571428,1480,1494.0,1328.0999999999999,1485.0
0.36895298957824707,147,70,0.01098901098901099,1480,1494.0,1324.0,1487.0
0.3907749652862549,150,70,0.012987012987012988,1480,1494.0,1322.5,1490.0
0.41260290145874023,152,69,0.010416666666666666,1480,1494.0,1323.5,1492.0
0.4344749450683594,155,68,0.011363636363636364,1480,1494.0,1325.4000000000001,1495.0
0.456312894821167,156,67,0.014285714285714285,1480,1494.0,1328.2,1496.0
0.4781348705291748,157,66,0.008928571428571428,1480,1494.0,1332.5,1497.0
0.4999828338623047,159,66,0.01098901098901099,1480,1494.0,1335.5,1499.0
0.5217998027801514,161,66,0.009615384615384616,1480,1494.0,1337.3,1501.0
0.5436968803405762,162,67,0.01020408163265306,1480,1494.0,1336.9000000000001,1502.0
0.5655338764190674,165,67,0.0125,1480,1494.0,1336.5999999999999,1505.0
0.5873749256134033,167,68,0.0125,1498.0,1494.0,1333.8,1507.0
0.6092638969421387,169,68,0.0125,1520,1494.0,1332.0,1509.0
0.6310629844665527,169,69,0.008928571428571428,1520,1494.0,1329.2,1509.0
0.6528909206390381,171,72,0.01020408163265306,1520,1494.0,1324.4000000000001,1511.0
0.6747407913208008,173,73,0.014285714285714285,1520,1494.0,1321.5999999999999,1513.0
0.6965599060058594,174,74,0.011363636363636364,1520,1494.0,1319.4000000000001,1514.0
0.7183959484100342,172,74,0.008928571428571428,1520,1494.0,1318.2,1512.0
0.7402708530426025,173,75,0.0125,1520,1494.0,1316.3,1513.0
0.7622058391571045,173,75,0.011363636363636364,1520,1494.0,1316.9000000000001,1513.0
0.7841529846191406,172,75,0.0125,1520,1494.0,1318.0999999999999,1512.0
0.8059768676757812,172,75,0.011363636363636364,1520,1494.0,1319.5999999999999,1512.0
0.8278048038482666,171,75,0.0125,1520,1494.0,1321.0999999999999,1511.0
0.8496558666229248,169,76,0.01020408163265306,1520,1494.0,1321.5999999999999,1509.0
0.8715019226074219,170,76,0.0125,1520,1494.0,1322.2,1510.0
0.8934078216552734,169,77,0.0125,1520,1494.0,1321.2,1509.0
0.9152238368988037,167,78,0.008928571428571428,1520,1494.0,1319.5999999999999,1507.0
0.9370348453521729,166,80,0.01020408163265306,1520,1494.0,1316.4000000000001,1506.0
0.9588699340820312,167,81,0.014285714285714285,1520,1494.0,1314.2,1507.0
0.9806938171386719,166,82,0.014285714285714285,1520,1494.0,1311.7,1506.0
1.0025458335876465,165,83,0.0125,1520,1494.0,1309.5,1505.0
1.0243878364562988,163,83,0.008928571428571428,1520,1494.0,1308.9000000000001,1503.0
1.0462079048156738,164,84,0.014285714285714285,1520,1494.0,1308.2,1504.0
1.0680480003356934,162,84,0.008928571428571428,1520,1494.0,1308.8,1502.0
1.0898988246917725,163,84,0.0125,1520,1494.0,1310.0,1503.0
1.1116979122161865,163,85,0.014285714285714285,1520,1494.0,1310.2,1503.0
1.1336100101470947,161,85,0.008928571428571428,1520,1494.0,1311.0999999999999,1501.0
1.1554298400878906,161,86,0.008928571428571428,1520,1494.0,1310.7,1501.0
1.1774768829345703,162,86,0.0125,1520,1494.0,1311.0,1502.0
1.1993157863616943,160,87,0.008928571428571428,1520,1494.0,1309.7,1500.0
1.221174955368042,160,88,0.01020408163265306,1519.0,1494.0,1308.4000000000001,1500.0
1.243060827255249,161,88,0.0125,1519.0,1494.0,1308.0999999999999,1501.0
1.2649250030517578,161,89,0.0125,1516.0,1494.0,1306.8,1501.0
1.286794900894165,161,89,0.0125,1515.0,1494.0,1306.5,1501.0
1.308656930923462,161,90,0.0125,1513.0,1494.0,1305.5,1501.0
1.3304948806762695,159,91,0.008928571428571428,1505.0,1494.0,1304.5,1499.0
1.3524169921875,159,91,0.008928571428571428,1503.0,1494.0,1304.5,1499.0
1.374281883239746,160,92,0.0125,1504.0,1494.0,1303.5,1500.0
1.3961169719696045,160,93,0.0125,1502.0,1494.0,1302.2,1500.0
1.4179949760437012,159,93,0.008928571428571428,1499.0,1494.0,1302.2,1499.0
1.4398698806762695,159,93,0.008928571428571428,1498.0,1494.0,1302.5,1499.0
1.4617369174957275,160,94,0.0125,1499.0,1494.0,1301.5,1500.0
1.4837868213653564,159,94,0.008928571428571428,1495.0,1494.0,1301.8,1499.0
1.5057928562164307,158,95,0.008928571428571428,1490.0,1494.0,1301.4000000000001,1498.0
1.5278279781341553,160,95,0.011363636363636364,1493.0,1494.0,1301.7,1500.0
1.5498578548431396,158,96,0.008928571428571428,1488.0,1494.0,1300.4000000000001,1498.0
1.5719869136810303,158,96,0.008928571428571428,1487.0,1494.0,1300.7,1498.0
1.594085931777954,158,96,0.008928571428571428,1485.0,1494.0,1300.7,1498.0
1.6160898208618164,158,97,0.01020408163265306,1483.0,1494.0,1299.7,1498.0
1.6381199359893799,158,97,0.008928571428571428,1482.0,1494.0,1299.7,1498.0
1.6601378917694092,158,97,0.008928571428571428,1481.0,1494.0,1300.3,1498.0
1.6822099685668945,158,97,0.008928571428571428,1480,1494.0,1300.5999999999999,1498.0
1.7042279243469238,158,97,0.008928571428571428,1480,1494.0,1300.9000000000001,1498.0
1.7262089252471924,159,97,0.0125,1481.0,1494.0,1301.5,1499.0
1.7482118606567383,160,98,0.010416666666666666,1483.0,1494.0,1300.8,1500.0
1.770231008529663,159,98,0.0125,1482.0,1494.0,1300.8,1499.0
1.7923119068145752,158,98,0.008928571428571428,1480.0,1494.0,1300.8,1498.0
1.814337968826294,159,98,0.0125,1483.0,1494.0,1300.8,1499.0
1.8363687992095947,159,98,0.0125,1484.0,1494.0,1300.5,1499.0
1.8583757877349854,159,98,0.0125,1485.0,1494.0,1300.8,1499.0
1.8803799152374268,160,99,0.011363636363636364,1489.0,1494.0,1299.8,1500.0
1.9024488925933838,160,99,0.011363636363636364,1491.0,1494.0,1299.8,1500.0
1.9244749546051025,157,99,0.008928571428571428,1484.0,1494.0,1299.8,1497.0
1.946483850479126,157,99,0.008928571428571428,1482.0,1494.0,1299.8,1497.0
1.9685218334197998,159,99,0.011363636363636364,1485.0,1494.0,1299.5,1499.0
1.9905788898468018,159,99,0.011363636363636364,1485.0,1494.0,1299.8,1499.0
2.012662887573242,158,99,0.0125,1483.0,1494.0,1300.0999999999999,1498.0
2.0346829891204834,158,99,0.0125,1482.0,1494.0,1300.4000000000001,1498.0
2.0567069053649902,158,99,0.0125,1481.0,1494.0,1300.7,1498.0
2.078725814819336,158,99,0.0125,1480.0,1494.0,1301.0,1498.0
2.100709915161133,158,99,0.0125,1480,1494.0,1301.0,1498.0
2.122687816619873,156,98,0.008928571428571428,1480,1494.0,1302.3,1496.0
2.1446738243103027,156,98,0.008928571428571428,1480,1494.0,1302.5999999999999,1496.0
2.1666557788848877,156,98,0.008928571428571428,1480,1494.0,1302.9000000000001,1496.0
2.188654899597168,156,98,0.008928571428571428,1480,1494.0,1303.2,1496.0
2.210646867752075,156,98,0.008928571428571428,1480,1494.0,1303.5,1496.0
2.232668876647949,158,97,0.0125,1480,1494.0,1304.5,1498.0
2.25465989112854,158,97,0.0125,1480,1494.0,1304.5,1498.0
2.2766499519348145,159,97,0.011363636363636364,1480,1494.0,1304.5,1499.0
2.298656940460205,157,97,0.008928571428571428,1480,1494.0,1304.5,1497.0
2.3206348419189453,157,96,0.008928571428571428,1480,1494.0,1305.8,1497.0
2.342655897140503,157,96,0.008928571428571428,1480,1494.0,1305.8,1497.0
2.364626884460449,158,96,0.007407407407407408,1480,1494.0,1305.8,1498.0
2.3866047859191895,160,96,0.010101010101010102,1480,1494.0,1305.8,1500.0
2.4085898399353027,159,95,0.0125,1480,1494.0,1307.0999999999999,1499.0
2.4307878017425537,160,95,0.010101010101010102,1483.0,1494.0,1306.8,1500.0
2.452899932861328,158,94,0.008928571428571428,1480,1494.0,1308.0999999999999,1498.0
2.474909782409668,158,94,0.008928571428571428,1480,1494.0,1308.4000000000001,1498.0
2.496922016143799,159,94,0.007407407407407408,1481.0,1494.0,1308.7,1499.0
2.518948793411255,158,93,0.008928571428571428,1480.0,1494.0,1309.7,1498.0
2.5410258769989014,158,93,0.008928571428571428,1481.0,1494.0,1310.0,1498.0
2.5630359649658203,158,93,0.007936507936507936,1482.0,1494.0,1309.7,1498.0
2.585066795349121,160,92,0.0125,1488.0,1494.0,1310.7,1500.0
2.607071876525879,161,92,0.011363636363636364,1491.0,1494.0,1310.7,1501.0
2.6290979385375977,159,92,0.007936507936507936,1487.0,1494.0,1310.4000000000001,1499.0
2.651174783706665,159,91,0.008928571428571428,1486.0,1494.0,1311.4000000000001,1499.0
2.6732029914855957,159,91,0.008928571428571428,1487.0,1494.0,1311.7,1499.0
2.6952359676361084,159,91,0.007936507936507936,1488.0,1494.0,1311.4000000000001,1499.0
2.717254877090454,159,90,0.008928571428571428,1488.0,1494.0,1312.4000000000001,1499.0
2.7392749786376953,159,90,0.007936507936507936,1489.0,1494.0,1312.7,1499.0
2.7612929344177246,161,90,0.011111111111111112,1496.0,1494.0,1312.4000000000001,1501.0
2.783353805541992,160,89,0.008928571428571428,1496.0,1494.0,1313.4000000000001,1500.0
2.805382013320923,160,89,0.007936507936507936,1496.0,1494.0,1313.7,1500.0
2.827408790588379,160,88,0.008928571428571428,1495.0,1494.0,1314.7,1500.0
2.8494198322296143,160,88,0.007936507936507936,1496.0,1494.0,1314.7,1500.0
2.8714489936828613,160,87,0.008928571428571428,1497.0,1494.0,1316.3,1500.0
2.8936338424682617,162,86,0.011111111111111112,1504.0,1494.0,1317.5999999999999,1502.0
2.915649890899658,162,85,0.0125,1507.0,1494.0,1319.2,1502.0
2.9376649856567383,162,84,0.0125,1510.0,1494.0,1320.8,1502.0
2.959681987762451,161,84,0.007936507936507936,1510.0,1494.0,1321.4000000000001,1501.0
2.9817428588867188,161,83,0.009615384615384616,1510.0,1494.0,1322.7,1501.0
3.0038068294525146,162,83,0.011111111111111112,1514.0,1494.0,1322.7,1502.0
3.0258209705352783,162,82,0.0125,1516.0,1494.0,1323.4000000000001,1502.0
3.0478169918060303,162,81,0.0125,1518.0,1494.0,1324.0999999999999,1502.0
3.069833993911743,160,81,0.008928571428571428,1514.0,1494.0,1323.8,1500.0
3.091984987258911,160,81,0.008928571428571428,1514.0,1494.0,1323.2,1500.0
3.1140668392181396,160,80,0.008928571428571428,1512.0,1494.0,1324.2,1500.0
3.136084794998169,160,80,0.008928571428571428,1510.0,1494.0,1323.9000000000001,1500.0
3.1581108570098877,160,79,0.008928571428571428,1508.0,1494.0,1324.5999999999999,1500.0
3.1801397800445557,160,79,0.008928571428571428,1507.0,1494.0,1324.3,1500.0
3.202302932739258,162,78,0.0125,1512.0,1494.0,1325.5999999999999,1502.0
3.2243897914886475,162,77,0.0125,1512.0,1494.0,1326.5999999999999,1502.0
3.246424913406372,161,77,0.008928571428571428,1509.0,1494.0,1326.9000000000001,1501.0
3.268460988998413,163,77,0.011363636363636364,1514.0,1494.0,1326.9000000000001,1503.0
3.290472984313965,161,76,0.008928571428571428,1511.0,1494.0,1328.2,1501.0
3.3125429153442383,161,76,0.008928571428571428,1512.0,1494.0,1327.9000000000001,1501.0
3.334549903869629,161,75,0.008928571428571428,1513.0,1494.0,1328.5999999999999,1501.0
3.356580972671509,161,75,0.008928571428571428,1514.0,1494.0,1328.3,1501.0
3.378593921661377,161,75,0.008928571428571428,1515.0,1494.0,1328.3,1501.0
3.400648832321167,162,75,0.014285714285714285,1519.0,1494.0,1327.7,1502.0
3.4231297969818115,162,74,0.0125,1519.0,1494.0,1328.7,1502.0
3.446833848953247,162,74,0.0125,1519.0,1494.0,1328.4000000000001,1502.0
3.4705159664154053,160,75,0.01020408163265306,1514.0,1494.0,1326.8,1500.0
3.4943180084228516,160,74,0.008928571428571428,1511.0,1494.0,1327.5,1500.0
3.517965793609619,160,74,0.008928571428571428,1510.0,1494.0,1327.5,1500.0
3.5416948795318604,161,74,0.0125,1512.0,1494.0,1326.9000000000001,1501.0
3.5656158924102783,160,73,0.008928571428571428,1509.0,1494.0,1327.9000000000001,1500.0
3.589277982711792,161,73,0.0125,1511.0,1494.0,1328.5,1501.0
3.6131749153137207,160,72,0.008928571428571428,1508.0,1494.0,1329.8,1500.0
3.636976957321167,160,72,0.008928571428571428,1506.0,1494.0,1330.0999999999999,1500.0
3.66072678565979,160,72,0.008928571428571428,1504.0,1494.0,1330.7,1500.0
3.6844258308410645,160,73,0.008928571428571428,1502.0,1494.0,1329.4000000000001,1500.0
3.708150863647461,160,73,0.008928571428571428,1502.0,1494.0,1328.8,1500.0
3.7318058013916016,160,74,0.008928571428571428,1502.0,1494.0,1326.5999999999999,1500.0
3.7557640075683594,160,74,0.008928571428571428,1502.0,1494.0,1325.4000000000001,1500.0
3.7794578075408936,162,74,0.0125,1507.0,1494.0,1324.2,1502.0
3.8030829429626465,160,74,0.008928571428571428,1503.0,1494.0,1323.9000000000001,1500.0
3.8267769813537598,161,73,0.008928571428571428,1505.0,1494.0,1324.9000000000001,1501.0
3.850461006164551,162,72,0.0125,1509.0,1494.0,1327.0999999999999,1502.0
3.874197006225586,162,71,0.0125,1511.0,1494.0,1329.5999999999999,1502.0
3.8978469371795654,161,70,0.008333333333333333,1510.0,1494.0,1332.4000000000001,1501.0
3.9215099811553955,160,69,0.008928571428571428,1508.0,1494.0,1335.2,1500.0
3.945570945739746,161,69,0.0125,1511.0,1494.0,1336.4000000000001,1501.0
3.9691989421844482,162,70,0.011363636363636364,1515.0,1494.0,1335.4000000000001,1502.0
3.99296498298645,162,70,0.011363636363636364,1517.0,1494.0,1334.8,1502.0
4.016666889190674,159,72,0.01020408163265306,1508.0,1494.0,1331.0,1499.0
4.040344953536987,160,72,0.0125,1510.0,1494.0,1328.5999999999999,1500.0
4.064013957977295,160,73,0.0125,1509.0,1494.0,1325.2,1500.0
4.087649822235107,160,73,0.011363636363636364,1507.0,1494.0,1323.7,1500.0
4.111279010772705,158,73,0.008928571428571428,1499.0,1494.0,1322.5,1498.0
4.135177850723267,159,73,0.0125,1499.0,1494.0,1322.8,1499.0
4.158851861953735,157,72,0.008928571428571428,1492.0,1494.0,1324.7,1497.0
4.182673931121826,157,72,0.008928571428571428,1488.0,1494.0,1326.2,1497.0
4.206493854522705,157,72,0.008928571428571428,1483.0,1494.0,1327.4000000000001,1497.0
4.230155944824219,157,72,0.008928571428571428,1480,1494.0,1328.5999999999999,1497.0
4.2537620067596436,157,72,0.008928571428571428,1480,1494.0,1329.2,1497.0
4.2773449420928955,160,72,0.011363636363636364,1482.0,1494.0,1329.2,1500.0
4.300964832305908,159,73,0.0125,1480,1494.0,1327.5999999999999,1499.0
4.3245978355407715,158,73,0.008928571428571428,1480,1494.0,1327.0,1498.0
4.348179817199707,159,73,0.0125,1480,1494.0,1326.4000000000001,1499.0
4.371757984161377,159,73,0.0125,1480,1494.0,1325.8,1499.0
4.3956358432769775,159,73,0.0125,1480.0,1494.0,1325.5,1499.0
4.419252872467041,158,73,0.008928571428571428,1480,1494.0,1325.8,1498.0
4.442976951599121,159,73,0.0125,1483.0,1494.0,1326.0999999999999,1499.0
4.466707944869995,159,73,0.0125,1485.0,1494.0,1326.4000000000001,1499.0
4.49039888381958,158,73,0.008928571428571428,1484.0,1494.0,1326.7,1498.0
4.51409387588501,159,73,0.0125,1485.0,1494.0,1327.0,1499.0
4.537750959396362,158,75,0.007936507936507936,1482.0,1494.0,1324.4000000000001,1498.0
4.561408996582031,157,75,0.008928571428571428,1480,1494.0,1323.8,1497.0
4.585180997848511,157,75,0.008928571428571428,1480,1494.0,1323.2,1497.0
4.60880184173584,157,75,0.008928571428571428,1480,1494.0,1322.5999999999999,1497.0
4.632580995559692,157,75,0.008928571428571428,1480,1494.0,1322.0,1497.0
4.656333923339844,157,75,0.008928571428571428,1480,1494.0,1322.5999999999999,1497.0
4.679930925369263,157,75,0.008928571428571428,1480,1494.0,1323.2,1497.0
4.703498840332031,158,75,0.008928571428571428,1480,1494.0,1323.8,1498.0
4.727185964584351,158,76,0.007936507936507936,1480,1494.0,1323.0999999999999,1498.0
4.750770807266235,158,76,0.007936507936507936,1480,1494.0,1323.4000000000001,1498.0
4.77443790435791,158,76,0.008928571428571428,1480,1494.0,1323.0999999999999,1498.0
4.798013925552368,159,77,0.007407407407407408,1480,1494.0,1321.5,1499.0
4.8215649127960205,158,77,0.008928571428571428,1480,1494.0,1320.9000000000001,1498.0
4.845492839813232,158,77,0.008928571428571428,1480,1494.0,1320.9000000000001,1498.0
4.87608790397644,158,78,0.008928571428571428,1480,1494.0,1319.5999999999999,1498.0
4.899777889251709,158,79,0.008928571428571428,1480,1494.0,1318.0,1498.0
4.923344850540161,160,80,0.009259259259259259,1483.0,1494.0,1316.7,1500.0
4.947102785110474,158,80,0.008547008547008548,1480,1494.0,1316.4000000000001,1498.0
4.970686912536621,158,80,0.008928571428571428,1480,1494.0,1315.8,1498.0
4.9943389892578125,158,81,0.007936507936507936,1480,1494.0,1314.5,1498.0
5.017903804779053,159,81,0.0125,1482.0,1494.0,1314.8,1499.0
5.041561841964722,160,82,0.010101010101010102,1485.0,1494.0,1314.0999999999999,1500.0
5.065502882003784,159,82,0.011111111111111112,1484.0,1494.0,1314.4000000000001,1499.0
5.0891969203948975,158,82,0.008928571428571428,1482.0,1494.0,1314.7,1498.0
5.112968921661377,158,83,0.007936507936507936,1482.0,1494.0,1314.0,1498.0
5.136652946472168,158,83,0.007936507936507936,1482.0,1494.0,1314.0,1498.0
5.16032600402832,160,83,0.011363636363636364,1486.0,1494.0,1314.3,1500.0
5.1839919090271,160,83,0.011363636363636364,1488.0,1494.0,1314.5999999999999,1500.0
5.207673788070679,161,84,0.010101010101010102,1493.0,1494.0,1313.5999999999999,1501.0
5.231336832046509,159,84,0.007936507936507936,1490.0,1494.0,1313.9000000000001,1499.0
5.255255937576294,161,84,0.010101010101010102,1496.0,1494.0,1314.2,1501.0
5.278929948806763,161,84,0.010101010101010102,1497.0,1494.0,1314.2,1501.0
5.302716970443726,161,84,0.009259259259259259,1499.0,1494.0,1314.2,1501.0
5.326545000076294,161,83,0.011363636363636364,1502.0,1494.0,1316.0999999999999,1501.0
5.350223779678345,162,84,0.009259259259259259,1508.0,1494.0,1315.4000000000001,1502.0
5.373970985412598,159,84,0.007936507936507936,1503.0,1494.0,1315.7,1499.0
5.3976500034332275,159,84,0.007936507936507936,1502.0,1494.0,1316.0,1499.0
5.421284914016724,159,84,0.008928571428571428,1501.0,1494.0,1316.3,1499.0
5.445257902145386,159,85,0.007936507936507936,1499.0,1494.0,1314.4000000000001,1499.0
5.468900918960571,159,85,0.008928571428571428,1499.0,1494.0,1314.0999999999999,1499.0
5.49261999130249,159,85,0.008928571428571428,1497.0,1494.0,1313.8,1499.0
5.5165159702301025,159,85,0.008928571428571428,1495.0,1494.0,1313.5,1499.0
5.540170907974243,159,85,0.008928571428571428,1493.0,1494.0,1313.2,1499.0
5.563934803009033,161,85,0.011363636363636364,1497.0,1494.0,1313.8,1501.0
5.587623834609985,160,84,0.008928571428571428,1493.0,1494.0,1315.4000000000001,1500.0
5.611288785934448,160,84,0.008928571428571428,1494.0,1494.0,1316.0,1500.0
5.635178804397583,160,84,0.008928571428571428,1495.0,1494.0,1316.5999999999999,1500.0
5.658851861953735,162,84,0.011363636363636364,1502.0,1494.0,1317.2,1502.0
5.682659864425659,162,84,0.011363636363636364,1505.0,1494.0,1317.5,1502.0
5.706470012664795,161,85,0.007407407407407408,1505.0,1494.0,1315.9000000000001,1501.0
5.730201005935669,160,85,0.007936507936507936,1504.0,1494.0,1315.3,1500.0
5.753927946090698,160,85,0.007936507936507936,1505.0,1494.0,1314.7,1500.0
5.777584791183472,160,85,0.007936507936507936,1506.0,1494.0,1314.0999999999999,1500.0
5.801263809204102,160,85,0.007936507936507936,1505.0,1494.0,1313.5,1500.0
5.825170993804932,160,84,0.008928571428571428,1505.0,1494.0,1315.0999999999999,1500.0
5.848869800567627,160,84,0.008928571428571428,1505.0,1494.0,1315.7,1500.0
5.8727099895477295,160,83,0.008928571428571428,1505.0,1494.0,1317.5999999999999,1500.0
5.896533966064453,163,83,0.010101010101010102,1512.0,1494.0,1318.5,1503.0
5.920184850692749,162,82,0.0125,1510.0,1494.0,1320.7,1502.0
5.944106817245483,161,82,0.007936507936507936,1508.0,1494.0,1321.0,1501.0
5.968101978302002,161,81,0.008928571428571428,1509.0,1494.0,1322.5999999999999,1501.0
5.991769790649414,161,81,0.008928571428571428,1510.0,1494.0,1322.5999999999999,1501.0
6.015730857849121,161,81,0.008928571428571428,1511.0,1494.0,1322.5999999999999,1501.0
6.039431810379028,162,81,0.007407407407407408,1515.0,1494.0,1322.0,1502.0
6.063110828399658,161,80,0.008928571428571428,1514.0,1494.0,1323.0,1501.0
6.086763858795166,161,80,0.008928571428571428,1515.0,1494.0,1322.4000000000001,1501.0
6.1107118129730225,161,80,0.008928571428571428,1516.0,1494.0,1322.0999999999999,1501.0
6.134490013122559,161,79,0.008928571428571428,1514.0,1494.0,1323.0999999999999,1501.0
6.158163785934448,161,79,0.008928571428571428,1513.0,1494.0,1323.4000000000001,1501.0
6.181975841522217,162,79,0.0125,1516.0,1494.0,1323.0999999999999,1502.0
6.205803871154785,161,78,0.008928571428571428,1514.0,1494.0,1324.4000000000001,1501.0
6.229473829269409,161,78,0.008928571428571428,1514.0,1494.0,1324.7,1501.0
6.253127813339233,161,77,0.008928571428571428,1514.0,1494.0,1325.7,1501.0
6.276787996292114,162,77,0.0125,1516.0,1494.0,1325.7,1502.0
6.300440788269043,162,77,0.0125,1517.0,1494.0,1326.0,1502.0
6.324174880981445,162,77,0.0125,1518.0,1494.0,1325.7,1502.0
6.347850799560547,160,76,0.008928571428571428,1513.0,1494.0,1326.7,1500.0
6.3714799880981445,160,76,0.008928571428571428,1512.0,1494.0,1326.4000000000001,1500.0
6.395458936691284,161,76,0.0125,1514.0,1494.0,1326.0999999999999,1501.0
6.419111013412476,160,76,0.007936507936507936,1510.0,1494.0,1325.8,1500.0
6.442927837371826,161,75,0.0125,1512.0,1494.0,1327.0999999999999,1501.0
6.466750860214233,161,75,0.0125,1512.0,1494.0,1326.8,1501.0
6.490417003631592,160,75,0.007407407407407408,1509.0,1494.0,1326.8,1500.0
6.514132976531982,161,74,0.0125,1510.0,1494.0,1328.0999999999999,1501.0
6.5377819538116455,159,74,0.008928571428571428,1503.0,1494.0,1328.4000000000001,1499.0
6.561447858810425,159,74,0.008928571428571428,1500.0,1494.0,1328.0999999999999,1499.0
6.585307836532593,160,74,0.007407407407407408,1502.0,1494.0,1328.0999999999999,1500.0
6.60898494720459,159,74,0.008928571428571428,1499.0,1494.0,1328.0999999999999,1499.0
6.632722854614258,161,74,0.0125,1503.0,1494.0,1327.5,1501.0
6.656505823135376,160,74,0.008928571428571428,1501.0,1494.0,1326.9000000000001,1500.0
6.680199861526489,160,74,0.007936507936507936,1500.0,1494.0,1326.5999999999999,1500.0
6.7039477825164795,160,74,0.007936507936507936,1499.0,1494.0,1326.3,1500.0
6.727621793746948,160,73,0.008928571428571428,1499.0,1494.0,1327.3,1500.0
6.751295804977417,160,73,0.008928571428571428,1498.0,1494.0,1327.5999999999999,1500.0
6.775184869766235,160,73,0.008928571428571428,1499.0,1494.0,1327.9000000000001,1500.0
6.798853874206543,160,73,0.008928571428571428,1500.0,1494.0,1328.2,1500.0
6.822606801986694,162,73,0.0125,1506.0,1494.0,1328.5,1502.0
6.846395969390869,161,73,0.008928571428571428,1506.0,1494.0,1328.2,1501.0
6.870043992996216,161,73,0.008928571428571428,1506.0,1494.0,1327.9000000000001,1501.0
6.8937788009643555,161,73,0.008928571428571428,1507.0,1494.0,1327.5999999999999,1501.0
6.917450904846191,161,74,0.008928571428571428,1508.0,1494.0,1326.0,1501.0
6.941133975982666,162,74,0.0125,1512.0,1494.0,1325.4000000000001,1502.0
6.965066909790039,160,75,0.007936507936507936,1508.0,1494.0,1323.8,1500.0
6.988731861114502,160,75,0.008928571428571428,1508.0,1494.0,1323.2,1500.0
7.012512922286987,160,75,0.008928571428571428,1508.0,1494.0,1322.5999999999999,1500.0
7.036237955093384,161,76,0.0125,1511.0,1494.0,1321.3,1501.0
7.059893846511841,161,76,0.0125,1510.0,1494.0,1321.0,1501.0
7.0836098194122314,161,76,0.0125,1510.0,1494.0,1321.3,1501.0
7.1073830127716064,159,77,0.007936507936507936,1504.0,1494.0,1320.3,1499.0
7.1310858726501465,159,77,0.008928571428571428,1502.0,1494.0,1320.3,1499.0
7.1549530029296875,160,77,0.0125,1503.0,1494.0,1320.5999999999999,1500.0
7.178600788116455,160,77,0.0125,1501.0,1494.0,1320.9000000000001,1500.0
7.20231294631958,160,77,0.0125,1501.0,1494.0,1320.9000000000001,1500.0
7.2260518074035645,158,77,0.008928571428571428,1495.0,1494.0,1321.5,1498.0
7.2497289180755615,158,77,0.007936507936507936,1493.0,1494.0,1322.0999999999999,1498.0
7.273392915725708,158,76,0.008928571428571428,1490.0,1494.0,1323.7,1498.0
7.297072887420654,158,76,0.008928571428571428,1487.0,1494.0,1324.3,1498.0
7.320717811584473,158,76,0.008928571428571428,1484.0,1494.0,1324.9000000000001,1498.0
7.344462871551514,158,76,0.008928571428571428,1483.0,1494.0,1325.2,1498.0
7.368116855621338,158,76,0.008928571428571428,1482.0,1494.0,1325.5,1498.0
7.392135858535767,158,77,0.007936507936507936,1480.0,1494.0,1323.9000000000001,1498.0
7.41594386100769,158,77,0.008928571428571428,1480,1494.0,1323.3,1498.0
7.439301013946533,159,77,0.0125,1480,1494.0,1322.7,1499.0
7.462965965270996,159,78,0.011111111111111112,1480.0,1494.0,1320.8,1499.0
7.48665189743042,159,78,0.011111111111111112,1481.0,1494.0,1319.9000000000001,1499.0
7.510345935821533,158,77,0.008928571428571428,1480,1494.0,1321.2,1498.0
7.533929824829102,159,78,0.007407407407407408,1482.0,1494.0,1320.2,1499.0
7.557578802108765,159,77,0.0125,1483.0,1494.0,1321.5,1499.0
7.581225872039795,160,78,0.010101010101010102,1487.0,1494.0,1321.0999999999999,1500.0
7.605082988739014,160,78,0.010101010101010102,1489.0,1494.0,1321.7,1500.0
7.6287689208984375,159,78,0.0125,1488.0,1494.0,1321.4000000000001,1499.0
7.652493953704834,157,78,0.008928571428571428,1483.0,1494.0,1321.7,1497.0
7.676210880279541,158,79,0.007407407407407408,1484.0,1494.0,1320.0999999999999,1498.0
7.699899911880493,157,79,0.007936507936507936,1480.0,1494.0,1319.8,1497.0
7.723534822463989,157,79,0.007936507936507936,1480,1494.0,1319.5,1497.0
7.747128963470459,157,78,0.008928571428571428,1480,1494.0,1320.8,1497.0
7.770697832107544,157,78,0.008928571428571428,1480,1494.0,1320.8,1497.0
7.794348955154419,157,78,0.007936507936507936,1480,1494.0,1321.7,1497.0
7.817912817001343,157,78,0.007936507936507936,1480,1494.0,1322.3,1497.0
7.841511964797974,157,78,0.007936507936507936,1480,1494.0,1322.9000000000001,1497.0
7.865316867828369,158,78,0.007407407407407408,1480,1494.0,1322.9000000000001,1498.0
7.888919830322266,159,78,0.011111111111111112,1480,1494.0,1322.9000000000001,1499.0
7.91257381439209,158,78,0.007936507936507936,1480,1494.0,1322.5999999999999,1498.0
7.936254978179932,159,78,0.007407407407407408,1480,1494.0,1322.3,1499.0
7.959851980209351,158,77,0.008928571428571428,1480,1494.0,1323.3,1498.0
7.983438014984131,161,77,0.010101010101010102,1483.0,1494.0,1323.5999999999999,1501.0
8.007097005844116,159,77,0.007936507936507936,1481.0,1494.0,1323.9000000000001,1499.0
8.030781984329224,159,76,0.008928571428571428,1483.0,1494.0,1325.5,1499.0
8.054531812667847,161,77,0.011111111111111112,1491.0,1494.0,1324.8,1501.0
8.07822299003601,160,77,0.007936507936507936,1492.0,1494.0,1324.5,1500.0
8.10190486907959,160,77,0.008928571428571428,1494.0,1494.0,1324.2,1500.0
8.125603914260864,162,77,0.011363636363636364,1501.0,1494.0,1323.9000000000001,1502.0
8.149271011352539,160,77,0.008928571428571428,1499.0,1494.0,1323.0,1500.0
8.172928810119629,160,77,0.007936507936507936,1500.0,1494.0,1322.7,1500.0
8.196601867675781,160,77,0.007936507936507936,1502.0,1494.0,1322.7,1500.0
8.220260858535767,160,77,0.007936507936507936,1501.0,1494.0,1322.7,1500.0
8.243993997573853,160,77,0.008928571428571428,1502.0,1494.0,1322.7,1500.0
8.267647981643677,160,77,0.008928571428571428,1503.0,1494.0,1323.0,1500.0
8.291307926177979,161,77,0.0125,1505.0,1494.0,1323.0,1501.0
8.315167903900146,160,77,0.008928571428571428,1503.0,1494.0,1323.0,1500.0
8.338826894760132,162,78,0.010101010101010102,1509.0,1494.0,1321.7,1502.0
8.362595796585083,161,78,0.0125,1506.0,1494.0,1321.4000000000001,1501.0
8.386310815811157,160,78,0.008928571428571428,1504.0,1494.0,1321.0999999999999,1500.0
8.409979820251465,160,79,0.008928571428571428,1504.0,1494.0,1319.5,1500.0
8.434014797210693,161,79,0.0125,1507.0,1494.0,1318.9000000000001,1501.0
8.458619832992554,160,80,0.007936507936507936,1505.0,1494.0,1317.5999999999999,1500.0
8.482398986816406,160,80,0.007936507936507936,1505.0,1494.0,1317.3,1500.0
8.50614881515503,161,79,0.011363636363636364,1508.0,1494.0,1318.3,1501.0
8.52984881401062,159,79,0.008928571428571428,1502.0,1494.0,1318.9000000000001,1499.0
8.553532838821411,159,79,0.008928571428571428,1501.0,1494.0,1319.5,1499.0
8.577271938323975,159,79,0.007936507936507936,1498.0,1494.0,1320.4000000000001,1499.0
8.600927829742432,161,79,0.009259259259259259,1502.0,1494.0,1321.3,1501.0
8.624660968780518,160,79,0.007407407407407408,1500.0,1494.0,1321.5999999999999,1500.0
8.648615837097168,159,79,0.008928571428571428,1497.0,1494.0,1321.5999999999999,1499.0
8.672370910644531,159,79,0.008928571428571428,1495.0,1494.0,1321.5999999999999,1499.0
8.696112871170044,160,80,0.007407407407407408,1497.0,1494.0,1320.0,1500.0
8.719774961471558,159,80,0.007936507936507936,1494.0,1494.0,1319.4000000000001,1499.0
8.743467807769775,159,80,0.008928571428571428,1492.0,1494.0,1319.0999999999999,1499.0
8.7671959400177,160,80,0.0125,1495.0,1494.0,1318.8,1500.0
8.790880918502808,160,80,0.0125,1496.0,1494.0,1318.5,1500.0
8.814693927764893,159,81,0.008928571428571428,1494.0,1494.0,1317.5,1499.0
8.838369846343994,161,81,0.011363636363636364,1498.0,1494.0,1317.5,1501.0
8.86210584640503,159,81,0.008928571428571428,1493.0,1494.0,1317.5,1499.0
8.885830879211426,159,81,0.007936507936507936,1493.0,1494.0,1317.5,1499.0
8.909505844116211,159,80,0.008928571428571428,1493.0,1494.0,1318.8,1499.0
8.933187007904053,160,80,0.0125,1495.0,1494.0,1319.4000000000001,1500.0
8.956859827041626,161,79,0.011363636363636364,1499.0,1494.0,1321.3,1501.0
8.98052978515625,160,78,0.0125,1498.0,1494.0,1323.5,1500.0
9.004172801971436,160,78,0.0125,1498.0,1494.0,1324.7,1500.0
9.027812957763672,161,78,0.010101010101010102,1501.0,1494.0,1325.3,1501.0
9.051491975784302,161,78,0.009259259259259259,1503.0,1494.0,1325.5999999999999,1501.0
9.07545781135559,159,77,0.008928571428571428,1497.0,1494.0,1326.5999999999999,1499.0
9.098919868469238,161,78,0.010101010101010102,1503.0,1494.0,1324.7,1501.0
9.122421979904175,160,78,0.0125,1502.0,1494.0,1323.8,1500.0
9.145965814590454,159,78,0.008928571428571428,1500.0,1494.0,1323.2,1499.0
9.169381856918335,160,78,0.0125,1502.0,1494.0,1322.5999999999999,1500.0
9.192806959152222,160,78,0.0125,1501.0,1494.0,1321.7,1500.0
9.21624493598938,160,78,0.0125,1501.0,1494.0,1321.7,1500.0
9.239607810974121,160,78,0.0125,1501.0,1494.0,1321.7,1500.0
9.263020992279053,159,77,0.008928571428571428,1497.0,1494.0,1323.0,1499.0
9.286449909210205,160,77,0.0125,1498.0,1494.0,1323.3,1500.0
9.309844970703125,160,77,0.007407407407407408,1499.0,1494.0,1323.9000000000001,1500.0
9.333257913589478,159,76,0.008928571428571428,1495.0,1494.0,1325.5,1499.0
9.356648921966553,161,76,0.0125,1500.0,1494.0,1326.0999999999999,1501.0
9.380056858062744,160,77,0.007936507936507936,1499.0,1494.0,1324.8,1500.0
9.403609991073608,160,77,0.008928571428571428,1499.0,1494.0,1324.5,1500.0
9.42734694480896,160,77,0.008928571428571428,1499.0,1494.0,1324.2,1500.0
9.450819969177246,162,77,0.0125,1505.0,1494.0,1323.3,1502.0
9.474265813827515,162,76,0.0125,1507.0,1494.0,1323.7,1502.0
9.49770998954773,161,76,0.008928571428571428,1507.0,1494.0,1324.0,1501.0
9.52112078666687,162,76,0.008333333333333333,1511.0,1494.0,1324.3,1502.0
9.54453992843628,164,76,0.011363636363636364,1519.0,1494.0,1324.5999999999999,1504.0
9.567969799041748,162,75,0.008928571428571428,1518.0,1494.0,1326.5,1502.0
9.591350793838501,163,75,0.0125,1520,1494.0,1326.8,1503.0
9.614798784255981,162,75,0.008928571428571428,1520,1494.0,1326.8,1502.0
9.638399839401245,163,75,0.0125,1520,1494.0,1326.8,1503.0
9.662036895751953,161,75,0.008928571428571428,1520,1494.0,1326.8,1501.0
9.685694932937622,162,75,0.0125,1520,1494.0,1326.2,1502.0
9.709342956542969,161,76,0.008928571428571428,1520,1494.0,1324.5999999999999,1501.0
9.732927799224854,160,76,0.008928571428571428,1520.0,1494.0,1324.0,1500.0
9.756678819656372,161,77,0.0125,1520,1494.0,1322.0999999999999,1501.0
9.78030800819397,159,78,0.008928571428571428,1512.0,1494.0,1319.9000000000001,1499.0
9.803984880447388,159,79,0.008928571428571428,1509.0,1494.0,1317.7,1499.0
9.827663898468018,160,79,0.0125,1508.0,1494.0,1317.0999999999999,1500.0
9.851315975189209,160,79,0.0125,1506.0,1494.0,1316.5,1500.0
9.87513780593872,160,79,0.011363636363636364,1503.0,1494.0,1316.5,1500.0
9.898778915405273,158,79,0.008928571428571428,1496.0,1494.0,1317.0999999999999,1498.0
9.922562837600708,158,78,0.008928571428571428,1492.0,1494.0,1319.5999999999999,1498.0
9.946384906768799,158,78,0.008928571428571428,1489.0,1494.0,1320.8,1498.0
9.973699808120728,158,78,0.008928571428571428,1487.0,1494.0,1322.0,1498.0
9.997443914413452,159,78,0.008333333333333333,1487.0,1494.0,1322.9000000000001,1499.0
10.021114826202393,158,79,0.008928571428571428,1484.0,1494.0,1322.2,1498.0
10.045109987258911,158,79,0.008928571428571428,1483.0,1494.0,1321.5999999999999,1498.0
10.068826913833618,158,80,0.008928571428571428,1481.0,1494.0,1319.7,1498.0
10.092525959014893,158,80,0.008928571428571428,1480,1494.0,1318.8,1498.0
10.116158962249756,160,80,0.0125,1483.0,1494.0,1317.9000000000001,1500.0
10.13980484008789,160,80,0.0125,1485.0,1494.0,1317.5999999999999,1500.0
10.16347599029541,159,80,0.008928571428571428,1484.0,1494.0,1317.5999999999999,1499.0
10.187150001525879,160,80,0.0125,1488.0,1494.0,1318.2,1500.0
10.210789918899536,160,80,0.0125,1490.0,1494.0,1318.8,1500.0
10.234495878219604,159,80,0.008928571428571428,1488.0,1494.0,1319.4000000000001,1499.0
10.25813889503479,159,80,0.008928571428571428,1489.0,1494.0,1319.7,1499.0
10.281807899475098,160,81,0.0125,1493.0,1494.0,1318.7,1500.0
10.305560827255249,159,81,0.008928571428571428,1492.0,1494.0,1318.4000000000001,1499.0
10.329246997833252,160,80,0.011363636363636364,1496.0,1494.0,1319.4000000000001,1500.0
10.352906942367554,158,80,0.008928571428571428,1490.0,1494.0,1319.4000000000001,1498.0
10.376576900482178,158,80,0.008928571428571428,1488.0,1494.0,1319.4000000000001,1498.0
10.400242805480957,158,81,0.01020408163265306,1487.0,1494.0,1318.7,1498.0
10.423954963684082,158,81,0.01020408163265306,1485.0,1494.0,1319.0,1498.0
10.447640895843506,160,81,0.014285714285714285,1489.0,1494.0,1318.7,1500.0
10.47134780883789,160,80,0.0125,1490.0,1494.0,1319.7,1500.0
10.495245933532715,159,80,0.009615384615384616,1488.0,1494.0,1319.7,1499.0
10.518898010253906,160,79,0.0125,1490.0,1494.0,1321.3,1500.0
10.542573928833008,158,79,0.008928571428571428,1485.0,1494.0,1321.9000000000001,1498.0
10.566303968429565,158,79,0.008928571428571428,1483.0,1494.0,1322.8,1498.0
10.589954853057861,159,79,0.008333333333333333,1486.0,1494.0,1323.0999999999999,1499.0
10.613645792007446,159,79,0.014285714285714285,1487.0,1494.0,1323.4000000000001,1499.0
10.637312889099121,158,78,0.008928571428571428,1485.0,1494.0,1324.0999999999999,1498.0
10.660991907119751,158,78,0.008928571428571428,1485.0,1494.0,1323.8,1498.0
