time,x,y,size_inv,roll,pitch,thrust,yaw
0.0006759166717529297,169,63,0.007407407407407408,1520,1500.0,1345.8800000000001,1509.0
0.02311992645263672,169,62,0.007407407407407408,1520,1500.0,1348.5999999999999,1509.0
0.04483795166015625,169,62,0.006666666666666667,1520,1500.0,1350,1509.0
0.06632089614868164,169,62,0.007407407407407408,1520,1500.0,1350,1509.0
0.08791399002075195,169,62,0.0078125,1520,1500.0,1350,1509.0
0.10946893692016602,169,62,0.0078125,1520,1500.0,1350,1509.0
0.13103699684143066,169,62,0.006666666666666667,1520,1500.0,1350,1509.0
0.15255379676818848,169,62,0.006666666666666667,1520,1500.0,1350,1509.0
0.1740398406982422,169,62,0.00625,1520,1500.0,1350,1509.0
0.19553279876708984,169,62,0.006666666666666667,1520,1500.0,1350,1509.0
0.21720099449157715,169,62,0.006944444444444444,1520,1500.0,1350,1509.0
0.23912501335144043,169,62,0.00625,1520,1500.0,1350,1509.0
0.26102495193481445,169,63,0.007407407407407408,1520,1500.0,1350,1509.0
0.2828848361968994,168,63,0.007407407407407408,1520,1500.0,1350,1508.0
0.3047349452972412,167,64,0.006944444444444444,1520,1500.0,1350,1507.0
0.32656097412109375,166,63,0.007407407407407408,1520,1500.0,1350,1506.0
0.3484828472137451,164,62,0.00625,1520,1500.0,1350,1504.0
0.37032079696655273,163,61,0.006944444444444444,1520,1500.0,1350,1503.0
0.39225101470947266,162,61,0.006944444444444444,1520,1500.0,1350,1502.0
0.4142639636993408,161,61,0.006666666666666667,1520,1500.0,1350,1501.0
0.43613481521606445,160,62,0.006666666666666667,1520,1500.0,1350,1500.0
0.45801496505737305,159,63,0.006666666666666667,1520,1500.0,1350,1499.0
0.4798548221588135,157,64,0.00625,1520,1500.0,1350,1497.0
0.5018069744110107,157,65,0.006666666666666667,1510.0,1500.0,1350,1497.0
0.5237698554992676,156,65,0.006666666666666667,1497.0,1500.0,1341.52,1496.0
0.5457589626312256,155,65,0.007142857142857143,1484.0,1500.0,1335.8399999999999,1495.0
0.5677158832550049,155,64,0.00625,1480,1500.0,1336.96,1495.0
0.589634895324707,155,64,0.006944444444444444,1480,1500.0,1341.04,1495.0
0.6116127967834473,156,65,0.006060606060606061,1480,1500.0,1345.28,1496.0
0.6335759162902832,156,66,0.006944444444444444,1480,1500.0,1348.0799999999999,1496.0
0.6555259227752686,156,67,0.005681818181818182,1480,1500.0,1348.0799999999999,1496.0
0.6774218082427979,157,68,0.006666666666666667,1480,1500.0,1342.48,1497.0
0.699387788772583,157,69,0.006666666666666667,1480,1500.0,1334.0799999999999,1497.0
0.7213268280029297,157,70,0.006666666666666667,1480,1500.0,1325.6800000000001,1497.0
0.7434358596801758,157,72,0.005681818181818182,1480,1500.0,1316.0,1497.0
0.7653348445892334,157,74,0.006944444444444444,1480,1500.0,1306.24,1497.0
0.7872729301452637,157,74,0.00625,1480,1500.0,1303.04,1497.0
0.8097999095916748,157,75,0.00625,1480,1500.0,1300.0,1497.0
0.8333067893981934,157,77,0.006944444444444444,1480,1500.0,1294.3199999999999,1497.0
0.8570499420166016,157,77,0.00625,1480,1500.0,1295.28,1497.0
0.8807079792022705,157,79,0.00625,1480,1500.0,1295.2,1497.0
0.9043078422546387,157,80,0.006666666666666667,1480,1500.0,1293.52,1497.0
0.9278688430786133,157,81,0.007407407407407408,1480,1500.0,1291.8399999999999,1497.0
0.9515278339385986,157,82,0.006666666666666667,1480,1500.0,1292.96,1497.0
0.9752118587493896,157,83,0.006666666666666667,1480,1500.0,1289.9200000000001,1497.0
0.9988868236541748,156,85,0.006944444444444444,1480,1500.0,1285.6800000000001,1496.0
1.022594928741455,156,87,0.007407407407407408,1480,1500.0,1281.3599999999999,1496.0
1.046449899673462,156,88,0.006666666666666667,1480,1500.0,1278.24,1496.0
1.0700719356536865,156,89,0.007407407407407408,1480,1500.0,1273.76,1496.0
1.0936169624328613,155,90,0.006944444444444444,1480,1500.0,1270.6400000000001,1495.0
1.1172409057617188,156,90,0.0058823529411764705,1480,1500.0,1271.5999999999999,1496.0
1.1409118175506592,155,91,0.007407407407407408,1480,1500.0,1274.1600000000001,1495.0
1.164536952972412,155,91,0.006666666666666667,1480,1500.0,1279.3599999999999,1495.0
1.1882059574127197,155,93,0.006944444444444444,1480,1500.0,1280.72,1495.0
1.2117018699645996,155,93,0.006666666666666667,1480,1500.0,1285.9200000000001,1495.0
1.2357568740844727,155,94,0.00625,1480,1500.0,1285.76,1495.0
1.259300947189331,156,95,0.006535947712418301,1480,1500.0,1284.24,1496.0
1.282876968383789,156,96,0.0058823529411764705,1480,1500.0,1279.9200000000001,1496.0
1.3064279556274414,156,97,0.0053475935828877,1480,1500.0,1278.4000000000001,1496.0
1.3300960063934326,156,97,0.00625,1480,1500.0,1276.72,1496.0
1.3540740013122559,156,99,0.005050505050505051,1480,1500.0,1272.5599999999999,1496.0
1.377640962600708,156,99,0.006666666666666667,1480,1500.0,1272.24,1496.0
1.401141881942749,156,99,0.006666666666666667,1480,1500.0,1274.72,1496.0
1.4248499870300293,156,99,0.0058823529411764705,1480,1500.0,1277.28,1496.0
1.4484148025512695,156,100,0.006944444444444444,1480,1500.0,1277.2,1496.0
1.4720468521118164,156,100,0.00625,1480,1500.0,1282.5599999999999,1496.0
1.4956920146942139,156,101,0.005681818181818182,1480,1500.0,1283.9200000000001,1496.0
1.5192818641662598,156,101,0.00625,1480,1500.0,1285.1199999999999,1496.0
1.5430378913879395,157,102,0.0053475935828877,1480,1500.0,1282.3199999999999,1497.0
1.5666799545288086,157,102,0.0058823529411764705,1480,1500.0,1283.52,1497.0
1.59027099609375,157,103,0.006060606060606061,1480,1500.0,1279.3599999999999,1497.0
1.6138548851013184,158,103,0.0058823529411764705,1480,1500.0,1279.2,1498.0
1.637401819229126,157,103,0.00625,1480,1500.0,1279.04,1497.0
1.6610498428344727,157,103,0.00625,1480,1500.0,1281.6800000000001,1497.0
1.6848368644714355,158,103,0.0058823529411764705,1480,1500.0,1282.96,1498.0
1.7084767818450928,157,103,0.00625,1480,1500.0,1287.04,1497.0
1.7322278022766113,157,103,0.00625,1480,1500.0,1289.76,1497.0
1.7559778690338135,157,104,0.005681818181818182,1480,1500.0,1289.8399999999999,1497.0
1.779552936553955,157,103,0.00625,1480,1500.0,1292.4000000000001,1497.0
1.803311824798584,157,104,0.00625,1480,1500.0,1291.1199999999999,1497.0
1.8269598484039307,157,104,0.00625,1480,1500.0,1289.6800000000001,1497.0
1.8505449295043945,158,105,0.00625,1480,1500.0,1285.5999999999999,1498.0
1.8740508556365967,158,105,0.005681818181818182,1480,1500.0,1285.52,1498.0
1.8975849151611328,158,104,0.006666666666666667,1480,1500.0,1285.28,1498.0
1.921299934387207,158,105,0.005681818181818182,1480,1500.0,1284.0,1498.0
1.9450600147247314,158,105,0.005681818181818182,1480,1500.0,1283.9200000000001,1498.0
1.9686148166656494,159,104,0.006666666666666667,1480,1500.0,1289.28,1499.0
1.9923148155212402,159,104,0.005681818181818182,1480,1500.0,1292.0799999999999,1499.0
2.0160257816314697,159,104,0.00625,1480,1500.0,1293.4400000000001,1499.0
2.0395848751068115,159,104,0.005681818181818182,1481.0,1500.0,1296.24,1499.0
2.063390016555786,159,103,0.005681818181818182,1483.0,1500.0,1301.6800000000001,1499.0
2.0871238708496094,160,103,0.005681818181818182,1487.0,1500.0,1301.76,1500.0
2.1109189987182617,161,103,0.0053475935828877,1492.0,1500.0,1301.8399999999999,1501.0
2.134622812271118,161,103,0.0053475935828877,1495.0,1500.0,1303.28,1501.0
2.1583919525146484,160,103,0.00625,1495.0,1500.0,1303.3599999999999,1500.0
2.182130813598633,161,104,0.005681818181818182,1500.0,1500.0,1298.0,1501.0
2.205850839614868,162,104,0.0053475935828877,1505.0,1500.0,1295.2,1502.0
2.2296149730682373,161,104,0.005681818181818182,1505.0,1500.0,1292.4000000000001,1501.0
2.2532479763031006,162,103,0.005555555555555556,1510.0,1500.0,1292.24,1502.0
2.27691388130188,162,102,0.00625,1513.0,1500.0,1293.52,1502.0
2.300649881362915,162,102,0.005681818181818182,1516.0,1500.0,1297.76,1502.0
2.324293851852417,163,101,0.0058823529411764705,1520,1500.0,1304.6400000000001,1503.0
2.3477649688720703,163,101,0.0053475935828877,1520,1500.0,1310.3199999999999,1503.0
2.37153697013855,163,100,0.0058823529411764705,1520,1500.0,1315.8399999999999,1503.0
2.3955798149108887,163,100,0.0058823529411764705,1520,1500.0,1317.3599999999999,1503.0
2.4191439151763916,163,100,0.0053475935828877,1520,1500.0,1317.52,1503.0
2.4428868293762207,162,99,0.00625,1520,1500.0,1317.52,1502.0
2.46640682220459,162,99,0.00625,1520,1500.0,1316.3199999999999,1502.0
2.490184783935547,163,99,0.0053475935828877,1520,1500.0,1313.6800000000001,1503.0
2.5138509273529053,163,98,0.0058823529411764705,1520,1500.0,1315.04,1503.0
2.537348985671997,163,97,0.0058823529411764705,1520,1500.0,1317.8399999999999,1503.0
2.5609309673309326,162,97,0.00625,1520,1500.0,1318.0,1502.0
2.584514856338501,163,96,0.0058823529411764705,1520,1500.0,1320.8,1503.0
2.6080288887023926,163,96,0.0058823529411764705,1520,1500.0,1323.76,1503.0
2.631779909133911,163,96,0.0053475935828877,1520,1500.0,1323.9200000000001,1503.0
2.655533790588379,164,96,0.004784688995215311,1520,1500.0,1321.28,1504.0
2.6792500019073486,163,95,0.0058823529411764705,1520,1500.0,1322.6400000000001,1503.0
2.702948808670044,163,95,0.005555555555555556,1520,1500.0,1320.0,1503.0
2.7265639305114746,163,95,0.0053475935828877,1520,1500.0,1317.3599999999999,1503.0
2.75022292137146,162,94,0.00625,1520,1500.0,1318.72,1502.0
2.7738869190216064,163,94,0.0058823529411764705,1520,1500.0,1320.24,1503.0
2.797416925430298,163,94,0.0058823529411764705,1520,1500.0,1318.96,1503.0
2.821112871170044,163,94,0.0053475935828877,1520,1500.0,1319.04,1503.0
2.84476900100708,162,94,0.005050505050505051,1520,1500.0,1319.1199999999999,1502.0
2.8682188987731934,163,93,0.0053475935828877,1520,1500.0,1319.04,1503.0
2.89216685295105,162,93,0.005050505050505051,1520,1500.0,1317.76,1502.0
2.9162700176239014,162,92,0.0058823529411764705,1520,1500.0,1320.48,1502.0
2.939894914627075,161,92,0.0053475935828877,1520,1500.0,1322.0,1501.0
2.9634499549865723,161,91,0.004629629629629629,1520,1500.0,1326.1600000000001,1501.0
2.9871129989624023,161,91,0.005050505050505051,1520,1500.0,1327.6800000000001,1501.0
3.010769844055176,161,91,0.0053475935828877,1520,1500.0,1329.2,1501.0
3.0343449115753174,160,90,0.005681818181818182,1516.0,1500.0,1330.5599999999999,1500.0
3.057999849319458,159,90,0.005681818181818182,1510.0,1500.0,1330.72,1499.0
3.0815858840942383,160,89,0.004901960784313725,1510.0,1500.0,1330.72,1500.0
3.105510950088501,159,90,0.005050505050505051,1504.0,1500.0,1328.24,1499.0
3.129117965698242,159,89,0.005050505050505051,1501.0,1500.0,1329.5999999999999,1499.0
3.1528279781341553,159,89,0.0053475935828877,1498.0,1500.0,1328.3199999999999,1499.0
3.176407814025879,159,88,0.004629629629629629,1496.0,1500.0,1329.6800000000001,1499.0
3.2000229358673096,159,88,0.0053475935828877,1494.0,1500.0,1328.4000000000001,1499.0
3.2237019538879395,158,88,0.005050505050505051,1489.0,1500.0,1329.9200000000001,1498.0
3.2474207878112793,158,87,0.005555555555555556,1486.0,1500.0,1331.28,1498.0
3.2711069583892822,159,87,0.004784688995215311,1487.0,1500.0,1332.8,1499.0
3.2949419021606445,158,87,0.005050505050505051,1484.0,1500.0,1331.52,1498.0
3.3186118602752686,158,86,0.005050505050505051,1482.0,1500.0,1334.24,1498.0
3.342514991760254,158,86,0.0053475935828877,1481.0,1500.0,1334.4000000000001,1498.0
3.366274833679199,158,86,0.005050505050505051,1480.0,1500.0,1333.1199999999999,1498.0
3.3900108337402344,157,86,0.005050505050505051,1480,1500.0,1331.8399999999999,1497.0
3.4134318828582764,158,86,0.004784688995215311,1480,1500.0,1331.9200000000001,1498.0
3.4369850158691406,158,85,0.005263157894736842,1480,1500.0,1331.8399999999999,1498.0
3.460498809814453,157,85,0.005555555555555556,1480,1500.0,1330.5599999999999,1497.0
3.4840087890625,157,85,0.004629629629629629,1480,1500.0,1330.6400000000001,1497.0
3.507535934448242,157,85,0.005050505050505051,1480,1500.0,1330.72,1497.0
3.531252861022949,157,84,0.004629629629629629,1480,1500.0,1333.4400000000001,1497.0
3.5549299716949463,157,84,0.005050505050505051,1480,1500.0,1333.52,1497.0
3.578406810760498,157,84,0.005050505050505051,1480,1500.0,1333.5999999999999,1497.0
3.602097988128662,158,84,0.004784688995215311,1480,1500.0,1333.6800000000001,1498.0
3.6257078647613525,157,84,0.005050505050505051,1480,1500.0,1333.76,1497.0
3.6493308544158936,158,84,0.004784688995215311,1480,1500.0,1331.04,1498.0
3.672968864440918,157,84,0.005050505050505051,1480,1500.0,1329.6800000000001,1497.0
3.6974217891693115,158,84,0.004784688995215311,1480,1500.0,1328.3199999999999,1498.0
3.7211408615112305,158,84,0.004784688995215311,1480,1500.0,1326.96,1498.0
3.744884967803955,158,84,0.005050505050505051,1480,1500.0,1325.5999999999999,1498.0
3.76845383644104,158,84,0.005050505050505051,1480,1500.0,1325.5999999999999,1498.0
3.792160987854004,158,84,0.0053475935828877,1480,1500.0,1325.5999999999999,1498.0
3.8159098625183105,158,84,0.005050505050505051,1480,1500.0,1325.5999999999999,1498.0
3.8396308422088623,159,84,0.004545454545454545,1480,1500.0,1325.5999999999999,1499.0
3.863252878189087,158,84,0.005050505050505051,1480,1500.0,1325.5999999999999,1498.0
3.886924982070923,158,84,0.005050505050505051,1480,1500.0,1325.5999999999999,1498.0
3.910566806793213,159,84,0.004784688995215311,1480.0,1500.0,1325.5999999999999,1499.0
3.934368848800659,158,84,0.005050505050505051,1480,1500.0,1325.5999999999999,1498.0
3.9582769870758057,159,85,0.005847953216374269,1481.0,1500.0,1322.96,1499.0
3.9821598529815674,158,85,0.004784688995215311,1480,1500.0,1321.52,1498.0
4.005697965621948,158,85,0.004784688995215311,1480,1500.0,1320.0799999999999,1498.0
4.029250860214233,158,85,0.0043859649122807015,1480,1500.0,1318.6400000000001,1498.0
4.052910804748535,158,86,0.004784688995215311,1480,1500.0,1314.5599999999999,1498.0
4.076488971710205,158,86,0.0043859649122807015,1480,1500.0,1314.48,1498.0
4.099975824356079,158,86,0.0043859649122807015,1480,1500.0,1314.4000000000001,1498.0
4.123463869094849,157,87,0.005050505050505051,1480,1500.0,1311.6800000000001,1497.0
4.1471569538116455,158,88,0.004784688995215311,1480,1500.0,1307.52,1498.0
4.170763969421387,158,88,0.004784688995215311,1480,1500.0,1307.3599999999999,1498.0
4.194453001022339,158,88,0.004166666666666667,1480,1500.0,1305.8399999999999,1498.0
4.217955827713013,158,88,0.0043859649122807015,1480,1500.0,1304.3199999999999,1498.0
4.241521835327148,158,89,0.0038461538461538464,1480,1500.0,1302.96,1498.0
4.265208005905151,158,89,0.0043859649122807015,1480,1500.0,1305.5999999999999,1498.0
4.28877592086792,158,90,0.004784688995215311,1480,1500.0,1304.24,1498.0
4.3125739097595215,158,90,0.004629629629629629,1480,1500.0,1304.0799999999999,1498.0
4.336201906204224,159,90,0.0043859649122807015,1480,1500.0,1303.9200000000001,1499.0
4.359724998474121,159,91,0.004545454545454545,1480.0,1500.0,1302.5599999999999,1499.0
4.383551836013794,159,91,0.004166666666666667,1481.0,1500.0,1301.04,1499.0
4.407252788543701,160,92,0.004329004329004329,1485.0,1500.0,1299.6800000000001,1500.0
4.430956840515137,160,92,0.004784688995215311,1487.0,1500.0,1299.52,1500.0
4.454645872116089,160,92,0.0043859649122807015,1489.0,1500.0,1299.3599999999999,1500.0
4.47846794128418,161,95,0.006578947368421052,1494.0,1500.0,1292.72,1501.0
4.502189874649048,160,93,0.004629629629629629,1494.0,1500.0,1294.96,1500.0
4.525805950164795,161,93,0.004166666666666667,1499.0,1500.0,1296.24,1501.0
4.549395799636841,161,93,0.0043859649122807015,1502.0,1500.0,1297.52,1501.0
4.573052883148193,161,93,0.004166666666666667,1504.0,1500.0,1298.8,1501.0
4.5966949462890625,161,93,0.0043859649122807015,1506.0,1500.0,1307.1199999999999,1501.0
4.620298862457275,162,93,0.0043859649122807015,1511.0,1500.0,1309.8399999999999,1502.0
4.6438868045806885,162,93,0.0043859649122807015,1513.0,1500.0,1311.2,1502.0
4.667673826217651,162,94,0.004166666666666667,1515.0,1500.0,1309.9200000000001,1502.0
4.691303968429565,162,94,0.004166666666666667,1517.0,1500.0,1309.8399999999999,1502.0
4.715173959732056,162,94,0.004166666666666667,1518.0,1500.0,1305.6800000000001,1502.0
4.738961935043335,162,94,0.004166666666666667,1520.0,1500.0,1304.24,1502.0
4.762699842453003,163,95,0.005,1520,1500.0,1300.1600000000001,1503.0
4.78633189201355,162,94,0.004166666666666667,1520,1500.0,1302.72,1502.0
4.8097779750823975,163,94,0.0043859649122807015,1520,1500.0,1304.0799999999999,1503.0
4.8333728313446045,162,94,0.004166666666666667,1520,1500.0,1305.4400000000001,1502.0
4.856949806213379,163,94,0.004784688995215311,1520,1500.0,1306.8,1503.0
4.880905866622925,162,94,0.004545454545454545,1520,1500.0,1310.96,1502.0
4.904517889022827,162,94,0.0043859649122807015,1520,1500.0,1310.96,1502.0
4.928009986877441,162,94,0.004166666666666667,1520,1500.0,1310.96,1502.0
4.951539993286133,163,94,0.003968253968253968,1520,1500.0,1310.96,1503.0
4.975343942642212,162,94,0.004166666666666667,1520,1500.0,1310.96,1502.0
4.9990668296813965,163,94,0.003968253968253968,1520,1500.0,1309.5999999999999,1503.0
5.022727966308594,163,94,0.004048582995951417,1520,1500.0,1309.5999999999999,1503.0
5.046538829803467,162,92,0.005,1520,1500.0,1314.8800000000001,1502.0
5.070065975189209,163,93,0.003968253968253968,1520,1500.0,1315.1199999999999,1503.0
5.093768835067749,162,93,0.004166666666666667,1520,1500.0,1316.5599999999999,1502.0
5.117335796356201,163,93,0.003663003663003663,1520,1500.0,1318.0,1503.0
5.140784978866577,163,92,0.003401360544217687,1520,1500.0,1322.0799999999999,1503.0
5.164303779602051,162,93,0.0038461538461538464,1520,1500.0,1316.72,1502.0
5.187795877456665,162,92,0.0038461538461538464,1520,1500.0,1318.0,1502.0
5.211383819580078,162,92,0.003663003663003663,1520,1500.0,1318.0799999999999,1502.0
5.235208988189697,162,92,0.004166666666666667,1520,1500.0,1318.1600000000001,1502.0
5.25869083404541,161,92,0.0038461538461538464,1520,1500.0,1315.4400000000001,1501.0
5.282293796539307,161,92,0.0038461538461538464,1520,1500.0,1318.24,1501.0
5.305959939956665,161,92,0.0034965034965034965,1520,1500.0,1316.8800000000001,1501.0
5.3296308517456055,160,91,0.003787878787878788,1517.0,1500.0,1318.1600000000001,1500.0
5.353289842605591,161,91,0.003401360544217687,1517.0,1500.0,1318.24,1501.0
5.376882791519165,160,90,0.003401360544217687,1512.0,1500.0,1322.3199999999999,1500.0
5.400619983673096,160,90,0.003663003663003663,1510.0,1500.0,1323.8399999999999,1500.0
5.424301862716675,159,89,0.003787878787878788,1505.0,1500.0,1329.3599999999999,1499.0
5.447974920272827,159,90,0.003968253968253968,1502.0,1500.0,1328.24,1499.0
5.4718639850616455,159,90,0.003401360544217687,1499.0,1500.0,1328.3199999999999,1499.0
5.495687961578369,158,91,0.003663003663003663,1494.0,1500.0,1322.96,1498.0
5.519428014755249,158,92,0.0034965034965034965,1491.0,1500.0,1316.1600000000001,1498.0
5.543172836303711,157,92,0.0035714285714285713,1485.0,1500.0,1307.76,1497.0
5.566871881484985,157,91,0.0035714285714285713,1482.0,1500.0,1306.1600000000001,1497.0
5.590681791305542,158,91,0.003401360544217687,1481.0,1500.0,1303.3599999999999,1498.0
5.614311933517456,158,90,0.003787878787878788,1480,1500.0,1307.3599999999999,1498.0
5.637866973876953,158,90,0.0034965034965034965,1480,1500.0,1312.96,1498.0
5.661430835723877,158,90,0.0034965034965034965,1480,1500.0,1319.9200000000001,1498.0
5.685265779495239,158,89,0.003401360544217687,1480,1500.0,1325.3599999999999,1498.0
5.708791971206665,159,89,0.003787878787878788,1480,1500.0,1329.5999999999999,1499.0
5.7324159145355225,159,90,0.0034965034965034965,1480,1500.0,1327.04,1499.0
5.756134986877441,159,90,0.0034965034965034965,1480,1500.0,1324.3199999999999,1499.0
5.77970290184021,159,90,0.003663003663003663,1481.0,1500.0,1321.5999999999999,1499.0
5.803362846374512,159,90,0.0034965034965034965,1483.0,1500.0,1317.4400000000001,1499.0
5.82701301574707,159,90,0.003663003663003663,1484.0,1500.0,1313.28,1499.0
5.850587844848633,159,89,0.003246753246753247,1485.0,1500.0,1315.9200000000001,1499.0
5.874226808547974,158,89,0.0035714285714285713,1483.0,1500.0,1317.3599999999999,1498.0
5.89789891242981,159,89,0.0034965034965034965,1486.0,1500.0,1318.8,1499.0
5.921597003936768,160,89,0.0033444816053511705,1490.0,1500.0,1321.5999999999999,1500.0
5.945515871047974,159,88,0.003246753246753247,1488.0,1500.0,1327.04,1499.0
5.969141960144043,159,88,0.0034965034965034965,1488.0,1500.0,1327.1199999999999,1499.0
5.993027925491333,159,88,0.003787878787878788,1488.0,1500.0,1327.2,1499.0
6.016978979110718,159,89,0.003787878787878788,1488.0,1500.0,1324.6400000000001,1499.0
6.0407187938690186,159,88,0.003246753246753247,1488.0,1500.0,1325.9200000000001,1499.0
6.064494848251343,159,88,0.003246753246753247,1488.0,1500.0,1323.2,1499.0
6.08847188949585,159,88,0.003246753246753247,1488.0,1500.0,1321.8399999999999,1499.0
6.112270832061768,159,88,0.003246753246753247,1489.0,1500.0,1320.48,1499.0
6.135958909988403,160,88,0.003105590062111801,1492.0,1500.0,1321.9200000000001,1500.0
6.159615993499756,160,88,0.003205128205128205,1492.0,1500.0,1320.5599999999999,1500.0
6.183542013168335,160,87,0.003105590062111801,1493.0,1500.0,1323.2,1500.0
6.207414865493774,160,87,0.003105590062111801,1494.0,1500.0,1324.6400000000001,1500.0
6.23124098777771,160,87,0.003105590062111801,1495.0,1500.0,1326.0799999999999,1500.0
6.255101919174194,159,88,0.0034965034965034965,1493.0,1500.0,1323.52,1499.0
6.278751850128174,160,88,0.0033444816053511705,1496.0,1500.0,1323.52,1500.0
6.302541017532349,159,88,0.002976190476190476,1494.0,1500.0,1320.72,1499.0
6.326437950134277,159,88,0.002976190476190476,1494.0,1500.0,1317.9200000000001,1499.0
6.350125789642334,159,89,0.003105590062111801,1494.0,1500.0,1312.48,1499.0
6.373798847198486,159,89,0.002976190476190476,1493.0,1500.0,1311.04,1499.0
6.397377014160156,158,90,0.0034965034965034965,1489.0,1500.0,1306.96,1498.0
6.421041011810303,159,91,0.0033444816053511705,1490.0,1500.0,1302.8,1499.0
6.444911003112793,159,90,0.003105590062111801,1489.0,1500.0,1302.48,1499.0
6.468663930892944,159,90,0.003105590062111801,1488.0,1500.0,1303.76,1499.0
6.492580890655518,159,89,0.002976190476190476,1488.0,1500.0,1306.3199999999999,1499.0
6.516394853591919,159,89,0.002777777777777778,1487.0,1500.0,1310.48,1499.0
6.540011882781982,159,88,0.003205128205128205,1487.0,1500.0,1320.0799999999999,1499.0
6.563666820526123,159,88,0.003105590062111801,1487.0,1500.0,1325.6800000000001,1499.0
6.587281942367554,159,88,0.002976190476190476,1487.0,1500.0,1329.9200000000001,1499.0
6.610809803009033,160,88,0.002976190476190476,1490.0,1500.0,1331.3599999999999,1500.0
6.634511947631836,160,89,0.002857142857142857,1492.0,1500.0,1328.8,1500.0
6.658305883407593,159,89,0.002976190476190476,1490.0,1500.0,1323.28,1499.0
6.682030916213989,159,89,0.002777777777777778,1490.0,1500.0,1319.1199999999999,1499.0
6.705814838409424,159,89,0.002777777777777778,1490.0,1500.0,1314.96,1499.0
6.729426860809326,159,89,0.002976190476190476,1490.0,1500.0,1312.1600000000001,1499.0
6.75314998626709,160,89,0.002857142857142857,1493.0,1500.0,1312.1600000000001,1500.0
6.776780843734741,159,89,0.002777777777777778,1491.0,1500.0,1313.52,1499.0
6.80058479309082,160,88,0.003076923076923077,1494.0,1500.0,1317.52,1500.0
6.824284791946411,160,88,0.0026666666666666666,1495.0,1500.0,1320.3199999999999,1500.0
6.848068952560425,160,88,0.002857142857142857,1495.0,1500.0,1323.1199999999999,1500.0
6.871866941452026,160,87,0.002857142857142857,1495.0,1500.0,1327.2,1500.0
6.895758867263794,160,87,0.002564102564102564,1496.0,1500.0,1330.0799999999999,1500.0
6.91966986656189,158,87,0.003246753246753247,1491.0,1500.0,1330.1600000000001,1498.0
6.943455934524536,159,88,0.002564102564102564,1493.0,1500.0,1327.5999999999999,1499.0
6.967232942581177,158,88,0.002898550724637681,1490.0,1500.0,1326.24,1498.0
6.990907907485962,159,89,0.0026666666666666666,1491.0,1500.0,1319.4400000000001,1499.0
7.014707803726196,158,89,0.002976190476190476,1488.0,1500.0,1313.8399999999999,1498.0
7.038489818572998,159,89,0.002403846153846154,1489.0,1500.0,1309.5999999999999,1499.0
7.062172889709473,159,89,0.002403846153846154,1488.0,1500.0,1308.1600000000001,1499.0
7.085830926895142,159,89,0.0025,1487.0,1500.0,1306.72,1499.0
7.109498977661133,160,89,0.0026666666666666666,1489.0,1500.0,1309.4400000000001,1500.0
7.133209943771362,160,90,0.0026666666666666666,1489.0,1500.0,1309.52,1500.0
7.1569929122924805,159,91,0.003472222222222222,1488.0,1500.0,1308.1600000000001,1499.0
7.180727005004883,160,89,0.002352941176470588,1491.0,1500.0,1311.9200000000001,1500.0
7.204463958740234,161,89,0.002352941176470588,1496.0,1500.0,1313.28,1501.0
7.228014945983887,161,88,0.002976190476190476,1498.0,1500.0,1315.9200000000001,1501.0
7.251959800720215,161,90,0.002352941176470588,1501.0,1500.0,1314.8800000000001,1501.0
7.275990962982178,161,89,0.0027472527472527475,1503.0,1500.0,1321.6800000000001,1501.0
7.299599885940552,161,90,0.0022624434389140274,1505.0,1500.0,1319.04,1501.0
7.323247909545898,162,90,0.002403846153846154,1510.0,1500.0,1317.5999999999999,1502.0
7.346850872039795,161,90,0.002403846153846154,1509.0,1500.0,1313.3599999999999,1501.0
7.370656967163086,161,90,0.0022624434389140274,1510.0,1500.0,1313.3599999999999,1501.0
7.394363880157471,161,90,0.002403846153846154,1512.0,1500.0,1309.2,1501.0
7.417917966842651,162,90,0.002352941176470588,1516.0,1500.0,1310.5599999999999,1502.0
7.4414849281311035,162,91,0.003205128205128205,1517.0,1500.0,1309.28,1502.0
7.465510845184326,163,90,0.0026666666666666666,1520,1500.0,1313.2,1503.0
7.489284992218018,163,89,0.0027472527472527475,1520,1500.0,1315.8399999999999,1503.0
7.512944936752319,163,90,0.0023148148148148147,1520,1500.0,1316.0,1503.0
7.5365519523620605,162,90,0.0022624434389140274,1520,1500.0,1316.0,1502.0
7.560277938842773,163,92,0.003367003367003367,1520,1500.0,1313.52,1503.0
7.583805799484253,163,89,0.0023148148148148147,1520,1500.0,1318.5599999999999,1503.0
7.6073949337005615,161,90,0.002352941176470588,1520,1500.0,1314.5599999999999,1501.0
7.631033897399902,162,88,0.0027472527472527475,1520,1500.0,1319.8399999999999,1502.0
7.65477180480957,162,91,0.0024691358024691358,1520,1500.0,1314.8,1502.0
7.678318977355957,162,91,0.004629629629629629,1520,1500.0,1317.5999999999999,1502.0
7.701987981796265,162,89,0.0023148148148148147,1520,1500.0,1318.6400000000001,1502.0
7.725619792938232,161,92,0.0036363636363636364,1520,1500.0,1313.52,1501.0
7.749109983444214,162,89,0.002178649237472767,1520,1500.0,1312.96,1502.0
7.772713899612427,161,89,0.0021008403361344537,1520,1500.0,1317.2,1501.0
7.796398878097534,162,92,0.003703703703703704,1520,1500.0,1310.8,1502.0
7.819891929626465,161,89,0.002232142857142857,1518.0,1500.0,1314.4000000000001,1501.0
7.843516826629639,161,90,0.0021008403361344537,1518.0,1500.0,1318.8,1501.0
7.867286920547485,162,91,0.002028397565922921,1520.0,1500.0,1316.0799999999999,1502.0
7.891066789627075,161,91,0.002028397565922921,1517.0,1500.0,1310.48,1501.0
7.914979934692383,161,91,0.0021551724137931034,1516.0,1500.0,1313.28,1501.0
7.938661813735962,161,95,0.004464285714285714,1515.0,1500.0,1299.8399999999999,1501.0
7.962339878082275,160,91,0.001984126984126984,1512.0,1500.0,1300.48,1500.0
7.9859888553619385,159,92,0.0021008403361344537,1507.0,1500.0,1300.5599999999999,1499.0
8.009589910507202,159,92,0.0021008403361344537,1505.0,1500.0,1301.8399999999999,1499.0
8.033376932144165,158,91,0.0022624434389140274,1499.0,1500.0,1301.6800000000001,1498.0
8.057029962539673,158,91,0.002232142857142857,1496.0,1500.0,1315.5999999999999,1498.0
8.080713987350464,157,90,0.002403846153846154,1490.0,1500.0,1319.5999999999999,1497.0
8.104520797729492,158,90,0.002178649237472767,1488.0,1500.0,1323.8399999999999,1498.0
8.12818193435669,158,90,0.0019157088122605363,1485.0,1500.0,1328.0799999999999,1498.0
8.152101993560791,157,88,0.003246753246753247,1480,1500.0,1334.8,1497.0
8.175952911376953,157,90,0.002232142857142857,1480,1500.0,1328.4000000000001,1497.0
8.199606895446777,157,89,0.0023148148148148147,1480,1500.0,1329.6800000000001,1497.0
8.223236799240112,157,90,0.0021008403361344537,1480,1500.0,1325.76,1497.0
8.246830940246582,156,89,0.001984126984126984,1480,1500.0,1325.6800000000001,1496.0
8.270396947860718,155,89,0.002403846153846154,1480,1500.0,1320.1600000000001,1495.0
8.294021844863892,156,89,0.0021008403361344537,1480,1500.0,1320.24,1496.0
8.317561864852905,156,88,0.0021008403361344537,1480,1500.0,1321.52,1496.0
8.341116905212402,156,90,0.002976190476190476,1480,1500.0,1319.1199999999999,1496.0
8.36483883857727,156,91,0.003703703703703704,1480,1500.0,1313.6800000000001,1496.0
8.388406991958618,157,87,0.0019157088122605363,1480,1500.0,1322.72,1497.0
8.412163972854614,158,88,0.002352941176470588,1480,1500.0,1321.5999999999999,1498.0
8.43576192855835,156,91,0.003134796238244514,1480,1500.0,1312.3199999999999,1496.0
8.459614992141724,156,89,0.002028397565922921,1480,1500.0,1316.1600000000001,1496.0
8.483350992202759,156,90,0.002380952380952381,1480,1500.0,1319.1199999999999,1496.0
8.506925821304321,158,86,0.002849002849002849,1480,1500.0,1322.6400000000001,1498.0
8.53053879737854,157,92,0.0024630541871921183,1480,1500.0,1308.3199999999999,1497.0
8.554093837738037,157,87,0.0021551724137931034,1480,1500.0,1324.1600000000001,1497.0
8.577608823776245,155,88,0.001984126984126984,1480,1500.0,1323.04,1495.0
8.601143836975098,158,92,0.0027472527472527475,1480,1500.0,1314.0,1498.0
8.62488079071045,156,89,0.002551020408163265,1480,1500.0,1311.9200000000001,1496.0
8.64841079711914,163,93,0.008928571428571428,1480,1500.0,1311.1199999999999,1503.0
8.672050952911377,156,91,0.001984126984126984,1480,1500.0,1302.3199999999999,1496.0
8.695780992507935,156,86,0.005952380952380952,1480,1500.0,1309.8399999999999,1496.0
8.719424962997437,156,92,0.0019157088122605363,1480,1500.0,1305.3599999999999,1496.0
8.743100881576538,157,97,0.0034482758620689655,1480,1500.0,1291.9200000000001,1497.0
8.766660928726196,157,98,0.005291005291005291,1480,1500.0,1284.8800000000001,1497.0
8.790109872817993,157,94,0.002652519893899204,1480,1500.0,1290.8,1497.0
8.813896894454956,166,89,0.004201680672268907,1494.0,1500.0,1289.76,1506.0
8.837568998336792,157,94,0.004807692307692308,1480,1500.0,1280.8800000000001,1497.0
8.861140966415405,159,97,0.0044444444444444444,1482.0,1500.0,1288.1600000000001,1499.0
8.884890794754028,159,96,0.00510204081632653,1480,1500.0,1299.04,1499.0
8.908332824707031,160,95,0.0024813895781637717,1484.0,1500.0,1302.8800000000001,1500.0
8.932002782821655,158,97,0.004273504273504274,1482.0,1500.0,1293.04,1498.0
8.95583987236023,159,89,0.008,1487.0,1500.0,1312.5599999999999,1499.0
8.97954797744751,161,85,0.0030303030303030303,1495.0,1500.0,1334.6400000000001,1501.0
9.003345966339111,159,94,0.003703703703703704,1493.0,1500.0,1324.0,1499.0
9.027009010314941,156,95,0.009259259259259259,1486.0,1500.0,1324.1600000000001,1496.0
9.050614833831787,160,92,0.0027472527472527475,1488.0,1500.0,1345.8399999999999,1500.0
9.074158906936646,161,90,0.0024630541871921183,1494.0,1500.0,1340.0,1501.0
9.097898960113525,160,93,0.004273504273504274,1493.0,1500.0,1308.5599999999999,1500.0
9.121604919433594,160,90,0.0018796992481203006,1494.0,1500.0,1315.2,1500.0
9.145485877990723,159,89,0.004347826086956522,1491.0,1500.0,1325.04,1499.0
9.169116973876953,160,88,0.00625,1495.0,1500.0,1325.2,1500.0
9.192858934402466,160,89,0.002380952380952381,1496.0,1500.0,1326.8,1500.0
9.216645002365112,160,87,0.0026455026455026454,1495.0,1500.0,1348.72,1500.0
9.240232944488525,161,92,0.0027472527472527475,1499.0,1500.0,1334.4000000000001,1501.0
9.263942956924438,160,88,0.002232142857142857,1501.0,1500.0,1332.48,1500.0
9.28769588470459,163,90,0.002150537634408602,1510.0,1500.0,1321.76,1503.0
9.311464786529541,162,92,0.003703703703703704,1509.0,1500.0,1313.6800000000001,1502.0
9.335411787033081,167,87,0.004132231404958678,1520,1500.0,1311.52,1507.0
9.358979940414429,165,90,0.0018975332068311196,1520,1500.0,1313.52,1505.0
9.382636785507202,160,90,0.002777777777777778,1518.0,1500.0,1309.28,1500.0
9.406467914581299,164,94,0.005376344086021506,1520,1500.0,1301.4400000000001,1504.0
9.429960012435913,164,90,0.0026455026455026454,1520,1500.0,1313.2,1504.0
9.45347285270691,164,93,0.003246753246753247,1520,1500.0,1300.96,1504.0
9.476975917816162,163,92,0.0028735632183908046,1520,1500.0,1296.5599999999999,1503.0
9.500454902648926,164,95,0.006666666666666667,1520,1500.0,1288.48,1504.0
9.523896932601929,163,87,0.0016666666666666668,1520,1500.0,1313.5999999999999,1503.0
9.547510862350464,160,81,0.01,1520,1500.0,1331.04,1500.0
9.571009874343872,168,82,0.006493506493506494,1520,1500.0,1350,1508.0
9.59438180923462,165,87,0.002150537634408602,1520,1500.0,1350,1505.0
9.618122816085815,164,87,0.001697792869269949,1520,1500.0,1350,1504.0
9.641976833343506,163,86,0.0017543859649122807,1520,1500.0,1350,1503.0
9.66554880142212,162,91,0.003134796238244514,1520,1500.0,1336.5599999999999,1502.0
9.68949294090271,164,89,0.0024691358024691358,1520,1500.0,1313.9200000000001,1504.0
9.713063955307007,163,86,0.0024813895781637717,1520,1500.0,1312.1600000000001,1503.0
9.73668885231018,167,84,0.003125,1520,1500.0,1308.0,1507.0
9.760354995727539,162,83,0.0024813895781637717,1520,1500.0,1312.1600000000001,1502.0
9.783926010131836,160,90,0.002932551319648094,1520,1500.0,1318.8,1500.0
9.807565927505493,159,90,0.0033333333333333335,1520,1500.0,1326.8800000000001,1499.0
9.831206798553467,161,88,0.002304147465437788,1520,1500.0,1325.04,1501.0
9.855013847351074,159,84,0.0022988505747126436,1518.0,1500.0,1325.76,1499.0
9.878875970840454,159,92,0.004608294930875576,1514.0,1500.0,1299.1199999999999,1499.0
9.902543783187866,159,93,0.004608294930875576,1511.0,1500.0,1292.24,1499.0
9.926337003707886,155,89,0.002976190476190476,1494.0,1500.0,1299.8399999999999,1495.0
9.949942827224731,158,93,0.005952380952380952,1495.0,1500.0,1290.5599999999999,1498.0
9.973627805709839,160,90,0.0026041666666666665,1492.0,1500.0,1285.52,1500.0
9.99727487564087,158,90,0.003076923076923077,1484.0,1500.0,1300.6400000000001,1498.0
10.020867824554443,160,87,0.0015360983102918587,1488.0,1500.0,1316.96,1500.0
10.04443883895874,159,91,0.003134796238244514,1486.0,1500.0,1307.9200000000001,1499.0
10.06807279586792,161,81,0.005,1490.0,1500.0,1344.0,1501.0
10.092070817947388,162,87,0.002331002331002331,1495.0,1500.0,1349.28,1502.0
10.115866899490356,161,87,0.001488095238095238,1495.0,1500.0,1350,1501.0
10.139437913894653,159,91,0.0030303030303030303,1491.0,1500.0,1332.1600000000001,1499.0
10.163114786148071,161,84,0.0032258064516129032,1501.0,1500.0,1350,1501.0
10.186781883239746,161,90,0.002150537634408602,1504.0,1500.0,1316.8800000000001,1501.0
10.210306882858276,161,93,0.00390625,1505.0,1500.0,1300.5599999999999,1501.0
10.234062910079956,161,87,0.001466275659824047,1508.0,1500.0,1303.6800000000001,1501.0
10.257741928100586,161,93,0.004032258064516129,1509.0,1500.0,1299.04,1501.0
10.281344890594482,162,82,0.0030303030303030303,1514.0,1500.0,1305.5999999999999,1502.0
10.305126905441284,161,87,0.001644736842105263,1512.0,1500.0,1316.1600000000001,1501.0
10.328828811645508,166,93,0.007518796992481203,1520,1500.0,1317.1199999999999,1506.0
10.3524649143219,160,86,0.001488095238095238,1513.0,1500.0,1326.96,1500.0
10.376261949539185,159,83,0.0024813895781637717,1511.0,1500.0,1347.6800000000001,1499.0
10.39996886253357,159,92,0.002932551319648094,1509.0,1500.0,1319.76,1499.0
10.423689842224121,159,86,0.001443001443001443,1507.0,1500.0,1324.3199999999999,1499.0
10.447496891021729,158,87,0.001893939393939394,1502.0,1500.0,1331.76,1498.0
10.471160888671875,163,93,0.004830917874396135,1514.0,1500.0,1313.1199999999999,1503.0
10.495113849639893,152,92,0.004166666666666667,1483.0,1500.0,1287.76,1492.0
10.518932819366455,157,90,0.003787878787878788,1488.0,1500.0,1306.6400000000001,1497.0
10.542665958404541,156,89,0.0020161290322580645,1481.0,1500.0,1302.1600000000001,1496.0
10.566365957260132,154,87,0.0019157088122605363,1480,1500.0,1296.4000000000001,1494.0
10.589943885803223,155,89,0.0020161290322580645,1480,1500.0,1309.28,1495.0
10.613456010818481,155,91,0.002150537634408602,1480,1500.0,1320.5599999999999,1495.0
10.637034893035889,155,90,0.0017825311942959,1480,1500.0,1319.04,1495.0
10.660756826400757,155,92,0.0025252525252525255,1480,1500.0,1316.4000000000001,1495.0
10.68446397781372,154,88,0.003125,1480,1500.0,1319.76,1494.0
10.707958936691284,161,83,0.004347826086956522,1480,1500.0,1328.96,1501.0
10.73150897026062,155,81,0.0025252525252525255,1480,1500.0,1344.4000000000001,1495.0
10.755270957946777,154,86,0.0012987012987012987,1480,1500.0,1344.1600000000001,1494.0
10.778823852539062,154,86,0.0013774104683195593,1480,1500.0,1350,1494.0
10.802393913269043,153,88,0.0017301038062283738,1480,1500.0,1350,1493.0
10.826171875,152,86,0.0012787723785166241,1480,1500.0,1345.76,1492.0
10.849889993667603,151,93,0.0017301038062283738,1480,1500.0,1306.48,1491.0
10.87349796295166,151,87,0.0015432098765432098,1480,1500.0,1306.8,1491.0
10.897532939910889,152,85,0.0012422360248447205,1480,1500.0,1302.48,1492.0
10.92125678062439,151,80,0.003968253968253968,1480,1500.0,1320.0,1491.0
10.945081949234009,152,83,0.001984126984126984,1480,1500.0,1324.8,1492.0
10.968755960464478,152,87,0.0008445945945945946,1480,1500.0,1344.96,1492.0
10.9924898147583,151,85,0.00102880658436214,1480,1500.0,1350,1491.0
11.016283988952637,151,87,0.0010395010395010396,1480,1500.0,1344.96,1491.0
11.039821863174438,151,88,0.0013774104683195593,1480,1500.0,1321.3599999999999,1491.0
11.063484907150269,151,85,0.0023148148148148147,1480,1500.0,1318.0,1491.0
11.087417840957642,151,86,0.0012077294685990338,1480,1500.0,1310.0799999999999,1491.0
11.111482858657837,151,87,0.0011312217194570137,1480,1500.0,1303.28,1491.0
11.135267972946167,151,84,0.0016339869281045752,1480,1500.0,1313.9200000000001,1491.0
11.158912897109985,152,87,0.0011904761904761906,1480,1500.0,1322.6400000000001,1492.0
11.182565927505493,151,89,0.0009074410163339383,1480,1500.0,1317.2,1491.0
11.206363916397095,151,87,0.001142857142857143,1480,1500.0,1316.8,1491.0
11.23005199432373,151,87,0.0010683760683760685,1480,1500.0,1319.52,1491.0
11.25359582901001,152,90,0.0014619883040935672,1480,1500.0,1303.2,1492.0
11.27710485458374,152,88,0.0010121457489878543,1480,1500.0,1302.8,1492.0
11.300880908966064,155,94,0.0022222222222222222,1480,1500.0,1293.8399999999999,1495.0
11.32452392578125,152,97,0.0019305019305019305,1480,1500.0,1277.2,1492.0
11.348081827163696,153,92,0.0012787723785166241,1480,1500.0,1276.0,1493.0
11.371543884277344,154,91,0.0008960573476702509,1480,1500.0,1283.9200000000001,1494.0
11.395392894744873,154,94,0.0018018018018018018,1480,1500.0,1273.04,1494.0
11.418986797332764,155,85,0.001736111111111111,1480,1500.0,1303.5999999999999,1495.0
11.442850828170776,156,88,0.001001001001001001,1480,1500.0,1326.5599999999999,1496.0
11.466689825057983,155,87,0.0008841732979664014,1480,1500.0,1341.76,1495.0
11.490261793136597,155,89,0.0010416666666666667,1480,1500.0,1343.5999999999999,1495.0
11.513928890228271,155,89,0.0008271298593879239,1480,1500.0,1350,1495.0
11.537307977676392,155,86,0.0011655011655011655,1480,1500.0,1348.8800000000001,1495.0
11.560922861099243,155,87,0.0009074410163339383,1480,1500.0,1336.8800000000001,1495.0
11.584594011306763,158,87,0.0010395010395010396,1480,1500.0,1330.0799999999999,1498.0
11.608186960220337,157,90,0.0006253908692933083,1480,1500.0,1322.3199999999999,1497.0
11.631841897964478,158,90,0.0008410428931875525,1480,1500.0,1314.0799999999999,1498.0
11.655466794967651,158,85,0.0007173601147776184,1480,1500.0,1322.8800000000001,1498.0
11.679112911224365,158,85,0.0008064516129032258,1480,1500.0,1324.4000000000001,1498.0
11.702802896499634,159,90,0.000777000777000777,1480,1500.0,1314.0799999999999,1499.0
11.726464986801147,158,85,0.0007352941176470588,1480,1500.0,1328.6400000000001,1498.0
11.749980926513672,159,87,0.000925925925925926,1480,1500.0,1331.9200000000001,1499.0
11.773549795150757,160,92,0.0012836970474967907,1480.0,1500.0,1314.48,1500.0
11.797212839126587,158,89,0.0010683760683760685,1480,1500.0,1309.5999999999999,1498.0
11.820884943008423,160,86,0.0008130081300813008,1485.0,1500.0,1323.04,1500.0
11.844558954238892,160,89,0.0008710801393728223,1488.0,1500.0,1306.8800000000001,1500.0
11.868137836456299,160,88,0.0008503401360544217,1490.0,1500.0,1302.5599999999999,1500.0
11.891690015792847,160,88,0.0008410428931875525,1492.0,1500.0,1317.8399999999999,1500.0
11.915680885314941,161,87,0.0008019246190858059,1497.0,1500.0,1327.3599999999999,1501.0
11.939411878585815,160,85,0.0008210180623973727,1496.0,1500.0,1325.76,1500.0
11.9632248878479,160,84,0.0007215007215007215,1498.0,1500.0,1339.5999999999999,1500.0
11.986909866333008,160,83,0.0008210180623973727,1499.0,1500.0,1349.3599999999999,1500.0
12.010655879974365,160,81,0.0005813953488372093,1499.0,1500.0,1350,1500.0
12.034388780593872,160,82,0.0007047216349541931,1501.0,1500.0,1350,1500.0
12.057937860488892,160,85,0.0007836990595611285,1501.0,1500.0,1350,1500.0
12.081843852996826,160,88,0.0007002801120448179,1501.0,1500.0,1338.5599999999999,1500.0
12.1055748462677,159,88,0.0007680491551459293,1498.0,1500.0,1324.5599999999999,1499.0
12.12935996055603,161,85,0.0007867820613690008,1503.0,1500.0,1312.8800000000001,1501.0
12.153029918670654,161,88,0.0008417508417508417,1503.0,1500.0,1293.8399999999999,1501.0
12.176843881607056,161,81,0.0007002801120448179,1504.0,1500.0,1308.0,1501.0
12.200555801391602,161,84,0.0007047216349541931,1505.0,1500.0,1315.5999999999999,1501.0
12.224339962005615,163,86,0.0006747638326585695,1512.0,1500.0,1322.8800000000001,1503.0
12.248097896575928,163,82,0.0007168458781362007,1515.0,1500.0,1337.4400000000001,1503.0
12.271976947784424,163,83,0.0007751937984496124,1518.0,1500.0,1350,1503.0
12.295710802078247,163,85,0.000744047619047619,1520,1500.0,1338.0,1503.0
12.319442987442017,162,83,0.0006684491978609625,1520,1500.0,1336.4000000000001,1502.0
12.343014001846313,163,84,0.0006734006734006734,1520,1500.0,1335.3599999999999,1503.0
12.36669397354126,163,85,0.0007407407407407407,1520,1500.0,1325.76,1503.0
