time,x,y,size_inv,roll,pitch,thrust,yaw
0.00042700767517089844,196,56,0.0053475935828877,1510.8,1502.0,1350,1500.0
0.022452831268310547,195,56,0.005050505050505051,1510.5,1502.0,1350,1500.0
0.044432878494262695,195,56,0.005050505050505051,1510.5,1502.0,1350,1500.0
0.06615805625915527,196,56,0.0053475935828877,1510.8,1502.0,1350,1500.0
0.08781790733337402,195,56,0.006060606060606061,1510.5,1502.0,1350,1500.0
0.11008191108703613,196,56,0.0053475935828877,1510.8,1502.0,1350,1500.0
0.13210105895996094,196,56,0.0053475935828877,1510.8,1502.0,1350,1500.0
0.15412282943725586,196,56,0.0053475935828877,1510.8,1502.0,1350,1500.0
0.17613601684570312,195,56,0.005050505050505051,1510.5,1502.0,1350,1500.0
0.19831490516662598,195,56,0.005050505050505051,1510.5,1502.0,1350,1500.0
0.22048187255859375,196,56,0.0053475935828877,1511.0999999999999,1502.0,1350,1500.0
0.24281883239746094,196,56,0.005050505050505051,1510.8,1502.0,1350,1500.0
0.26516103744506836,196,56,0.005050505050505051,1510.5,1502.0,1350,1500.0
0.2874948978424072,196,55,0.005263157894736842,1511.0999999999999,1502.0,1350,1500.0
0.3100919723510742,195,55,0.005050505050505051,1510.8,1502.0,1350,1500.0
0.3324289321899414,193,52,0.006172839506172839,1509.3,1502.0,1350,1500.0
0.3547790050506592,193,50,0.006535947712418301,1508.4000000000001,1502.0,1350,1500.0
0.37711191177368164,192,48,0.006172839506172839,1506.9000000000001,1502.0,1350,1500.0
0.3996000289916992,192,47,0.005555555555555556,1505.4000000000001,1502.0,1350,1500.0
0.42192792892456055,192,49,0.006172839506172839,1504.5,1502.0,1350,1500.0
0.4442570209503174,192,51,0.006535947712418301,1505.0999999999999,1502.0,1350,1500.0
0.4665830135345459,191,54,0.006172839506172839,1505.0999999999999,1502.0,1350,1500.0
0.4890918731689453,191,56,0.006535947712418301,1506.0,1502.0,1350,1500.0
0.5114109516143799,191,58,0.0058823529411764705,1506.9000000000001,1502.0,1347.2,1500.0
0.5339598655700684,190,60,0.005555555555555556,1506.9000000000001,1502.0,1320.8,1500.0
0.5563209056854248,190,61,0.005555555555555556,1506.5999999999999,1502.0,1303.8399999999999,1500.0
0.5788528919219971,190,63,0.005263157894736842,1506.9000000000001,1502.0,1293.9200000000001,1500.0
0.601233959197998,190,64,0.005555555555555556,1506.9000000000001,1502.0,1292.0799999999999,1500.0
0.6236238479614258,190,65,0.005263157894736842,1506.9000000000001,1502.0,1295.76,1500.0
0.6461939811706543,190,67,0.004784688995215311,1507.5,1502.0,1298.24,1500.0
0.6685459613800049,190,68,0.004784688995215311,1508.0999999999999,1502.0,1300.5599999999999,1500.0
0.690932035446167,190,68,0.005555555555555556,1508.4000000000001,1502.0,1305.5999999999999,1500.0
0.713325023651123,190,69,0.004784688995215311,1508.7,1502.0,1308.0799999999999,1500.0
0.7357070446014404,190,69,0.005555555555555556,1509.0,1502.0,1311.8399999999999,1500.0
0.7582659721374512,190,70,0.004784688995215311,1509.0,1502.0,1315.8399999999999,1500.0
0.7807009220123291,190,70,0.004784688995215311,1509.0,1502.0,1322.48,1500.0
0.803074836730957,190,70,0.005555555555555556,1509.0,1502.0,1326.4000000000001,1500.0
0.8254568576812744,189,71,0.005555555555555556,1508.4000000000001,1502.0,1329.1199999999999,1500.0
0.848067045211792,189,72,0.005555555555555556,1508.0999999999999,1502.0,1329.04,1500.0
0.870520830154419,189,73,0.005263157894736842,1507.8,1502.0,1327.5999999999999,1500.0
0.892920970916748,189,74,0.005263157894736842,1507.5,1502.0,1323.3599999999999,1500.0
0.9157829284667969,189,75,0.005263157894736842,1507.2,1502.0,1317.6800000000001,1500.0
0.940418004989624,188,77,0.005050505050505051,1506.9000000000001,1502.0,1309.3599999999999,1500.0
0.9650759696960449,188,78,0.005263157894736842,1506.9000000000001,1502.0,1303.5999999999999,1500.0
0.9895360469818115,188,79,0.004784688995215311,1506.9000000000001,1502.0,1297.8399999999999,1500.0
1.0138099193572998,187,81,0.004784688995215311,1506.3,1502.0,1290.8,1500.0
1.0381100177764893,187,81,0.005263157894736842,1506.0,1502.0,1288.96,1500.0
1.062384843826294,186,82,0.005050505050505051,1505.4000000000001,1502.0,1288.72,1500.0
1.086616039276123,186,83,0.004784688995215311,1505.0999999999999,1502.0,1288.48,1500.0
1.1112060546875,186,83,0.005263157894736842,1504.8,1502.0,1290.8800000000001,1500.0
1.1355159282684326,185,85,0.004784688995215311,1504.5,1502.0,1292.24,1500.0
1.1597349643707275,184,86,0.004784688995215311,1503.9000000000001,1502.0,1292.0,1500.0
1.1839749813079834,183,87,0.004784688995215311,1503.3,1502.0,1290.4000000000001,1500.0
1.2083208560943604,183,88,0.004784688995215311,1503.0,1502.0,1288.8,1500.0
1.2326769828796387,182,88,0.005263157894736842,1502.0999999999999,1502.0,1287.04,1500.0
1.256937026977539,181,89,0.005050505050505051,1501.2,1502.0,1285.52,1500.0
1.2816369533538818,180,90,0.004784688995215311,1500.5999999999999,1502.0,1285.3599999999999,1500.0
1.3058929443359375,180,91,0.004784688995215311,1500.5999999999999,1502.0,1285.2,1500.0
1.3301379680633545,179,91,0.004784688995215311,1500.0,1502.0,1287.6800000000001,1500.0
1.354382038116455,178,92,0.004784688995215311,1499.7,1502.0,1287.52,1500.0
1.3786840438842773,178,92,0.004784688995215311,1500.0,1502.0,1288.6400000000001,1500.0
1.4029769897460938,177,92,0.004784688995215311,1500.0,1502.0,1291.2,1500.0
1.427182912826538,175,93,0.004545454545454545,1498.8,1502.0,1292.5599999999999,1500.0
1.4518189430236816,175,94,0.004784688995215311,1498.8,1502.0,1291.1199999999999,1500.0
1.4760570526123047,174,94,0.005050505050505051,1498.5,1502.0,1293.6800000000001,1500.0
1.5003209114074707,173,94,0.005050505050505051,1497.5999999999999,1502.0,1294.8800000000001,1500.0
1.5246200561523438,172,95,0.004545454545454545,1496.7,1502.0,1292.0799999999999,1500.0
1.5489978790283203,171,95,0.004784688995215311,1496.7,1502.0,1291.9200000000001,1500.0
1.5732879638671875,170,95,0.004784688995215311,1496.0999999999999,1502.0,1294.5599999999999,1500.0
1.5975439548492432,169,95,0.004545454545454545,1495.5,1502.0,1295.8399999999999,1500.0
1.6222178936004639,169,95,0.004784688995215311,1495.8,1502.0,1297.1199999999999,1500.0
1.6464998722076416,168,95,0.004784688995215311,1495.8,1502.0,1301.2,1500.0
1.6711218357086182,166,95,0.004784688995215311,1494.9000000000001,1502.0,1303.9200000000001,1500.0
1.6954009532928467,165,95,0.004545454545454545,1494.5999999999999,1502.0,1305.28,1500.0
1.7196738719940186,165,95,0.0043859649122807015,1494.9000000000001,1502.0,1306.6400000000001,1500.0
1.7439470291137695,165,95,0.0043859649122807015,1494.9000000000001,1502.0,1308.0,1500.0
1.7682359218597412,163,96,0.005050505050505051,1494.0,1502.0,1305.3599999999999,1500.0
1.7925808429718018,162,96,0.004784688995215311,1494.0,1502.0,1303.9200000000001,1500.0
1.816856861114502,161,96,0.0043859649122807015,1494.0,1502.0,1302.48,1500.0
1.841541051864624,160,97,0.004784688995215311,1493.4000000000001,1502.0,1298.4000000000001,1500.0
1.8658089637756348,159,97,0.004545454545454545,1492.5,1502.0,1295.52,1500.0
1.8913309574127197,159,97,0.004784688995215311,1492.8,1502.0,1295.4400000000001,1500.0
1.9156279563903809,158,97,0.004784688995215311,1492.5,1502.0,1295.3599999999999,1500.0
1.939945936203003,156,96,0.005050505050505051,1491.5999999999999,1502.0,1297.9200000000001,1500.0
1.96433687210083,156,96,0.005050505050505051,1491.9000000000001,1502.0,1302.0799999999999,1500.0
1.9888148307800293,155,95,0.004784688995215311,1492.2,1502.0,1308.8800000000001,1500.0
2.013396978378296,154,95,0.004784688995215311,1491.5999999999999,1502.0,1313.1199999999999,1500.0
2.0376789569854736,153,94,0.004545454545454545,1491.0,1502.0,1320.0,1500.0
2.0620269775390625,152,93,0.004784688995215311,1491.0,1502.0,1325.52,1500.0
2.0859408378601074,151,93,0.005050505050505051,1490.4000000000001,1502.0,1328.48,1500.0
2.109802007675171,150,93,0.004545454545454545,1489.8,1502.0,1328.6400000000001,1500.0
2.133668899536133,150,93,0.0043859649122807015,1490.0999999999999,1502.0,1328.8,1500.0
2.157531976699829,149,93,0.0043859649122807015,1490.0999999999999,1502.0,1326.1600000000001,1500.0
2.18149995803833,148,93,0.0043859649122807015,1489.8,1502.0,1322.0799999999999,1500.0
2.205368995666504,146,94,0.004784688995215311,1489.2,1502.0,1315.3599999999999,1500.0
2.229491949081421,145,94,0.004784688995215311,1488.9000000000001,1502.0,1311.2,1500.0
2.253386974334717,145,94,0.004784688995215311,1488.5999999999999,1502.0,1307.04,1500.0
2.277225971221924,143,93,0.004166666666666667,1487.4000000000001,1502.0,1306.8800000000001,1500.0
2.301162004470825,143,93,0.004784688995215311,1487.0999999999999,1502.0,1306.8800000000001,1500.0
2.3250138759613037,142,92,0.004629629629629629,1487.0999999999999,1502.0,1312.3199999999999,1500.0
2.3489859104156494,140,91,0.004545454545454545,1486.5,1502.0,1319.2,1500.0
2.3728718757629395,140,91,0.004784688995215311,1486.5,1502.0,1324.8800000000001,1500.0
2.3967208862304688,139,90,0.004166666666666667,1486.8,1502.0,1330.4000000000001,1500.0
2.420574903488159,139,91,0.004784688995215311,1487.0999999999999,1502.0,1332.0799999999999,1500.0
2.4444549083709717,138,90,0.0043859649122807015,1486.8,1502.0,1333.4400000000001,1500.0
2.4683799743652344,137,90,0.004784688995215311,1487.0999999999999,1502.0,1330.8,1500.0
2.492310047149658,136,90,0.004784688995215311,1487.0999999999999,1502.0,1328.1600000000001,1500.0
2.516188859939575,135,89,0.004629629629629629,1486.8,1502.0,1326.72,1500.0
2.540083885192871,135,89,0.004784688995215311,1486.8,1502.0,1326.8800000000001,1500.0
2.5639419555664062,134,89,0.004784688995215311,1486.5,1502.0,1325.5999999999999,1500.0
2.5877859592437744,133,89,0.004545454545454545,1485.9000000000001,1502.0,1325.6800000000001,1500.0
2.6118268966674805,133,89,0.004545454545454545,1486.2,1502.0,1325.76,1500.0
2.6357250213623047,132,88,0.004784688995215311,1486.2,1502.0,1327.04,1500.0
2.6596388816833496,132,87,0.0043859649122807015,1486.5,1502.0,1328.4000000000001,1500.0
2.683505058288574,131,87,0.004784688995215311,1486.5,1502.0,1329.9200000000001,1500.0
2.707331895828247,131,86,0.0043859649122807015,1487.0999999999999,1502.0,1334.0799999999999,1500.0
2.731405019760132,130,86,0.004545454545454545,1486.8,1502.0,1337.04,1500.0
2.7552690505981445,130,85,0.0043859649122807015,1487.0999999999999,1502.0,1341.2,1500.0
2.779125928878784,129,85,0.0043859649122807015,1486.8,1502.0,1341.3599999999999,1500.0
2.8029839992523193,129,85,0.0043859649122807015,1487.0999999999999,1502.0,1341.52,1500.0
2.826824903488159,128,85,0.0043859649122807015,1486.5,1502.0,1338.8800000000001,1500.0
2.8506760597229004,128,85,0.0043859649122807015,1486.8,1502.0,1336.24,1500.0
2.874560832977295,127,85,0.004784688995215311,1486.2,1502.0,1332.1600000000001,1500.0
2.898460865020752,127,85,0.004784688995215311,1486.5,1502.0,1329.4400000000001,1500.0
2.922412872314453,126,84,0.0043859649122807015,1485.9000000000001,1502.0,1329.3599999999999,1500.0
2.946341037750244,125,84,0.004166666666666667,1485.5999999999999,1502.0,1329.4400000000001,1500.0
2.9702298641204834,125,84,0.004166666666666667,1485.3,1502.0,1329.52,1500.0
2.9942450523376465,125,84,0.004166666666666667,1485.5999999999999,1502.0,1330.96,1500.0
3.0183889865875244,124,84,0.004629629629629629,1485.0,1502.0,1332.4000000000001,1500.0
3.0423789024353027,124,84,0.0043859649122807015,1485.3,1502.0,1331.04,1500.0
3.066261053085327,124,83,0.0043859649122807015,1485.9000000000001,1502.0,1332.3199999999999,1500.0
3.090137004852295,123,83,0.004166666666666667,1485.9000000000001,1502.0,1332.4000000000001,1500.0
3.1139938831329346,123,84,0.005050505050505051,1485.9000000000001,1502.0,1329.8399999999999,1500.0
3.137903928756714,123,83,0.0043859649122807015,1486.5,1502.0,1331.1199999999999,1500.0
3.1618590354919434,123,83,0.0043859649122807015,1486.8,1502.0,1332.5599999999999,1500.0
3.1857118606567383,123,83,0.0043859649122807015,1486.8,1502.0,1331.2,1500.0
3.20955491065979,122,84,0.004784688995215311,1486.8,1502.0,1327.2,1500.0
3.233422040939331,122,84,0.0043859649122807015,1487.0999999999999,1502.0,1327.2,1500.0
3.257274866104126,122,85,0.0043859649122807015,1487.0999999999999,1502.0,1321.76,1500.0
3.2812628746032715,122,85,0.0043859649122807015,1487.0999999999999,1502.0,1317.52,1500.0
3.3051059246063232,122,85,0.0043859649122807015,1487.0999999999999,1502.0,1314.6400000000001,1500.0
3.3292160034179688,121,85,0.004166666666666667,1486.8,1502.0,1314.5599999999999,1500.0
3.353132963180542,121,85,0.004545454545454545,1486.8,1502.0,1313.1199999999999,1500.0
3.376987934112549,121,85,0.004784688995215311,1486.8,1502.0,1315.8399999999999,1500.0
3.4008328914642334,121,85,0.0043859649122807015,1486.8,1502.0,1318.5599999999999,1500.0
3.4247219562530518,121,85,0.0043859649122807015,1486.8,1502.0,1321.28,1500.0
3.4486849308013916,121,85,0.0043859649122807015,1487.0999999999999,1502.0,1322.6400000000001,1500.0
3.47263503074646,120,85,0.004166666666666667,1486.8,1502.0,1324.0,1500.0
3.496492862701416,121,85,0.004048582995951417,1487.4000000000001,1502.0,1324.0,1500.0
3.5203540325164795,120,85,0.004166666666666667,1487.0999999999999,1502.0,1324.0,1500.0
3.544222831726074,120,85,0.004166666666666667,1487.0999999999999,1502.0,1324.0,1500.0
3.5681169033050537,121,85,0.0043859649122807015,1487.4000000000001,1502.0,1324.0,1500.0
3.592015027999878,121,86,0.0043859649122807015,1488.0,1502.0,1321.3599999999999,1500.0
3.6158699989318848,121,86,0.0043859649122807015,1488.0,1502.0,1319.9200000000001,1500.0
3.6397159099578857,121,86,0.0043859649122807015,1488.5999999999999,1502.0,1318.48,1500.0
3.663532018661499,121,87,0.0043859649122807015,1489.2,1502.0,1314.4000000000001,1500.0
3.687384843826294,121,87,0.0043859649122807015,1489.2,1502.0,1311.52,1500.0
3.7113490104675293,121,87,0.004166666666666667,1488.9000000000001,1502.0,1311.4400000000001,1500.0
3.7351880073547363,121,87,0.0043859649122807015,1488.9000000000001,1502.0,1311.3599999999999,1500.0
3.759023904800415,121,87,0.004166666666666667,1488.5999999999999,1502.0,1311.28,1500.0
3.782876968383789,121,87,0.0043859649122807015,1488.3,1502.0,1314.0,1500.0
3.806701898574829,122,87,0.0043859649122807015,1488.9000000000001,1502.0,1316.72,1500.0
3.830549955368042,122,87,0.0043859649122807015,1489.2,1502.0,1318.0799999999999,1500.0
3.8544139862060547,122,87,0.004048582995951417,1489.5,1502.0,1319.4400000000001,1500.0
3.8783199787139893,122,87,0.004048582995951417,1489.8,1502.0,1320.8,1500.0
3.902207851409912,123,86,0.0043859649122807015,1490.7,1502.0,1323.4400000000001,1500.0
3.926058053970337,122,87,0.0038461538461538464,1490.0999999999999,1502.0,1322.24,1500.0
3.9499659538269043,123,87,0.0043859649122807015,1490.4000000000001,1502.0,1322.24,1500.0
3.9738929271698,124,88,0.004048582995951417,1491.0,1502.0,1319.5999999999999,1500.0
3.9977898597717285,124,88,0.004048582995951417,1491.3,1502.0,1318.1600000000001,1500.0
4.021776914596558,124,88,0.004048582995951417,1491.0,1502.0,1313.9200000000001,1500.0
4.045626878738403,124,87,0.004166666666666667,1491.5999999999999,1502.0,1315.1199999999999,1500.0
4.06946587562561,124,87,0.004166666666666667,1491.5999999999999,1502.0,1315.1199999999999,1500.0
4.093308925628662,125,87,0.0043859649122807015,1491.5999999999999,1502.0,1317.9200000000001,1500.0
4.117189884185791,125,87,0.004166666666666667,1491.3,1502.0,1320.72,1500.0
4.141180992126465,125,87,0.004166666666666667,1491.3,1502.0,1324.8800000000001,1500.0
4.165019989013672,126,87,0.0043859649122807015,1491.5999999999999,1502.0,1324.8800000000001,1500.0
4.188915014266968,126,88,0.004048582995951417,1491.9000000000001,1502.0,1322.24,1500.0
4.212817907333374,126,88,0.004166666666666667,1491.9000000000001,1502.0,1319.4400000000001,1500.0
4.236687898635864,127,88,0.0043859649122807015,1492.5,1502.0,1316.6400000000001,1500.0
4.2605299949646,127,89,0.0038461538461538464,1492.8,1502.0,1311.2,1500.0
4.284374952316284,127,89,0.0038461538461538464,1492.5,1502.0,1308.3199999999999,1500.0
4.308318853378296,128,89,0.0038461538461538464,1492.8,1502.0,1308.24,1500.0
4.332304000854492,129,89,0.004048582995951417,1493.7,1502.0,1308.1600000000001,1500.0
4.356145858764648,129,89,0.004048582995951417,1493.7,1502.0,1308.0799999999999,1500.0
4.380306959152222,129,89,0.0038461538461538464,1493.7,1502.0,1310.8,1500.0
4.404224872589111,131,89,0.004048582995951417,1495.2,1502.0,1313.52,1500.0
4.428192853927612,131,89,0.004048582995951417,1495.5,1502.0,1314.8800000000001,1500.0
4.452394008636475,131,89,0.0038461538461538464,1495.2,1502.0,1316.24,1500.0
4.476265907287598,131,89,0.0038461538461538464,1495.2,1502.0,1317.5999999999999,1500.0
4.500140905380249,132,89,0.004048582995951417,1495.8,1502.0,1317.5999999999999,1500.0
4.524044036865234,132,89,0.0038461538461538464,1494.9000000000001,1502.0,1317.5999999999999,1500.0
4.548002004623413,134,88,0.003968253968253968,1495.5,1502.0,1320.24,1500.0
4.571930885314941,134,89,0.004048582995951417,1495.8,1502.0,1319.04,1500.0
4.595792055130005,134,89,0.004048582995951417,1496.0999999999999,1502.0,1319.04,1500.0
4.6196370124816895,135,89,0.004048582995951417,1496.4000000000001,1502.0,1319.04,1500.0
4.643488883972168,135,89,0.0038461538461538464,1497.0,1502.0,1319.04,1500.0
4.667332887649536,136,89,0.0038461538461538464,1497.0,1502.0,1316.24,1500.0
4.691279888153076,137,89,0.004048582995951417,1497.3,1502.0,1316.24,1500.0
4.715124845504761,138,89,0.0038461538461538464,1497.9000000000001,1502.0,1316.24,1500.0
4.738992929458618,138,89,0.0038461538461538464,1497.9000000000001,1502.0,1316.24,1500.0
4.7628350257873535,139,89,0.0038461538461538464,1498.5,1502.0,1316.24,1500.0
4.786649942398071,140,89,0.0038461538461538464,1499.4000000000001,1502.0,1317.5999999999999,1500.0
4.810502052307129,141,89,0.003663003663003663,1500.0,1502.0,1317.5999999999999,1500.0
4.834360837936401,142,88,0.003401360544217687,1500.3,1502.0,1320.24,1500.0
4.858263969421387,143,88,0.0034965034965034965,1501.2,1502.0,1321.6800000000001,1500.0
4.882171869277954,143,88,0.0034965034965034965,1501.2,1502.0,1323.1199999999999,1500.0
4.905972003936768,144,87,0.0034965034965034965,1501.5,1502.0,1327.2,1500.0
4.929776906967163,145,87,0.003663003663003663,1501.8,1502.0,1330.0799999999999,1500.0
4.953671932220459,146,87,0.003663003663003663,1502.0999999999999,1502.0,1330.1600000000001,1500.0
4.977550983428955,146,87,0.0034965034965034965,1501.5,1502.0,1330.24,1500.0
5.001556873321533,148,87,0.003663003663003663,1502.4000000000001,1502.0,1330.3199999999999,1500.0
5.025400876998901,148,87,0.0034965034965034965,1502.4000000000001,1502.0,1327.5999999999999,1500.0
5.0492470264434814,149,87,0.0034965034965034965,1502.7,1502.0,1324.8800000000001,1500.0
5.073070049285889,149,87,0.0034965034965034965,1502.4000000000001,1502.0,1323.52,1500.0
5.0969078540802,150,87,0.0034965034965034965,1503.0,1502.0,1322.1600000000001,1500.0
5.120750904083252,151,87,0.003663003663003663,1502.7,1502.0,1320.8,1500.0
5.1446309089660645,152,86,0.003246753246753247,1503.0,1502.0,1323.4400000000001,1500.0
5.168555974960327,153,86,0.0034965034965034965,1503.3,1502.0,1324.8800000000001,1500.0
5.192466974258423,153,86,0.0034965034965034965,1503.5999999999999,1502.0,1326.3199999999999,1500.0
5.216285943984985,154,86,0.0034965034965034965,1503.9000000000001,1502.0,1327.76,1500.0
5.240121841430664,155,86,0.0034965034965034965,1504.5,1502.0,1329.2,1500.0
5.263959884643555,155,86,0.0034965034965034965,1504.2,1502.0,1327.8399999999999,1500.0
5.2878029346466064,157,85,0.0034965034965034965,1504.8,1502.0,1329.1199999999999,1500.0
5.3117828369140625,158,85,0.0033444816053511705,1505.4000000000001,1502.0,1329.2,1500.0
5.335640907287598,158,85,0.0034965034965034965,1505.4000000000001,1502.0,1329.28,1500.0
5.359500885009766,159,84,0.0033444816053511705,1505.7,1502.0,1332.0,1500.0
5.383318901062012,159,84,0.0033444816053511705,1506.0,1502.0,1334.8800000000001,1500.0
5.407119989395142,160,84,0.0034965034965034965,1506.0,1502.0,1334.96,1500.0
5.431126832962036,161,84,0.0034965034965034965,1505.7,1502.0,1335.04,1500.0
