time,frame,x,y,size_inv,roll,pitch,thrust,yaw
0.00017309188842773438,1,206,78,2.825497287522604e-05,1504.6,1480,1294.0,1500
0.021600008010864258,2,176,64,2.680246582685607e-05,1501.6,1480,1300,1500
0.04260611534118652,3,174,71,2.4113817217265492e-05,1501.4,1480,1300,1500
0.06371402740478516,4,173,62,2.7210884353741498e-05,1501.3,1480,1300,1500
0.08473706245422363,5,174,65,2.5855827903609474e-05,1501.4,1480,1300,1500
0.10631799697875977,6,174,61,2.771311384547168e-05,1501.4,1480,1300,1500
0.12778210639953613,7,175,73,2.3379781165248292e-05,1501.5,1480,1300,1500
0.14919805526733398,8,203,62,3.4482758620689657e-05,1504.3,1480,1300,1500
0.17068195343017578,9,175,69,2.4722490049197756e-05,1501.5,1480,1300,1500
0.1921250820159912,10,173,80,2.134426159527011e-05,1501.3,1480,1290.0,1500
0.21361398696899414,11,175,64,2.6823314825246104e-05,1501.5,1480,1300,1500
0.23534297943115234,12,207,62,3.555555555555555e-05,1504.7,1480,1300,1500
0.25696802139282227,13,174,82,2.089864158829676e-05,1501.4,1480,1286.0,1500
0.2786591053009033,14,199,64,3.229974160206718e-05,1503.9,1480,1300,1500
0.3002960681915283,15,204,80,2.6888225645989623e-05,1504.4,1480,1290.0,1500
0.3219599723815918,16,208,86,2.5920837761476452e-05,1504.8,1480,1278.0,1500
0.34363293647766113,17,208,65,3.4078516902944385e-05,1504.8,1480,1300,1500
0.3652651309967041,18,171,84,1.987281399046105e-05,1501.1,1480,1282.0,1500
0.3869330883026123,19,212,61,3.7163668797383674e-05,1505.2,1480,1300,1500
0.4085700511932373,20,204,80,2.6888225645989623e-05,1504.4,1480,1290.0,1500
0.43022704124450684,21,202,57,3.764351590438547e-05,1504.2,1480,1300,1500
0.45184803009033203,22,174,76,2.2537750732476897e-05,1501.4,1480,1298.0,1500
0.47352004051208496,23,201,79,2.6315096971132338e-05,1504.1,1480,1292.0,1500
0.49521493911743164,24,174,82,2.0701362149629445e-05,1501.4,1480,1286.0,1500
0.516901969909668,25,172,68,2.482744922786633e-05,1501.2,1480,1300,1500
0.5385220050811768,26,173,71,2.378234398782344e-05,1501.3,1480,1300,1500
0.5601279735565186,27,204,62,3.4482758620689657e-05,1504.4,1480,1300,1500
0.5817351341247559,28,211,68,3.363718927646406e-05,1505.1,1480,1300,1500
0.6033289432525635,29,208,73,3.064288778574493e-05,1504.8,1480,1300,1500
0.6249229907989502,30,206,71,3.072763028515241e-05,1504.6,1480,1300,1500
0.6465330123901367,31,206,87,2.5479005299633102e-05,1504.6,1480,1276.0,1500
0.6682240962982178,32,172,83,2.0367428408489144e-05,1501.2,1480,1284.0,1500
0.6898980140686035,33,173,70,2.420545590976206e-05,1501.3,1480,1300,1500
0.7115359306335449,34,210,61,3.7465812446142895e-05,1505.0,1480,1300,1500
0.7331199645996094,35,172,88,1.9108767102346556e-05,1501.2,1480,1274.0,1500
0.7547929286956787,36,212,59,3.8940809968847354e-05,1505.2,1480,1300,1500
0.776435136795044,37,208,65,3.367003367003367e-05,1504.8,1480,1300,1500
0.7980711460113525,38,173,61,2.771311384547168e-05,1501.3,1480,1300,1500
0.8196530342102051,39,178,83,2.1084591380619042e-05,1501.8,1480,1284.0,1500
0.8413240909576416,40,173,85,1.9775352001265622e-05,1501.3,1480,1280.0,1500
0.8630630970001221,41,177,68,2.5605571772417678e-05,1501.7,1480,1300,1500
0.8847110271453857,42,182,80,2.2586109542631283e-05,1502.2,1480,1290.0,1500
0.9064040184020996,43,207,64,3.434065934065934e-05,1504.7,1480,1300,1500
0.9280221462249756,44,203,79,2.670940170940171e-05,1504.3,1480,1292.0,1500
0.9497160911560059,45,207,66,3.341687552213868e-05,1504.7,1480,1300,1500
0.9713211059570312,46,174,85,1.9979221609526092e-05,1501.4,1480,1280.0,1500
0.9930529594421387,47,208,84,2.61437908496732e-05,1504.8,1480,1282.0,1500
1.014775037765503,48,175,82,2.1043771043771045e-05,1501.5,1480,1286.0,1500
1.036452054977417,49,176,63,2.7922041659686156e-05,1501.6,1480,1300,1500
1.058056116104126,50,172,81,2.0669698222405953e-05,1501.2,1480,1288.0,1500
1.0797550678253174,51,174,81,2.0810788312661285e-05,1501.4,1480,1288.0,1500
1.1014659404754639,52,174,68,2.4731661473017756e-05,1501.4,1480,1300,1500
1.1231019496917725,53,172,85,1.9890997334606358e-05,1501.2,1480,1280.0,1500
1.1448030471801758,54,173,88,1.9173984737508147e-05,1501.3,1480,1274.0,1500
1.1668291091918945,55,192,68,2.8624588521540003e-05,1503.2,1480,1300,1500
1.1884450912475586,56,207,62,3.603603603603604e-05,1504.7,1480,1300,1500
1.210071086883545,57,174,61,2.7842744180866465e-05,1501.4,1480,1300,1500
1.2317330837249756,58,208,85,2.63421316052895e-05,1504.8,1480,1280.0,1500
1.2533950805664062,59,176,72,2.370005214011471e-05,1501.6,1480,1300,1500
1.2750020027160645,60,172,81,2.074000331840053e-05,1501.2,1480,1288.0,1500
1.2966899871826172,61,173,64,2.645712622694923e-05,1501.3,1480,1300,1500
1.3183190822601318,62,207,87,2.5173064820641914e-05,1504.7,1480,1276.0,1500
1.339982032775879,63,174,80,2.1285653469561517e-05,1501.4,1480,1290.0,1500
1.3616580963134766,64,175,81,2.117208672086721e-05,1501.5,1480,1288.0,1500
1.3833050727844238,65,173,83,2.0506931342793864e-05,1501.3,1480,1284.0,1500
1.4049749374389648,66,204,86,2.4987506246876562e-05,1504.4,1480,1278.0,1500
1.426664113998413,67,207,63,3.441629955947137e-05,1504.7,1480,1300,1500
1.4482519626617432,68,212,77,3.0147723846849564e-05,1505.2,1480,1296.0,1500
1.4699170589447021,69,195,65,3.0303030303030302e-05,1503.5,1480,1300,1500
1.4915869235992432,70,173,65,2.612330198537095e-05,1501.3,1480,1300,1500
1.5132489204406738,71,173,71,2.3866918064870282e-05,1501.3,1480,1300,1500
1.5349080562591553,72,206,74,2.9498525073746314e-05,1504.6,1480,1300,1500
1.5565149784088135,73,173,85,2.0027237042377632e-05,1501.3,1480,1280.0,1500
1.5781700611114502,74,172,85,1.9890997334606358e-05,1501.2,1480,1280.0,1500
1.5998649597167969,75,172,60,2.8015128169211374e-05,1501.2,1480,1300,1500
1.6214790344238281,76,202,61,3.504345388281469e-05,1504.2,1480,1300,1500
1.6430909633636475,77,183,57,3.162055335968379e-05,1502.3,1480,1300,1500
1.664700984954834,78,202,72,2.9222676797194625e-05,1504.2,1480,1300,1500
1.6863040924072266,79,206,82,2.6816840976133013e-05,1504.6,1480,1286.0,1500
1.7079799175262451,80,184,63,2.8948587308939323e-05,1502.4,1480,1300,1500
1.7295870780944824,81,209,67,3.3517680576504107e-05,1504.9,1480,1300,1500
1.751209020614624,82,173,86,1.948178453146308e-05,1501.3,1480,1278.0,1500
1.7730379104614258,83,174,71,2.4030951866003412e-05,1501.4,1480,1300,1500
1.794842004776001,84,204,61,3.534817956875221e-05,1504.4,1480,1300,1500
1.8164570331573486,85,215,60,3.940731399747793e-05,1505.5,1480,1300,1500
1.8380470275878906,86,173,88,1.9239649068800985e-05,1501.3,1480,1274.0,1500
1.859694004058838,87,169,88,1.8707673887828788e-05,1500.9,1480,1274.0,1500
1.8813939094543457,88,174,62,2.7491408934707902e-05,1501.4,1480,1300,1500
1.9030680656433105,89,205,76,2.8110417720807333e-05,1504.5,1480,1298.0,1500
1.9247760772705078,90,208,69,3.2030749519538757e-05,1504.8,1480,1300,1500
1.9463701248168945,91,206,61,3.5683699685983445e-05,1504.6,1480,1300,1500
1.967972993850708,92,209,87,2.5826446280991735e-05,1504.9,1480,1276.0,1500
1.9896459579467773,93,174,92,1.857527630723507e-05,1501.4,1480,1266.0,1500
2.011357069015503,94,180,61,2.9036004645760743e-05,1502.0,1480,1300,1500
2.033046007156372,95,204,65,3.304583457255213e-05,1504.4,1480,1300,1500
2.0546820163726807,96,173,72,2.3537719195010002e-05,1501.3,1480,1300,1500
2.0762939453125,97,203,68,3.1462371004278885e-05,1504.3,1480,1300,1500
2.097944974899292,98,173,78,2.1813105313672455e-05,1501.3,1480,1294.0,1500
2.119641065597534,99,182,66,2.6941106740664906e-05,1502.2,1480,1300,1500
2.1412711143493652,100,190,59,3.229974160206718e-05,1503.0,1480,1300,1500
2.1630001068115234,101,183,64,2.8291744468963958e-05,1502.3,1480,1300,1500
2.184799909591675,102,173,64,2.6367136001687495e-05,1501.3,1480,1300,1500
2.206434965133667,103,173,88,1.9173984737508147e-05,1501.3,1480,1274.0,1500
2.2281689643859863,104,174,75,2.283626398721169e-05,1501.4,1480,1300.0,1500
2.2498409748077393,105,172,85,1.970831690973591e-05,1501.2,1480,1280.0,1500
2.2715189456939697,106,204,87,2.4385485758876317e-05,1504.4,1480,1276.0,1500
2.2932019233703613,107,174,66,2.5926886180969666e-05,1501.4,1480,1300,1500
2.3148410320281982,108,171,84,1.992309684617377e-05,1501.1,1480,1282.0,1500
2.336858034133911,109,203,90,2.4021138601969734e-05,1504.3,1480,1270.0,1500
2.3585479259490967,110,181,64,2.7985335684101532e-05,1502.1,1480,1300,1500
2.380155086517334,111,172,81,2.088205813564985e-05,1501.2,1480,1288.0,1500
2.401824951171875,112,210,57,3.970617431010522e-05,1505.0,1480,1300,1500
2.4233970642089844,113,201,87,2.4075500770416025e-05,1504.1,1480,1276.0,1500
2.4450860023498535,114,171,79,2.124766275709672e-05,1501.1,1480,1292.0,1500
2.4667530059814453,115,209,67,3.3517680576504107e-05,1504.9,1480,1300,1500
2.4883430004119873,116,174,80,2.1198566976872362e-05,1501.4,1480,1290.0,1500
2.510016918182373,117,179,78,2.2766596849102996e-05,1501.9,1480,1294.0,1500
2.5316901206970215,118,180,80,2.2103843858446985e-05,1502.0,1480,1290.0,1500
2.5533409118652344,119,213,84,2.7780092785509905e-05,1505.3,1480,1282.0,1500
2.5750069618225098,120,174,63,2.6939655172413793e-05,1501.4,1480,1300,1500
2.596632957458496,121,209,68,3.302837137100769e-05,1504.9,1480,1300,1500
2.618242025375366,122,177,61,2.829654782116582e-05,1501.7,1480,1300,1500
2.6398329734802246,123,212,77,2.9540352120997282e-05,1505.2,1480,1296.0,1500
2.661525011062622,124,214,88,2.6752273943285178e-05,1505.4,1480,1274.0,1500
2.68318510055542,125,218,70,3.486264119369684e-05,1505.8,1480,1300,1500
2.7048020362854004,126,219,68,3.6231884057971014e-05,1505.9,1480,1300,1500
2.726412057876587,127,221,84,3.001200480192077e-05,1506.1,1480,1282.0,1500
2.748080015182495,128,222,77,3.3255736614566014e-05,1506.2,1480,1296.0,1500
2.7697479724884033,129,224,69,3.766620211684056e-05,1506.4,1480,1300,1500
2.791351079940796,130,225,72,3.586028831671807e-05,1506.5,1480,1300,1500
2.8130500316619873,131,224,62,4.1335978835978834e-05,1506.4,1480,1300,1500
2.834702968597412,132,227,66,4.06421459053038e-05,1506.7,1480,1300,1500
2.8562989234924316,133,227,85,3.195602850477743e-05,1506.7,1480,1280.0,1500
2.8779759407043457,134,225,72,3.643252696006995e-05,1506.5,1480,1300,1500
2.8995869159698486,135,228,62,4.3848110146452686e-05,1506.8,1480,1300,1500
2.921215057373047,136,226,62,4.2553191489361704e-05,1506.6,1480,1300,1500
2.943018913269043,137,224,70,3.7064492216456636e-05,1506.4,1480,1300,1500
2.9648280143737793,138,223,65,3.934839065082238e-05,1506.3,1480,1300,1500
2.9864161014556885,139,225,72,3.586028831671807e-05,1506.5,1480,1300,1500
3.0080230236053467,140,225,78,3.348737525952716e-05,1506.5,1480,1294.0,1500
3.0297000408172607,141,222,69,3.689356207341819e-05,1506.2,1480,1300,1500
3.0513319969177246,142,226,63,4.1335978835978834e-05,1506.6,1480,1300,1500
3.0730490684509277,143,225,63,4.2107036085729926e-05,1506.5,1480,1300,1500
3.094744920730591,144,224,69,3.7275878778842214e-05,1506.4,1480,1300,1500
3.1163740158081055,145,225,66,3.969514131470308e-05,1506.5,1480,1300,1500
3.1380159854888916,146,224,80,3.266052648768698e-05,1506.4,1480,1290.0,1500
3.159701108932495,147,224,61,4.244482173174873e-05,1506.4,1480,1300,1500
3.1813459396362305,148,225,60,4.291477126426916e-05,1506.5,1480,1300,1500
3.2030560970306396,149,223,65,3.945707070707071e-05,1506.3,1480,1300,1500
3.224735975265503,150,224,62,4.18848167539267e-05,1506.4,1480,1300,1500
3.246345043182373,151,224,67,3.869969040247678e-05,1506.4,1480,1300,1500
3.2679479122161865,152,223,83,3.1350910743957114e-05,1506.3,1480,1284.0,1500
3.2895970344543457,153,225,84,3.112356053532524e-05,1506.5,1480,1282.0,1500
3.311284065246582,154,225,64,4.091653027823241e-05,1506.5,1480,1300,1500
3.333076000213623,155,224,70,3.713192974638892e-05,1506.4,1480,1300,1500
3.354870080947876,156,223,68,3.801703163017032e-05,1506.3,1480,1300,1500
3.3764851093292236,157,223,74,3.477414194804743e-05,1506.3,1480,1300,1500
3.3981239795684814,158,224,65,3.945707070707071e-05,1506.4,1480,1300,1500
3.419727087020874,159,225,67,3.898635477582846e-05,1506.5,1480,1300,1500
3.4413161277770996,160,224,62,4.1666666666666665e-05,1506.4,1480,1300,1500
3.463067054748535,161,225,75,3.503977013910789e-05,1506.5,1480,1300.0,1500
3.4847960472106934,162,225,73,3.537568982595161e-05,1506.5,1480,1300,1500
3.5064189434051514,163,224,86,3.058384561274735e-05,1506.4,1480,1278.0,1500
3.528412103652954,164,225,63,4.166145898429363e-05,1506.5,1480,1300,1500
3.5500330924987793,165,225,87,3.0062530062530064e-05,1506.5,1480,1276.0,1500
3.5717170238494873,166,224,65,4.060419035244437e-05,1506.4,1480,1300,1500
3.5933330059051514,167,225,62,4.2553191489361704e-05,1506.5,1480,1300,1500
3.614949941635132,168,224,66,3.927729772191673e-05,1506.4,1480,1300,1500
3.6365349292755127,169,225,82,3.187352584942946e-05,1506.5,1480,1286.0,1500
3.6581931114196777,170,225,61,4.256587068488486e-05,1506.5,1480,1300,1500
3.679821014404297,171,224,64,4.0799673602611176e-05,1506.4,1480,1300,1500
3.701436996459961,172,225,76,3.476567932137394e-05,1506.5,1480,1298.0,1500
3.7231061458587646,173,224,59,4.363001745200698e-05,1506.4,1480,1300,1500
3.744736909866333,174,224,66,3.907165741970774e-05,1506.4,1480,1300,1500
3.766345977783203,175,224,83,3.132832080200501e-05,1506.4,1480,1284.0,1500
3.7880070209503174,176,225,81,3.212025824687631e-05,1506.5,1480,1288.0,1500
3.809688091278076,177,226,64,4.101554489151388e-05,1506.6,1480,1300,1500
3.8313019275665283,178,224,63,4.101049868766404e-05,1506.4,1480,1300,1500
3.853048086166382,179,225,64,4.07000407000407e-05,1506.5,1480,1300,1500
3.8748209476470947,180,223,81,3.159358018450651e-05,1506.3,1480,1288.0,1500
3.896512031555176,181,225,61,4.256587068488486e-05,1506.5,1480,1300,1500
3.918123960494995,182,223,64,4.016548178495401e-05,1506.3,1480,1300,1500
3.9396989345550537,183,222,78,3.283209665769256e-05,1506.2,1480,1294.0,1500
3.9613771438598633,184,223,83,3.1187624750499e-05,1506.3,1480,1284.0,1500
3.983077049255371,185,223,70,3.674714290963877e-05,1506.3,1480,1300,1500
4.00468897819519,186,223,64,4.0064102564102564e-05,1506.3,1480,1300,1500
4.026269912719727,187,223,60,4.3140638481449525e-05,1506.3,1480,1300,1500
4.047874927520752,188,222,75,3.413668327985253e-05,1506.2,1480,1300.0,1500
4.069622039794922,189,222,61,4.190763557120107e-05,1506.2,1480,1300,1500
4.091403007507324,190,225,80,3.2519267666092156e-05,1506.5,1480,1290.0,1500
4.113142967224121,191,225,60,4.395990856339019e-05,1506.5,1480,1300,1500
4.134804964065552,192,226,64,4.123371268349002e-05,1506.6,1480,1300,1500
4.156398057937622,193,225,62,4.232804232804233e-05,1506.5,1480,1300,1500
4.1779820919036865,194,226,68,3.8825904643578196e-05,1506.6,1480,1300,1500
4.1995649337768555,195,227,65,4.1486890142714904e-05,1506.7,1480,1300,1500
4.221158981323242,196,226,78,3.3665499596014004e-05,1506.6,1480,1294.0,1500
4.242975950241089,197,224,66,3.93654292800063e-05,1506.4,1480,1300,1500
4.264740943908691,198,225,61,4.2896362388469456e-05,1506.5,1480,1300,1500
4.286304950714111,199,226,63,4.177807486631016e-05,1506.6,1480,1300,1500
4.307865142822266,200,226,74,3.569898614879337e-05,1506.6,1480,1300,1500
4.329446077346802,201,226,65,4.095004095004095e-05,1506.6,1480,1300,1500
4.351022005081177,202,228,63,4.256224728665674e-05,1506.8,1480,1300,1500
4.372590065002441,203,225,81,3.2460155159541666e-05,1506.5,1480,1288.0,1500
4.394505977630615,204,227,67,3.961180431768667e-05,1506.7,1480,1300,1500
4.41609001159668,205,226,76,3.513950383020592e-05,1506.6,1480,1298.0,1500
4.437726974487305,206,227,79,3.418102269619907e-05,1506.7,1480,1292.0,1500
4.459368944168091,207,227,79,3.381348481774532e-05,1506.7,1480,1292.0,1500
4.481023073196411,208,227,66,4.0863027133050016e-05,1506.7,1480,1300,1500
4.502604007720947,209,227,65,4.126263668248401e-05,1506.7,1480,1300,1500
4.524289131164551,210,226,62,4.347826086956522e-05,1506.6,1480,1300,1500
4.545876979827881,211,229,81,3.389485815001864e-05,1506.9,1480,1288.0,1500
4.567523956298828,212,228,61,4.442667377493447e-05,1506.8,1480,1300,1500
4.58912205696106,213,227,69,3.881987577639752e-05,1506.7,1480,1300,1500
4.610702991485596,214,227,60,4.5160998961297026e-05,1506.7,1480,1300,1500
4.632261037826538,215,228,63,4.30274084591885e-05,1506.8,1480,1300,1500
4.653978109359741,216,211,71,3.200204813108039e-05,1505.1,1480,1300,1500
4.67554497718811,217,206,84,2.5952455102252672e-05,1504.6,1480,1282.0,1500
4.697545051574707,218,212,95,2.4224806201550387e-05,1505.2,1480,1260.0,1500
4.719259023666382,219,210,84,2.677447856702991e-05,1505.0,1480,1282.0,1500
4.740890026092529,220,212,92,2.5258903763576662e-05,1505.2,1480,1266.0,1500
4.762531042098999,221,212,78,2.9301453352086265e-05,1505.2,1480,1294.0,1500
4.7845299243927,222,232,68,4.1710114702815434e-05,1507.2,1480,1300,1500
4.806177139282227,223,212,76,3.0399756801945583e-05,1505.2,1480,1298.0,1500
4.827831029891968,224,206,82,2.6816840976133013e-05,1504.6,1480,1286.0,1500
4.849507093429565,225,212,87,2.6827632461435277e-05,1505.2,1480,1276.0,1500
4.87116003036499,226,206,84,2.61437908496732e-05,1504.6,1480,1282.0,1500
4.892911911010742,227,208,84,2.6298487836949376e-05,1504.8,1480,1282.0,1500
4.914751052856445,228,210,82,2.7548209366391185e-05,1505.0,1480,1286.0,1500
4.936387062072754,229,220,84,2.9734471172430198e-05,1506.0,1480,1282.0,1500
4.958003044128418,230,208,90,2.5113008538422903e-05,1504.8,1480,1270.0,1500
4.979641914367676,231,222,97,2.6299179465600672e-05,1506.2,1480,1256.0,1500
5.001327991485596,232,212,99,2.336448598130841e-05,1505.2,1480,1252.0,1500
5.023060083389282,233,213,89,2.6228132294699294e-05,1505.3,1480,1272.0,1500
5.044731140136719,234,212,88,2.6130128037627384e-05,1505.2,1480,1274.0,1500
5.066402912139893,235,214,86,2.7525461051472613e-05,1505.4,1480,1278.0,1500
5.0880560874938965,236,216,83,2.892765194249183e-05,1505.6,1480,1284.0,1500
5.10973596572876,237,215,96,2.491032283778398e-05,1505.5,1480,1258.0,1500
5.13145112991333,238,205,115,4.6296296296296294e-05,1504.5,1480,1220.0,1500
5.153100967407227,239,215,89,2.698836801338623e-05,1505.5,1480,1272.0,1500
5.174720048904419,240,217,88,2.729332132427195e-05,1505.7,1480,1274.0,1500
5.196378946304321,241,233,88,3.2469640885771804e-05,1507.3,1480,1274.0,1500
5.218035936355591,242,223,82,3.1565656565656566e-05,1506.3,1480,1286.0,1500
5.239701986312866,243,222,89,2.8649190660363846e-05,1506.2,1480,1272.0,1500
5.261351108551025,244,216,91,2.6656004264960682e-05,1505.6,1480,1268.0,1500
5.283060073852539,245,204,88,2.4457651576295644e-05,1504.4,1480,1274.0,1500
5.304728984832764,246,218,93,2.660494319844627e-05,1505.8,1480,1264.0,1500
5.32637095451355,247,211,87,2.5944375259443752e-05,1505.1,1480,1276.0,1500
5.3480119705200195,248,207,81,2.7221254355400697e-05,1504.7,1480,1288.0,1500
5.369676113128662,249,224,82,3.121293464011486e-05,1506.4,1480,1286.0,1500
5.391350030899048,250,223,79,3.2216494845360825e-05,1506.3,1480,1292.0,1500
5.413052082061768,251,235,84,3.460207612456748e-05,1507.5,1480,1282.0,1500
5.434718132019043,252,236,61,4.8106989945639104e-05,1507.6,1480,1300,1500
5.456296920776367,253,238,59,5.175983436853002e-05,1507.8,1480,1300,1500
5.477873086929321,254,207,91,2.4395003903200624e-05,1504.7,1480,1268.0,1500
5.499542951583862,255,213,85,2.732688418866481e-05,1505.3,1480,1280.0,1500
5.5212249755859375,256,211,81,2.8402635764598956e-05,1505.1,1480,1288.0,1500
5.54301905632019,257,208,88,2.5449177991550873e-05,1504.8,1480,1274.0,1500
5.564847946166992,258,210,84,2.701899435303018e-05,1505.0,1480,1282.0,1500
5.586471080780029,259,216,84,2.841716396703609e-05,1505.6,1480,1282.0,1500
5.608096122741699,260,239,74,4.194630872483221e-05,1507.9,1480,1300,1500
5.629662990570068,261,193,83,2.3668078862038767e-05,1503.3,1480,1284.0,1500
5.651319980621338,262,238,72,4.2279722645019446e-05,1507.8,1480,1300,1500
5.673068046569824,263,224,86,2.993295019157088e-05,1506.4,1480,1278.0,1500
5.694833993911743,264,237,79,3.834355828220859e-05,1507.7,1480,1292.0,1500
5.71650505065918,265,211,99,2.293577981651376e-05,1505.1,1480,1252.0,1500
5.7381439208984375,266,213,88,2.6499894000423998e-05,1505.3,1480,1274.0,1500
5.759788990020752,267,207,88,2.5221953188054882e-05,1504.7,1480,1274.0,1500
5.7814459800720215,268,242,60,5.2977325704598435e-05,1508.2,1480,1300,1500
5.803056955337524,269,207,91,2.4286581663630843e-05,1504.7,1480,1268.0,1500
5.8246800899505615,270,210,87,2.5709584533113946e-05,1505.0,1480,1276.0,1500
5.846301078796387,271,229,89,3.069556142181841e-05,1506.9,1480,1272.0,1500
5.868228912353516,272,211,98,2.3178731196254315e-05,1505.1,1480,1254.0,1500
5.889908075332642,273,221,86,2.8880032345636228e-05,1506.1,1480,1278.0,1500
5.911577939987183,274,196,85,2.353827323227568e-05,1503.6,1480,1280.0,1500
5.933247089385986,275,240,61,5.279273571956499e-05,1508.0,1480,1300,1500
5.95481014251709,276,208,93,2.364066193853428e-05,1504.8,1480,1264.0,1500
5.976418972015381,277,206,83,2.6378960141391225e-05,1504.6,1480,1284.0,1500
5.998070955276489,278,236,83,3.543209439109946e-05,1507.6,1480,1284.0,1500
6.019711971282959,279,218,97,2.5387154100025386e-05,1505.8,1480,1256.0,1500
6.041378974914551,280,206,87,2.5173064820641914e-05,1504.6,1480,1276.0,1500
6.0630810260772705,281,217,81,2.992667963489451e-05,1505.7,1480,1288.0,1500
6.084765911102295,282,222,91,2.787068004459309e-05,1506.2,1480,1268.0,1500
6.10645604133606,283,212,90,2.5437525437525436e-05,1505.2,1480,1270.0,1500
6.128150939941406,284,234,99,2.9069767441860467e-05,1507.4,1480,1252.0,1500
6.149822950363159,285,225,95,2.784894730979169e-05,1506.5,1480,1260.0,1500
6.171474933624268,286,249,66,5.332480136511492e-05,1508.9,1480,1300,1500
6.193066120147705,287,204,88,2.4247714652893965e-05,1504.4,1480,1274.0,1500
6.214733123779297,288,224,86,3.0089667208280676e-05,1506.4,1480,1278.0,1500
6.236400127410889,289,210,88,2.565286542506798e-05,1505.0,1480,1274.0,1500
6.258059024810791,290,233,95,2.9761904761904762e-05,1507.3,1480,1260.0,1500
6.27974796295166,291,216,88,2.703214121590571e-05,1505.6,1480,1274.0,1500
6.301476001739502,292,209,99,2.2727272727272726e-05,1504.9,1480,1252.0,1500
6.3231730461120605,293,207,98,2.2546897546897547e-05,1504.7,1480,1254.0,1500
6.344803094863892,294,204,99,2.1929824561403507e-05,1504.4,1480,1252.0,1500
6.366441011428833,295,218,99,2.4630541871921184e-05,1505.8,1480,1252.0,1500
6.388076066970825,296,256,57,6.956521739130434e-05,1509.6,1480,1300,1500
6.409661054611206,297,211,96,2.3754097581832866e-05,1505.1,1480,1258.0,1500
6.4313390254974365,298,207,93,2.387318563789152e-05,1504.7,1480,1264.0,1500
6.452981948852539,299,227,82,3.273965426925092e-05,1506.7,1480,1286.0,1500
6.474617958068848,300,218,96,2.5274864147605207e-05,1505.8,1480,1258.0,1500
6.496279001235962,301,221,92,2.7856705108919717e-05,1506.1,1480,1266.0,1500
6.517991065979004,302,214,91,2.5757263548320626e-05,1505.4,1480,1268.0,1500
6.539672136306763,303,208,87,2.5624599615631006e-05,1504.8,1480,1276.0,1500
6.561356067657471,304,218,87,2.798925212718316e-05,1505.8,1480,1276.0,1500
6.583007097244263,305,247,63,5.3931614712544494e-05,1508.7,1480,1300,1500
6.604583024978638,306,223,99,2.604166666666667e-05,1506.3,1480,1252.0,1500
6.626214027404785,307,213,95,2.4224806201550387e-05,1505.3,1480,1260.0,1500
6.6478540897369385,308,216,96,2.515217063232557e-05,1505.6,1480,1258.0,1500
6.669492959976196,309,211,123,4.122521334047904e-05,1505.1,1480,1204.0,1500
6.691136121749878,310,214,99,2.3696682464454976e-05,1505.4,1480,1252.0,1500
6.712846040725708,311,216,98,2.4287761397032035e-05,1505.6,1480,1254.0,1500
6.734568119049072,312,240,63,5.1129972389814906e-05,1508.0,1480,1300,1500
6.756139039993286,313,195,99,2.0161290322580645e-05,1503.5,1480,1252.0,1500
6.77776312828064,314,206,88,2.4779462781246902e-05,1504.6,1480,1274.0,1500
6.799428939819336,315,219,96,2.5644971021182746e-05,1505.9,1480,1258.0,1500
6.821084976196289,316,215,96,2.4556147631559562e-05,1505.5,1480,1258.0,1500
6.84276008605957,317,219,99,2.4875621890547263e-05,1505.9,1480,1252.0,1500
6.864465951919556,318,214,90,2.6415891800507184e-05,1505.4,1480,1270.0,1500
6.8862080574035645,319,227,79,3.399626041135475e-05,1506.7,1480,1292.0,1500
6.908185958862305,320,212,87,2.67022696929239e-05,1505.2,1480,1276.0,1500
6.9298930168151855,321,209,99,2.242152466367713e-05,1504.9,1480,1252.0,1500
6.951612949371338,322,226,89,3.0197795560924053e-05,1506.6,1480,1272.0,1500
6.973299026489258,323,211,86,2.651535238903325e-05,1505.1,1480,1278.0,1500
6.994943141937256,324,214,85,2.795169946332737e-05,1505.4,1480,1280.0,1500
7.016876935958862,325,227,89,3.036191401505951e-05,1506.7,1480,1272.0,1500
7.0385589599609375,326,219,84,2.9438605787629896e-05,1505.9,1480,1282.0,1500
7.060219049453735,327,201,91,2.3325247247620826e-05,1504.1,1480,1268.0,1500
7.081927061080933,328,220,85,2.921584667523665e-05,1506.0,1480,1280.0,1500
7.103604078292847,329,211,88,2.6277755879647878e-05,1505.1,1480,1274.0,1500
7.125327110290527,330,219,83,2.9467232437529467e-05,1505.9,1480,1284.0,1500
7.146974086761475,331,212,96,2.4211902571304055e-05,1505.2,1480,1258.0,1500
7.168601036071777,332,213,94,2.460932693490833e-05,1505.3,1480,1262.0,1500
7.190253019332886,333,203,89,2.3946360153256706e-05,1504.3,1480,1272.0,1500
7.211904048919678,334,214,88,2.662548591511795e-05,1505.4,1480,1274.0,1500
7.233572006225586,335,199,88,2.3540489642184557e-05,1503.9,1480,1274.0,1500
7.255218029022217,336,226,82,3.33000333000333e-05,1506.6,1480,1286.0,1500
7.276827096939087,337,202,81,2.5728105382319646e-05,1504.2,1480,1288.0,1500
7.298475027084351,338,211,86,2.6607066836951895e-05,1505.1,1480,1278.0,1500
7.3201470375061035,339,211,89,2.5720164609053497e-05,1505.1,1480,1272.0,1500
7.341828107833862,340,226,89,2.987482448540615e-05,1506.6,1480,1272.0,1500
7.363466024398804,341,252,68,5.3279343598486864e-05,1509.2,1480,1300,1500
7.385046005249023,342,221,80,3.1528833117886304e-05,1506.1,1480,1290.0,1500
7.4066901206970215,343,208,88,2.5192724341210258e-05,1504.8,1480,1274.0,1500
7.428317070007324,344,224,84,3.079765937788728e-05,1506.4,1480,1282.0,1500
7.4499781131744385,345,211,94,2.4254183846713557e-05,1505.1,1480,1262.0,1500
7.471632957458496,346,206,96,2.2926314824155166e-05,1504.6,1480,1258.0,1500
7.4932639598846436,347,231,95,2.9249173710842667e-05,1507.1,1480,1260.0,1500
7.514938116073608,348,215,87,2.718573292735972e-05,1505.5,1480,1276.0,1500
7.536586046218872,349,204,87,2.4490595611285266e-05,1504.4,1480,1276.0,1500
7.558223009109497,350,222,90,2.832219327064688e-05,1506.2,1480,1270.0,1500
7.579836130142212,351,231,96,2.8796866900881185e-05,1507.1,1480,1258.0,1500
7.6014931201934814,352,174,85,1.9910799617712648e-05,1501.4,1480,1280.0,1500
7.6231369972229,353,173,58,2.8972910328842533e-05,1501.3,1480,1300,1500
7.64470911026001,354,197,82,2.4389054192478416e-05,1503.7,1480,1286.0,1500
7.6663689613342285,355,173,84,2.0264245764772636e-05,1501.3,1480,1282.0,1500
7.687988996505737,356,173,82,2.0755500207555003e-05,1501.3,1480,1286.0,1500
7.709648132324219,357,172,75,2.2525566517997927e-05,1501.2,1480,1300.0,1500
7.731329917907715,358,174,83,2.052545155993432e-05,1501.4,1480,1284.0,1500
7.7529990673065186,359,203,82,2.658160552897395e-05,1504.3,1480,1286.0,1500
7.774647951126099,360,172,84,2.000800320128051e-05,1501.2,1480,1282.0,1500
7.79627799987793,361,173,91,1.854874610476332e-05,1501.3,1480,1268.0,1500
7.817918062210083,362,174,80,2.127116480898494e-05,1501.4,1480,1290.0,1500
7.839571952819824,363,172,94,1.7814832629647445e-05,1501.2,1480,1262.0,1500
7.861202955245972,364,173,83,2.0367428408489144e-05,1501.3,1480,1284.0,1500
7.882879972457886,365,173,83,2.0384866275277233e-05,1501.3,1480,1284.0,1500
7.904606103897095,366,175,83,2.0648358455502788e-05,1501.5,1480,1284.0,1500
7.926286935806274,367,171,88,1.902261789267439e-05,1501.1,1480,1274.0,1500
7.9479241371154785,368,179,67,2.5982124298482642e-05,1501.9,1480,1300,1500
7.969522953033447,369,205,84,2.572678157962439e-05,1504.5,1480,1282.0,1500
7.991168022155762,370,212,85,2.7199782401740785e-05,1505.2,1480,1280.0,1500
8.01284909248352,371,176,95,1.8242516007807798e-05,1501.6,1480,1260.0,1500
8.034587144851685,372,183,68,2.6641091219096334e-05,1502.3,1480,1300,1500
8.056204080581665,373,173,78,2.2116065109695684e-05,1501.3,1480,1294.0,1500
8.077836036682129,374,173,84,2.0214271275520517e-05,1501.3,1480,1282.0,1500
8.09968614578247,375,178,78,2.2364360155655948e-05,1501.8,1480,1294.0,1500
8.121628046035767,376,173,83,2.0384866275277233e-05,1501.3,1480,1284.0,1500
8.14337706565857,377,208,77,2.8930999566035007e-05,1504.8,1480,1296.0,1500
8.165076971054077,378,170,88,1.8664377169733847e-05,1501.0,1480,1274.0,1500
8.187072992324829,379,171,78,2.1664716842150873e-05,1501.1,1480,1294.0,1500
8.208739042282104,380,173,76,2.2231114668089458e-05,1501.3,1480,1298.0,1500
8.230384111404419,381,173,88,1.92823123348952e-05,1501.3,1480,1274.0,1500
8.252058982849121,382,203,96,2.202837254383646e-05,1504.3,1480,1258.0,1500
8.273725986480713,383,206,59,3.718301479883989e-05,1504.6,1480,1300,1500
8.295303106307983,384,173,88,1.9414836818296542e-05,1501.3,1480,1274.0,1500
8.316962003707886,385,182,88,2.0354991043803942e-05,1502.2,1480,1274.0,1500
8.338617086410522,386,174,84,2.0195084516428702e-05,1501.4,1480,1282.0,1500
8.360270977020264,387,202,65,3.223726627981947e-05,1504.2,1480,1300,1500
8.381859064102173,388,173,77,2.195293291183702e-05,1501.3,1480,1296.0,1500
8.403496980667114,389,172,88,1.8979653811114487e-05,1501.2,1480,1274.0,1500
8.425128936767578,390,172,89,1.9330768784674565e-05,1501.2,1480,1272.0,1500
8.446768045425415,391,172,85,1.9775352001265622e-05,1501.2,1480,1280.0,1500
8.468421936035156,392,172,81,2.074000331840053e-05,1501.2,1480,1288.0,1500
8.490051031112671,393,173,88,1.9216726238518006e-05,1501.3,1480,1274.0,1500
8.511681079864502,394,201,81,2.588594651963449e-05,1504.1,1480,1288.0,1500
8.533324956893921,395,206,86,2.5352398336882668e-05,1504.6,1480,1278.0,1500
8.554988145828247,396,174,88,1.930576470133982e-05,1501.4,1480,1274.0,1500
8.576623916625977,397,203,70,3.061849357011635e-05,1504.3,1480,1300,1500
8.598192930221558,398,213,58,3.941663381947182e-05,1505.3,1480,1300,1500
8.619749069213867,399,174,86,1.9932230416583615e-05,1501.4,1480,1278.0,1500
8.641390085220337,400,173,83,2.0367428408489144e-05,1501.3,1480,1284.0,1500
8.663029909133911,401,173,85,1.9910799617712648e-05,1501.3,1480,1280.0,1500
8.684682130813599,402,176,78,2.219312457000821e-05,1501.6,1480,1294.0,1500
8.706313133239746,403,171,85,1.9823570224997523e-05,1501.1,1480,1280.0,1500
8.72794795036316,404,174,69,2.4807740014884645e-05,1501.4,1480,1300,1500
8.749545097351074,405,195,80,2.5045081146062914e-05,1503.5,1480,1290.0,1500
8.771238088607788,406,171,85,1.970831690973591e-05,1501.1,1480,1280.0,1500
8.792945146560669,407,176,86,2.0094847681054576e-05,1501.6,1480,1278.0,1500
8.814635992050171,408,174,88,1.9414836818296542e-05,1501.4,1480,1274.0,1500
8.836293935775757,409,170,94,1.763668430335097e-05,1501.0,1480,1262.0,1500
8.857949018478394,410,170,87,1.9002736394040742e-05,1501.0,1480,1276.0,1500
8.879590034484863,411,216,86,2.765716182205382e-05,1505.6,1480,1278.0,1500
8.901226043701172,412,200,93,2.228163992869875e-05,1504.0,1480,1264.0,1500
8.922915935516357,413,178,82,2.1211606991345666e-05,1501.8,1480,1286.0,1500
8.944631099700928,414,172,81,2.074000331840053e-05,1501.2,1480,1288.0,1500
8.966316938400269,415,170,88,1.8895376301419042e-05,1501.0,1480,1274.0,1500
8.987946033477783,416,203,84,2.5395535464865278e-05,1504.3,1480,1282.0,1500
9.009591102600098,417,173,76,2.2383382576775e-05,1501.3,1480,1298.0,1500
9.031211137771606,418,205,60,3.563791874554526e-05,1504.5,1480,1300,1500
9.052868127822876,419,177,90,1.9250389820393864e-05,1501.7,1480,1270.0,1500
9.074623107910156,420,171,87,1.9195331695331695e-05,1501.1,1480,1276.0,1500
9.096264123916626,421,173,79,2.1465215618090885e-05,1501.3,1480,1292.0,1500
9.117928981781006,422,175,68,2.5083402312689693e-05,1501.5,1480,1300,1500
9.13958191871643,423,176,85,2.0257677659833077e-05,1501.6,1480,1280.0,1500
9.161226034164429,424,172,85,1.9641734758013828e-05,1501.2,1480,1280.0,1500
9.182913064956665,425,172,91,1.871397559697582e-05,1501.2,1480,1268.0,1500
9.204612970352173,426,173,77,2.1878008226131093e-05,1501.3,1480,1296.0,1500
9.226277112960815,427,207,69,3.19744204636291e-05,1504.7,1480,1300,1500
9.247903108596802,428,212,85,2.732688418866481e-05,1505.2,1480,1280.0,1500
9.269582033157349,429,174,79,2.1551724137931033e-05,1501.4,1480,1292.0,1500
9.291213035583496,430,178,91,1.9173617102866455e-05,1501.8,1480,1268.0,1500
9.312884092330933,431,177,84,2.071251035625518e-05,1501.7,1480,1282.0,1500
9.33462905883789,432,173,86,1.9795708290442633e-05,1501.3,1480,1278.0,1500
9.35659909248352,433,205,79,2.7344818156959256e-05,1504.5,1480,1292.0,1500
9.378261089324951,434,171,79,2.1176121805052622e-05,1501.1,1480,1292.0,1500
9.399940967559814,435,178,82,2.1286559666226746e-05,1501.8,1480,1286.0,1500
9.421597003936768,436,172,84,1.9805902158843335e-05,1501.2,1480,1282.0,1500
9.443222999572754,437,205,84,2.5839125603989562e-05,1504.5,1480,1282.0,1500
9.464842081069946,438,173,81,2.0669698222405953e-05,1501.3,1480,1288.0,1500
9.486485958099365,439,173,87,1.9391870927707104e-05,1501.3,1480,1276.0,1500
9.50813913345337,440,172,67,2.4841017488076313e-05,1501.2,1480,1300,1500
9.529729127883911,441,172,90,1.8625442354255912e-05,1501.2,1480,1270.0,1500
9.551374912261963,442,212,63,3.633720930232558e-05,1505.2,1480,1300,1500
9.572957038879395,443,173,81,2.074000331840053e-05,1501.3,1480,1288.0,1500
9.594602108001709,444,174,79,2.1404109589041096e-05,1501.4,1480,1292.0,1500
9.616253137588501,445,171,83,2.010939510939511e-05,1501.1,1480,1284.0,1500
9.637880086898804,446,180,84,2.0933640360058613e-05,1502.0,1480,1282.0,1500
9.659511089324951,447,175,82,2.1043771043771045e-05,1501.5,1480,1286.0,1500
9.681143999099731,448,169,87,1.893939393939394e-05,1500.9,1480,1276.0,1500
9.702836036682129,449,175,85,2.0117486118934576e-05,1501.5,1480,1280.0,1500
9.724563121795654,450,174,81,2.088205813564985e-05,1501.4,1480,1288.0,1500
9.746177911758423,451,183,66,2.774232924596349e-05,1502.3,1480,1300,1500
9.767765998840332,452,172,91,1.858666964053381e-05,1501.2,1480,1268.0,1500
9.78939700126648,453,171,73,2.2904784809546716e-05,1501.1,1480,1300,1500
9.810961961746216,454,179,95,1.8698578908002993e-05,1501.9,1480,1260.0,1500
9.832624912261963,455,204,88,2.411149153686647e-05,1504.4,1480,1274.0,1500
9.85451602935791,456,177,84,2.071251035625518e-05,1501.7,1480,1282.0,1500
9.876150131225586,457,173,83,2.0315293352836015e-05,1501.3,1480,1284.0,1500
9.897788047790527,458,175,85,2.0117486118934576e-05,1501.5,1480,1280.0,1500
9.919471025466919,459,178,67,2.5982124298482642e-05,1501.8,1480,1300,1500
9.941045045852661,460,203,87,2.442002442002442e-05,1504.3,1480,1276.0,1500
9.962731122970581,461,175,88,1.9549195550603094e-05,1501.5,1480,1274.0,1500
9.984453916549683,462,176,81,2.145094169634047e-05,1501.6,1480,1288.0,1500
10.006088972091675,463,175,91,1.8973891924711598e-05,1501.5,1480,1268.0,1500
10.027794122695923,464,172,82,2.0614306328592042e-05,1501.2,1480,1286.0,1500
10.049601078033447,465,172,86,1.941596769182976e-05,1501.2,1480,1278.0,1500
10.0713210105896,466,175,76,2.246888060036849e-05,1501.5,1480,1298.0,1500
10.092988014221191,467,202,60,3.5622684525505844e-05,1504.2,1480,1300,1500
10.114609956741333,468,173,80,2.1139861322509723e-05,1501.3,1480,1290.0,1500
10.136282920837402,469,207,80,2.7434842249657064e-05,1504.7,1480,1290.0,1500
10.157958030700684,470,176,61,2.800179211469534e-05,1501.6,1480,1300,1500
10.17955207824707,471,201,87,2.4213075060532686e-05,1504.1,1480,1276.0,1500
10.201199054718018,472,172,73,2.2904260192395786e-05,1501.2,1480,1300,1500
10.222847938537598,473,193,63,3.1496062992125985e-05,1503.3,1480,1300,1500
10.244554042816162,474,199,65,3.117595710188303e-05,1503.9,1480,1300,1500
10.266199111938477,475,172,79,2.1258503401360543e-05,1501.2,1480,1292.0,1500
10.287889957427979,476,176,87,1.979727589483687e-05,1501.6,1480,1276.0,1500
10.309574127197266,477,179,80,2.2182786157941438e-05,1501.9,1480,1290.0,1500
10.331233024597168,478,172,81,2.0669698222405953e-05,1501.2,1480,1288.0,1500
10.35295295715332,479,179,77,2.304147465437788e-05,1501.9,1480,1296.0,1500
10.37468695640564,480,206,66,3.326901324106727e-05,1504.6,1480,1300,1500
10.396278142929077,481,192,90,2.163191139569092e-05,1503.2,1480,1270.0,1500
10.417967081069946,482,178,61,2.8830075534797902e-05,1501.8,1480,1300,1500
10.439577102661133,483,172,82,2.0490123760347513e-05,1501.2,1480,1286.0,1500
10.461271047592163,484,177,76,2.2852964029434616e-05,1501.7,1480,1298.0,1500
10.48297905921936,485,173,83,2.0506931342793864e-05,1501.3,1480,1284.0,1500
10.504986047744751,486,208,62,3.591180061768297e-05,1504.8,1480,1300,1500
10.526634931564331,487,169,86,1.907705221389191e-05,1500.9,1480,1278.0,1500
10.548305034637451,488,172,87,1.9436345966958212e-05,1501.2,1480,1276.0,1500
10.570014953613281,489,206,78,2.8059148685428885e-05,1504.6,1480,1294.0,1500
10.59169602394104,490,174,82,2.084462417142619e-05,1501.4,1480,1286.0,1500
10.61335802078247,491,198,63,3.308409978164494e-05,1503.8,1480,1300,1500
10.634951114654541,492,173,94,1.796299622777079e-05,1501.3,1480,1262.0,1500
10.656641006469727,493,206,87,2.5140788415124697e-05,1504.6,1480,1276.0,1500
10.678291082382202,494,206,80,2.7483097894794702e-05,1504.6,1480,1290.0,1500
10.700006008148193,495,206,64,3.4300610550867805e-05,1504.6,1480,1300,1500
10.72164511680603,496,174,85,1.9979221609526092e-05,1501.4,1480,1280.0,1500
10.743304967880249,497,206,78,2.7936082243826127e-05,1504.6,1480,1294.0,1500
10.76496410369873,498,173,77,2.209456473707468e-05,1501.3,1480,1296.0,1500
10.786653995513916,499,174,67,2.536783358701167e-05,1501.4,1480,1300,1500
10.808320999145508,500,176,80,2.1641742593113596e-05,1501.6,1480,1290.0,1500
10.83004093170166,501,172,75,2.2373366744227673e-05,1501.2,1480,1300.0,1500
10.851788997650146,502,179,89,1.9770660340055357e-05,1501.9,1480,1272.0,1500
10.873507022857666,503,207,85,2.599090318388564e-05,1504.7,1480,1280.0,1500
10.895220041275024,504,178,84,2.090869174315763e-05,1501.8,1480,1282.0,1500
10.9169180393219,505,173,84,2.000800320128051e-05,1501.3,1480,1282.0,1500
10.938591003417969,506,179,87,2.0335536349771224e-05,1501.9,1480,1276.0,1500
10.96028208732605,507,173,78,2.1454623471358076e-05,1501.3,1480,1294.0,1500
10.981945037841797,508,174,86,2.000120007200432e-05,1501.4,1480,1278.0,1500
11.003597974777222,509,172,72,2.345765892563922e-05,1501.2,1480,1300,1500
11.025213956832886,510,174,78,2.1738657855264015e-05,1501.4,1480,1294.0,1500
11.046869993209839,511,174,76,2.239140170174653e-05,1501.4,1480,1298.0,1500
11.068599939346313,512,177,83,2.095908786049631e-05,1501.7,1480,1284.0,1500
11.090277910232544,513,174,78,2.1888064438461705e-05,1501.4,1480,1294.0,1500
11.111952066421509,514,177,96,1.8180165439505498e-05,1501.7,1480,1258.0,1500
11.133661985397339,515,206,76,2.8480291638186374e-05,1504.6,1480,1298.0,1500
11.15535306930542,516,174,61,2.7808676307007788e-05,1501.4,1480,1300,1500
11.176980972290039,517,172,86,1.9594396002743217e-05,1501.2,1480,1278.0,1500
11.198636054992676,518,206,84,2.6182122846520396e-05,1504.6,1480,1282.0,1500
11.220308065414429,519,175,84,2.0496003279360526e-05,1501.5,1480,1282.0,1500
11.24202299118042,520,207,72,3.038128512836093e-05,1504.7,1480,1300,1500
11.263631105422974,521,205,78,2.7759271596713303e-05,1504.5,1480,1294.0,1500
11.285314083099365,522,206,84,2.5687130747495506e-05,1504.6,1480,1282.0,1500
11.306986093521118,523,168,81,2.0057766367137354e-05,1500.8,1480,1288.0,1500
11.328670024871826,524,177,87,2.012072434607646e-05,1501.7,1480,1276.0,1500
11.350358963012695,525,179,64,2.767017155506364e-05,1501.9,1480,1300,1500
11.371984958648682,526,174,80,2.134426159527011e-05,1501.4,1480,1290.0,1500
11.39362907409668,527,175,83,2.0596473883671115e-05,1501.5,1480,1284.0,1500
11.415277004241943,528,172,72,2.3618327822390175e-05,1501.2,1480,1300,1500
11.436892986297607,529,174,81,2.0810788312661285e-05,1501.4,1480,1288.0,1500
11.458575963973999,530,180,81,2.169950525128027e-05,1502.0,1480,1288.0,1500
11.480221033096313,531,174,82,2.068466232288758e-05,1501.4,1480,1286.0,1500
11.501877069473267,532,173,85,1.9775352001265622e-05,1501.3,1480,1280.0,1500
11.523551940917969,533,206,75,2.9046125246892064e-05,1504.6,1480,1300.0,1500
11.54524302482605,534,202,70,3.0051688904916458e-05,1504.2,1480,1300,1500
11.56685495376587,535,173,83,2.0506931342793864e-05,1501.3,1480,1284.0,1500
11.5885009765625,536,205,85,2.564891761567662e-05,1504.5,1480,1280.0,1500
11.610158920288086,537,173,84,2.000800320128051e-05,1501.3,1480,1282.0,1500
11.631869077682495,538,206,59,3.7202380952380956e-05,1504.6,1480,1300,1500
11.65370798110962,539,174,76,2.2537750732476897e-05,1501.4,1480,1298.0,1500
11.67572808265686,540,173,83,2.0298386278290876e-05,1501.3,1480,1284.0,1500
11.697443008422852,541,173,83,2.0367428408489144e-05,1501.3,1480,1284.0,1500
11.719206094741821,542,174,81,2.108236881496005e-05,1501.4,1480,1288.0,1500
11.741105079650879,543,173,85,2.0027237042377632e-05,1501.3,1480,1280.0,1500
11.762884140014648,544,177,70,2.5150905432595573e-05,1501.7,1480,1300,1500
11.784562110900879,545,182,78,2.3161551823972205e-05,1502.2,1480,1294.0,1500
11.806244134902954,546,171,78,2.138214163530619e-05,1501.1,1480,1294.0,1500
11.827916145324707,547,206,77,2.799238607098869e-05,1504.6,1480,1296.0,1500
11.849560022354126,548,178,81,2.152620815843289e-05,1501.8,1480,1288.0,1500
11.871217966079712,549,179,85,2.0960405793456162e-05,1501.9,1480,1280.0,1500
11.892961025238037,550,173,83,2.0177562550443908e-05,1501.3,1480,1284.0,1500
11.914729118347168,551,177,82,2.1190930281839374e-05,1501.7,1480,1286.0,1500
11.936438083648682,552,173,81,2.0669698222405953e-05,1501.3,1480,1288.0,1500
11.958112955093384,553,167,83,1.9697447210841473e-05,1500.7,1480,1284.0,1500
11.979788064956665,554,169,80,2.0703933747412007e-05,1500.9,1480,1290.0,1500
12.001461029052734,555,172,80,2.0996052742084487e-05,1501.2,1480,1290.0,1500
12.02312707901001,556,206,89,2.439559903393428e-05,1504.6,1480,1272.0,1500
12.04481291770935,557,173,83,2.0298386278290876e-05,1501.3,1480,1284.0,1500
12.066489934921265,558,173,89,1.9002014213506632e-05,1501.3,1480,1272.0,1500
12.08818507194519,559,180,82,2.1722602367763657e-05,1502.0,1480,1286.0,1500
12.109848976135254,560,173,82,2.0420665713702267e-05,1501.3,1480,1286.0,1500
12.131561994552612,561,176,87,2.0050125313283208e-05,1501.6,1480,1276.0,1500
12.15322208404541,562,176,88,1.9643278070244363e-05,1501.6,1480,1274.0,1500
12.17490291595459,563,207,94,2.3411527836306598e-05,1504.7,1480,1262.0,1500
12.196572065353394,564,171,91,1.8461084034854526e-05,1501.1,1480,1268.0,1500
12.218240022659302,565,172,95,1.765536723163842e-05,1501.2,1480,1260.0,1500
12.239947080612183,566,172,89,1.8873622225577534e-05,1501.2,1480,1272.0,1500
12.261640071868896,567,183,82,2.203856749311295e-05,1502.3,1480,1286.0,1500
12.283304929733276,568,204,84,2.572678157962439e-05,1504.4,1480,1282.0,1500
12.304968118667603,569,173,85,1.9958884697523103e-05,1501.3,1480,1280.0,1500
12.326633930206299,570,175,90,1.918354818907305e-05,1501.5,1480,1270.0,1500
12.348292112350464,571,180,82,2.143806542897569e-05,1502.0,1480,1286.0,1500
12.369974136352539,572,173,77,2.195293291183702e-05,1501.3,1480,1296.0,1500
12.39163613319397,573,167,81,1.9992003198720512e-05,1500.7,1480,1288.0,1500
12.413280963897705,574,173,88,1.9239649068800985e-05,1501.3,1480,1274.0,1500
12.434977054595947,575,173,79,2.1258503401360543e-05,1501.3,1480,1292.0,1500
12.456655979156494,576,185,79,2.332089552238806e-05,1502.5,1480,1292.0,1500
12.478343963623047,577,182,82,2.1958717610891526e-05,1502.2,1480,1286.0,1500
12.499999046325684,578,205,87,2.492025518341308e-05,1504.5,1480,1276.0,1500
12.521680116653442,579,174,88,1.9372336303758232e-05,1501.4,1480,1274.0,1500
12.543354034423828,580,179,94,1.8829200323862247e-05,1501.9,1480,1262.0,1500
12.565033912658691,581,179,85,2.0811221410584587e-05,1501.9,1480,1280.0,1500
12.586699962615967,582,209,83,2.6973080865296434e-05,1504.9,1480,1284.0,1500
12.60837197303772,583,206,75,2.9110386585933862e-05,1504.6,1480,1300.0,1500
12.630047082901001,584,172,82,2.0351676978183004e-05,1501.2,1480,1286.0,1500
12.651705980300903,585,208,82,2.7056277056277056e-05,1504.8,1480,1286.0,1500
12.673386096954346,586,179,84,2.100840336134454e-05,1501.9,1480,1282.0,1500
12.695042133331299,587,174,81,2.088205813564985e-05,1501.4,1480,1288.0,1500
12.716710090637207,588,206,59,3.687315634218289e-05,1504.6,1480,1300,1500
12.738340139389038,589,202,87,2.4075500770416025e-05,1504.2,1480,1276.0,1500
12.76004695892334,590,175,85,2.0048115477145148e-05,1501.5,1480,1280.0,1500
12.781702041625977,591,174,86,1.961476599584167e-05,1501.4,1480,1278.0,1500
12.80367112159729,592,174,86,1.9681939851991812e-05,1501.4,1480,1278.0,1500
12.825384140014648,593,178,62,2.8368794326241135e-05,1501.8,1480,1300,1500
12.846995115280151,594,207,78,2.8308563340410474e-05,1504.7,1480,1294.0,1500
12.868665933609009,595,206,87,2.5173064820641914e-05,1504.6,1480,1276.0,1500
12.890396118164062,596,206,74,2.982848620432513e-05,1504.6,1480,1300,1500
12.912306070327759,597,206,72,3.0515715593530668e-05,1504.6,1480,1300,1500
12.934162139892578,598,176,88,1.968542687848186e-05,1501.6,1480,1274.0,1500
12.955862998962402,599,174,80,2.1198566976872362e-05,1501.4,1480,1290.0,1500
12.977524995803833,600,205,96,2.2430074243545746e-05,1504.5,1480,1258.0,1500
12.99918794631958,601,206,82,2.642147537518495e-05,1504.6,1480,1286.0,1500
13.020848035812378,602,213,63,3.6678403755868545e-05,1505.3,1480,1300,1500
13.042472124099731,603,173,93,1.8154091932321547e-05,1501.3,1480,1264.0,1500
13.064281940460205,604,172,79,2.1114864864864866e-05,1501.2,1480,1292.0,1500
13.08594012260437,605,172,82,2.054442732408834e-05,1501.2,1480,1286.0,1500
13.107577085494995,606,171,91,1.8461084034854526e-05,1501.1,1480,1268.0,1500
13.129265069961548,607,205,80,2.6955631031322443e-05,1504.5,1480,1290.0,1500
13.1509370803833,608,172,76,2.2162138203093835e-05,1501.2,1480,1298.0,1500
13.172590970993042,609,176,85,2.0257677659833077e-05,1501.6,1480,1280.0,1500
13.194675922393799,610,208,60,3.742795119395164e-05,1504.8,1480,1300,1500
13.216318130493164,611,173,81,2.088205813564985e-05,1501.3,1480,1288.0,1500
13.238047122955322,612,204,83,2.6034886748242646e-05,1504.4,1480,1284.0,1500
13.259730100631714,613,177,90,1.9250389820393864e-05,1501.7,1480,1270.0,1500
13.281399965286255,614,181,57,3.12343828085957e-05,1502.1,1480,1300,1500
13.303007125854492,615,174,79,2.1551724137931033e-05,1501.4,1480,1292.0,1500
13.3246750831604,616,172,84,1.999040460578922e-05,1501.2,1480,1282.0,1500
13.346310138702393,617,179,86,2.052545155993432e-05,1501.9,1480,1278.0,1500
13.367947101593018,618,180,78,2.2666999115987036e-05,1502.0,1480,1294.0,1500
13.389573097229004,619,173,80,2.1139861322509723e-05,1501.3,1480,1290.0,1500
13.411207914352417,620,172,82,2.0614306328592042e-05,1501.2,1480,1286.0,1500
13.432912111282349,621,206,82,2.6655293741337028e-05,1504.6,1480,1286.0,1500
13.454661130905151,622,180,87,2.062919030428056e-05,1502.0,1480,1276.0,1500
13.476293087005615,623,171,61,2.746649088112503e-05,1501.1,1480,1300,1500
13.497874021530151,624,206,63,3.499562554680665e-05,1504.6,1480,1300,1500
13.519490003585815,625,174,62,2.7179821700369644e-05,1501.4,1480,1300,1500
13.541100025177002,626,173,84,2.0058168689198677e-05,1501.3,1480,1282.0,1500
13.56279993057251,627,202,82,2.59000259000259e-05,1504.2,1480,1286.0,1500
13.584495067596436,628,173,85,2.0027237042377632e-05,1501.3,1480,1280.0,1500
13.606168031692505,629,204,84,2.5615410230794848e-05,1504.4,1480,1282.0,1500
13.627792119979858,630,174,76,2.239140170174653e-05,1501.4,1480,1298.0,1500
13.64940094947815,631,206,61,3.5683699685983445e-05,1504.6,1480,1300,1500
13.67099404335022,632,172,78,2.1591277124041888e-05,1501.2,1480,1294.0,1500
13.692618131637573,633,177,72,2.4117306579201234e-05,1501.7,1480,1300,1500
13.714344024658203,634,173,81,2.0953817785600537e-05,1501.3,1480,1288.0,1500
13.735986948013306,635,176,78,2.2116065109695684e-05,1501.6,1480,1294.0,1500
13.757630109786987,636,167,96,1.6988023443472353e-05,1500.7,1480,1258.0,1500
13.77928900718689,637,182,81,2.2012855507616448e-05,1502.2,1480,1288.0,1500
13.800924062728882,638,172,82,2.0614306328592042e-05,1501.2,1480,1286.0,1500
13.822551965713501,639,178,87,2.00770960488275e-05,1501.8,1480,1276.0,1500
13.844332933425903,640,173,85,1.9842844670211922e-05,1501.3,1480,1280.0,1500
13.865981101989746,641,175,86,1.9863734779413227e-05,1501.5,1480,1278.0,1500
13.887635946273804,642,173,71,2.378234398782344e-05,1501.3,1480,1300,1500
13.909217119216919,643,173,82,2.0630467073774552e-05,1501.3,1480,1286.0,1500
13.930875062942505,644,170,83,2.002683596018665e-05,1501.0,1480,1284.0,1500
13.952508926391602,645,172,84,2.0126393752767377e-05,1501.2,1480,1282.0,1500
13.974589109420776,646,205,67,3.183091418385536e-05,1504.5,1480,1300,1500
13.996206045150757,647,172,81,2.072624772011275e-05,1501.2,1480,1288.0,1500
14.017848014831543,648,172,62,2.7210884353741498e-05,1501.2,1480,1300,1500
14.039428949356079,649,174,84,2.0214271275520517e-05,1501.4,1480,1282.0,1500
14.061110973358154,650,176,67,2.5620004099200656e-05,1501.6,1480,1300,1500
14.082749128341675,651,178,78,2.228561240862899e-05,1501.8,1480,1294.0,1500
14.104494094848633,652,173,85,1.9842844670211922e-05,1501.3,1480,1280.0,1500
14.126264095306396,653,208,93,2.364066193853428e-05,1504.8,1480,1264.0,1500
14.148160934448242,654,174,87,1.9391870927707104e-05,1501.4,1480,1276.0,1500
14.169879913330078,655,171,84,1.9739439399921042e-05,1501.1,1480,1282.0,1500
14.191580057144165,656,173,93,1.818909381934592e-05,1501.3,1480,1264.0,1500
14.21324896812439,657,173,86,1.974957538412924e-05,1501.3,1480,1278.0,1500
14.23492693901062,658,206,86,2.5241689173839512e-05,1504.6,1480,1278.0,1500
14.256585121154785,659,176,88,1.9781611014401014e-05,1501.6,1480,1274.0,1500
14.278231143951416,660,170,87,1.8876472364844458e-05,1501.0,1480,1276.0,1500
14.299875020980835,661,172,96,1.744561330053558e-05,1501.2,1480,1258.0,1500
14.321563959121704,662,173,87,1.9569471624266145e-05,1501.3,1480,1276.0,1500
14.343202114105225,663,180,88,2.0208552259316142e-05,1502.0,1480,1274.0,1500
14.364834070205688,664,180,89,1.9770660340055357e-05,1502.0,1480,1272.0,1500
14.38644814491272,665,167,110,2.053894183371673e-05,1500.7,1480,1230.0,1500
14.408150911331177,666,198,117,4.72411186696901e-05,1503.8,1480,1216.0,1500
14.42981505393982,667,209,109,2.832058906825262e-05,1504.9,1480,1232.0,1500
14.451475143432617,668,228,88,3.0868008396098287e-05,1506.8,1480,1274.0,1500
14.473187923431396,669,229,87,3.1565656565656566e-05,1506.9,1480,1276.0,1500
14.494940996170044,670,214,87,2.7081922816519974e-05,1505.4,1480,1276.0,1500
14.516663074493408,671,225,37,7.054673721340387e-05,1506.5,1480,1300,1500
14.53830099105835,672,216,85,2.808673182788451e-05,1505.6,1480,1280.0,1500
14.55994701385498,673,210,90,2.532030181799767e-05,1505.0,1480,1270.0,1500
14.581577062606812,674,223,81,3.159358018450651e-05,1506.3,1480,1288.0,1500
14.603228092193604,675,224,58,4.428501837828263e-05,1506.4,1480,1300,1500
14.624813079833984,676,221,88,2.8663150653519834e-05,1506.1,1480,1274.0,1500
14.646443128585815,677,211,95,2.3891437308868502e-05,1505.1,1480,1260.0,1500
14.668070077896118,678,211,127,4.0512072597634096e-05,1505.1,1480,1200,1500
14.689647912979126,679,200,89,2.334267040149393e-05,1504.0,1480,1272.0,1500
14.711281061172485,680,209,90,2.499937501562461e-05,1504.9,1480,1270.0,1500
14.732949018478394,681,208,88,2.530620508148598e-05,1504.8,1480,1274.0,1500
14.754616975784302,682,206,91,2.3941773606588775e-05,1504.6,1480,1268.0,1500
14.7762770652771,683,209,35,6.373080109616978e-05,1504.9,1480,1300,1500
14.79786491394043,684,211,61,3.729395092116059e-05,1505.1,1480,1300,1500
14.819422960281372,685,211,36,6.283775292195552e-05,1505.1,1480,1300,1500
14.840996026992798,686,209,84,2.6616981634282673e-05,1504.9,1480,1282.0,1500
14.8626549243927,687,209,83,2.6852125345721114e-05,1504.9,1480,1284.0,1500
14.884433031082153,688,196,127,3.5837155963302754e-05,1503.6,1480,1200,1500
14.906067132949829,689,210,95,2.378234398782344e-05,1505.0,1480,1260.0,1500
14.92781114578247,690,205,95,2.2843567251461987e-05,1504.5,1480,1260.0,1500
14.949496030807495,691,208,34,6.435006435006435e-05,1504.8,1480,1300,1500
14.971127033233643,692,207,93,2.3960130343109066e-05,1504.7,1480,1264.0,1500
14.992866039276123,693,204,95,2.2546897546897547e-05,1504.4,1480,1260.0,1500
15.01460313796997,694,210,35,6.284565108094519e-05,1505.0,1480,1300,1500
15.036198139190674,695,204,85,2.516862981979261e-05,1504.4,1480,1280.0,1500
15.057857036590576,696,218,60,3.9984006397441024e-05,1505.8,1480,1300,1500
15.079452991485596,697,222,62,4.090983472426771e-05,1506.2,1480,1300,1500
15.101067066192627,698,217,133,4.224043254202923e-05,1505.7,1480,1200,1500
15.123021125793457,699,210,94,2.4159841511439684e-05,1505.0,1480,1262.0,1500
15.144700050354004,700,204,89,2.4080138701598922e-05,1504.4,1480,1272.0,1500
15.166374921798706,701,214,89,2.635184989986297e-05,1505.4,1480,1272.0,1500
15.18804407119751,702,208,96,2.3234740584121377e-05,1504.8,1480,1258.0,1500
15.209697961807251,703,198,75,4.980327705563026e-05,1503.8,1480,1300.0,1500
15.231352090835571,704,176,87,1.998001998001998e-05,1501.6,1480,1276.0,1500
15.252978086471558,705,174,99,1.7241379310344828e-05,1501.4,1480,1252.0,1500
15.274641990661621,706,173,84,2.0195084516428702e-05,1501.3,1480,1282.0,1500
15.296316146850586,707,179,62,2.834467120181406e-05,1501.9,1480,1300,1500
15.317892074584961,708,173,81,2.0669698222405953e-05,1501.3,1480,1288.0,1500
15.339525938034058,709,206,77,2.8617216117216117e-05,1504.6,1480,1296.0,1500
15.361191987991333,710,174,93,1.840535964072738e-05,1501.4,1480,1264.0,1500
15.382879972457886,711,202,92,2.297582942744233e-05,1504.2,1480,1266.0,1500
15.404573917388916,712,206,72,3.004085556356645e-05,1504.6,1480,1300,1500
15.426155090332031,713,204,81,2.6396367859782494e-05,1504.4,1480,1288.0,1500
15.447777032852173,714,176,72,2.370005214011471e-05,1501.6,1480,1300,1500
15.469350099563599,715,193,84,2.3250406882120437e-05,1503.3,1480,1282.0,1500
15.490986108779907,716,169,58,2.8061510831743182e-05,1500.9,1480,1300,1500
15.512573003768921,717,173,81,2.088205813564985e-05,1501.3,1480,1288.0,1500
15.534341096878052,718,206,76,2.8605755478002173e-05,1504.6,1480,1298.0,1500
15.555997133255005,719,178,85,2.0519134092541295e-05,1501.8,1480,1280.0,1500
15.577636957168579,720,210,84,2.6983270372369132e-05,1505.0,1480,1282.0,1500
15.59926700592041,721,175,75,2.307497057941251e-05,1501.5,1480,1300.0,1500
15.620896100997925,722,180,87,2.0219993529602072e-05,1502.0,1480,1276.0,1500
15.642534017562866,723,207,83,2.6455026455026456e-05,1504.7,1480,1284.0,1500
15.66434097290039,724,203,64,3.2733224222585926e-05,1504.3,1480,1300,1500
15.685930967330933,725,173,81,2.0669698222405953e-05,1501.3,1480,1288.0,1500
15.70758605003357,726,206,72,2.9909672788179698e-05,1504.6,1480,1300,1500
15.729174137115479,727,175,79,2.1762312028029858e-05,1501.5,1480,1292.0,1500
15.750824928283691,728,180,64,2.7472527472527473e-05,1502.0,1480,1300,1500
15.77243709564209,729,180,93,1.899696048632219e-05,1502.0,1480,1264.0,1500
15.794186115264893,730,179,79,2.230251126276819e-05,1501.9,1480,1292.0,1500
15.815822124481201,731,172,88,1.9216726238518006e-05,1501.2,1480,1274.0,1500
15.837443113327026,732,172,84,2.000800320128051e-05,1501.2,1480,1282.0,1500
15.859084129333496,733,173,83,2.0298386278290876e-05,1501.3,1480,1284.0,1500
15.880738973617554,734,190,96,1.9825535289452816e-05,1503.0,1480,1258.0,1500
15.90238094329834,735,206,77,2.829654782116582e-05,1504.6,1480,1296.0,1500
15.924150943756104,736,173,84,2.007628990162618e-05,1501.3,1480,1282.0,1500
15.945791006088257,737,173,87,1.9636720667648502e-05,1501.3,1480,1276.0,1500
15.967445135116577,738,177,84,2.0496003279360526e-05,1501.7,1480,1282.0,1500
15.989097118377686,739,179,82,2.141556911874933e-05,1501.9,1480,1286.0,1500
16.010762929916382,740,209,73,3.071253071253071e-05,1504.9,1480,1300,1500
16.032397031784058,741,173,78,2.182453077258839e-05,1501.3,1480,1294.0,1500
16.054467916488647,742,175,68,2.5169896803423107e-05,1501.5,1480,1300,1500
16.076103925704956,743,173,88,1.9216726238518006e-05,1501.3,1480,1274.0,1500
16.097747087478638,744,175,82,2.0917001338688085e-05,1501.5,1480,1286.0,1500
16.119431972503662,745,176,90,1.9250389820393864e-05,1501.6,1480,1270.0,1500
16.141140937805176,746,173,91,1.8778284791467148e-05,1501.3,1480,1268.0,1500
16.162853002548218,747,178,94,1.8696131770336716e-05,1501.8,1480,1262.0,1500
16.184557914733887,748,174,62,2.7367268746579092e-05,1501.4,1480,1300,1500
16.206156969070435,749,203,79,2.6763013515321824e-05,1504.3,1480,1292.0,1500
16.227880001068115,750,207,84,2.6182122846520396e-05,1504.7,1480,1282.0,1500
16.249568939208984,751,177,85,2.0519134092541295e-05,1501.7,1480,1280.0,1500
16.27156901359558,752,174,99,1.7268472948937126e-05,1501.4,1480,1252.0,1500
16.29331612586975,753,177,82,2.126528442317916e-05,1501.7,1480,1286.0,1500
16.315056085586548,754,173,94,1.784121320249777e-05,1501.3,1480,1262.0,1500
16.336760997772217,755,218,96,2.5398760540485624e-05,1505.8,1480,1258.0,1500
16.358542919158936,756,207,116,4.443259575224385e-05,1504.7,1480,1218.0,1500
16.380537033081055,757,214,87,2.7316433566433566e-05,1505.4,1480,1276.0,1500
16.402562141418457,758,211,85,2.6792412388811488e-05,1505.1,1480,1280.0,1500
16.42458701133728,759,202,87,2.4177949709864603e-05,1504.2,1480,1276.0,1500
16.44650411605835,760,222,82,3.073518564052127e-05,1506.2,1480,1286.0,1500
16.468524932861328,761,225,90,2.891844997108155e-05,1506.5,1480,1270.0,1500
16.490458965301514,762,225,96,2.712747199088517e-05,1506.5,1480,1258.0,1500
16.512503147125244,763,224,96,2.684635829149776e-05,1506.4,1480,1258.0,1500
16.534570932388306,764,216,93,2.5709584533113946e-05,1505.6,1480,1264.0,1500
16.556580066680908,765,220,78,3.22913975716869e-05,1506.0,1480,1294.0,1500
16.578511953353882,766,220,41,6.054368226675546e-05,1506.0,1480,1300,1500
16.600358963012695,767,218,88,2.7674766148226048e-05,1505.8,1480,1274.0,1500
16.622327089309692,768,219,59,4.105090311986864e-05,1505.9,1480,1300,1500
16.64428997039795,769,217,84,2.872407652093985e-05,1505.7,1480,1282.0,1500
16.666209936141968,770,219,34,7.107320540156361e-05,1505.9,1480,1300,1500
16.68805694580078,771,219,61,4.0049661580359644e-05,1505.9,1480,1300,1500
16.7099130153656,772,216,85,2.8223075186272295e-05,1505.6,1480,1280.0,1500
16.731914043426514,773,211,95,2.4112654320987653e-05,1505.1,1480,1260.0,1500
16.753806114196777,774,215,96,2.467308166790032e-05,1505.5,1480,1258.0,1500
16.775743007659912,775,213,93,2.49887550602229e-05,1505.3,1480,1264.0,1500
16.79766607284546,776,218,66,3.7038408829956664e-05,1505.8,1480,1300,1500
16.819509029388428,777,218,35,6.841817186644773e-05,1505.8,1480,1300,1500
16.841367959976196,778,210,95,2.378234398782344e-05,1505.0,1480,1260.0,1500
16.863361120224,779,211,128,3.90625e-05,1505.1,1480,1200,1500
16.885180950164795,780,189,91,2.101723413198823e-05,1502.9,1480,1268.0,1500
16.907185077667236,781,208,88,2.5109855618330194e-05,1504.8,1480,1274.0,1500
16.92951202392578,782,219,88,2.7831120759232975e-05,1505.9,1480,1274.0,1500
16.951478004455566,783,220,35,7.014590347923682e-05,1506.0,1480,1300,1500
16.973421096801758,784,222,63,4.017354973485457e-05,1506.2,1480,1300,1500
16.99525213241577,785,217,88,2.7139988058405254e-05,1505.7,1480,1274.0,1500
