time,x,y,size_inv,roll,pitch,thrust,yaw
0.00043392181396484375,204,61,0.006535947712418301,1520,1502.0,1338.3599999999999,1520
0.022205114364624023,204,61,0.006535947712418301,1520,1502.0,1339.9200000000001,1520
0.04355907440185547,204,61,0.006535947712418301,1520,1502.0,1340,1520
0.06484699249267578,204,61,0.006535947712418301,1520,1502.0,1340,1520
0.08621811866760254,204,61,0.006944444444444444,1520,1502.0,1340,1520
0.10756492614746094,204,61,0.006944444444444444,1520,1502.0,1340,1520
0.12890911102294922,204,61,0.006944444444444444,1520,1502.0,1340,1520
0.15026593208312988,203,61,0.007936507936507936,1520,1502.0,1340,1520
0.17160606384277344,204,61,0.007407407407407408,1520,1502.0,1340,1520
0.19292593002319336,203,61,0.007407407407407408,1520,1502.0,1340,1520
0.21440792083740234,203,61,0.007407407407407408,1520,1502.0,1340,1520
0.2360680103302002,204,61,0.006944444444444444,1520,1502.0,1340,1520
0.25771307945251465,204,61,0.006535947712418301,1520,1502.0,1340,1520
0.2794480323791504,203,61,0.006172839506172839,1520,1502.0,1340,1520
0.30112600326538086,203,61,0.0058823529411764705,1520,1502.0,1340,1520
0.322796106338501,202,61,0.0058823529411764705,1520,1502.0,1340,1520
0.34444499015808105,200,60,0.007352941176470588,1520,1502.0,1340,1520
0.3660929203033447,196,57,0.0058823529411764705,1520,1502.0,1340,1520
0.3877439498901367,193,56,0.00625,1520,1502.0,1340,1520
0.40947413444519043,189,56,0.006666666666666667,1520,1502.0,1340,1520
0.4311869144439697,187,55,0.007142857142857143,1520,1502.0,1340,1520
0.45287609100341797,182,55,0.007142857142857143,1520,1502.0,1340,1520
0.4745209217071533,180,56,0.00625,1520,1502.0,1340,1520.0
0.49621105194091797,177,57,0.00625,1520,1502.0,1340,1517.0
0.517935037612915,173,59,0.005681818181818182,1520,1502.0,1340,1513.0
0.5396699905395508,170,60,0.006666666666666667,1520,1502.0,1340,1510.0
0.5613601207733154,167,60,0.00625,1520,1502.0,1336.96,1507.0
0.5831100940704346,164,61,0.005681818181818182,1520,1502.0,1327.2,1504.0
0.604856014251709,163,61,0.0058823529411764705,1520,1502.0,1322.8,1503.0
0.626629114151001,159,62,0.006666666666666667,1520,1502.0,1321.3599999999999,1499.0
0.6484999656677246,158,63,0.0053475935828877,1520,1502.0,1322.6400000000001,1498.0
0.6703040599822998,156,64,0.0053475935828877,1520,1502.0,1322.48,1496.0
0.6920759677886963,154,65,0.0058823529411764705,1520,1502.0,1322.3199999999999,1494.0
0.7138700485229492,152,67,0.005555555555555556,1500.0,1502.0,1316.72,1492.0
0.7356719970703125,151,69,0.0058823529411764705,1480,1502.0,1308.3199999999999,1491.0
0.7574219703674316,149,73,0.005050505050505051,1480,1502.0,1293.2,1489.0
0.7791519165039062,148,74,0.005555555555555556,1480,1502.0,1283.04,1488.0
0.8009381294250488,149,75,0.0058823529411764705,1480,1502.0,1272.8800000000001,1489.0
0.8226830959320068,149,77,0.0053475935828877,1480,1502.0,1264.24,1489.0
0.8444070816040039,149,77,0.0058823529411764705,1480,1502.0,1262.24,1489.0
0.8661439418792725,148,78,0.005555555555555556,1480,1502.0,1267.4400000000001,1488.0
0.8879339694976807,148,78,0.005555555555555556,1480,1502.0,1275.28,1488.0
0.9097170829772949,149,80,0.005555555555555556,1480,1502.0,1279.28,1489.0
0.9314589500427246,150,82,0.0053475935828877,1480,1502.0,1283.28,1490.0
0.9531910419464111,150,83,0.005050505050505051,1480,1502.0,1284.3199999999999,1490.0
0.9749231338500977,150,84,0.005050505050505051,1480,1502.0,1281.28,1490.0
0.9966559410095215,151,85,0.0053475935828877,1480,1502.0,1275.4400000000001,1491.0
1.0184180736541748,150,85,0.006666666666666667,1480,1502.0,1275.04,1490.0
1.0401971340179443,151,86,0.0058823529411764705,1480,1502.0,1274.8800000000001,1491.0
1.0619380474090576,151,87,0.005555555555555556,1480,1502.0,1276.0799999999999,1491.0
1.0836849212646484,151,88,0.005555555555555556,1480,1502.0,1277.28,1491.0
1.1054470539093018,152,89,0.0058823529411764705,1480,1502.0,1279.8399999999999,1492.0
1.1271889209747314,152,90,0.0058823529411764705,1480,1502.0,1278.24,1492.0
1.1489391326904297,152,90,0.005555555555555556,1480,1502.0,1277.9200000000001,1492.0
1.1706891059875488,152,90,0.005555555555555556,1480,1502.0,1279.04,1492.0
1.1926469802856445,152,92,0.005050505050505051,1480,1502.0,1276.3199999999999,1492.0
1.2144129276275635,152,92,0.005555555555555556,1480,1502.0,1277.4400000000001,1492.0
1.2361440658569336,152,93,0.005555555555555556,1480,1502.0,1278.72,1492.0
1.2578611373901367,152,93,0.005555555555555556,1480,1502.0,1279.8399999999999,1492.0
1.2796440124511719,152,94,0.005555555555555556,1480,1502.0,1276.96,1492.0
1.301448106765747,153,95,0.0053475935828877,1480,1502.0,1276.8800000000001,1493.0
1.323193073272705,153,95,0.0058823529411764705,1480,1502.0,1276.6400000000001,1493.0
1.3449499607086182,153,95,0.0058823529411764705,1480,1502.0,1277.8399999999999,1493.0
1.3667020797729492,153,95,0.0058823529411764705,1480,1502.0,1279.04,1493.0
1.38844895362854,153,96,0.0058823529411764705,1480,1502.0,1280.4000000000001,1493.0
1.4102230072021484,153,97,0.0053475935828877,1480,1502.0,1280.4000000000001,1493.0
1.431993007659912,153,97,0.0053475935828877,1480,1502.0,1281.5999999999999,1493.0
1.453761100769043,153,97,0.0058823529411764705,1480,1502.0,1281.4400000000001,1493.0
1.475503921508789,153,97,0.0058823529411764705,1480,1502.0,1281.28,1493.0
1.4972469806671143,153,98,0.0058823529411764705,1480,1502.0,1279.9200000000001,1493.0
1.5190110206604004,153,98,0.0058823529411764705,1480,1502.0,1281.2,1493.0
1.5407180786132812,153,99,0.0053475935828877,1480,1502.0,1279.8399999999999,1493.0
1.562432050704956,153,99,0.0053475935828877,1480,1502.0,1279.6800000000001,1493.0
1.5841920375823975,152,99,0.005555555555555556,1480,1502.0,1279.52,1492.0
1.605963945388794,153,100,0.0053475935828877,1480,1502.0,1278.1600000000001,1493.0
1.6276891231536865,153,100,0.0053475935828877,1480,1502.0,1276.6400000000001,1493.0
1.6495051383972168,153,100,0.005050505050505051,1480,1502.0,1277.9200000000001,1493.0
1.6712419986724854,153,100,0.005555555555555556,1480,1502.0,1279.2,1493.0
1.692976951599121,153,100,0.005555555555555556,1480,1502.0,1280.48,1493.0
1.714709997177124,153,101,0.005050505050505051,1480,1502.0,1280.5599999999999,1493.0
1.7364470958709717,153,101,0.005050505050505051,1480,1502.0,1281.8399999999999,1493.0
1.7582170963287354,153,100,0.005555555555555556,1480,1502.0,1284.4000000000001,1493.0
1.7799761295318604,153,100,0.005555555555555556,1480,1502.0,1285.76,1493.0
1.8017089366912842,154,100,0.005050505050505051,1480,1502.0,1287.1199999999999,1494.0
1.8234670162200928,154,100,0.005050505050505051,1480,1502.0,1289.9200000000001,1494.0
1.8451910018920898,154,100,0.004629629629629629,1480,1502.0,1292.72,1494.0
1.8669419288635254,154,100,0.005050505050505051,1480,1502.0,1292.72,1494.0
1.8886840343475342,154,100,0.005050505050505051,1480,1502.0,1292.72,1494.0
1.9104089736938477,154,101,0.005050505050505051,1480,1502.0,1290.0799999999999,1494.0
1.9321439266204834,155,101,0.004784688995215311,1480,1502.0,1287.28,1495.0
1.9538769721984863,155,101,0.005050505050505051,1480,1502.0,1284.48,1495.0
1.9756059646606445,155,100,0.005050505050505051,1480,1502.0,1285.6800000000001,1495.0
1.997344970703125,155,100,0.005050505050505051,1480,1502.0,1285.6800000000001,1495.0
2.019071102142334,155,100,0.005050505050505051,1480,1502.0,1288.48,1495.0
2.0407919883728027,155,100,0.005050505050505051,1480,1502.0,1291.28,1495.0
2.0625159740448,155,99,0.004629629629629629,1480,1502.0,1296.72,1495.0
2.084249973297119,156,99,0.004784688995215311,1480,1502.0,1298.1600000000001,1496.0
2.106001138687134,156,99,0.005050505050505051,1480,1502.0,1299.5999999999999,1496.0
2.1277430057525635,156,99,0.005050505050505051,1480,1502.0,1299.6800000000001,1496.0
2.1495699882507324,156,99,0.005050505050505051,1480,1502.0,1299.76,1496.0
2.171320915222168,157,98,0.0043859649122807015,1480,1502.0,1299.6800000000001,1497.0
2.193068027496338,157,99,0.005050505050505051,1480,1502.0,1297.1199999999999,1497.0
2.2148029804229736,157,99,0.005050505050505051,1480,1502.0,1295.76,1497.0
2.236541986465454,157,98,0.004629629629629629,1480,1502.0,1297.04,1497.0
2.2583041191101074,157,98,0.004629629629629629,1480,1502.0,1297.1199999999999,1497.0
2.2802670001983643,158,97,0.0043859649122807015,1480,1502.0,1298.4000000000001,1498.0
2.3020410537719727,158,97,0.005050505050505051,1480,1502.0,1301.28,1498.0
2.3237979412078857,158,97,0.005050505050505051,1480,1502.0,1304.1600000000001,1498.0
2.34553599357605,158,96,0.004629629629629629,1480,1502.0,1306.8800000000001,1498.0
2.367285966873169,158,96,0.004629629629629629,1480,1502.0,1308.4000000000001,1498.0
2.389030933380127,159,95,0.0043859649122807015,1480,1502.0,1311.1199999999999,1499.0
2.4107820987701416,159,95,0.004629629629629629,1480,1502.0,1311.28,1499.0
2.4325621128082275,159,95,0.004629629629629629,1480,1502.0,1311.4400000000001,1499.0
2.4543490409851074,159,95,0.004629629629629629,1481.0,1502.0,1310.1600000000001,1499.0
2.476130962371826,159,95,0.004629629629629629,1483.0,1502.0,1308.8800000000001,1499.0
2.497947931289673,159,95,0.004629629629629629,1484.0,1502.0,1306.1600000000001,1499.0
2.5198330879211426,160,95,0.004784688995215311,1488.0,1502.0,1303.4400000000001,1500.0
2.5416529178619385,160,94,0.004629629629629629,1490.0,1502.0,1303.3599999999999,1500.0
2.563444137573242,160,94,0.004629629629629629,1492.0,1502.0,1303.4400000000001,1500.0
2.58522891998291,161,94,0.004784688995215311,1497.0,1502.0,1303.52,1501.0
2.607006072998047,161,93,0.004784688995215311,1499.0,1502.0,1307.5999999999999,1501.0
2.628761053085327,162,92,0.0043859649122807015,1504.0,1502.0,1313.1199999999999,1502.0
2.6505560874938965,162,92,0.0043859649122807015,1507.0,1502.0,1314.6400000000001,1502.0
2.672356128692627,162,92,0.004629629629629629,1510.0,1502.0,1316.1600000000001,1502.0
2.6941490173339844,162,92,0.004629629629629629,1513.0,1502.0,1317.6800000000001,1502.0
2.7159299850463867,162,91,0.0043859649122807015,1516.0,1502.0,1319.04,1502.0
2.7377209663391113,162,91,0.005050505050505051,1518.0,1502.0,1316.4000000000001,1502.0
2.759593963623047,162,91,0.004784688995215311,1520.0,1502.0,1315.1199999999999,1502.0
2.7813761234283447,162,90,0.004629629629629629,1520,1502.0,1316.48,1502.0
2.803107976913452,162,90,0.004629629629629629,1520,1502.0,1316.6400000000001,1502.0
2.8248250484466553,162,90,0.004629629629629629,1520,1502.0,1315.3599999999999,1502.0
2.8465521335601807,162,90,0.0043859649122807015,1520,1502.0,1315.4400000000001,1502.0
2.8683130741119385,162,90,0.005050505050505051,1520,1502.0,1315.52,1502.0
2.8900980949401855,163,90,0.004784688995215311,1520,1502.0,1312.8,1503.0
2.91182804107666,163,90,0.004784688995215311,1520,1502.0,1310.0799999999999,1503.0
2.9335389137268066,163,90,0.004784688995215311,1520,1502.0,1308.72,1503.0
2.955260992050171,163,90,0.004784688995215311,1520,1502.0,1307.3599999999999,1503.0
2.9769980907440186,163,90,0.004784688995215311,1520,1502.0,1306.0,1503.0
2.9987120628356934,163,90,0.004784688995215311,1520,1502.0,1306.0,1503.0
3.0204150676727295,163,89,0.0043859649122807015,1520,1502.0,1308.6400000000001,1503.0
3.0421390533447266,163,89,0.004784688995215311,1520,1502.0,1310.0799999999999,1503.0
3.063889980316162,163,89,0.004784688995215311,1520,1502.0,1311.52,1503.0
3.0856311321258545,163,89,0.004784688995215311,1520,1502.0,1312.96,1503.0
3.1073639392852783,163,88,0.0043859649122807015,1520,1502.0,1317.04,1503.0
3.1290769577026367,163,88,0.004784688995215311,1520,1502.0,1317.1199999999999,1503.0
3.150810956954956,163,88,0.004784688995215311,1520,1502.0,1317.2,1503.0
3.172553062438965,163,88,0.004784688995215311,1520,1502.0,1317.28,1503.0
3.1942989826202393,162,88,0.005050505050505051,1520,1502.0,1317.3599999999999,1502.0
3.216033935546875,162,88,0.005050505050505051,1520,1502.0,1314.6400000000001,1502.0
3.237762928009033,162,87,0.0043859649122807015,1520,1502.0,1315.9200000000001,1502.0
3.259568929672241,162,87,0.0043859649122807015,1520,1502.0,1316.0,1502.0
3.2813050746917725,162,87,0.0043859649122807015,1520,1502.0,1316.0799999999999,1502.0
3.3030691146850586,162,87,0.0043859649122807015,1520,1502.0,1316.1600000000001,1502.0
3.324798107147217,162,87,0.0043859649122807015,1520,1502.0,1317.5999999999999,1502.0
3.346745014190674,162,87,0.0043859649122807015,1520,1502.0,1316.24,1502.0
3.368507146835327,162,87,0.0043859649122807015,1520,1502.0,1314.8800000000001,1502.0
3.3902499675750732,162,87,0.0043859649122807015,1520,1502.0,1313.52,1502.0
3.412482976913452,162,87,0.0043859649122807015,1520,1502.0,1312.1600000000001,1502.0
3.4357120990753174,162,86,0.0043859649122807015,1520,1502.0,1313.4400000000001,1502.0
3.4589240550994873,162,86,0.0043859649122807015,1520,1502.0,1314.8800000000001,1502.0
3.4820680618286133,161,86,0.0043859649122807015,1520,1502.0,1316.3199999999999,1501.0
3.505260944366455,161,86,0.004166666666666667,1520.0,1502.0,1317.76,1501.0
3.528578042984009,161,86,0.004166666666666667,1519.0,1502.0,1319.2,1501.0
3.551854133605957,161,86,0.004048582995951417,1518.0,1502.0,1317.8399999999999,1501.0
3.5750980377197266,160,85,0.004166666666666667,1514.0,1502.0,1319.1199999999999,1500.0
3.5984139442443848,160,85,0.004166666666666667,1512.0,1502.0,1319.2,1500.0
3.6217639446258545,160,86,0.004048582995951417,1510.0,1502.0,1316.6400000000001,1500.0
3.6449880599975586,159,86,0.004166666666666667,1505.0,1502.0,1315.28,1499.0
3.668281078338623,160,86,0.0043859649122807015,1505.0,1502.0,1315.28,1500.0
3.69159197807312,160,86,0.0043859649122807015,1503.0,1502.0,1312.48,1500.0
