time,frame,x,y,size_inv,roll,pitch,thrust,yaw
0.0005710124969482422,1,64,75,0.00018201674554058973,1490.4000000000001,1490.0,1412.5,1500
0.024094820022583008,2,65,75,0.0001793400286944046,1490.5,1489.9464656630762,1412.5,1500
0.04738187789916992,3,65,77,0.00015686274509803922,1490.5,1489.4969199911491,1411.5,1500
0.0700678825378418,4,65,77,0.00014718869590815426,1490.5,1489.3034390073512,1411.5,1500
0.09266901016235352,5,63,77,0.00014534883720930232,1490.3,1489.2666418333743,1411.5,1500
0.11519479751586914,6,64,78,0.0001385809312638581,1490.4000000000001,1489.1312837144653,1411.0,1500
0.13791894912719727,7,62,80,0.00013401232913428035,1490.2,1489.0399116718738,1410.0,1500
0.16045498847961426,8,60,81,0.00012800819252432156,1490.0,1488.9198289396747,1409.5,1500
0.1830909252166748,9,58,79,0.00012939958592132506,1489.8,1488.9476568076147,1410.5,1500
0.20573091506958008,10,56,79,0.00012359411692003462,1489.5999999999999,1488.8315474275889,1410.5,1500
0.22866201400756836,11,54,78,0.00012218963831867058,1489.4000000000001,1488.8034578555616,1411.0,1500
0.25189685821533203,12,53,75,0.00011081560283687943,1489.3,1488.5759771459259,1412.5,1500
0.27544188499450684,13,52,72,0.00011816140848398913,1489.2,1488.722893258868,1414.0,1500
0.29859089851379395,14,52,73,0.00011439029970258523,1489.2,1488.6474710832399,1413.5,1500
0.3219468593597412,15,50,70,0.00012351778656126481,1489.0,1488.8300208204134,1415.0,1500
0.34525084495544434,16,51,70,0.00012081672103419114,1489.0999999999999,1488.775999509872,1415.0,1500
0.36858487129211426,17,50,68,0.0001263902932254803,1489.0,1488.8874709536979,1415,1500
0.3920168876647949,18,51,68,0.00012515644555694618,1489.0999999999999,1488.8627940003271,1415,1500
0.4152100086212158,19,52,67,0.00013082155939298797,1489.2,1488.9760962770479,1415,1500
0.43854284286499023,20,52,66,0.00013910140492418973,1489.2,1489.141693187672,1415,1500
0.4615190029144287,21,52,66,0.00013935340022296544,1489.2,1489.1467330936475,1415,1500
0.48490285873413086,22,54,65,0.00013935340022296544,1489.4000000000001,1489.1467330936475,1415,1500
0.5081069469451904,23,55,64,0.00014245014245014244,1489.5,1489.208667938191,1415,1500
0.531141996383667,24,57,63,0.00014088475626937165,1489.7,1489.1773602145756,1415,1500
0.5543839931488037,25,58,62,0.00014814814814814815,1489.8,1489.3226280521512,1415,1500
0.5775959491729736,26,59,61,0.00014619883040935673,1489.9000000000001,1489.2836416973753,1415,1500
0.6007118225097656,27,62,60,0.00015391719255040788,1490.2,1489.4380089401964,1415,1500
0.6239089965820312,28,63,58,0.00016005121638924455,1490.3,1489.560689416973,1415,1500
0.6474969387054443,29,65,57,0.00016103059581320451,1490.5,1489.5802770054522,1415,1500
0.6705658435821533,30,67,54,0.00016903313049357674,1490.7,1489.7403276990597,1415,1500
0.6935379505157471,31,69,53,0.0001775568181818182,1490.9000000000001,1489.9108014528247,1415,1500
0.7169167995452881,32,72,52,0.00018674136321195143,1491.2,1490.0944923534273,1415,1500
0.739952802658081,33,73,51,0.0001966955153422502,1491.3,1490.2935753960332,1415,1500
0.7631797790527344,34,74,51,0.00019992003198720512,1491.4000000000001,1490.3580657289324,1415,1500
0.7864539623260498,35,76,51,0.00019054878048780488,1491.5999999999999,1490.1706406989442,1415,1500
0.8097097873687744,36,77,52,0.00019357336430507162,1491.7,1490.2311323752897,1415,1500
0.8328700065612793,37,78,53,0.0001959631589261219,1491.8,1490.2789282677106,1415,1500
0.8559689521789551,38,78,53,0.0001923076923076923,1491.8,1490.205818935342,1415,1500
0.878978967666626,39,80,53,0.00019290123456790122,1492.0,1490.2176897805462,1415,1500
0.9021480083465576,40,80,54,0.0001923076923076923,1492.0,1490.205818935342,1415,1500
0.9252119064331055,41,82,55,0.00019357336430507162,1492.2,1490.2311323752897,1415,1500
0.9482829570770264,42,83,56,0.00019357336430507162,1492.3,1490.2311323752897,1415,1500
0.9714269638061523,43,87,57,0.0001959631589261219,1492.7,1490.2789282677106,1415,1500
0.9947078227996826,44,88,57,0.0001959631589261219,1492.8,1490.2789282677106,1415,1500
1.0179929733276367,45,89,58,0.00020491803278688525,1492.9000000000001,1490.4580257449259,1415,1500
1.0414738655090332,46,91,58,0.00020161290322580645,1493.0999999999999,1490.3919231537043,1415,1500
1.0649189949035645,47,93,59,0.00020833333333333335,1493.3,1490.5263317558549,1415,1500
1.0881638526916504,48,95,60,0.00020238818053025704,1493.5,1490.4074286997934,1415,1500
1.1113169193267822,49,97,60,0.000211864406779661,1493.7,1490.5969532247814,1415,1500
1.134570837020874,50,101,60,0.000211864406779661,1494.0999999999999,1490.5969532247814,1415,1500
1.1578328609466553,51,103,60,0.00021824530772588389,1494.3,1490.7245712437059,1415,1500
1.1808319091796875,52,104,60,0.00021551724137931034,1494.4000000000001,1490.6700099167745,1415,1500
1.2038350105285645,53,107,61,0.0002260397830018083,1494.7,1490.8804607492243,1415,1500
1.227151870727539,54,109,61,0.0002260397830018083,1494.9000000000001,1490.8804607492243,1415,1500
1.2501318454742432,55,111,61,0.00022893772893772894,1495.0999999999999,1490.9384196679428,1415,1500
1.2733399868011475,56,113,62,0.00023441162681669012,1495.3,1491.047897625522,1415,1500
1.2964208126068115,57,116,63,0.0002388344877000239,1495.5999999999999,1491.1363548431887,1415,1500
1.3195970058441162,58,120,64,0.00025138260432378077,1496.0,1491.3873171756638,1415,1500
1.3426527976989746,59,122,64,0.00025316455696202533,1496.2,1491.4229562284288,1415,1500
1.3656589984893799,60,124,64,0.00024509803921568627,1496.4000000000001,1491.261625873502,1415,1500
1.3888659477233887,61,126,65,0.00026164311878597594,1496.5999999999999,1491.5925274649078,1415,1500
1.4118869304656982,62,128,66,0.0002583311805734952,1496.8,1491.5262887006581,1415,1500
1.435058832168579,63,130,66,0.0002583311805734952,1497.0,1491.5262887006581,1415,1500
1.458420991897583,64,132,65,0.00026371308016877635,1497.2,1491.6339266925638,1415,1500
1.4813787937164307,65,133,65,0.00025316455696202533,1497.3,1491.4229562284288,1415,1500
1.504870891571045,66,135,65,0.00025316455696202533,1497.5,1491.4229562284288,1415,1500
1.528120994567871,67,135,66,0.00025138260432378077,1497.5,1491.3873171756638,1415,1500
1.5511369705200195,68,137,67,0.0002482005460412013,1497.7,1491.3236760100122,1415,1500
1.574171781539917,69,138,66,0.00026932399676811203,1497.8,1491.7461450245505,1415,1500
1.5977678298950195,70,138,68,0.0002469135802469136,1497.8,1491.2979366941265,1415,1500
1.621377944946289,71,139,68,0.00025316455696202533,1497.9000000000001,1491.4229562284288,1415,1500
1.6448488235473633,72,139,62,0.00033311125916055963,1497.9000000000001,1493.0218902723993,1415,1500
1.6681368350982666,73,140,69,0.0002482005460412013,1498.0,1491.3236760100122,1415,1500
1.6911909580230713,74,140,69,0.00025510204081632655,1498.0,1491.4617059055147,1415,1500
1.7144548892974854,75,141,69,0.0002519526329050139,1498.0999999999999,1491.3987177472884,1415,1500
1.7377309799194336,76,142,68,0.0002420721374969741,1498.2,1491.2011078391276,1415,1500
1.7608850002288818,77,142,67,0.0002469135802469136,1498.2,1491.2979366941265,1415,1500
1.7839717864990234,78,142,68,0.00024888003982080636,1498.2,1491.3372658856044,1415,1500
1.8074898719787598,79,144,67,0.00023623907394283014,1498.4000000000001,1491.0844465680448,1415,1500
1.8305819034576416,80,144,66,0.0002380952380952381,1498.4000000000001,1491.121569851093,1415,1500
1.8536489009857178,81,145,66,0.00023342670401493932,1498.5,1491.0281991694869,1415,1500
1.8769969940185547,82,146,66,0.00023342670401493932,1498.5999999999999,1491.0281991694869,1415,1500
1.9001967906951904,83,146,66,0.00023342670401493932,1498.5999999999999,1491.0281991694869,1415,1500
1.9232559204101562,84,147,66,0.00023342670401493932,1498.7,1491.0281991694869,1415,1500
1.9464459419250488,85,147,66,0.00022461814914645105,1498.7,1490.8520280721173,1415,1500
1.969510793685913,86,148,65,0.0002204585537918871,1498.8,1490.768836165026,1415,1500
1.99263596534729,87,149,65,0.00022197558268590456,1498.9000000000001,1490.7991767429062,1415,1500
2.015683889389038,88,149,65,0.00022461814914645105,1498.9000000000001,1490.8520280721173,1415,1500
2.0388059616088867,89,150,64,0.00021141649048625792,1499.0,1490.5879948989134,1415,1500
2.06209397315979,90,151,64,0.00021786492374727668,1499.0999999999999,1490.7169635641337,1415,1500
2.0853428840637207,91,151,64,0.00021939447125932427,1499.0999999999999,1490.7475545143748,1415,1500
2.1083829402923584,92,152,63,0.00021786492374727668,1499.2,1490.7169635641337,1415,1500
2.131596803665161,93,152,63,0.0002153316106804479,1499.2,1490.6662973027971,1415,1500
2.1548168659210205,94,153,63,0.00021786492374727668,1499.3,1490.7169635641337,1415,1500
2.1783947944641113,95,153,63,0.0002153316106804479,1499.3,1490.6662973027971,1415,1500
2.2014119625091553,96,154,63,0.0002153316106804479,1499.4000000000001,1490.6662973027971,1415,1500
2.2246968746185303,97,155,63,0.0002153316106804479,1499.5,1490.6662973027971,1415,1500
2.24800181388855,98,156,63,0.00021141649048625792,1499.5999999999999,1490.5879948989134,1415,1500
2.2713449001312256,99,156,63,0.00020764119601328904,1499.5999999999999,1490.5124890094539,1415,1500
2.294489860534668,100,157,64,0.00020661157024793388,1499.7,1490.4918964941469,1415,1500
2.3177099227905273,101,157,64,0.00020292207792207794,1499.7,1490.4181066476297,1415,1500
2.3408219814300537,102,158,64,0.00020165355918531962,1499.8,1490.3927362728946,1415,1500
2.364128828048706,103,158,64,0.00020525451559934318,1499.8,1490.4647554011751,1415,1500
2.387450933456421,104,159,64,0.00020165355918531962,1499.9000000000001,1490.3927362728946,1415,1500
2.410648822784424,105,159,64,0.00019936204146730463,1499.9000000000001,1490.3469059185343,1415,1500
2.4336719512939453,106,160,64,0.00019712201852946975,1500.0,1490.3021054597775,1415,1500
2.4569787979125977,107,160,64,0.0001948178453146308,1500.0,1490.2560219954808,1415,1500
2.4799678325653076,108,160,64,0.00019592476489028212,1500.0,1490.2781603869939,1415,1500
2.503192901611328,109,161,65,0.00019936204146730463,1500.0999999999999,1490.3469059185343,1415,1500
2.526520013809204,110,161,65,0.00019157088122605365,1500.0999999999999,1490.1910827137092,1415,1500
2.5495879650115967,111,162,65,0.00019372336303758234,1500.2,1490.23413234994,1415,1500
2.572706937789917,112,162,64,0.00018726591760299626,1500.2,1490.1049834412481,1415,1500
2.595829963684082,113,162,65,0.00018832391713747646,1500.2,1490.1261434319376,1415,1500
2.6189467906951904,114,163,65,0.00018315018315018315,1500.3,1490.022668752192,1415,1500
2.642059803009033,115,163,65,0.00018832391713747646,1500.3,1490.1261434319376,1415,1500
2.6651458740234375,116,163,65,0.00018625442354255913,1500.3,1490.0847535600394,1415,1500
2.6882247924804688,117,163,64,0.00018214936247723133,1500.3,1490.0026523387328,1415,1500
2.711408853530884,118,164,64,0.00018214936247723133,1500.4000000000001,1490.0026523387328,1415,1500
2.73458194732666,119,164,64,0.00018832391713747646,1500.4000000000001,1490.1261434319376,1415,1500
2.757861852645874,120,164,64,0.00019157088122605365,1500.4000000000001,1490.1910827137092,1415,1500
2.7809789180755615,121,167,65,0.00020177562550443906,1500.7,1490.3951775992771,1415,1500
2.8040499687194824,122,165,65,0.00018625442354255913,1500.5,1490.0847535600394,1415,1500
2.8273539543151855,123,165,64,0.00018518518518518518,1500.5,1490.0633687928919,1415,1500
2.8503599166870117,124,166,64,0.00018625442354255913,1500.5999999999999,1490.0847535600394,1415,1500
2.873450994491577,125,165,64,0.00019157088122605365,1500.5,1490.1910827137092,1415,1500
2.896472930908203,126,167,65,0.00018625442354255913,1500.7,1490.0847535600394,1415,1500
2.9195008277893066,127,167,65,0.000192789666473877,1500.7,1490.2154584186658,1415,1500
2.9426448345184326,128,166,65,0.0001949317738791423,1500.5999999999999,1490.2583005667711,1415,1500
2.965801954269409,129,166,65,0.0001949317738791423,1500.5999999999999,1490.2583005667711,1415,1500
2.9888598918914795,130,166,65,0.0001949317738791423,1500.5999999999999,1490.2583005667711,1415,1500
3.0119729042053223,131,167,65,0.00019372336303758234,1500.7,1490.23413234994,1415,1500
3.0350849628448486,132,167,65,0.00019372336303758234,1500.7,1490.23413234994,1415,1500
3.0582528114318848,133,167,65,0.00019712201852946975,1500.7,1490.3021054597775,1415,1500
3.081598997116089,134,167,65,0.00019372336303758234,1500.7,1490.23413234994,1415,1500
3.104930877685547,135,166,65,0.0001949317738791423,1500.5999999999999,1490.2583005667711,1415,1500
3.1282219886779785,136,168,65,0.00019372336303758234,1500.8,1490.23413234994,1415,1500
3.1513068675994873,137,168,64,0.00018946570670708602,1500.8,1490.1489792233299,1415,1500
3.174503803253174,138,168,65,0.00019043991620643687,1500.8,1490.1684634133169,1415,1500
3.1978259086608887,139,168,65,0.00019043991620643687,1500.8,1490.1684634133169,1415,1500
3.2208619117736816,140,169,65,0.00019372336303758234,1500.9000000000001,1490.23413234994,1415,1500
3.243912935256958,141,168,65,0.00019592476489028212,1500.8,1490.2781603869939,1415,1500
3.267080783843994,142,169,66,0.00019712201852946975,1500.9000000000001,1490.3021054597775,1415,1500
3.290231943130493,143,168,66,0.0001984126984126984,1500.8,1490.3279190574422,1415,1500
3.313304901123047,144,169,66,0.00020064205457463884,1500.9000000000001,1490.3725061806811,1415,1500
3.3364908695220947,145,169,65,0.00019592476489028212,1500.9000000000001,1490.2781603869939,1415,1500
3.3595199584960938,146,169,66,0.00020165355918531962,1500.9000000000001,1490.3927362728946,1415,1500
3.382735013961792,147,170,66,0.00020165355918531962,1501.0,1490.3927362728946,1415,1500
3.4057798385620117,148,169,66,0.0002039983680130559,1500.9000000000001,1490.4396324494494,1415,1500
3.429003953933716,149,169,66,0.00020283975659229209,1500.9000000000001,1490.416460221034,1415,1500
3.451977014541626,150,169,67,0.00021141649048625792,1500.9000000000001,1490.5879948989134,1415,1500
3.4751038551330566,151,169,67,0.00020764119601328904,1500.9000000000001,1490.5124890094539,1415,1500
3.498178005218506,152,170,67,0.0002063983488132095,1501.0,1490.4876320654523,1415,1500
3.5212149620056152,153,170,68,0.000213903743315508,1501.0,1490.6377399554983,1415,1500
3.54449200630188,154,170,67,0.0002100840336134454,1501.0,1490.561345761457,1415,1500
3.567725896835327,155,170,68,0.00021645021645021645,1501.0,1490.6886694181926,1415,1500
3.590904951095581,156,171,68,0.000213903743315508,1501.0999999999999,1490.6377399554983,1415,1500
3.613942861557007,157,170,68,0.0002204585537918871,1501.0,1490.768836165026,1415,1500
3.6371548175811768,158,171,68,0.0002151462994836489,1501.0999999999999,1490.6625910788612,1415,1500
3.6602628231048584,159,170,68,0.0002204585537918871,1501.0,1490.768836165026,1415,1500
3.6833620071411133,160,171,69,0.00022893772893772894,1501.0999999999999,1490.9384196679428,1415,1500
3.706502914428711,161,171,69,0.0002300966405890474,1501.0999999999999,1490.9615979009691,1415,1500
3.729630947113037,162,171,70,0.0002420721374969741,1501.0999999999999,1491.2011078391276,1415.0,1500
3.752971887588501,163,172,69,0.00025,1501.2,1491.3596650891882,1415,1500
3.7760629653930664,164,171,70,0.0002358490566037736,1501.0999999999999,1491.0766462212637,1415.0,1500
3.7993087768554688,165,171,70,0.0002403846153846154,1501.0999999999999,1491.1673573968806,1415.0,1500
3.822628974914551,166,172,70,0.00023741690408357076,1501.2,1491.1080031708595,1415.0,1500
3.845791816711426,167,172,70,0.0002403846153846154,1501.2,1491.1673573968806,1415.0,1500
3.8690669536590576,168,172,72,0.0002482005460412013,1501.2,1491.3236760100122,1414.0,1500
3.8921539783477783,169,171,72,0.00025138260432378077,1501.0999999999999,1491.3873171756638,1414.0,1500
3.9152979850769043,170,172,72,0.00025974025974025974,1501.2,1491.5544702839934,1414.0,1500
3.938408851623535,171,171,72,0.0002564102564102564,1501.0999999999999,1491.4878702173933,1414.0,1500
3.961498975753784,172,172,73,0.0002482005460412013,1501.2,1491.3236760100122,1413.5,1500
3.98474383354187,173,172,68,0.00037593984962406017,1501.2,1493.8784620816693,1415,1500
4.007778882980347,174,171,73,0.00025799793601651185,1501.0999999999999,1491.5196238095184,1413.5,1500
4.030987977981567,175,172,67,0.00036036036036036037,1501.2,1493.5668722963953,1415,1500
4.053960800170898,176,171,75,0.0002860411899313501,1501.0999999999999,1492.0804888878151,1412.5,1500
4.077732801437378,177,171,74,0.0002777777777777778,1501.0999999999999,1491.9152206447438,1413.0,1500
4.101018905639648,178,171,74,0.00027412280701754384,1501.0999999999999,1491.8421212295391,1413.0,1500
4.124307870864868,179,172,75,0.00028368794326241134,1501.2,1492.0334239544363,1412.5,1500
4.147449970245361,180,170,74,0.00028153153153153153,1501.0,1491.9902957198187,1413.0,1500
4.17059588432312,181,172,75,0.00029967036260113877,1501.2,1492.3530723412109,1412.5,1500
4.193667888641357,182,170,74,0.0002777777777777778,1501.0,1491.9152206447438,1413.0,1500
4.217103004455566,183,170,75,0.0002937720329024677,1501.0,1492.2351057472376,1412.5,1500
4.240160942077637,184,170,68,0.00040290088638195,1501.0,1494.4176828168272,1415,1500
4.263706922531128,185,169,75,0.0002875215641173088,1500.9000000000001,1492.1100963715344,1412.5,1500
4.287369012832642,186,169,75,0.0002937720329024677,1500.9000000000001,1492.2351057472376,1412.5,1500
4.310708999633789,187,169,75,0.0002937720329024677,1500.9000000000001,1492.2351057472376,1412.5,1500
4.334084987640381,188,169,75,0.0002977963073257892,1500.9000000000001,1492.315591235704,1412.5,1500
4.3577399253845215,189,168,76,0.00030864197530864197,1500.8,1492.5325045953609,1412.0,1500
4.38110089302063,190,168,76,0.00031298904538341156,1500.8,1492.6194459968565,1412.0,1500
4.40494179725647,191,167,76,0.00031298904538341156,1500.7,1492.6194459968565,1412.0,1500
4.428592920303345,192,167,75,0.0003061849357011635,1500.7,1492.4833638032114,1412.5,1500
4.452004909515381,193,167,76,0.00032206119162640903,1500.7,1492.8008889217165,1412.0,1500
4.475345849990845,194,166,76,0.0003201024327784891,1500.5999999999999,1492.761713744758,1412.0,1500
4.498686790466309,195,165,76,0.0003322259136212625,1500.5,1493.0041833616135,1412.0,1500
4.521938800811768,196,165,76,0.00031298904538341156,1500.5,1492.6194459968565,1412.0,1500
4.545297861099243,197,164,76,0.00031746031746031746,1500.4000000000001,1492.7088714383945,1412.0,1500
4.568866014480591,198,163,76,0.00032938076416337287,1500.3,1492.9472803724557,1412.0,1500
4.592273950576782,199,163,76,0.0003450655624568668,1500.3,1493.2609763383255,1412.0,1500
4.6158058643341064,200,162,76,0.0003450655624568668,1500.2,1493.2609763383255,1412.0,1500
4.639318943023682,201,162,76,0.0003450655624568668,1500.2,1493.2609763383255,1412.0,1500
4.662613868713379,202,160,76,0.0003419972640218878,1500.0,1493.199610369626,1412.0,1500
4.685956954956055,203,160,76,0.00035536602700781805,1500.0,1493.4669856293447,1412.0,1500
4.709450960159302,204,160,76,0.00035536602700781805,1500.0,1493.4669856293447,1412.0,1500
4.732944965362549,205,158,77,0.00035236081747709656,1499.8,1493.4068814387301,1411.5,1500
4.7565319538116455,206,158,77,0.00035014005602240897,1499.8,1493.3624662096363,1411.5,1500
4.779655933380127,207,157,77,0.00035536602700781805,1499.7,1493.4669856293447,1411.5,1500
4.802809953689575,208,157,78,0.00036403349108117945,1499.7,1493.6403349108118,1411.0,1500
4.825940847396851,209,156,78,0.0003695491500369549,1499.5999999999999,1493.7506480899274,1411.0,1500
4.849246978759766,210,155,78,0.0003846153846153846,1499.5,1494.0519727814958,1411.0,1500
4.872379779815674,211,155,78,0.000375234521575985,1499.5,1493.8643555207079,1411.0,1500
4.895537853240967,212,155,79,0.000375234521575985,1499.5,1493.8643555207079,1410.5,1500
4.918665885925293,213,154,80,0.0003944773175542406,1499.4000000000001,1494.249211440273,1410.0,1500
4.941709995269775,214,153,79,0.000390625,1499.3,1494.1721650891882,1410.5,1500
4.965004920959473,215,153,80,0.00040064102564102563,1499.3,1494.3724856020087,1410.0,1500
4.988357782363892,216,153,79,0.000390625,1499.3,1494.1721650891882,1410.5,1500
5.011700868606567,217,153,79,0.00038714672861014324,1499.3,1494.102599661391,1410.5,1500
5.0350728034973145,218,152,79,0.00038109756097560977,1499.2,1493.9816163087005,1410.5,1500
5.058254957199097,219,152,79,0.000390625,1499.2,1494.1721650891882,1410.5,1500
5.081427812576294,220,152,79,0.00041356492969396195,1499.2,1494.6309636830674,1410.5,1500
5.104921817779541,221,152,79,0.00041356492969396195,1499.2,1494.6309636830674,1410.5,1500
5.128305912017822,222,152,79,0.00041356492969396195,1499.2,1494.6309636830674,1410.5,1500
5.151388883590698,223,152,79,0.000407000407000407,1499.2,1494.4996732291963,1410.5,1500
5.174734830856323,224,152,79,0.00041356492969396195,1499.2,1494.6309636830674,1410.5,1500
5.197876930236816,225,152,79,0.00043591979075850045,1499.2,1495.0780609043582,1410.5,1500
5.221112966537476,226,153,78,0.0004314063848144953,1499.3,1494.9877927854782,1411.0,1500
5.244212865829468,227,152,78,0.00042444821731748726,1499.2,1494.848629435538,1411.0,1500
5.267706871032715,228,153,79,0.00045045045045045046,1499.3,1495.3686740981973,1410.5,1500
5.290827989578247,229,153,79,0.00045045045045045046,1499.3,1495.3686740981973,1410.5,1500
5.313953876495361,230,154,79,0.00044306601683650863,1499.4000000000001,1495.2209854259183,1410.5,1500
5.337320804595947,231,154,78,0.000462962962962963,1499.4000000000001,1495.6189243484475,1411.0,1500
5.360410928726196,232,155,78,0.00047080979284369113,1499.5,1495.775860946062,1411.0,1500
5.383643865585327,233,155,78,0.00047080979284369113,1499.5,1495.775860946062,1411.0,1500
5.4069108963012695,234,155,78,0.000462962962962963,1499.5,1495.6189243484475,1411.0,1500
5.430185794830322,235,155,79,0.0004926108374384236,1499.5,1496.2118818379568,1410.5,1500
5.453357934951782,236,156,78,0.0004789272030651341,1499.5999999999999,1495.9382091504908,1411.0,1500
5.476439952850342,237,156,79,0.0004789272030651341,1499.5999999999999,1495.9382091504908,1410.5,1500
5.4996538162231445,238,157,79,0.0004873294346978557,1499.7,1496.1062537831453,1410.5,1500
5.522944927215576,239,158,79,0.00047080979284369113,1499.8,1495.775860946062,1410.5,1500
5.546098947525024,240,158,79,0.0004873294346978557,1499.8,1496.1062537831453,1410.5,1500
5.569267988204956,241,158,79,0.0004873294346978557,1499.8,1496.1062537831453,1410.5,1500
5.592403888702393,242,158,79,0.0004789272030651341,1499.8,1495.9382091504908,1410.5,1500
5.61549186706543,243,160,80,0.0005159958720330237,1500.0,1496.6795825298486,1410.0,1500
5.638662815093994,244,160,80,0.000496031746031746,1500.0,1496.2803000098231,1410.0,1500
5.661675930023193,245,161,81,0.0005102040816326531,1500.0999999999999,1496.5637467218412,1409.5,1500
5.685053825378418,246,162,80,0.000496031746031746,1500.2,1496.2803000098231,1410.0,1500
5.7082037925720215,247,162,81,0.0005347593582887701,1500.2,1497.0548522549636,1409.5,1500
5.73140287399292,248,163,81,0.0005347593582887701,1500.3,1497.0548522549636,1409.5,1500
5.7546069622039795,249,163,82,0.0005194805194805195,1500.3,1496.7492754787986,1409.0,1500
5.777907848358154,250,164,82,0.0005194805194805195,1500.4000000000001,1496.7492754787986,1409.0,1500
5.801074981689453,251,165,82,0.0005347593582887701,1500.5,1497.0548522549636,1409.0,1500
5.824123859405518,252,164,82,0.0005446623093681918,1500.4000000000001,1497.2529112765521,1409.0,1500
5.847453832626343,253,165,83,0.0005291005291005291,1500.5,1496.9416756711987,1408.5,1500
5.870537996292114,254,165,83,0.0005194805194805195,1500.5,1496.7492754787986,1408.5,1500
5.893887996673584,255,166,84,0.0005717552887364208,1500.5999999999999,1497.7947708639167,1408.0,1500
5.91725492477417,256,166,83,0.0005549389567147614,1500.5999999999999,1497.4584442234834,1408.5,1500
5.9405059814453125,257,166,83,0.0005291005291005291,1500.5999999999999,1496.9416756711987,1408.5,1500
5.963615894317627,258,167,85,0.0005611672278338945,1500.7,1497.583009645866,1407.5,1500
5.987060785293579,259,167,84,0.0005549389567147614,1500.7,1497.4584442234834,1408.0,1500
6.01020884513855,260,167,77,0.0009433962264150943,1500.7,1505.2275896174901,1411.5,1500
6.033476829528809,261,167,85,0.0005611672278338945,1500.7,1497.583009645866,1407.5,1500
6.05671501159668,262,168,84,0.000784313725490196,1500.8,1502.0459395989922,1408.0,1500
6.079906940460205,263,167,86,0.0006289308176100629,1500.7,1498.9382814413896,1407.0,1500
6.103071928024292,264,168,85,0.0005941770647653001,1500.8,1498.2432063844942,1407.5,1500
6.126224994659424,265,168,85,0.0005827505827505828,1500.8,1498.0146767442,1407.5,1500
6.155622959136963,266,168,86,0.0006203473945409429,1500.8,1498.766612980007,1407.0,1500
6.179009914398193,267,168,95,0.0015082956259426848,1500.8,1516.5255776080419,1402.5,1500
6.202195882797241,268,168,85,0.0006127450980392157,1500.8,1498.6145670499725,1407.5,1500
6.225461006164551,269,168,86,0.0006451612903225806,1500.8,1499.2628908956399,1407.0,1500
6.24869179725647,270,169,86,0.00065359477124183,1500.9000000000001,1499.4315605140248,1407.0,1500
6.272151947021484,271,168,79,0.0010416666666666667,1500.8,1507.1929984225214,1410.5,1500
6.295378923416138,272,168,85,0.000625,1500.8,1498.8596650891882,1407.5,1500
6.3186328411102295,273,168,86,0.0006666666666666666,1500.8,1499.6929984225214,1407.0,1500
6.341745853424072,274,168,86,0.0006802721088435374,1500.8,1499.965107266059,1407.0,1500
6.365074872970581,275,172,85,0.0009523809523809524,1501.2,1505.4072841368072,1407.5,1500
6.388338804244995,276,168,86,0.0006060606060606061,1500.8,1498.4808772104004,1407.0,1500
6.411508798599243,277,177,89,0.002304147465437788,1501.7,1530,1405.5,1500
6.434737920761108,278,168,86,0.0006802721088435374,1500.8,1499.965107266059,1407.0,1500
6.458071947097778,279,169,86,0.0006802721088435374,1500.9000000000001,1499.965107266059,1407.0,1500
6.481206893920898,280,168,86,0.0006451612903225806,1500.8,1499.2628908956399,1407.0,1500
6.504496812820435,281,168,81,0.000992063492063492,1500.8,1506.2009349304581,1409.5,1500
6.527737855911255,282,169,86,0.00065359477124183,1500.9000000000001,1499.4315605140248,1407.0,1500
6.550916910171509,283,169,87,0.0007037297677691766,1500.9000000000001,1500.4342604445717,1406.5,1500
6.574006795883179,284,168,86,0.0006720430107526882,1500.8,1499.800525304242,1407.0,1500
6.597388982772827,285,168,86,0.000689655172413793,1500.8,1500.152768537464,1407.0,1500
6.6205198764801025,286,170,83,0.0008163265306122449,1501.0,1502.686195701433,1408.5,1500
6.643656969070435,287,169,87,0.0007288629737609329,1500.9000000000001,1500.9369245644068,1406.5,1500
6.66689395904541,288,169,84,0.0008163265306122449,1500.9000000000001,1502.686195701433,1408.0,1500
6.6899638175964355,289,169,86,0.0006802721088435374,1500.9000000000001,1499.965107266059,1407.0,1500
6.71319580078125,290,169,82,0.0008865248226950354,1500.9000000000001,1504.0901615430889,1409.0,1500
6.736472845077515,291,168,86,0.0006451612903225806,1500.8,1499.2628908956399,1407.0,1500
6.7596588134765625,292,169,87,0.0007037297677691766,1500.9000000000001,1500.4342604445717,1406.5,1500
6.782796859741211,293,168,94,0.001388888888888889,1500.8,1514.137442866966,1403.0,1500
6.805895805358887,294,169,86,0.0006944444444444445,1500.9000000000001,1500.2485539780771,1407.0,1500
6.8292717933654785,295,169,87,0.0007183908045977011,1500.9000000000001,1500.7274811811421,1406.5,1500
6.852346897125244,296,170,87,0.0007836990595611285,1501.0,1502.0336462804107,1406.5,1500
6.875516891479492,297,169,87,0.0007183908045977011,1500.9000000000001,1500.7274811811421,1406.5,1500
6.898699998855591,298,171,77,0.001519756838905775,1501.0999999999999,1516.7548018673037,1411.5,1500
6.922015905380249,299,170,81,0.0010869565217391304,1501.0,1508.0987955239709,1409.5,1500
6.945191860198975,300,169,87,0.0007183908045977011,1500.9000000000001,1500.7274811811421,1406.5,1500
6.968421936035156,301,170,86,0.0007092198581560284,1501.0,1500.5440622523088,1407.0,1500
6.991516828536987,302,171,80,0.001388888888888889,1501.0999999999999,1514.137442866966,1410.0,1500
7.01481294631958,303,170,87,0.0007336757153338225,1501.0,1501.0331793958646,1406.5,1500
7.038064002990723,304,177,92,0.001644736842105263,1501.7,1519.2544019312934,1404.0,1500
7.061263799667358,305,170,94,0.001519756838905775,1501.0,1516.7548018673037,1403.0,1500
7.0846569538116455,306,170,93,0.0012515644555694619,1501.0,1511.3909542005774,1403.5,1500
7.107959985733032,307,169,84,0.0012254901960784314,1500.9000000000001,1510.8694690107568,1408.0,1500
7.1311328411102295,308,170,93,0.0012254901960784314,1501.0,1510.8694690107568,1403.5,1500
7.154524803161621,309,176,87,0.000992063492063492,1501.5999999999999,1506.2009349304581,1406.5,1500
7.178118944168091,310,172,83,0.0011627906976744186,1501.2,1509.6154790426765,1408.5,1500
7.201316833496094,311,170,88,0.0007880220646178094,1501.0,1502.1201063815445,1406.0,1500
7.224522829055786,312,173,92,0.0012239902080783353,1501.3,1510.839469250755,1404.0,1500
7.24773097038269,313,173,83,0.0013157894736842105,1501.3,1512.6754545628723,1408.5,1500
7.270814895629883,314,171,95,0.001519756838905775,1501.0999999999999,1516.7548018673037,1402.5,1500
7.293938875198364,315,173,86,0.0009302325581395349,1501.3,1504.964316251979,1407.0,1500
7.317378997802734,316,170,95,0.001488095238095238,1501.0,1516.121569851093,1402.5,1500
7.340663909912109,317,170,93,0.0011441647597254005,1501.0,1509.2429602836962,1403.5,1500
7.364003896713257,318,171,88,0.0007336757153338225,1501.0999999999999,1501.0331793958646,1406.0,1500
7.387512922286987,319,171,88,0.0007336757153338225,1501.0999999999999,1501.0331793958646,1406.0,1500
7.410831928253174,320,171,87,0.0007598784194528875,1501.0999999999999,1501.557233478246,1406.5,1500
7.434006929397583,321,171,83,0.0010869565217391304,1501.0999999999999,1508.0987955239709,1408.5,1500
7.457549810409546,322,171,93,0.0011198208286674132,1501.0999999999999,1508.7560816625364,1403.5,1500
7.480607986450195,323,172,82,0.0012626262626262627,1501.2,1511.6121903417134,1409.0,1500
7.503835916519165,324,171,89,0.0007880220646178094,1501.0999999999999,1502.1201063815445,1405.5,1500
7.527545928955078,325,170,92,0.0010351966873706005,1501.0,1507.0635988366002,1404.0,1500
7.5509209632873535,326,170,93,0.0012077294685990338,1501.0,1510.5142544611688,1403.5,1500
7.574225902557373,327,171,80,0.001893939393939394,1501.0999999999999,1524.2384529679762,1410.0,1500
7.597535848617554,328,172,82,0.0014814814814814814,1501.2,1515.9892947188177,1409.0,1500
7.620795965194702,329,171,88,0.0007336757153338225,1501.0999999999999,1501.0331793958646,1406.0,1500
7.643908977508545,330,173,84,0.0011614401858304297,1501.3,1509.5884688057968,1408.0,1500
7.667336940765381,331,176,82,0.0016806722689075631,1501.5999999999999,1519.9731104673394,1409.0,1500
7.690671920776367,332,172,90,0.0017006802721088435,1501.2,1520.3732705313651,1405.0,1500
7.71398401260376,333,171,84,0.0010131712259371835,1501.0999999999999,1506.6230896079319,1408.0,1500
7.737406969070435,334,178,79,0.0032258064516129032,1501.8,1530,1410.5,1500
7.760546922683716,335,171,88,0.0007880220646178094,1501.0999999999999,1502.1201063815445,1406.0,1500
7.783861875534058,336,180,93,0.002136752136752137,1502.0,1529.0947078242309,1403.5,1500
7.807063817977905,337,170,88,0.0007763975155279503,1501.0,1501.8876153997471,1406.0,1500
7.830138921737671,338,171,94,0.0012515644555694619,1501.0999999999999,1511.3909542005774,1403.0,1500
7.853338956832886,339,170,93,0.0012787723785166241,1501.0,1511.9351126595207,1403.5,1500
7.876538991928101,340,170,94,0.0012515644555694619,1501.0,1511.3909542005774,1403.0,1500
7.899688959121704,341,170,93,0.0011574074074074073,1501.0,1509.5078132373364,1403.5,1500
7.922791004180908,342,171,82,0.0016260162601626016,1501.0999999999999,1518.8799902924402,1409.0,1500
7.9458959102630615,343,171,88,0.0007836990595611285,1501.0999999999999,1502.0336462804107,1406.0,1500
7.969038009643555,344,170,90,0.0008888888888888889,1501.0,1504.137442866966,1405.0,1500
7.992160797119141,345,172,85,0.0011074197120708748,1501.2,1508.5080593306056,1407.5,1500
8.01537299156189,346,170,91,0.0009881422924901185,1501.0,1506.1225109389907,1404.5,1500
8.038450956344604,347,171,84,0.0011198208286674132,1501.0999999999999,1508.7560816625364,1408.0,1500
8.061807870864868,348,170,92,0.0011111111111111111,1501.0,1508.5818873114104,1404.0,1500
8.084969997406006,349,170,94,0.001358695652173913,1501.0,1513.5335781326664,1403.0,1500
8.10820198059082,350,175,97,0.002457002457002457,1501.5,1530,1401.5,1500
8.131256818771362,351,179,92,0.0017241379310344827,1501.9000000000001,1520.8424237098779,1404.0,1500
8.154561996459961,352,173,84,0.0013550135501355014,1501.3,1513.4599360918983,1408.0,1500
8.178074836730957,353,171,83,0.0012531328320802004,1501.0999999999999,1511.4223217307922,1408.5,1500
8.201526880264282,354,170,94,0.0014492753623188406,1501.0,1515.3451723355649,1403.0,1500
8.22470498085022,355,171,84,0.0011441647597254005,1501.0999999999999,1509.2429602836962,1408.0,1500
8.24820590019226,356,171,83,0.0012345679012345679,1501.0999999999999,1511.0510231138796,1408.5,1500
8.271652936935425,357,171,81,0.001388888888888889,1501.0999999999999,1514.137442866966,1409.5,1500
8.295058965682983,358,171,86,0.000925925925925926,1501.0999999999999,1504.8781836077067,1407.0,1500
8.318359851837158,359,170,95,0.0016722408026755853,1501.0,1519.8044811426998,1402.5,1500
8.341518878936768,360,170,96,0.00202020202020202,1501.0,1526.7637054932286,1402.0,1500
8.364887952804565,361,171,87,0.0008116883116883117,1501.0999999999999,1502.5934313229545,1406.5,1500
8.388107776641846,362,171,84,0.00101010101010101,1501.0999999999999,1506.5616852912085,1408.0,1500
8.411292791366577,363,172,81,0.0015873015873015873,1501.2,1518.10569683522,1409.5,1500
8.434618949890137,364,180,83,0.0017857142857142857,1502.0,1522.073950803474,1408.5,1500
8.45802092552185,365,174,81,0.0017094017094017094,1501.4000000000001,1520.5476992772224,1409.5,1500
8.481149911880493,366,171,87,0.0008116883116883117,1501.0999999999999,1502.5934313229545,1406.5,1500
8.504492998123169,367,172,87,0.0008503401360544217,1501.2,1503.3664678102766,1406.5,1500
8.527769804000854,368,171,93,0.001388888888888889,1501.0999999999999,1514.137442866966,1403.5,1500
8.550984859466553,369,171,87,0.0007936507936507937,1501.0999999999999,1502.2326809622041,1406.5,1500
8.574079990386963,370,177,91,0.001443001443001443,1501.7,1515.2196939492171,1404.5,1500
8.597535848617554,371,172,92,0.001182033096926714,1501.2,1510.0003270277225,1404.0,1500
8.620627880096436,372,171,84,0.0010351966873706005,1501.0999999999999,1507.0635988366002,1408.0,1500
8.643889904022217,373,171,84,0.00101010101010101,1501.0999999999999,1506.5616852912085,1408.0,1500
8.667244911193848,374,171,87,0.0007496251874062968,1501.0999999999999,1501.3521688373141,1406.5,1500
8.690379858016968,375,175,95,0.0019723865877712033,1501.5,1525.8073968446122,1402.5,1500
8.713514804840088,376,178,79,0.002932551319648094,1501.8,1530,1410.5,1500
8.736642837524414,377,172,83,0.0011695906432748538,1501.2,1509.7514779546852,1408.5,1500
8.759856939315796,378,171,80,0.0017482517482517483,1501.0999999999999,1521.3247000542233,1410.0,1500
8.783119916915894,379,166,92,0.0016891891891891893,1500.5999999999999,1520.1434488729719,1404.0,1500
8.806281805038452,380,170,97,0.003105590062111801,1501.0,1530,1401.5,1500
8.829283952713013,381,171,87,0.0007598784194528875,1501.0999999999999,1501.557233478246,1406.5,1500
8.852470874786377,382,170,94,0.0018115942028985507,1501.0,1522.5915491471592,1403.0,1500
8.875715970993042,383,175,83,0.0010964912280701754,1501.5,1508.2894896505918,1408.5,1500
8.898876905441284,384,171,93,0.001488095238095238,1501.0999999999999,1516.121569851093,1403.5,1500
8.921984910964966,385,174,86,0.0008710801393728223,1501.4000000000001,1503.7812678766447,1407.0,1500
8.945190906524658,386,177,80,0.001953125,1501.7,1525.4221650891882,1410.0,1500
8.968303918838501,387,174,86,0.0008928571428571428,1501.4000000000001,1504.2168079463311,1407.0,1500
8.99144983291626,388,172,91,0.0012626262626262627,1501.2,1511.6121903417134,1404.5,1500
9.014657974243164,389,171,82,0.0010638297872340426,1501.0999999999999,1507.6362608338691,1409.0,1500
9.037951946258545,390,173,86,0.0008116883116883117,1501.3,1502.5934313229545,1407.0,1500
9.061078786849976,391,171,93,0.0014184397163120568,1501.0999999999999,1514.7284594154294,1403.5,1500
9.08415699005127,392,177,85,0.001589825119236884,1501.7,1518.156167473926,1407.5,1500
9.107586860656738,393,171,91,0.0010964912280701754,1501.0999999999999,1508.2894896505918,1404.5,1500
9.130740880966187,394,171,94,0.0017730496453900709,1501.0999999999999,1521.8206579969897,1403.0,1500
9.153944969177246,395,171,89,0.0009057971014492754,1501.0999999999999,1504.4756071181737,1405.5,1500
9.177560806274414,396,172,78,0.001851851851851852,1501.2,1523.3967021262251,1411.0,1500
9.200708866119385,397,171,86,0.000744047619047619,1501.0999999999999,1501.2406174701405,1407.0,1500
9.223833799362183,398,171,81,0.0012077294685990338,1501.0999999999999,1510.5142544611688,1409.5,1500
9.247159957885742,399,172,83,0.0009250693802035153,1501.2,1504.8610526932584,1408.5,1500
9.270394802093506,400,172,86,0.0007598784194528875,1501.2,1501.557233478246,1407.0,1500
9.293563842773438,401,172,86,0.0007598784194528875,1501.2,1501.557233478246,1407.0,1500
9.317060947418213,402,172,86,0.0007598784194528875,1501.2,1501.557233478246,1407.0,1500
9.340175867080688,403,172,85,0.0008695652173913044,1501.2,1503.7509694370142,1407.5,1500
9.363411903381348,404,172,91,0.0012345679012345679,1501.2,1511.0510231138796,1404.5,1500
9.386693954467773,405,173,80,0.0015873015873015873,1501.3,1518.10569683522,1410.0,1500
9.409875869750977,406,171,86,0.0007763975155279503,1501.0999999999999,1501.8876153997471,1407.0,1500
9.43300199508667,407,171,86,0.000744047619047619,1501.0999999999999,1501.2406174701405,1407.0,1500
9.456151008605957,408,177,78,0.00267379679144385,1501.7,1530,1411.0,1500
9.479228973388672,409,179,77,0.0035714285714285713,1501.9000000000001,1530,1411.5,1500
9.502336978912354,410,178,81,0.0016806722689075631,1501.8,1519.9731104673394,1409.5,1500
9.525460958480835,411,177,79,0.0022624434389140274,1501.7,1530,1410.5,1500
9.5485258102417,412,171,86,0.0007763975155279503,1501.0999999999999,1501.8876153997471,1407.0,1500
9.571806907653809,413,178,81,0.0016339869281045752,1501.8,1519.0394036512796,1409.5,1500
9.595130920410156,414,173,83,0.0010330578512396695,1501.3,1507.0208221139817,1408.5,1500
9.618068933486938,415,172,85,0.0024154589371980675,1501.2,1530,1407.5,1500
9.640998840332031,416,172,92,0.0012515644555694619,1501.2,1511.3909542005774,1404.0,1500
9.664066791534424,417,180,82,0.0016129032258064516,1502.0,1518.6177296053172,1409.0,1500
9.6874418258667,418,177,83,0.0013157894736842105,1501.7,1512.6754545628723,1408.5,1500
9.710519790649414,419,172,84,0.000966183574879227,1501.2,1505.6833365867728,1408.0,1500
9.733659982681274,420,174,82,0.0011904761904761906,1501.4000000000001,1510.169188898712,1409.0,1500
9.7568359375,421,172,92,0.0013297872340425532,1501.2,1512.9554097700393,1404.0,1500
9.780795812606812,422,178,81,0.0016835016835016834,1501.8,1520.0296987592219,1409.5,1500
9.804931879043579,423,172,82,0.0010869565217391304,1501.2,1508.0987955239709,1409.0,1500
9.829077005386353,424,172,84,0.000946969696969697,1501.2,1505.2990590285822,1408.0,1500
9.853026866912842,425,171,86,0.000744047619047619,1501.0999999999999,1501.2406174701405,1407.0,1500
9.877389907836914,426,172,86,0.0007880220646178094,1501.2,1502.1201063815445,1407.0,1500
9.901297807693481,427,172,84,0.0008865248226950354,1501.2,1504.0901615430889,1408.0,1500
9.925220012664795,428,171,92,0.0012787723785166241,1501.0999999999999,1511.9351126595207,1404.0,1500
9.949182987213135,429,178,81,0.0016806722689075631,1501.8,1519.9731104673394,1409.5,1500
9.973111867904663,430,171,92,0.0012254901960784314,1501.0999999999999,1510.8694690107568,1404.0,1500
9.997016906738281,431,171,84,0.0009057971014492754,1501.0999999999999,1504.4756071181737,1408.0,1500
10.020936965942383,432,171,80,0.0016025641025641025,1501.0999999999999,1518.4109471404702,1410.0,1500
10.045008897781372,433,171,91,0.0011198208286674132,1501.0999999999999,1508.7560816625364,1404.5,1500
10.0690598487854,434,171,93,0.0014184397163120568,1501.0999999999999,1514.7284594154294,1403.5,1500
10.092986822128296,435,171,93,0.0014492753623188406,1501.0999999999999,1515.3451723355649,1403.5,1500
10.116919994354248,436,184,90,0.002173913043478261,1502.4000000000001,1529.8379259587534,1405.0,1500
10.140875816345215,437,171,95,0.001976284584980237,1501.0999999999999,1525.8853567887929,1402.5,1500
10.164901971817017,438,176,78,0.0022522522522522522,1501.5999999999999,1530,1411.0,1500
10.18886685371399,439,172,84,0.0008865248226950354,1501.2,1504.0901615430889,1408.0,1500
10.213042974472046,440,171,86,0.000744047619047619,1501.0999999999999,1501.2406174701405,1407.0,1500
10.237170934677124,441,171,96,0.0023148148148148147,1501.0999999999999,1530,1402.0,1500
10.260924816131592,442,172,83,0.0012077294685990338,1501.2,1510.5142544611688,1408.5,1500
10.285170793533325,443,172,81,0.0015527950310559005,1501.2,1517.4155657103063,1409.5,1500
10.309268951416016,444,172,81,0.001182033096926714,1501.2,1510.0003270277225,1409.5,1500
10.333200931549072,445,177,80,0.00196078431372549,1501.7,1525.575351363698,1410.0,1500
10.357240915298462,446,172,86,0.0007598784194528875,1501.2,1501.557233478246,1407.0,1500
10.381165981292725,447,172,92,0.0013297872340425532,1501.2,1512.9554097700393,1404.0,1500
10.405218839645386,448,171,87,0.0007880220646178094,1501.0999999999999,1502.1201063815445,1406.5,1500
10.429165840148926,449,172,86,0.0007598784194528875,1501.2,1501.557233478246,1407.0,1500
10.453049898147583,450,172,86,0.0007598784194528875,1501.2,1501.557233478246,1407.0,1500
10.47701382637024,451,177,82,0.0014619883040935672,1501.7,1515.5994311710595,1409.0,1500
10.500916004180908,452,181,94,0.003205128205128205,1502.0999999999999,1530,1403.0,1500
10.52496600151062,453,176,86,0.0009398496240601503,1501.5999999999999,1505.1566575703912,1407.0,1500
10.549059867858887,454,172,86,0.0007598784194528875,1501.2,1501.557233478246,1407.0,1500
10.57296895980835,455,171,93,0.0014184397163120568,1501.0999999999999,1514.7284594154294,1403.5,1500
10.596882820129395,456,176,86,0.001736111111111111,1501.5999999999999,1521.0818873114104,1407.0,1500
10.62080979347229,457,171,86,0.000744047619047619,1501.0999999999999,1501.2406174701405,1407.0,1500
10.644920825958252,458,173,85,0.0017482517482517483,1501.3,1521.3247000542233,1407.5,1500
10.66901683807373,459,170,88,0.0016722408026755853,1501.0,1519.8044811426998,1406.0,1500
10.692940950393677,460,171,83,0.0009671179883945841,1501.0999999999999,1505.7020248570798,1408.5,1500
10.716872930526733,461,179,85,0.001388888888888889,1501.9000000000001,1514.137442866966,1407.5,1500
10.740797996520996,462,171,86,0.000744047619047619,1501.0999999999999,1501.2406174701405,1407.0,1500
10.76486587524414,463,171,86,0.0007598784194528875,1501.0999999999999,1501.557233478246,1407.0,1500
10.788952827453613,464,171,86,0.0007288629737609329,1501.0999999999999,1500.9369245644068,1407.0,1500
10.813543796539307,465,171,92,0.0012515644555694619,1501.0999999999999,1511.3909542005774,1404.0,1500
10.837894916534424,466,172,79,0.0017889087656529517,1501.2,1522.1378404022473,1410.5,1500
10.86211085319519,467,170,86,0.000744047619047619,1501.0,1501.2406174701405,1407.0,1500
10.886029958724976,468,171,86,0.0007598784194528875,1501.0999999999999,1501.557233478246,1407.0,1500
10.909966945648193,469,177,82,0.0017825311942959,1501.7,1522.0102889751063,1409.0,1500
10.93388295173645,470,177,84,0.0012787723785166241,1501.7,1511.9351126595207,1408.0,1500
10.958264827728271,471,171,91,0.0011198208286674132,1501.0999999999999,1508.7560816625364,1404.5,1500
10.982491970062256,472,177,82,0.0015432098765432098,1501.7,1517.2238626200524,1409.0,1500
11.006409883499146,473,171,86,0.000744047619047619,1501.0999999999999,1501.2406174701405,1407.0,1500
11.030341863632202,474,171,86,0.0007598784194528875,1501.0999999999999,1501.557233478246,1407.0,1500
11.054415941238403,475,171,94,0.0017730496453900709,1501.0999999999999,1521.8206579969897,1403.0,1500
11.07850694656372,476,171,86,0.0007598784194528875,1501.0999999999999,1501.557233478246,1407.0,1500
11.102433919906616,477,169,86,0.0007763975155279503,1500.9000000000001,1501.8876153997471,1407.0,1500
11.126595973968506,478,172,92,0.0013297872340425532,1501.2,1512.9554097700393,1404.0,1500
11.150569915771484,479,171,81,0.0012004801920768306,1501.0999999999999,1510.3692689307247,1409.5,1500
11.174530982971191,480,170,86,0.0007183908045977011,1501.0,1500.7274811811421,1407.0,1500
11.198531866073608,481,171,88,0.000851063829787234,1501.0999999999999,1503.3809416849328,1406.0,1500
11.222447872161865,482,170,91,0.001182033096926714,1501.0,1510.0003270277225,1404.5,1500
11.250048875808716,483,170,86,0.000744047619047619,1501.0,1501.2406174701405,1407.0,1500
11.274091005325317,484,171,82,0.0010964912280701754,1501.0999999999999,1508.2894896505918,1409.0,1500
11.297542810440063,485,171,86,0.0007598784194528875,1501.0999999999999,1501.557233478246,1407.0,1500
11.320704936981201,486,170,86,0.000744047619047619,1501.0,1501.2406174701405,1407.0,1500
11.343884944915771,487,170,91,0.001182033096926714,1501.0,1510.0003270277225,1404.5,1500
11.36721396446228,488,172,86,0.0008116883116883117,1501.2,1502.5934313229545,1407.0,1500
11.390403985977173,489,170,86,0.000744047619047619,1501.0,1501.2406174701405,1407.0,1500
11.413550853729248,490,171,78,0.0017094017094017094,1501.0999999999999,1520.5476992772224,1411.0,1500
11.436953783035278,491,170,92,0.0013297872340425532,1501.0,1512.9554097700393,1404.0,1500
11.460064888000488,492,170,76,0.0022727272727272726,1501.0,1530,1412.0,1500
11.483102798461914,493,170,86,0.0007183908045977011,1501.0,1500.7274811811421,1407.0,1500
11.506401777267456,494,178,77,0.002777777777777778,1501.8,1530,1411.5,1500
11.5294668674469,495,171,78,0.0015873015873015873,1501.0999999999999,1518.10569683522,1411.0,1500
11.552756786346436,496,170,86,0.000744047619047619,1501.0,1501.2406174701405,1407.0,1500
11.575907945632935,497,171,81,0.001358695652173913,1501.0999999999999,1513.5335781326664,1409.5,1500
11.599098920822144,498,170,85,0.000744047619047619,1501.0,1501.2406174701405,1407.5,1500
11.622244834899902,499,170,85,0.000744047619047619,1501.0,1501.2406174701405,1407.5,1500
11.6454598903656,500,170,86,0.001388888888888889,1501.0,1514.137442866966,1407.0,1500
11.66860294342041,501,170,85,0.000689655172413793,1501.0,1500.152768537464,1407.5,1500
11.69179892539978,502,171,90,0.0010741138560687433,1501.0999999999999,1507.841942210563,1405.0,1500
11.715046882629395,503,169,90,0.0011574074074074073,1500.9000000000001,1509.5078132373364,1405.0,1500
11.738371849060059,504,176,91,0.0017857142857142857,1501.5999999999999,1522.073950803474,1404.5,1500
11.76154899597168,505,170,81,0.000992063492063492,1501.0,1506.2009349304581,1409.5,1500
11.784818887710571,506,176,78,0.0016891891891891893,1501.5999999999999,1520.1434488729719,1411.0,1500
11.808044910430908,507,169,91,0.0012515644555694619,1500.9000000000001,1511.3909542005774,1404.5,1500
11.831251859664917,508,170,81,0.0009718172983479105,1501.0,1505.7960110561464,1409.5,1500
11.85447382926941,509,171,79,0.0012077294685990338,1501.0999999999999,1510.5142544611688,1410.5,1500
11.877800941467285,510,169,85,0.000689655172413793,1500.9000000000001,1500.152768537464,1407.5,1500
11.900961875915527,511,170,85,0.0007037297677691766,1501.0,1500.4342604445717,1407.5,1500
11.924152851104736,512,169,85,0.000689655172413793,1500.9000000000001,1500.152768537464,1407.5,1500
11.947450876235962,513,169,80,0.0009090909090909091,1500.9000000000001,1504.5414832710064,1410.0,1500
11.970656871795654,514,169,84,0.0006666666666666666,1500.9000000000001,1499.6929984225214,1408.0,1500
11.99381399154663,515,169,84,0.00065359477124183,1500.9000000000001,1499.4315605140248,1408.0,1500
12.017217874526978,516,169,79,0.001,1500.9000000000001,1506.3596650891882,1410.5,1500
12.040403842926025,517,176,80,0.0011655011655011655,1501.5999999999999,1509.6696883992115,1410.0,1500
12.063584804534912,518,170,80,0.0008525149190110827,1501.0,1503.4099634694098,1410.0,1500
12.086846828460693,519,169,83,0.00065359477124183,1500.9000000000001,1499.4315605140248,1408.5,1500
12.11006784439087,520,169,78,0.0009523809523809524,1500.9000000000001,1505.4072841368072,1411.0,1500
12.133230924606323,521,170,79,0.0009090909090909091,1501.0,1504.5414832710064,1410.5,1500
12.156375885009766,522,169,83,0.0006325110689437065,1500.9000000000001,1499.0098864680624,1408.5,1500
12.179764986038208,523,169,76,0.0011111111111111111,1500.9000000000001,1508.5818873114104,1412.0,1500
12.203075885772705,524,169,78,0.0008695652173913044,1500.9000000000001,1503.7509694370142,1411.0,1500
12.22633981704712,525,169,85,0.0007262164124909223,1500.9000000000001,1500.8839933390066,1407.5,1500
12.249872922897339,526,169,81,0.0005896226415094339,1500.9000000000001,1498.1521179193769,1409.5,1500
12.273343801498413,527,168,82,0.0006203473945409429,1500.8,1498.766612980007,1409.0,1500
12.296509981155396,528,168,81,0.0005717552887364208,1500.8,1497.7947708639167,1409.5,1500
12.31974983215332,529,168,81,0.0005717552887364208,1500.8,1497.7947708639167,1409.5,1500
12.342930793762207,530,168,81,0.0005896226415094339,1500.8,1498.1521179193769,1409.5,1500
12.366236925125122,531,168,81,0.0005896226415094339,1500.8,1498.1521179193769,1409.5,1500
12.38939881324768,532,168,81,0.0005973715651135006,1500.8,1498.3070963914581,1409.5,1500
12.412593841552734,533,168,81,0.0005611672278338945,1500.8,1497.583009645866,1409.5,1500
12.435748815536499,534,167,78,0.0006613756613756613,1500.7,1499.5871783167015,1411.0,1500
12.458937883377075,535,167,80,0.0005787037037037037,1500.7,1497.9337391632623,1410.0,1500
12.48209285736084,536,167,80,0.0005611672278338945,1500.7,1497.583009645866,1410.0,1500
12.505456924438477,537,167,80,0.0005580357142857143,1500.7,1497.5203793749024,1410.0,1500
12.528852939605713,538,168,80,0.0005681818181818182,1500.8,1497.7233014528247,1410.0,1500
12.55207896232605,539,168,80,0.0005681818181818182,1500.8,1497.7233014528247,1410.0,1500
12.575231790542603,540,168,80,0.0005580357142857143,1500.8,1497.5203793749024,1410.0,1500
12.598416805267334,541,168,80,0.0005509641873278236,1500.8,1497.3789488357447,1410.0,1500
12.621579885482788,542,168,80,0.0005509641873278236,1500.8,1497.3789488357447,1410.0,1500
12.644872903823853,543,168,80,0.0005681818181818182,1500.8,1497.7233014528247,1410.0,1500
12.668096780776978,544,168,80,0.0005411255411255411,1500.8,1497.182175911699,1410.0,1500
12.69136095046997,545,168,80,0.0005787037037037037,1500.8,1497.9337391632623,1410.0,1500
12.714769840240479,546,169,80,0.0005509641873278236,1500.9000000000001,1497.3789488357447,1410.0,1500
12.73805284500122,547,168,80,0.0005681818181818182,1500.8,1497.7233014528247,1410.0,1500
12.761229991912842,548,168,80,0.0005611672278338945,1500.8,1497.583009645866,1410.0,1500
12.784509897232056,549,168,80,0.0005787037037037037,1500.8,1497.9337391632623,1410.0,1500
12.807724952697754,550,169,81,0.0005509641873278236,1500.9000000000001,1497.3789488357447,1409.5,1500
12.831092834472656,551,169,81,0.0005509641873278236,1500.9000000000001,1497.3789488357447,1409.5,1500
12.854621887207031,552,169,80,0.0005446623093681918,1500.9000000000001,1497.2529112765521,1410.0,1500
12.877947807312012,553,169,79,0.0006385696040868455,1500.9000000000001,1499.131057170925,1410.5,1500
12.901112794876099,554,169,80,0.0005446623093681918,1500.9000000000001,1497.2529112765521,1410.0,1500
12.92441987991333,555,170,81,0.0005509641873278236,1501.0,1497.3789488357447,1409.5,1500
12.947616815567017,556,169,80,0.0005446623093681918,1500.9000000000001,1497.2529112765521,1410.0,1500
12.970801830291748,557,169,81,0.0005611672278338945,1500.9000000000001,1497.583009645866,1409.5,1500
12.99390983581543,558,170,81,0.0005611672278338945,1501.0,1497.583009645866,1409.5,1500
13.01725697517395,559,169,81,0.0005611672278338945,1500.9000000000001,1497.583009645866,1409.5,1500
13.040603876113892,560,170,81,0.0005717552887364208,1501.0,1497.7947708639167,1409.5,1500
13.06374192237854,561,170,81,0.0005717552887364208,1501.0,1497.7947708639167,1409.5,1500
13.087116956710815,562,170,81,0.0005611672278338945,1501.0,1497.583009645866,1409.5,1500
13.110264778137207,563,170,81,0.0005787037037037037,1501.0,1497.9337391632623,1409.5,1500
13.133456945419312,564,171,81,0.0005717552887364208,1501.0999999999999,1497.7947708639167,1409.5,1500
13.156641960144043,565,171,81,0.0005717552887364208,1501.0999999999999,1497.7947708639167,1409.5,1500
13.179837942123413,566,171,81,0.0005896226415094339,1501.0999999999999,1498.1521179193769,1409.5,1500
13.20296597480774,567,171,81,0.0005611672278338945,1501.0999999999999,1497.583009645866,1409.5,1500
13.226128816604614,568,171,81,0.0005896226415094339,1501.0999999999999,1498.1521179193769,1409.5,1500
13.2497398853302,569,172,82,0.0005717552887364208,1501.2,1497.7947708639167,1409.0,1500
13.272920846939087,570,172,81,0.0005896226415094339,1501.2,1498.1521179193769,1409.5,1500
13.296194791793823,571,171,82,0.0005827505827505828,1501.0999999999999,1498.0146767442,1409.0,1500
13.319459915161133,572,171,80,0.0007122507122507123,1501.0999999999999,1500.6046793342025,1410.0,1500
13.34276795387268,573,171,82,0.0005896226415094339,1501.0999999999999,1498.1521179193769,1409.0,1500
13.366046905517578,574,171,82,0.0005827505827505828,1501.0999999999999,1498.0146767442,1409.0,1500
13.38935399055481,575,172,82,0.0005896226415094339,1501.2,1498.1521179193769,1409.0,1500
13.41261887550354,576,172,82,0.0005827505827505828,1501.2,1498.0146767442,1409.0,1500
13.435805797576904,577,171,82,0.0005717552887364208,1501.0999999999999,1497.7947708639167,1409.0,1500
13.458950996398926,578,171,82,0.0005896226415094339,1501.0999999999999,1498.1521179193769,1409.0,1500
13.482158899307251,579,172,82,0.0006009615384615385,1501.2,1498.3788958584189,1409.0,1500
13.505321979522705,580,174,79,0.0008873114463176575,1501.4000000000001,1504.1058940155413,1410.5,1500
13.528530836105347,581,172,83,0.0006325110689437065,1501.2,1499.0098864680624,1408.5,1500
13.551705837249756,582,172,83,0.0006325110689437065,1501.2,1499.0098864680624,1408.5,1500
13.574948787689209,583,173,83,0.0005717552887364208,1501.3,1497.7947708639167,1408.5,1500
13.598151922225952,584,172,81,0.000663129973474801,1501.2,1499.6222645586843,1409.5,1500
13.621360778808594,585,172,83,0.0005827505827505828,1501.2,1498.0146767442,1408.5,1500
13.64461088180542,586,173,83,0.0005827505827505828,1501.3,1498.0146767442,1408.5,1500
13.667869806289673,587,172,84,0.0006203473945409429,1501.2,1498.766612980007,1408.0,1500
13.691008806228638,588,174,83,0.0005941770647653001,1501.4000000000001,1498.2432063844942,1408.5,1500
13.714190006256104,589,173,83,0.0005896226415094339,1501.3,1498.1521179193769,1408.5,1500
13.73744797706604,590,172,83,0.0006009615384615385,1501.2,1498.3788958584189,1408.5,1500
13.760649919509888,591,173,83,0.0005717552887364208,1501.3,1497.7947708639167,1408.5,1500
13.783949851989746,592,174,84,0.0006583278472679394,1501.4000000000001,1499.5262220345469,1408.0,1500
13.807265996932983,593,173,80,0.0008169934640522876,1501.3,1502.699534370234,1410.0,1500
13.830435991287231,594,173,83,0.0006086427267194157,1501.3,1498.5325196235765,1408.5,1500
13.853641986846924,595,173,84,0.0006086427267194157,1501.3,1498.5325196235765,1408.0,1500
13.876927852630615,596,173,73,0.0014285714285714286,1501.3,1514.9310936606169,1413.5,1500
13.900155782699585,597,173,84,0.0006203473945409429,1501.3,1498.766612980007,1408.0,1500
13.923317909240723,598,175,78,0.000946969696969697,1501.5,1505.2990590285822,1411.0,1500
13.946599960327148,599,173,83,0.000641025641025641,1501.3,1499.1801779097011,1408.5,1500
13.969745874404907,600,172,84,0.0006203473945409429,1501.2,1498.766612980007,1408.0,1500
13.992929935455322,601,174,76,0.0010204081632653062,1501.4000000000001,1506.7678283544944,1412.0,1500
14.016076803207397,602,173,84,0.0006203473945409429,1501.3,1498.766612980007,1408.0,1500
14.039289951324463,603,175,80,0.0009250693802035153,1501.5,1504.8610526932584,1410.0,1500
14.062415838241577,604,173,91,0.0014005602240896359,1501.3,1514.3708695709809,1404.5,1500
14.08569598197937,605,173,88,0.0008525149190110827,1501.3,1503.4099634694098,1406.0,1500
14.108824968338013,606,173,83,0.0006325110689437065,1501.3,1499.0098864680624,1408.5,1500
14.13202691078186,607,173,85,0.0006868131868131869,1501.3,1500.0959288254519,1407.5,1500
14.155165910720825,608,173,84,0.0006325110689437065,1501.3,1499.0098864680624,1408.0,1500
14.17835783958435,609,173,83,0.0006127450980392157,1501.3,1498.6145670499725,1408.5,1500
14.201490879058838,610,174,84,0.0006325110689437065,1501.4000000000001,1499.0098864680624,1408.0,1500
14.224742889404297,611,173,83,0.0005717552887364208,1501.3,1497.7947708639167,1408.5,1500
14.248040914535522,612,172,93,0.0015384615384615385,1501.2,1517.1288958584189,1403.5,1500
14.27177381515503,613,173,84,0.0006325110689437065,1501.3,1499.0098864680624,1408.0,1500
14.295041799545288,614,173,83,0.0005896226415094339,1501.3,1498.1521179193769,1408.5,1500
14.318312883377075,615,173,83,0.0006009615384615385,1501.3,1498.3788958584189,1408.5,1500
14.341473817825317,616,173,84,0.0006325110689437065,1501.3,1499.0098864680624,1408.0,1500
14.364726781845093,617,173,83,0.0006127450980392157,1501.3,1498.6145670499725,1408.5,1500
14.387951850891113,618,173,84,0.000641025641025641,1501.3,1499.1801779097011,1408.0,1500
14.411157846450806,619,172,84,0.0006203473945409429,1501.2,1498.766612980007,1408.0,1500
14.434374809265137,620,173,83,0.0006127450980392157,1501.3,1498.6145670499725,1408.5,1500
14.457635879516602,621,173,84,0.0006086427267194157,1501.3,1498.5325196235765,1408.0,1500
14.480779886245728,622,172,83,0.0006009615384615385,1501.2,1498.3788958584189,1408.5,1500
14.50400996208191,623,172,84,0.0006203473945409429,1501.2,1498.766612980007,1408.0,1500
14.527537822723389,624,174,79,0.000946969696969697,1501.4000000000001,1505.2990590285822,1410.5,1500
14.550757884979248,625,172,84,0.0006203473945409429,1501.2,1498.766612980007,1408.0,1500
14.573923826217651,626,172,84,0.0006203473945409429,1501.2,1498.766612980007,1408.0,1500
14.597295999526978,627,173,77,0.0010319917440660474,1501.3,1506.9994999705091,1411.5,1500
14.620485782623291,628,173,79,0.00089126559714795,1501.3,1504.1849770321471,1410.5,1500
14.643712997436523,629,172,83,0.0006009615384615385,1501.2,1498.3788958584189,1408.5,1500
14.66697382926941,630,172,83,0.0006009615384615385,1501.2,1498.3788958584189,1408.5,1500
14.690161943435669,631,173,84,0.0006203473945409429,1501.3,1498.766612980007,1408.0,1500
14.71330189704895,632,172,83,0.0006009615384615385,1501.2,1498.3788958584189,1408.5,1500
14.73658299446106,633,172,83,0.0006203473945409429,1501.2,1498.766612980007,1408.5,1500
14.759739875793457,634,172,84,0.0006203473945409429,1501.2,1498.766612980007,1408.0,1500
14.78295087814331,635,173,84,0.0006086427267194157,1501.3,1498.5325196235765,1408.0,1500
14.806103944778442,636,172,84,0.0006203473945409429,1501.2,1498.766612980007,1408.0,1500
14.829300880432129,637,177,79,0.0010570824524312897,1501.7,1507.501314137814,1410.5,1500
14.852458000183105,638,172,83,0.0006009615384615385,1501.2,1498.3788958584189,1408.5,1500
14.875670909881592,639,173,77,0.0010893246187363835,1501.3,1508.1461574639159,1411.5,1500
14.898836851119995,640,172,83,0.0006009615384615385,1501.2,1498.3788958584189,1408.5,1500
