time,frame,x,y,size_inv,roll,pitch,thrust,yaw
0,0,,,,1500.0,1500.0,1420.0,1500
0.05,1,154,117,0.00026860059092130003,1499.4,1495.2686005909213,1403.0,1500
0.1,2,153,115,0.0002777777777777778,1499.3,1495.2777777777778,1405.0,1500
0.15000000000000002,3,153,115,0.0002915451895043732,1499.3,1495.2915451895044,1405.0,1500
0.2,4,152,114,0.00031289111389236547,1499.2,1495.3128911138924,1406.0,1500
0.25,5,152,113,0.0003244646333549643,1499.2,1495.3244646333549,1407.0,1500
0.3,6,150,112,0.00032938076416337287,1499.0,1495.3293807641633,1408.0,1500
0.35,7,150,112,0.00034722222222222224,1499.0,1495.3472222222222,1408.0,1500
0.39999999999999997,8,149,111,0.00036656891495601173,1498.9,1495.366568914956,1409.0,1500
0.44999999999999996,9,149,112,0.00037509377344336085,1498.9,1495.3750937734433,1408.0,1500
0.49999999999999994,10,149,111,0.00039032006245121,1498.9,1495.390320062451,1409.0,1500
0.5499999999999999,11,148,111,0.00042052144659377626,1498.8,1495.4205214465937,1409.0,1500
0.6,12,148,110,0.0004310344827586207,1498.8,1495.4310344827586,1410.0,1500
0.65,13,147,110,0.000449842555105713,1498.7,1495.4498425551058,1410.0,1500
0.7000000000000001,14,147,110,0.0004662004662004662,1498.7,1495.4662004662005,1410.0,1500
0.7500000000000001,15,146,109,0.0004873294346978557,1498.6,1495.4873294346978,1411.0,1500
0.8000000000000002,16,147,109,0.0004965243296921549,1498.7,1495.4965243296922,1411.0,1500
0.8500000000000002,17,146,110,0.0005197505197505198,1498.6,1495.5197505197505,1410.0,1500
0.9000000000000002,18,147,110,0.0005299417064122947,1498.7,1495.5299417064123,1410.0,1500
0.9500000000000003,19,147,110,0.0005555555555555556,1498.7,1495.5555555555557,1410.0,1500
1.0000000000000002,20,148,110,0.000588235294117647,1498.8,1495.5882352941176,1410.0,1500
1.0500000000000003,21,148,110,0.0006127450980392157,1498.8,1495.612745098039,1410.0,1500
1.1000000000000003,22,149,110,0.0006447453255963894,1498.9,1495.6447453255964,1410.0,1500
1.1500000000000004,23,149,110,0.0006793478260869565,1498.9,1495.679347826087,1410.0,1500
1.2000000000000004,24,149,110,0.0007012622720897616,1498.9,1495.7012622720897,1410.0,1500
1.2500000000000004,25,150,110,0.0007501875468867217,1499.0,1495.7501875468868,1410.0,1500
1.3000000000000005,26,150,110,0.0007751937984496124,1499.0,1495.7751937984497,1410.0,1500
1.3500000000000005,27,150,110,0.0007936507936507937,1499.0,1495.7936507936508,1410.0,1500
1.4000000000000006,28,150,110,0.0008210180623973727,1499.0,1495.8210180623973,1410.0,1500
1.4500000000000006,29,150,110,0.0008928571428571428,1499.0,1495.892857142857,1410.0,1500
1.5000000000000007,30,151,110,0.0009157509157509158,1499.1,1495.915750915751,1410.0,1500
1.5500000000000007,31,151,110,0.000949667616334283,1499.1,1495.9496676163342,1410.0,1500
1.6000000000000008,32,150,110,0.0009746588693957114,1499.0,1495.9746588693956,1410.0,1500
1.6500000000000008,33,151,109,0.0010395010395010396,1499.1,1496.0395010395011,1411.0,1500
1.7000000000000008,34,151,109,0.0010395010395010396,1499.1,1496.0395010395011,1411.0,1500
1.7500000000000009,35,150,109,0.0011111111111111111,1499.0,1496.111111111111,1411.0,1500
1.800000000000001,36,151,109,0.0011904761904761906,1499.1,1496.1904761904761,1411.0,1500
1.850000000000001,37,151,109,0.0012254901960784314,1499.1,1496.2254901960785,1411.0,1500
1.900000000000001,38,152,110,0.0013175230566534915,1499.2,1496.3175230566535,1410.0,1500
1.950000000000001,39,152,109,0.0012254901960784314,1499.2,1496.2254901960785,1411.0,1500
2.000000000000001,40,153,110,0.0013175230566534915,1499.3,1496.3175230566535,1410.0,1500
2.0500000000000007,41,153,110,0.001402524544179523,1499.3,1496.4025245441794,1410.0,1500
2.1000000000000005,42,154,109,0.001466275659824047,1499.4,1496.466275659824,1411.0,1500
2.1500000000000004,43,154,110,0.001358695652173913,1499.4,1496.358695652174,1410.0,1500
2.2,44,155,109,0.001466275659824047,1499.5,1496.466275659824,1411.0,1500
2.25,45,155,109,0.0016666666666666668,1499.5,1496.6666666666667,1411.0,1500
2.3,46,155,109,0.0016666666666666668,1499.5,1496.6666666666667,1411.0,1500
2.3499999999999996,47,155,109,0.0017241379310344827,1499.5,1496.7241379310344,1411.0,1500
2.3999999999999995,48,155,109,0.001851851851851852,1499.5,1496.851851851852,1411.0,1500
2.4499999999999993,49,155,109,0.0017857142857142857,1499.5,1496.7857142857142,1411.0,1500
2.499999999999999,50,155,109,0.0017857142857142857,1499.5,1496.7857142857142,1411.0,1500
2.549999999999999,51,155,110,0.001949317738791423,1499.5,1496.9493177387915,1410.0,1500
2.5999999999999988,52,156,109,0.001949317738791423,1499.6,1496.9493177387915,1411.0,1500
2.6499999999999986,53,155,109,0.00205761316872428,1499.5,1497.0576131687242,1411.0,1500
2.6999999999999984,54,155,109,0.00205761316872428,1499.5,1497.0576131687242,1411.0,1500
2.7499999999999982,55,155,109,0.002136752136752137,1499.5,1497.1367521367522,1411.0,1500
2.799999999999998,56,155,109,0.002136752136752137,1499.5,1497.1367521367522,1411.0,1500
2.849999999999998,57,156,109,0.0022222222222222222,1499.6,1497.2222222222222,1411.0,1500
2.8999999999999977,58,156,109,0.002136752136752137,1499.6,1497.1367521367522,1411.0,1500
2.9499999999999975,59,156,109,0.0024509803921568627,1499.6,1497.450980392157,1411.0,1500
2.9999999999999973,60,157,109,0.0025575447570332483,1499.7,1497.5575447570332,1411.0,1500
3.049999999999997,61,158,109,0.0025,1499.8,1497.5,1411.0,1500
3.099999999999997,62,158,109,0.0025575447570332483,1499.8,1497.5575447570332,1411.0,1500
3.149999999999997,63,159,109,0.0026041666666666665,1499.9,1497.6041666666667,1411.0,1500
3.1999999999999966,64,158,109,0.0025575447570332483,1499.8,1497.5575447570332,1411.0,1500
3.2499999999999964,65,159,108,0.002717391304347826,1499.9,1497.7173913043478,1412.0,1500
3.2999999999999963,66,159,109,0.002898550724637681,1499.9,1497.8985507246377,1411.0,1500
3.349999999999996,67,159,109,0.00267379679144385,1499.9,1497.673796791444,1411.0,1500
3.399999999999996,68,159,109,0.0030303030303030303,1499.9,1498.030303030303,1411.0,1500
3.4499999999999957,69,159,109,0.0030303030303030303,1499.9,1498.030303030303,1411.0,1500
3.4999999999999956,70,159,109,0.0030303030303030303,1499.9,1498.030303030303,1411.0,1500
3.5499999999999954,71,158,108,0.0037593984962406013,1499.8,1498.7593984962407,1412.0,1500
3.599999999999995,72,159,108,0.003401360544217687,1499.9,1498.4013605442176,1412.0,1500
3.649999999999995,73,159,108,0.003401360544217687,1499.9,1498.4013605442176,1412.0,1500
3.699999999999995,74,159,108,0.0037593984962406013,1499.9,1498.7593984962407,1412.0,1500
3.7499999999999947,75,159,108,0.0037593984962406013,1499.9,1498.7593984962407,1412.0,1500
3.7999999999999945,76,159,108,0.0035714285714285713,1499.9,1498.5714285714287,1412.0,1500
3.8499999999999943,77,160,108,0.0037593984962406013,1500.0,1498.7593984962407,1412.0,1500
3.899999999999994,78,160,108,0.0035714285714285713,1500.0,1498.5714285714287,1412.0,1500
3.949999999999994,79,160,109,0.004048582995951417,1500.0,1499.0485829959514,1411.0,1500
3.999999999999994,80,161,109,0.004048582995951417,1500.1,1499.0485829959514,1411.0,1500
4.049999999999994,81,161,109,0.004048582995951417,1500.1,1499.0485829959514,1411.0,1500
4.099999999999993,82,161,108,0.004629629629629629,1500.1,1499.6296296296296,1412.0,1500
4.149999999999993,83,161,109,0.004273504273504274,1500.1,1499.2735042735044,1411.0,1500
4.199999999999993,84,161,108,0.004629629629629629,1500.1,1499.6296296296296,1412.0,1500
4.249999999999993,85,161,108,0.004629629629629629,1500.1,1499.6296296296296,1412.0,1500
4.299999999999993,86,161,108,0.004629629629629629,1500.1,1499.6296296296296,1412.0,1500
4.3499999999999925,87,162,108,0.0043859649122807015,1500.2,1499.3859649122808,1412.0,1500
4.399999999999992,88,162,108,0.004901960784313725,1500.2,1499.9019607843138,1412.0,1500
4.449999999999992,89,162,108,0.004901960784313725,1500.2,1499.9019607843138,1412.0,1500
4.499999999999992,90,161,108,0.005208333333333333,1500.1,1500.2083333333333,1412.0,1500
4.549999999999992,91,162,108,0.004807692307692308,1500.2,1499.8076923076924,1412.0,1500
4.599999999999992,92,163,108,0.004524886877828055,1500.3,1499.524886877828,1412.0,1500
4.6499999999999915,93,163,108,0.0053475935828877,1500.3,1500.3475935828876,1412.0,1500
4.699999999999991,94,163,108,0.005555555555555556,1500.3,1500.5555555555557,1412.0,1500
4.749999999999991,95,163,108,0.006060606060606061,1500.3,1501.060606060606,1412.0,1500
4.799999999999991,96,164,108,0.005681818181818182,1500.4,1500.6818181818182,1412.0,1500
4.849999999999991,97,164,108,0.006060606060606061,1500.4,1501.060606060606,1412.0,1500
4.899999999999991,98,163,108,0.006493506493506494,1500.3,1501.4935064935064,1412.0,1500
4.94999999999999,99,164,108,0.006060606060606061,1500.4,1501.060606060606,1412.0,1500
4.99999999999999,100,164,108,0.006060606060606061,1500.4,1501.060606060606,1412.0,1500
5.04999999999999,101,164,108,0.006060606060606061,1500.4,1501.060606060606,1412.0,1500
5.09999999999999,102,164,108,0.006060606060606061,1500.4,1501.060606060606,1412.0,1500
5.14999999999999,103,164,107,0.006666666666666667,1500.4,1501.6666666666667,1413.0,1500
5.1999999999999895,104,164,107,0.006666666666666667,1500.4,1501.6666666666667,1413.0,1500
5.249999999999989,105,163,107,0.007936507936507936,1500.3,1502.936507936508,1413.0,1500
5.299999999999989,106,163,107,0.007142857142857143,1500.3,1502.142857142857,1413.0,1500
5.349999999999989,107,163,107,0.007142857142857143,1500.3,1502.142857142857,1413.0,1500
5.399999999999989,108,163,107,0.007142857142857143,1500.3,1502.142857142857,1413.0,1500
5.449999999999989,109,164,107,0.007692307692307693,1500.4,1502.6923076923076,1413.0,1500
5.4999999999999885,110,164,107,0.007142857142857143,1500.4,1502.142857142857,1413.0,1500
5.549999999999988,111,164,107,0.007142857142857143,1500.4,1502.142857142857,1413.0,1500
5.599999999999988,112,165,107,0.006666666666666667,1500.5,1501.6666666666667,1413.0,1500
5.649999999999988,113,164,107,0.007142857142857143,1500.4,1502.142857142857,1413.0,1500
5.699999999999988,114,164,107,0.007142857142857143,1500.4,1502.142857142857,1413.0,1500
5.749999999999988,115,164,107,0.007142857142857143,1500.4,1502.142857142857,1413.0,1500
5.799999999999987,116,165,107,0.008547008547008548,1500.5,1503.5470085470085,1413.0,1500
5.849999999999987,117,165,107,0.007142857142857143,1500.5,1502.142857142857,1413.0,1500
5.899999999999987,118,166,107,0.007407407407407408,1500.6,1502.4074074074074,1413.0,1500
5.949999999999987,119,165,107,0.007936507936507936,1500.5,1502.936507936508,1413.0,1500
5.999999999999987,120,165,105,0.014285714285714285,1500.5,1505,1415.0,1500
6.0499999999999865,121,166,107,0.006666666666666667,1500.6,1501.6666666666667,1413.0,1500
6.099999999999986,122,164,109,0.01818181818181818,1500.4,1505,1411.0,1500
6.149999999999986,123,165,107,0.008547008547008548,1500.5,1503.5470085470085,1413.0,1500
6.199999999999986,124,165,107,0.007936507936507936,1500.5,1502.936507936508,1413.0,1500
6.249999999999986,125,165,107,0.007936507936507936,1500.5,1502.936507936508,1413.0,1500
6.299999999999986,126,164,107,0.010101010101010102,1500.4,1505,1413.0,1500
6.349999999999985,127,164,107,0.010101010101010102,1500.4,1505,1413.0,1500
6.399999999999985,128,164,106,0.008333333333333333,1500.4,1503.3333333333333,1414.0,1500
6.449999999999985,129,165,105,0.015384615384615385,1500.5,1505,1415.0,1500
6.499999999999985,130,165,107,0.008547008547008548,1500.5,1503.5470085470085,1413.0,1500
6.549999999999985,131,165,107,0.010101010101010102,1500.5,1505,1413.0,1500
6.5999999999999845,132,165,106,0.011363636363636364,1500.5,1505,1414.0,1500
6.649999999999984,133,165,107,0.010101010101010102,1500.5,1505,1413.0,1500
6.699999999999984,134,165,107,0.009259259259259259,1500.5,1504.2592592592594,1413.0,1500
6.749999999999984,135,165,107,0.010101010101010102,1500.5,1505,1413.0,1500
6.799999999999984,136,165,107,0.011111111111111112,1500.5,1505,1413.0,1500
6.849999999999984,137,165,107,0.010101010101010102,1500.5,1505,1413.0,1500
6.8999999999999835,138,166,107,0.010101010101010102,1500.6,1505,1413.0,1500
6.949999999999983,139,166,107,0.010101010101010102,1500.6,1505,1413.0,1500
6.999999999999983,140,166,107,0.010101010101010102,1500.6,1505,1413.0,1500
7.049999999999983,141,166,107,0.011363636363636364,1500.6,1505,1413.0,1500
7.099999999999983,142,165,105,0.015151515151515152,1500.5,1505,1415.0,1500
7.149999999999983,143,165,107,0.011363636363636364,1500.5,1505,1413.0,1500
7.199999999999982,144,166,108,0.010101010101010102,1500.6,1505,1412.0,1500
7.249999999999982,145,165,108,0.011111111111111112,1500.5,1505,1412.0,1500
7.299999999999982,146,166,108,0.011363636363636364,1500.6,1505,1412.0,1500
7.349999999999982,147,166,109,0.010101010101010102,1500.6,1505,1411.0,1500
7.399999999999982,148,166,110,0.011363636363636364,1500.6,1505,1410.0,1500
7.4499999999999815,149,166,110,0.015151515151515152,1500.6,1505,1410.0,1500
7.499999999999981,150,165,112,0.0125,1500.5,1505,1408.0,1500
7.549999999999981,151,167,114,0.008547008547008548,1500.7,1503.5470085470085,1406.0,1500
7.599999999999981,152,167,115,0.008547008547008548,1500.7,1503.5470085470085,1405.0,1500
7.649999999999981,153,167,116,0.007936507936507936,1500.7,1502.936507936508,1404.0,1500
7.699999999999981,154,167,116,0.007936507936507936,1500.7,1502.936507936508,1404.0,1500
7.7499999999999805,155,167,115,0.007142857142857143,1500.7,1502.142857142857,1405.0,1500
7.79999999999998,156,166,116,0.013888888888888888,1500.6,1505,1404.0,1500
7.84999999999998,157,168,115,0.007407407407407408,1500.8,1502.4074074074074,1405.0,1500
7.89999999999998,158,167,114,0.007142857142857143,1500.7,1502.142857142857,1406.0,1500
7.94999999999998,159,167,113,0.006666666666666667,1500.7,1501.6666666666667,1407.0,1500
7.99999999999998,160,167,113,0.006666666666666667,1500.7,1501.6666666666667,1407.0,1500
8.04999999999998,161,166,112,0.006666666666666667,1500.6,1501.6666666666667,1408.0,1500
8.09999999999998,162,164,111,0.007142857142857143,1500.4,1502.142857142857,1409.0,1500
8.14999999999998,163,164,111,0.006060606060606061,1500.4,1501.060606060606,1409.0,1500
8.199999999999982,164,163,109,0.006666666666666667,1500.3,1501.6666666666667,1411.0,1500
8.249999999999982,165,162,109,0.007142857142857143,1500.2,1502.142857142857,1411.0,1500
8.299999999999983,166,161,109,0.006493506493506494,1500.1,1501.4935064935064,1411.0,1500
8.349999999999984,167,161,108,0.006666666666666667,1500.1,1501.6666666666667,1412.0,1500
8.399999999999984,168,160,108,0.006493506493506494,1500.0,1501.4935064935064,1412.0,1500
8.449999999999985,169,160,108,0.006493506493506494,1500.0,1501.4935064935064,1412.0,1500
8.499999999999986,170,160,107,0.007142857142857143,1500.0,1502.142857142857,1413.0,1500
8.549999999999986,171,161,107,0.006060606060606061,1500.1,1501.060606060606,1413.0,1500
8.599999999999987,172,161,106,0.00625,1500.1,1501.25,1414.0,1500
8.649999999999988,173,161,105,0.006666666666666667,1500.1,1501.6666666666667,1415.0,1500
8.699999999999989,174,162,105,0.005208333333333333,1500.2,1500.2083333333333,1415.0,1500
8.74999999999999,175,162,105,0.006060606060606061,1500.2,1501.060606060606,1415.0,1500
8.79999999999999,176,162,105,0.006060606060606061,1500.2,1501.060606060606,1415.0,1500
8.84999999999999,177,161,105,0.005681818181818182,1500.1,1500.6818181818182,1415.0,1500
8.899999999999991,178,162,105,0.0053475935828877,1500.2,1500.3475935828876,1415.0,1500
8.949999999999992,179,162,105,0.005050505050505051,1500.2,1500.050505050505,1415.0,1500
8.999999999999993,180,161,104,0.004901960784313725,1500.1,1499.9019607843138,1416.0,1500
9.049999999999994,181,160,104,0.004629629629629629,1500.0,1499.6296296296296,1416.0,1500
9.099999999999994,182,159,105,0.004807692307692308,1499.9,1499.8076923076924,1415.0,1500
9.149999999999995,183,159,104,0.004629629629629629,1499.9,1499.6296296296296,1416.0,1500
9.199999999999996,184,160,105,0.004901960784313725,1500.0,1499.9019607843138,1415.0,1500
9.249999999999996,185,160,104,0.004901960784313725,1500.0,1499.9019607843138,1416.0,1500
9.299999999999997,186,160,104,0.004901960784313725,1500.0,1499.9019607843138,1416.0,1500
9.349999999999998,187,160,104,0.0053475935828877,1500.0,1500.3475935828876,1416.0,1500
9.399999999999999,188,160,104,0.004524886877828055,1500.0,1499.524886877828,1416.0,1500
9.45,189,160,103,0.005208333333333333,1500.0,1500.2083333333333,1417.0,1500
9.5,190,161,103,0.004901960784313725,1500.1,1499.9019607843138,1417.0,1500
9.55,191,161,104,0.0053475935828877,1500.1,1500.3475935828876,1416.0,1500
9.600000000000001,192,161,103,0.005208333333333333,1500.1,1500.2083333333333,1417.0,1500
9.650000000000002,193,161,104,0.006060606060606061,1500.1,1501.060606060606,1416.0,1500
9.700000000000003,194,162,104,0.006060606060606061,1500.2,1501.060606060606,1416.0,1500
9.750000000000004,195,162,104,0.006060606060606061,1500.2,1501.060606060606,1416.0,1500
9.800000000000004,196,162,104,0.006493506493506494,1500.2,1501.4935064935064,1416.0,1500
9.850000000000005,197,163,104,0.005681818181818182,1500.3,1500.6818181818182,1416.0,1500
9.900000000000006,198,164,104,0.006666666666666667,1500.4,1501.6666666666667,1416.0,1500
9.950000000000006,199,165,104,0.006666666666666667,1500.5,1501.6666666666667,1416.0,1500
10.000000000000007,200,164,104,0.007142857142857143,1500.4,1502.142857142857,1416.0,1500
10.050000000000008,201,165,104,0.007142857142857143,1500.5,1502.142857142857,1416.0,1500
10.100000000000009,202,165,105,0.007142857142857143,1500.5,1502.142857142857,1415.0,1500
10.15000000000001,203,166,106,0.007407407407407408,1500.6,1502.4074074074074,1414.0,1500
10.20000000000001,204,166,105,0.007142857142857143,1500.6,1502.142857142857,1415.0,1500
10.25000000000001,205,166,106,0.007936507936507936,1500.6,1502.936507936508,1414.0,1500
10.300000000000011,206,166,106,0.007936507936507936,1500.6,1502.936507936508,1414.0,1500
10.350000000000012,207,166,106,0.007936507936507936,1500.6,1502.936507936508,1414.0,1500
10.400000000000013,208,166,106,0.007936507936507936,1500.6,1502.936507936508,1414.0,1500
10.450000000000014,209,166,106,0.007936507936507936,1500.6,1502.936507936508,1414.0,1500
10.500000000000014,210,166,106,0.008547008547008548,1500.6,1503.5470085470085,1414.0,1500
10.550000000000015,211,166,106,0.007936507936507936,1500.6,1502.936507936508,1414.0,1500
10.600000000000016,212,165,106,0.008928571428571428,1500.5,1503.9285714285713,1414.0,1500
10.650000000000016,213,164,106,0.0125,1500.4,1505,1414.0,1500
10.700000000000017,214,165,107,0.008547008547008548,1500.5,1503.5470085470085,1413.0,1500
10.750000000000018,215,164,106,0.011363636363636364,1500.4,1505,1414.0,1500
10.800000000000018,216,165,107,0.008547008547008548,1500.5,1503.5470085470085,1413.0,1500
10.85000000000002,217,163,107,0.011111111111111112,1500.3,1505,1413.0,1500
10.90000000000002,218,164,106,0.011363636363636364,1500.4,1505,1414.0,1500
10.95000000000002,219,164,107,0.009259259259259259,1500.4,1504.2592592592594,1413.0,1500
11.000000000000021,220,164,107,0.011363636363636364,1500.4,1505,1413.0,1500
11.050000000000022,221,163,107,0.0125,1500.3,1505,1413.0,1500
11.100000000000023,222,163,107,0.009259259259259259,1500.3,1504.2592592592594,1413.0,1500
11.150000000000023,223,163,108,0.015151515151515152,1500.3,1505,1412.0,1500
11.200000000000024,224,163,107,0.010416666666666666,1500.3,1505,1413.0,1500
11.250000000000025,225,163,107,0.010416666666666666,1500.3,1505,1413.0,1500
11.300000000000026,226,163,107,0.011363636363636364,1500.3,1505,1413.0,1500
11.350000000000026,227,162,107,0.0125,1500.2,1505,1413.0,1500
11.400000000000027,228,163,107,0.010101010101010102,1500.3,1505,1413.0,1500
11.450000000000028,229,162,109,0.02,1500.2,1505,1411.0,1500
11.500000000000028,230,163,107,0.008547008547008548,1500.3,1503.5470085470085,1413.0,1500
11.55000000000003,231,163,107,0.008547008547008548,1500.3,1503.5470085470085,1413.0,1500
11.60000000000003,232,163,107,0.007936507936507936,1500.3,1502.936507936508,1413.0,1500
11.65000000000003,233,164,105,0.016666666666666666,1500.4,1505,1415.0,1500
11.700000000000031,234,164,106,0.02,1500.4,1505,1414.0,1500
11.750000000000032,235,163,107,0.009615384615384616,1500.3,1504.6153846153845,1413.0,1500
11.800000000000033,236,163,107,0.008928571428571428,1500.3,1503.9285714285713,1413.0,1500
11.850000000000033,237,163,108,0.008547008547008548,1500.3,1503.5470085470085,1412.0,1500
11.900000000000034,238,163,107,0.009615384615384616,1500.3,1504.6153846153845,1413.0,1500
11.950000000000035,239,162,107,0.011363636363636364,1500.2,1505,1413.0,1500
12.000000000000036,240,163,108,0.008547008547008548,1500.3,1503.5470085470085,1412.0,1500
12.050000000000036,241,162,108,0.010101010101010102,1500.2,1505,1412.0,1500
12.100000000000037,242,163,108,0.008547008547008548,1500.3,1503.5470085470085,1412.0,1500
12.150000000000038,243,161,108,0.011111111111111112,1500.1,1505,1412.0,1500
12.200000000000038,244,162,107,0.0125,1500.2,1505,1413.0,1500
12.250000000000039,245,165,107,0.0125,1500.5,1505,1413.0,1500
12.30000000000004,246,164,107,0.009615384615384616,1500.4,1504.6153846153845,1413.0,1500
12.35000000000004,247,164,107,0.008928571428571428,1500.4,1503.9285714285713,1413.0,1500
12.400000000000041,248,164,107,0.009615384615384616,1500.4,1504.6153846153845,1413.0,1500
12.450000000000042,249,164,107,0.009615384615384616,1500.4,1504.6153846153845,1413.0,1500
12.500000000000043,250,164,107,0.008547008547008548,1500.4,1503.5470085470085,1413.0,1500
12.550000000000043,251,164,107,0.009615384615384616,1500.4,1504.6153846153845,1413.0,1500
12.600000000000044,252,162,109,0.02,1500.2,1505,1411.0,1500
12.650000000000045,253,164,107,0.009615384615384616,1500.4,1504.6153846153845,1413.0,1500
12.700000000000045,254,163,107,0.010416666666666666,1500.3,1505,1413.0,1500
12.750000000000046,255,163,107,0.011363636363636364,1500.3,1505,1413.0,1500
12.800000000000047,256,164,107,0.008547008547008548,1500.4,1503.5470085470085,1413.0,1500
12.850000000000048,257,163,107,0.009259259259259259,1500.3,1504.2592592592594,1413.0,1500
12.900000000000048,258,164,107,0.009259259259259259,1500.4,1504.2592592592594,1413.0,1500
12.950000000000049,259,165,107,0.008547008547008548,1500.5,1503.5470085470085,1413.0,1500
13.00000000000005,260,164,107,0.009259259259259259,1500.4,1504.2592592592594,1413.0,1500
13.05000000000005,261,165,107,0.010416666666666666,1500.5,1505,1413.0,1500
13.100000000000051,262,166,107,0.010101010101010102,1500.6,1505,1413.0,1500
13.150000000000052,263,164,107,0.010101010101010102,1500.4,1505,1413.0,1500
13.200000000000053,264,164,107,0.0125,1500.4,1505,1413.0,1500
13.250000000000053,265,165,107,0.009615384615384616,1500.5,1504.6153846153845,1413.0,1500
13.300000000000054,266,165,107,0.010416666666666666,1500.5,1505,1413.0,1500
13.350000000000055,267,164,107,0.011363636363636364,1500.4,1505,1413.0,1500
13.400000000000055,268,164,107,0.010416666666666666,1500.4,1505,1413.0,1500
13.450000000000056,269,164,107,0.0125,1500.4,1505,1413.0,1500
13.500000000000057,270,165,107,0.011363636363636364,1500.5,1505,1413.0,1500
13.550000000000058,271,165,107,0.011363636363636364,1500.5,1505,1413.0,1500
13.600000000000058,272,164,107,0.0125,1500.4,1505,1413.0,1500
13.650000000000059,273,165,107,0.011363636363636364,1500.5,1505,1413.0,1500
13.70000000000006,274,164,108,0.009259259259259259,1500.4,1504.2592592592594,1412.0,1500
13.75000000000006,275,164,108,0.011111111111111112,1500.4,1505,1412.0,1500
13.800000000000061,276,164,108,0.0125,1500.4,1505,1412.0,1500
13.850000000000062,277,165,108,0.010101010101010102,1500.5,1505,1412.0,1500
13.900000000000063,278,166,108,0.009615384615384616,1500.6,1504.6153846153845,1412.0,1500
13.950000000000063,279,166,108,0.008547008547008548,1500.6,1503.5470085470085,1412.0,1500
14.000000000000064,280,165,108,0.010101010101010102,1500.5,1505,1412.0,1500
14.050000000000065,281,166,108,0.008547008547008548,1500.6,1503.5470085470085,1412.0,1500
14.100000000000065,282,165,108,0.010101010101010102,1500.5,1505,1412.0,1500
14.150000000000066,283,166,108,0.008547008547008548,1500.6,1503.5470085470085,1412.0,1500
14.200000000000067,284,166,108,0.008547008547008548,1500.6,1503.5470085470085,1412.0,1500
14.250000000000068,285,164,108,0.0125,1500.4,1505,1412.0,1500
14.300000000000068,286,166,108,0.008547008547008548,1500.6,1503.5470085470085,1412.0,1500
14.350000000000069,287,166,108,0.009615384615384616,1500.6,1504.6153846153845,1412.0,1500
14.40000000000007,288,164,109,0.011111111111111112,1500.4,1505,1411.0,1500
14.45000000000007,289,164,109,0.010101010101010102,1500.4,1505,1411.0,1500
14.500000000000071,290,164,109,0.010101010101010102,1500.4,1505,1411.0,1500
14.550000000000072,291,164,108,0.011363636363636364,1500.4,1505,1412.0,1500
14.600000000000072,292,164,108,0.007936507936507936,1500.4,1502.936507936508,1412.0,1500
14.650000000000073,293,163,108,0.009259259259259259,1500.3,1504.2592592592594,1412.0,1500
14.700000000000074,294,164,108,0.007936507936507936,1500.4,1502.936507936508,1412.0,1500
14.750000000000075,295,164,109,0.01818181818181818,1500.4,1505,1411.0,1500
14.800000000000075,296,164,107,0.01098901098901099,1500.4,1505,1413.0,1500
14.850000000000076,297,164,106,0.008547008547008548,1500.4,1503.5470085470085,1414.0,1500
14.900000000000077,298,164,105,0.009615384615384616,1500.4,1504.6153846153845,1415.0,1500
14.950000000000077,299,163,105,0.009259259259259259,1500.3,1504.2592592592594,1415.0,1500
15.000000000000078,300,164,105,0.007936507936507936,1500.4,1502.936507936508,1415.0,1500
15.050000000000079,301,165,104,0.01098901098901099,1500.5,1505,1416.0,1500
15.10000000000008,302,165,105,0.008547008547008548,1500.5,1503.5470085470085,1415.0,1500
15.15000000000008,303,165,106,0.008547008547008548,1500.5,1503.5470085470085,1414.0,1500
15.200000000000081,304,165,105,0.01020408163265306,1500.5,1505,1415.0,1500
15.250000000000082,305,165,106,0.008547008547008548,1500.5,1503.5470085470085,1414.0,1500
15.300000000000082,306,166,106,0.009615384615384616,1500.6,1504.6153846153845,1414.0,1500
15.350000000000083,307,165,107,0.009259259259259259,1500.5,1504.2592592592594,1413.0,1500
15.400000000000084,308,165,107,0.010101010101010102,1500.5,1505,1413.0,1500
15.450000000000085,309,166,107,0.008547008547008548,1500.6,1503.5470085470085,1413.0,1500
15.500000000000085,310,166,107,0.007936507936507936,1500.6,1502.936507936508,1413.0,1500
15.550000000000086,311,166,107,0.008547008547008548,1500.6,1503.5470085470085,1413.0,1500
15.600000000000087,312,166,106,0.008547008547008548,1500.6,1503.5470085470085,1414.0,1500
15.650000000000087,313,165,106,0.010101010101010102,1500.5,1505,1414.0,1500
15.700000000000088,314,166,105,0.009615384615384616,1500.6,1504.6153846153845,1415.0,1500
15.750000000000089,315,166,105,0.008547008547008548,1500.6,1503.5470085470085,1415.0,1500
15.80000000000009,316,165,103,0.011904761904761904,1500.5,1505,1417.0,1500
15.85000000000009,317,165,105,0.008547008547008548,1500.5,1503.5470085470085,1415.0,1500
15.900000000000091,318,165,104,0.009615384615384616,1500.5,1504.6153846153845,1416.0,1500
15.950000000000092,319,165,104,0.008547008547008548,1500.5,1503.5470085470085,1416.0,1500
16.000000000000092,320,164,103,0.011363636363636364,1500.4,1505,1417.0,1500
16.050000000000093,321,165,102,0.009615384615384616,1500.5,1504.6153846153845,1418.0,1500
16.100000000000094,322,164,102,0.008547008547008548,1500.4,1503.5470085470085,1418.0,1500
16.150000000000095,323,164,102,0.008547008547008548,1500.4,1503.5470085470085,1418.0,1500
16.200000000000095,324,164,102,0.008547008547008548,1500.4,1503.5470085470085,1418.0,1500
16.250000000000096,325,162,102,0.011111111111111112,1500.2,1505,1418.0,1500
16.300000000000097,326,164,102,0.008547008547008548,1500.4,1503.5470085470085,1418.0,1500
16.350000000000097,327,162,103,0.012987012987012988,1500.2,1505,1417.0,1500
16.400000000000098,328,163,102,0.007692307692307693,1500.3,1502.6923076923076,1418.0,1500
16.4500000000001,329,163,102,0.009615384615384616,1500.3,1504.6153846153845,1418.0,1500
16.5000000000001,330,162,105,0.02,1500.2,1505,1415.0,1500
16.5500000000001,331,163,103,0.009615384615384616,1500.3,1504.6153846153845,1417.0,1500
16.6000000000001,332,163,103,0.007142857142857143,1500.3,1502.142857142857,1417.0,1500
16.6500000000001,333,163,104,0.008547008547008548,1500.3,1503.5470085470085,1416.0,1500
16.700000000000102,334,163,104,0.007936507936507936,1500.3,1502.936507936508,1416.0,1500
16.750000000000103,335,163,104,0.007936507936507936,1500.3,1502.936507936508,1416.0,1500
16.800000000000104,336,163,104,0.007936507936507936,1500.3,1502.936507936508,1416.0,1500
16.850000000000104,337,163,102,0.015384615384615385,1500.3,1505,1418.0,1500
16.900000000000105,338,163,106,0.01020408163265306,1500.3,1505,1414.0,1500
16.950000000000106,339,163,105,0.007936507936507936,1500.3,1502.936507936508,1415.0,1500
17.000000000000107,340,163,104,0.007142857142857143,1500.3,1502.142857142857,1416.0,1500
17.050000000000107,341,163,105,0.007936507936507936,1500.3,1502.936507936508,1415.0,1500
17.100000000000108,342,163,104,0.007142857142857143,1500.3,1502.142857142857,1416.0,1500
17.15000000000011,343,163,104,0.007936507936507936,1500.3,1502.936507936508,1416.0,1500
17.20000000000011,344,163,104,0.007142857142857143,1500.3,1502.142857142857,1416.0,1500
17.25000000000011,345,163,104,0.007142857142857143,1500.3,1502.142857142857,1416.0,1500
17.30000000000011,346,164,104,0.007407407407407408,1500.4,1502.4074074074074,1416.0,1500
17.35000000000011,347,163,104,0.007936507936507936,1500.3,1502.936507936508,1416.0,1500
17.400000000000112,348,163,104,0.007936507936507936,1500.3,1502.936507936508,1416.0,1500
17.450000000000113,349,163,104,0.007936507936507936,1500.3,1502.936507936508,1416.0,1500
17.500000000000114,350,164,104,0.008547008547008548,1500.4,1503.5470085470085,1416.0,1500
17.550000000000114,351,163,103,0.007142857142857143,1500.3,1502.142857142857,1417.0,1500
17.600000000000115,352,163,104,0.007936507936507936,1500.3,1502.936507936508,1416.0,1500
17.650000000000116,353,163,103,0.007142857142857143,1500.3,1502.142857142857,1417.0,1500
17.700000000000117,354,162,105,0.013888888888888888,1500.2,1505,1415.0,1500
17.750000000000117,355,163,104,0.007936507936507936,1500.3,1502.936507936508,1416.0,1500
17.800000000000118,356,163,103,0.007142857142857143,1500.3,1502.142857142857,1417.0,1500
17.85000000000012,357,164,103,0.007936507936507936,1500.4,1502.936507936508,1417.0,1500
17.90000000000012,358,163,104,0.007936507936507936,1500.3,1502.936507936508,1416.0,1500
17.95000000000012,359,164,103,0.007936507936507936,1500.4,1502.936507936508,1417.0,1500
18.00000000000012,360,164,103,0.007936507936507936,1500.4,1502.936507936508,1417.0,1500
18.05000000000012,361,164,103,0.007936507936507936,1500.4,1502.936507936508,1417.0,1500
18.100000000000122,362,164,103,0.007936507936507936,1500.4,1502.936507936508,1417.0,1500
18.150000000000123,363,164,103,0.007936507936507936,1500.4,1502.936507936508,1417.0,1500
18.200000000000124,364,164,103,0.007936507936507936,1500.4,1502.936507936508,1417.0,1500
18.250000000000124,365,164,102,0.007142857142857143,1500.4,1502.142857142857,1418.0,1500
18.300000000000125,366,165,102,0.008547008547008548,1500.5,1503.5470085470085,1418.0,1500
18.350000000000126,367,165,102,0.008547008547008548,1500.5,1503.5470085470085,1418.0,1500
18.400000000000126,368,165,102,0.009615384615384616,1500.5,1504.6153846153845,1418.0,1500
18.450000000000127,369,165,102,0.008547008547008548,1500.5,1503.5470085470085,1418.0,1500
18.500000000000128,370,165,103,0.007936507936507936,1500.5,1502.936507936508,1417.0,1500
18.55000000000013,371,165,102,0.007936507936507936,1500.5,1502.936507936508,1418.0,1500
18.60000000000013,372,165,102,0.008547008547008548,1500.5,1503.5470085470085,1418.0,1500
18.65000000000013,373,165,102,0.007692307692307693,1500.5,1502.6923076923076,1418.0,1500
18.70000000000013,374,165,102,0.007692307692307693,1500.5,1502.6923076923076,1418.0,1500
18.75000000000013,375,165,103,0.007407407407407408,1500.5,1502.4074074074074,1417.0,1500
18.800000000000132,376,165,102,0.007142857142857143,1500.5,1502.142857142857,1418.0,1500
18.850000000000133,377,164,103,0.007936507936507936,1500.4,1502.936507936508,1417.0,1500
18.900000000000134,378,165,103,0.008547008547008548,1500.5,1503.5470085470085,1417.0,1500
18.950000000000134,379,165,103,0.008547008547008548,1500.5,1503.5470085470085,1417.0,1500
19.000000000000135,380,165,102,0.008333333333333333,1500.5,1503.3333333333333,1418.0,1500
19.050000000000136,381,164,102,0.008928571428571428,1500.4,1503.9285714285713,1418.0,1500
19.100000000000136,382,164,102,0.008928571428571428,1500.4,1503.9285714285713,1418.0,1500
19.150000000000137,383,165,103,0.007407407407407408,1500.5,1502.4074074074074,1417.0,1500
19.200000000000138,384,164,103,0.007936507936507936,1500.4,1502.936507936508,1417.0,1500
19.25000000000014,385,164,103,0.007936507936507936,1500.4,1502.936507936508,1417.0,1500
19.30000000000014,386,164,103,0.008547008547008548,1500.4,1503.5470085470085,1417.0,1500
19.35000000000014,387,164,103,0.007936507936507936,1500.4,1502.936507936508,1417.0,1500
19.40000000000014,388,164,102,0.007692307692307693,1500.4,1502.6923076923076,1418.0,1500
19.45000000000014,389,164,103,0.007936507936507936,1500.4,1502.936507936508,1417.0,1500
19.500000000000142,390,164,103,0.007936507936507936,1500.4,1502.936507936508,1417.0,1500
19.550000000000143,391,164,103,0.007936507936507936,1500.4,1502.936507936508,1417.0,1500
19.600000000000144,392,164,103,0.007936507936507936,1500.4,1502.936507936508,1417.0,1500
19.650000000000144,393,164,103,0.008547008547008548,1500.4,1503.5470085470085,1417.0,1500
19.700000000000145,394,164,103,0.007692307692307693,1500.4,1502.6923076923076,1417.0,1500
19.750000000000146,395,163,103,0.008547008547008548,1500.3,1503.5470085470085,1417.0,1500
19.800000000000146,396,163,103,0.007936507936507936,1500.3,1502.936507936508,1417.0,1500
19.850000000000147,397,163,104,0.007936507936507936,1500.3,1502.936507936508,1416.0,1500
19.900000000000148,398,163,104,0.008547008547008548,1500.3,1503.5470085470085,1416.0,1500
19.95000000000015,399,162,105,0.007936507936507936,1500.2,1502.936507936508,1415.0,1500
20.00000000000015,400,163,105,0.007407407407407408,1500.3,1502.4074074074074,1415.0,1500
20.05000000000015,401,163,105,0.006666666666666667,1500.3,1501.6666666666667,1415.0,1500
20.10000000000015,402,162,106,0.007407407407407408,1500.2,1502.4074074074074,1414.0,1500
20.15000000000015,403,161,106,0.007142857142857143,1500.1,1502.142857142857,1414.0,1500
20.200000000000152,404,162,106,0.006666666666666667,1500.2,1501.6666666666667,1414.0,1500
20.250000000000153,405,161,106,0.006666666666666667,1500.1,1501.6666666666667,1414.0,1500
20.300000000000153,406,161,106,0.005681818181818182,1500.1,1500.6818181818182,1414.0,1500
20.350000000000154,407,161,105,0.006666666666666667,1500.1,1501.6666666666667,1415.0,1500
20.400000000000155,408,161,105,0.00625,1500.1,1501.25,1415.0,1500
20.450000000000156,409,162,104,0.006666666666666667,1500.2,1501.6666666666667,1416.0,1500
20.500000000000156,410,162,105,0.007407407407407408,1500.2,1502.4074074074074,1415.0,1500
20.550000000000157,411,162,104,0.006666666666666667,1500.2,1501.6666666666667,1416.0,1500
20.600000000000158,412,162,104,0.006666666666666667,1500.2,1501.6666666666667,1416.0,1500
20.65000000000016,413,163,104,0.006060606060606061,1500.3,1501.060606060606,1416.0,1500
20.70000000000016,414,163,104,0.006060606060606061,1500.3,1501.060606060606,1416.0,1500
20.75000000000016,415,162,104,0.006493506493506494,1500.2,1501.4935064935064,1416.0,1500
20.80000000000016,416,163,104,0.006060606060606061,1500.3,1501.060606060606,1416.0,1500
20.85000000000016,417,162,104,0.005681818181818182,1500.2,1500.6818181818182,1416.0,1500
20.900000000000162,418,162,104,0.006060606060606061,1500.2,1501.060606060606,1416.0,1500
20.950000000000163,419,161,104,0.006493506493506494,1500.1,1501.4935064935064,1416.0,1500
21.000000000000163,420,161,104,0.005681818181818182,1500.1,1500.6818181818182,1416.0,1500
21.050000000000164,421,162,104,0.006060606060606061,1500.2,1501.060606060606,1416.0,1500
21.100000000000165,422,162,105,0.006060606060606061,1500.2,1501.060606060606,1415.0,1500
21.150000000000166,423,162,105,0.006060606060606061,1500.2,1501.060606060606,1415.0,1500
21.200000000000166,424,163,105,0.0053475935828877,1500.3,1500.3475935828876,1415.0,1500
21.250000000000167,425,163,105,0.0053475935828877,1500.3,1500.3475935828876,1415.0,1500
21.300000000000168,426,163,105,0.0053475935828877,1500.3,1500.3475935828876,1415.0,1500
21.35000000000017,427,163,104,0.004901960784313725,1500.3,1499.9019607843138,1416.0,1500
21.40000000000017,428,162,104,0.006060606060606061,1500.2,1501.060606060606,1416.0,1500
21.45000000000017,429,163,104,0.004901960784313725,1500.3,1499.9019607843138,1416.0,1500
21.50000000000017,430,162,104,0.004629629629629629,1500.2,1499.6296296296296,1416.0,1500
21.55000000000017,431,162,104,0.004629629629629629,1500.2,1499.6296296296296,1416.0,1500
21.600000000000172,432,162,104,0.004629629629629629,1500.2,1499.6296296296296,1416.0,1500
21.650000000000173,433,161,104,0.005050505050505051,1500.1,1500.050505050505,1416.0,1500
21.700000000000173,434,161,103,0.004629629629629629,1500.1,1499.6296296296296,1417.0,1500
21.750000000000174,435,161,103,0.0043859649122807015,1500.1,1499.3859649122808,1417.0,1500
21.800000000000175,436,160,102,0.004629629629629629,1500.0,1499.6296296296296,1418.0,1500
21.850000000000176,437,160,102,0.004629629629629629,1500.0,1499.6296296296296,1418.0,1500
21.900000000000176,438,160,102,0.0043859649122807015,1500.0,1499.3859649122808,1418.0,1500
21.950000000000177,439,160,103,0.004048582995951417,1500.0,1499.0485829959514,1417.0,1500
22.000000000000178,440,160,102,0.004048582995951417,1500.0,1499.0485829959514,1418.0,1500
22.05000000000018,441,160,102,0.004048582995951417,1500.0,1499.0485829959514,1418.0,1500
22.10000000000018,442,160,102,0.0038461538461538464,1500.0,1498.8461538461538,1418.0,1500
22.15000000000018,443,160,102,0.004048582995951417,1500.0,1499.0485829959514,1418.0,1500
22.20000000000018,444,160,102,0.004048582995951417,1500.0,1499.0485829959514,1418.0,1500
22.25000000000018,445,160,102,0.004048582995951417,1500.0,1499.0485829959514,1418.0,1500
22.300000000000182,446,159,102,0.0038461538461538464,1499.9,1498.8461538461538,1418.0,1500
22.350000000000183,447,159,103,0.004048582995951417,1499.9,1499.0485829959514,1417.0,1500
22.400000000000183,448,159,102,0.0037593984962406013,1499.9,1498.7593984962407,1418.0,1500
22.450000000000184,449,158,102,0.0037593984962406013,1499.8,1498.7593984962407,1418.0,1500
22.500000000000185,450,158,102,0.0035714285714285713,1499.8,1498.5714285714287,1418.0,1500
22.550000000000185,451,158,102,0.0035714285714285713,1499.8,1498.5714285714287,1418.0,1500
22.600000000000186,452,157,102,0.0037593984962406013,1499.7,1498.7593984962407,1418.0,1500
22.650000000000187,453,158,102,0.003401360544217687,1499.8,1498.4013605442176,1418.0,1500
22.700000000000188,454,158,102,0.003401360544217687,1499.8,1498.4013605442176,1418.0,1500
22.75000000000019,455,158,102,0.003401360544217687,1499.8,1498.4013605442176,1418.0,1500
22.80000000000019,456,158,102,0.0030303030303030303,1499.8,1498.030303030303,1418.0,1500
22.85000000000019,457,158,102,0.003246753246753247,1499.8,1498.2467532467533,1418.0,1500
22.90000000000019,458,159,102,0.002898550724637681,1499.9,1497.8985507246377,1418.0,1500
22.95000000000019,459,159,101,0.0030303030303030303,1499.9,1498.030303030303,1419.0,1500
23.000000000000192,460,158,102,0.0030303030303030303,1499.8,1498.030303030303,1418.0,1500
23.050000000000193,461,158,101,0.002840909090909091,1499.8,1497.840909090909,1419.0,1500
23.100000000000193,462,158,101,0.002898550724637681,1499.8,1497.8985507246377,1419.0,1500
23.150000000000194,463,157,101,0.002840909090909091,1499.7,1497.840909090909,1419.0,1500
23.200000000000195,464,157,101,0.002717391304347826,1499.7,1497.7173913043478,1419.0,1500
23.250000000000195,465,157,101,0.002717391304347826,1499.7,1497.7173913043478,1419.0,1500
23.300000000000196,466,157,101,0.002717391304347826,1499.7,1497.7173913043478,1419.0,1500
23.350000000000197,467,157,101,0.002717391304347826,1499.7,1497.7173913043478,1419.0,1500
23.400000000000198,468,156,101,0.002717391304347826,1499.6,1497.7173913043478,1419.0,1500
23.4500000000002,469,156,101,0.0026041666666666665,1499.6,1497.6041666666667,1419.0,1500
23.5000000000002,470,156,101,0.0026041666666666665,1499.6,1497.6041666666667,1419.0,1500
23.5500000000002,471,157,101,0.002352941176470588,1499.7,1497.3529411764705,1419.0,1500
23.6000000000002,472,157,101,0.002352941176470588,1499.7,1497.3529411764705,1419.0,1500
23.6500000000002,473,157,101,0.002352941176470588,1499.7,1497.3529411764705,1419.0,1500
23.700000000000202,474,157,101,0.0022624434389140274,1499.7,1497.262443438914,1419.0,1500
23.750000000000203,475,156,101,0.002136752136752137,1499.6,1497.1367521367522,1419.0,1500
23.800000000000203,476,156,101,0.001984126984126984,1499.6,1496.984126984127,1419.0,1500
23.850000000000204,477,156,102,0.001949317738791423,1499.6,1496.9493177387915,1418.0,1500
23.900000000000205,478,156,101,0.00205761316872428,1499.6,1497.0576131687242,1419.0,1500
23.950000000000205,479,155,101,0.001984126984126984,1499.5,1496.984126984127,1419.0,1500
24.000000000000206,480,155,101,0.001949317738791423,1499.5,1496.9493177387915,1419.0,1500
24.050000000000207,481,155,101,0.0018796992481203006,1499.5,1496.8796992481202,1419.0,1500
24.100000000000207,482,155,101,0.001851851851851852,1499.5,1496.851851851852,1419.0,1500
24.150000000000208,483,156,101,0.0017241379310344827,1499.6,1496.7241379310344,1419.0,1500
24.20000000000021,484,156,101,0.0017857142857142857,1499.6,1496.7857142857142,1419.0,1500
24.25000000000021,485,156,101,0.0017543859649122807,1499.6,1496.7543859649122,1419.0,1500
24.30000000000021,486,157,100,0.0016666666666666668,1499.7,1496.6666666666667,1420.0,1500
24.35000000000021,487,157,100,0.0016666666666666668,1499.7,1496.6666666666667,1420.0,1500
24.40000000000021,488,157,101,0.0015360983102918587,1499.7,1496.536098310292,1419.0,1500
24.450000000000212,489,157,101,0.0015360983102918587,1499.7,1496.536098310292,1419.0,1500
24.500000000000213,490,156,101,0.001443001443001443,1499.6,1496.4430014430015,1419.0,1500
24.550000000000214,491,155,100,0.001466275659824047,1499.5,1496.466275659824,1420.0,1500
24.600000000000215,492,154,100,0.0014204545454545455,1499.4,1496.4204545454545,1420.0,1500
24.650000000000215,493,154,99,0.0014204545454545455,1499.4,1496.4204545454545,1421.0,1500
24.700000000000216,494,154,99,0.0013175230566534915,1499.4,1496.3175230566535,1421.0,1500
24.750000000000217,495,154,99,0.0013175230566534915,1499.4,1496.3175230566535,1421.0,1500
24.800000000000217,496,154,99,0.0012422360248447205,1499.4,1496.2422360248447,1421.0,1500
24.850000000000218,497,154,98,0.0011904761904761906,1499.4,1496.1904761904761,1422.0,1500
24.90000000000022,498,154,98,0.0012254901960784314,1499.4,1496.2254901960785,1422.0,1500
24.95000000000022,499,155,97,0.0011904761904761906,1499.5,1496.1904761904761,1423.0,1500
25.00000000000022,500,155,98,0.0011111111111111111,1499.5,1496.111111111111,1422.0,1500
25.05000000000022,501,155,97,0.0011904761904761906,1499.5,1496.1904761904761,1423.0,1500
25.10000000000022,502,155,97,0.0011574074074074073,1499.5,1496.1574074074074,1423.0,1500
25.150000000000222,503,155,98,0.001081081081081081,1499.5,1496.081081081081,1422.0,1500
25.200000000000223,504,154,97,0.0010121457489878543,1499.4,1496.012145748988,1423.0,1500
25.250000000000224,505,155,98,0.000949667616334283,1499.5,1495.9496676163342,1422.0,1500
25.300000000000225,506,154,97,0.0009380863039399625,1499.4,1495.93808630394,1423.0,1500
25.350000000000225,507,152,97,0.0008928571428571428,1499.2,1495.892857142857,1423.0,1500
25.400000000000226,508,152,97,0.000925925925925926,1499.2,1495.9259259259259,1423.0,1500
25.450000000000227,509,152,97,0.0008503401360544217,1499.2,1495.8503401360545,1423.0,1500
25.500000000000227,510,151,97,0.0008210180623973727,1499.1,1495.8210180623973,1423.0,1500
25.550000000000228,511,152,97,0.0008210180623973727,1499.2,1495.8210180623973,1423.0,1500
25.60000000000023,512,153,97,0.0007751937984496124,1499.3,1495.7751937984497,1423.0,1500
25.65000000000023,513,153,96,0.0007575757575757576,1499.3,1495.7575757575758,1424.0,1500
25.70000000000023,514,154,96,0.0007331378299120235,1499.4,1495.733137829912,1424.0,1500
25.75000000000023,515,154,95,0.0007331378299120235,1499.4,1495.733137829912,1425.0,1500
25.80000000000023,516,154,95,0.0007012622720897616,1499.4,1495.7012622720897,1425.0,1500
25.850000000000232,517,155,94,0.0006648936170212766,1499.5,1495.6648936170213,1426.0,1500
25.900000000000233,518,154,94,0.0006510416666666666,1499.4,1495.6510416666667,1426.0,1500
25.950000000000234,519,154,94,0.0006313131313131314,1499.4,1495.6313131313132,1426.0,1500
26.000000000000234,520,154,94,0.0006184291898577613,1499.4,1495.6184291898578,1426.0,1500
26.050000000000235,521,154,92,0.000588235294117647,1499.4,1495.5882352941176,1428.0,1500
26.100000000000236,522,154,91,0.0006002400960384153,1499.4,1495.6002400960383,1429.0,1500
26.150000000000237,523,154,91,0.0005767012687427913,1499.4,1495.5767012687427,1429.0,1500
26.200000000000237,524,154,91,0.0005602240896358543,1499.4,1495.5602240896358,1429.0,1500
26.250000000000238,525,154,91,0.0005291005291005291,1499.4,1495.5291005291006,1429.0,1500
26.30000000000024,526,154,90,0.00051440329218107,1499.4,1495.514403292181,1430.0,1500
26.35000000000024,527,154,91,0.0005005005005005005,1499.4,1495.5005005005005,1429.0,1500
26.40000000000024,528,155,91,0.00046992481203007516,1499.5,1495.46992481203,1429.0,1500
26.45000000000024,529,156,92,0.000449842555105713,1499.6,1495.4498425551058,1428.0,1500
26.50000000000024,530,155,92,0.0004310344827586207,1499.5,1495.4310344827586,1428.0,1500
26.550000000000242,531,155,94,0.00041339396444811904,1499.5,1495.413393964448,1426.0,1500
26.600000000000243,532,154,95,0.0004035512510088781,1499.4,1495.4035512510088,1425.0,1500
26.650000000000244,533,152,98,0.0003875968992248062,1499.2,1495.3875968992247,1422.0,1500
26.700000000000244,534,152,103,0.00036913990402362494,1499.2,1495.3691399040235,1417.0,1500
26.750000000000245,535,150,107,0.0003527336860670194,1499.0,1495.352733686067,1413.0,1500
26.800000000000246,536,149,114,0.00034722222222222224,1498.9,1495.3472222222222,1406.0,1500
26.850000000000247,537,150,119,0.0003418803418803419,1499.0,1495.3418803418804,1401.0,1500
26.900000000000247,538,151,127,0.0003109452736318408,1499.1,1495.310945273632,1393.0,1500
26.950000000000248,539,151,132,0.0002941176470588235,1499.1,1495.2941176470588,1388.0,1500
27.00000000000025,540,155,140,0.00027085590465872155,1499.5,1495.2708559046587,1380.0,1500
27.05000000000025,541,157,145,0.0002608242044861763,1499.7,1495.2608242044862,1375.0,1500
27.10000000000025,542,159,153,0.00025608194622279127,1499.9,1495.2560819462228,1370,1500
27.15000000000025,543,161,157,0.00026350461133069827,1500.1,1495.2635046113307,1370,1500
27.20000000000025,544,165,162,0.0002626050420168067,1500.5,1495.2626050420167,1370,1500
27.250000000000252,545,167,166,0.00023474178403755868,1500.7,1495.2347417840376,1370,1500
27.300000000000253,546,168,169,0.00022768670309653916,1500.8,1495.2276867030967,1370,1500
27.350000000000254,547,172,170,0.0002573340195573855,1501.2,1495.2573340195574,1370,1500
27.400000000000254,548,176,171,0.0002747252747252747,1501.6,1495.2747252747254,1370,1500
27.450000000000255,549,178,173,0.00030525030525030525,1501.8,1495.3052503052504,1370,1500
27.500000000000256,550,178,175,0.00035919540229885057,1501.8,1495.3591954022988,1370,1500
27.550000000000257,551,180,178,0.0004409171075837742,1502.0,1495.4409171075838,1370,1500
27.600000000000257,552,178,181,0.0005555555555555556,1501.8,1495.5555555555557,1370,1500
27.650000000000258,553,177,186,0.0008613264427217916,1501.7,1495.8613264427217,1370,1500
27.70000000000026,554,178,187,0.0013020833333333333,1501.8,1496.3020833333333,1370,1500
27.75000000000026,555,177,191,0.002352941176470588,1501.7,1497.3529411764705,1370,1500
27.80000000000026,556,176,193,0.003787878787878788,1501.6,1498.7878787878788,1370,1500
27.85000000000026,556,,,,1500.0,1500.0,1420.0,1500
27.90000000000026,556,,,,1500.0,1500.0,1420.0,1500
27.950000000000262,556,,,,1500.0,1500.0,1420.0,1500
28.000000000000263,556,,,,1500.0,1500.0,1420.0,1500
28.050000000000264,556,,,,1500.0,1500.0,1420.0,1500
28.100000000000264,556,,,,1500.0,1500.0,1420.0,1500
28.150000000000265,556,,,,1500.0,1500.0,1420.0,1500
28.200000000000266,556,,,,1500.0,1500.0,1420.0,1500
28.250000000000266,556,,,,1500.0,1500.0,1420.0,1500
28.300000000000267,556,,,,1500.0,1500.0,1420.0,1500
28.350000000000268,556,,,,1500.0,1500.0,1420.0,1500
28.40000000000027,556,,,,1500.0,1500.0,1420.0,1500
28.45000000000027,556,,,,1500.0,1500.0,1420.0,1500
28.50000000000027,556,,,,1500.0,1500.0,1420.0,1500
28.55000000000027,556,,,,1500.0,1500.0,1420.0,1500
28.60000000000027,556,,,,1500.0,1500.0,1420.0,1500
28.650000000000272,556,,,,1500.0,1500.0,1420.0,1500
28.700000000000273,556,,,,1500.0,1500.0,1420.0,1500
28.750000000000274,556,,,,1500.0,1500.0,1420.0,1500
28.800000000000274,556,,,,1500.0,1500.0,1420.0,1500
28.850000000000275,556,,,,1500.0,1500.0,1420.0,1500
28.900000000000276,556,,,,1500.0,1500.0,1420.0,1500
28.950000000000276,556,,,,1500.0,1500.0,1420.0,1500
29.000000000000277,556,,,,1500.0,1500.0,1420.0,1500
29.050000000000278,556,,,,1500.0,1500.0,1420.0,1500
29.10000000000028,556,,,,1500.0,1500.0,1420.0,1500
29.15000000000028,556,,,,1500.0,1500.0,1420.0,1500
29.20000000000028,556,,,,1500.0,1500.0,1420.0,1500
29.25000000000028,556,,,,1500.0,1500.0,1420.0,1500
29.30000000000028,556,,,,1500.0,1500.0,1420.0,1500
29.350000000000282,556,,,,1500.0,1500.0,1420.0,1500
29.400000000000283,556,,,,1500.0,1500.0,1420.0,1500
29.450000000000284,556,,,,1500.0,1500.0,1420.0,1500
29.500000000000284,556,,,,1500.0,1500.0,1420.0,1500
29.550000000000285,556,,,,1500.0,1500.0,1420.0,1500
29.600000000000286,556,,,,1500.0,1500.0,1420.0,1500
29.650000000000286,556,,,,1500.0,1500.0,1420.0,1500
29.700000000000287,556,,,,1500.0,1500.0,1420.0,1500
29.750000000000288,556,,,,1500.0,1500.0,1420.0,1500
29.80000000000029,556,,,,1500.0,1500.0,1420.0,1500
29.85000000000029,556,,,,1500.0,1500.0,1420.0,1500
29.90000000000029,556,,,,1500.0,1500.0,1420.0,1500
29.95000000000029,556,,,,1500.0,1500.0,1420.0,1500
30.00000000000029,556,,,,1500.0,1500.0,1420.0,1500
30.050000000000292,556,,,,1500.0,1500.0,1420.0,1500
30.100000000000293,556,,,,1500.0,1500.0,1420.0,1500
30.150000000000293,556,,,,1500.0,1500.0,1420.0,1500
30.200000000000294,556,,,,1500.0,1500.0,1420.0,1500
30.250000000000295,556,,,,1500.0,1500.0,1420.0,1500
30.300000000000296,556,,,,1500.0,1500.0,1420.0,1500
30.350000000000296,556,,,,1500.0,1500.0,1420.0,1500
30.400000000000297,556,,,,1500.0,1500.0,1420.0,1500
30.450000000000298,556,,,,1500.0,1500.0,1420.0,1500
30.5000000000003,556,,,,1500.0,1500.0,1420.0,1500
30.5500000000003,556,,,,1500.0,1500.0,1420.0,1500
30.6000000000003,556,,,,1500.0,1500.0,1420.0,1500
30.6500000000003,556,,,,1500.0,1500.0,1420.0,1500
30.7000000000003,556,,,,1500.0,1500.0,1420.0,1500
30.750000000000302,556,,,,1500.0,1500.0,1420.0,1500
30.800000000000303,556,,,,1500.0,1500.0,1420.0,1500
30.850000000000303,556,,,,1500.0,1500.0,1420.0,1500
30.900000000000304,556,,,,1500.0,1500.0,1420.0,1500
30.950000000000305,556,,,,1500.0,1500.0,1420.0,1500
31.000000000000306,556,,,,1500.0,1500.0,1420.0,1500
31.050000000000306,556,,,,1500.0,1500.0,1420.0,1500
31.100000000000307,556,,,,1500.0,1500.0,1420.0,1500
31.150000000000308,556,,,,1500.0,1500.0,1420.0,1500
31.20000000000031,556,,,,1500.0,1500.0,1420.0,1500
31.25000000000031,556,,,,1500.0,1500.0,1420.0,1500
31.30000000000031,556,,,,1500.0,1500.0,1420.0,1500
31.35000000000031,556,,,,1500.0,1500.0,1420.0,1500
31.40000000000031,556,,,,1500.0,1500.0,1420.0,1500
31.450000000000312,556,,,,1500.0,1500.0,1420.0,1500
31.500000000000313,556,,,,1500.0,1500.0,1420.0,1500
31.550000000000313,557,185,197,0.00425531914893617,1502.5,1499.2553191489362,1370,1500
31.600000000000314,558,183,189,0.00234192037470726,1502.3,1497.3419203747073,1370,1500
31.650000000000315,559,185,174,0.0030303030303030303,1502.5,1498.030303030303,1370,1500
31.700000000000315,560,194,168,0.015151515151515152,1503.4,1505,1370,1500
31.750000000000316,560,,,,1500.0,1500.0,1420.0,1500
31.800000000000317,560,,,,1500.0,1500.0,1420.0,1500
31.850000000000318,560,,,,1500.0,1500.0,1420.0,1500
31.90000000000032,560,,,,1500.0,1500.0,1420.0,1500
31.95000000000032,560,,,,1500.0,1500.0,1420.0,1500
32.00000000000032,560,,,,1500.0,1500.0,1420.0,1500
32.05000000000032,560,,,,1500.0,1500.0,1420.0,1500
32.100000000000314,560,,,,1500.0,1500.0,1420.0,1500
32.15000000000031,560,,,,1500.0,1500.0,1420.0,1500
32.20000000000031,560,,,,1500.0,1500.0,1420.0,1500
32.250000000000306,560,,,,1500.0,1500.0,1420.0,1500
32.3000000000003,560,,,,1500.0,1500.0,1420.0,1500
32.3500000000003,560,,,,1500.0,1500.0,1420.0,1500
32.4000000000003,560,,,,1500.0,1500.0,1420.0,1500
