time,frame,x,y,size_inv,roll,pitch,thrust,yaw
0,1,165,80,0.0020161290322580645,1500.5,1495.1612903225807,1440.0,1500
0.05,2,166,78,0.0016129032258064516,1500.6,1495,1442.0,1500
0.1,3,164,81,0.0017543859649122807,1500.4,1495,1439.0,1500
0.15000000000000002,4,164,85,0.003703703703703704,1500.4,1505,1435.0,1500
0.2,5,165,85,0.0024813895781637717,1500.5,1499.8138957816377,1435.0,1500
0.25,6,165,80,0.001466275659824047,1500.5,1495,1440.0,1500
0.3,7,163,84,0.0026455026455026454,1500.3,1501.4550264550264,1436.0,1500
0.35,8,160,83,0.005952380952380952,1500.0,1505,1437.0,1500
0.39999999999999997,9,162,71,0.005847953216374269,1500.2,1505,1449.0,1500
0.44999999999999996,10,167,80,0.004166666666666667,1500.7,1505,1440.0,1500
0.49999999999999994,11,164,74,0.0012787723785166241,1500.4,1495,1446.0,1500
0.5499999999999999,12,160,69,0.004132231404958678,1500.0,1505,1451.0,1500
0.6,13,166,70,0.0013605442176870747,1500.6,1495,1450.0,1500
0.65,14,164,62,0.0022988505747126436,1500.4,1497.9885057471265,1458.0,1500
0.7000000000000001,15,157,67,0.008403361344537815,1499.7,1505,1453.0,1500
0.7500000000000001,16,161,56,0.004761904761904762,1500.1,1505,1464.0,1500
0.8000000000000002,17,159,59,0.008333333333333333,1499.9,1505,1461.0,1500
0.8500000000000002,18,168,52,0.002652519893899204,1500.8,1501.525198938992,1468.0,1500
0.9000000000000002,19,167,49,0.001697792869269949,1500.7,1495,1470,1500
0.9500000000000003,20,173,36,0.025,1501.3,1505,1470,1500
1.0000000000000002,21,167,42,0.00625,1500.7,1505,1470,1500
1.0500000000000003,22,165,36,0.011111111111111112,1500.5,1505,1470,1500
1.1000000000000003,23,164,33,0.004166666666666667,1500.4,1505,1470,1500
1.1500000000000004,24,153,53,0.010526315789473684,1499.3,1505,1467.0,1500
1.2000000000000004,25,161,52,0.0019723865877712033,1500.1,1495,1468.0,1500
1.2500000000000004,26,162,47,0.0014619883040935672,1500.2,1495,1470,1500
1.3000000000000005,27,160,54,0.0011337868480725624,1500.0,1495,1466.0,1500
1.3500000000000005,28,164,50,0.0017094017094017094,1500.4,1495,1470.0,1500
1.4000000000000006,29,161,53,0.0007168458781362007,1500.1,1495,1467.0,1500
1.4500000000000006,30,162,54,0.0006447453255963894,1500.2,1495,1466.0,1500
1.5000000000000007,31,161,55,0.0005787037037037037,1500.1,1495,1465.0,1500
1.5500000000000007,32,161,63,0.001,1500.1,1495,1457.0,1500
1.6000000000000008,33,161,63,0.0008169934640522876,1500.1,1495,1457.0,1500
1.6500000000000008,34,158,55,0.0006863417982155113,1499.8,1495,1465.0,1500
1.7000000000000008,35,159,61,0.0005291005291005291,1499.9,1495,1459.0,1500
1.7500000000000009,36,158,67,0.0007763975155279503,1499.8,1495,1453.0,1500
1.800000000000001,37,158,61,0.0005099439061703213,1499.8,1495,1459.0,1500
1.850000000000001,38,156,62,0.0004035512510088781,1499.6,1495,1458.0,1500
1.900000000000001,39,154,62,0.000423728813559322,1499.4,1495,1458.0,1500
1.950000000000001,40,153,66,0.0003875968992248062,1499.3,1495,1454.0,1500
2.000000000000001,41,152,66,0.0003787878787878788,1499.2,1495,1454.0,1500
2.0500000000000007,42,152,67,0.00037257824143070045,1499.2,1495,1453.0,1500
2.1000000000000005,43,152,67,0.00037257824143070045,1499.2,1495,1453.0,1500
2.1500000000000004,44,151,67,0.0003787878787878788,1499.1,1495,1453.0,1500
2.2,45,151,67,0.0003787878787878788,1499.1,1495,1453.0,1500
2.25,46,152,67,0.0003787878787878788,1499.2,1495,1453.0,1500
2.3,47,153,66,0.0003852080123266564,1499.3,1495,1454.0,1500
2.3499999999999996,48,155,65,0.00039416633819471815,1499.5,1495,1455.0,1500
2.3999999999999995,49,155,64,0.0004065040650406504,1499.5,1495,1456.0,1500
2.4499999999999993,50,156,63,0.00043554006968641115,1499.6,1495,1457.0,1500
2.499999999999999,51,156,62,0.0004578754578754579,1499.6,1495,1458.0,1500
2.549999999999999,52,158,61,0.0004662004662004662,1499.8,1495,1459.0,1500
2.5999999999999988,53,158,60,0.0004873294346978557,1499.8,1495,1460.0,1500
2.6499999999999986,54,160,61,0.0005099439061703213,1500.0,1495,1459.0,1500
2.6999999999999984,55,160,61,0.0005555555555555556,1500.0,1495,1459.0,1500
2.7499999999999982,56,161,62,0.0005830903790087463,1500.1,1495,1458.0,1500
2.799999999999998,57,163,63,0.0006002400960384153,1500.3,1495,1457.0,1500
2.849999999999998,58,162,65,0.0006313131313131314,1500.2,1495,1455.0,1500
2.8999999999999977,59,163,65,0.0006793478260869565,1500.3,1495,1455.0,1500
2.9499999999999975,60,162,65,0.0007102272727272727,1500.2,1495,1455.0,1500
2.9999999999999973,61,162,64,0.0007168458781362007,1500.2,1495,1456.0,1500
3.049999999999997,62,161,63,0.0007331378299120235,1500.1,1495,1457.0,1500
3.099999999999997,63,159,62,0.0008210180623973727,1499.9,1495,1458.0,1500
3.149999999999997,64,159,61,0.0008710801393728223,1499.9,1495,1459.0,1500
3.1999999999999966,65,159,61,0.000949667616334283,1499.9,1495,1459.0,1500
3.2499999999999964,66,160,62,0.0010416666666666667,1500.0,1495,1458.0,1500
3.2999999999999963,67,160,63,0.0010526315789473684,1500.0,1495,1457.0,1500
3.349999999999996,68,160,64,0.0011574074074074073,1500.0,1495,1456.0,1500
3.399999999999996,69,160,66,0.0011574074074074073,1500.0,1495,1454.0,1500
3.4499999999999957,70,161,67,0.0011904761904761906,1500.1,1495,1453.0,1500
3.4999999999999956,71,160,69,0.0012787723785166241,1500.0,1495,1451.0,1500
3.5499999999999954,72,159,70,0.0014204545454545455,1499.9,1495,1450.0,1500
3.599999999999995,73,160,71,0.0013774104683195593,1500.0,1495,1449.0,1500
3.649999999999995,74,158,71,0.001466275659824047,1499.8,1495,1449.0,1500
3.699999999999995,75,157,72,0.0015873015873015873,1499.7,1495,1448.0,1500
3.7499999999999947,76,156,71,0.0017543859649122807,1499.6,1495,1449.0,1500
3.7999999999999945,77,156,70,0.0017241379310344827,1499.6,1495,1450.0,1500
3.8499999999999943,78,155,70,0.0018796992481203006,1499.5,1495,1450.0,1500
3.899999999999994,79,156,69,0.00205761316872428,1499.6,1495.5761316872429,1451.0,1500
3.949999999999994,80,156,70,0.001949317738791423,1499.6,1495,1450.0,1500
3.999999999999994,81,156,73,0.003703703703703704,1499.6,1505,1447.0,1500
4.049999999999994,82,157,68,0.003787878787878788,1499.7,1505,1452.0,1500
4.099999999999993,83,155,71,0.0024509803921568627,1499.5,1499.5098039215686,1449.0,1500
4.149999999999993,84,155,72,0.002717391304347826,1499.5,1502.1739130434783,1448.0,1500
4.199999999999993,85,156,73,0.002898550724637681,1499.6,1503.9855072463768,1447.0,1500
4.249999999999993,86,156,74,0.003105590062111801,1499.6,1505,1446.0,1500
4.299999999999993,87,157,75,0.002898550724637681,1499.7,1503.9855072463768,1445.0,1500
4.3499999999999925,88,157,74,0.003246753246753247,1499.7,1505,1446.0,1500
4.399999999999992,89,157,75,0.004132231404958678,1499.7,1505,1445.0,1500
4.449999999999992,90,158,81,0.006493506493506494,1499.8,1505,1439.0,1500
4.499999999999992,91,158,77,0.0037593984962406013,1499.8,1505,1443.0,1500
4.549999999999992,92,159,78,0.0038461538461538464,1499.9,1505,1442.0,1500
4.599999999999992,93,159,80,0.0038461538461538464,1499.9,1505,1440.0,1500
4.6499999999999915,94,160,80,0.003401360544217687,1500.0,1505,1440.0,1500
4.699999999999991,95,160,81,0.0037593984962406013,1500.0,1505,1439.0,1500
4.749999999999991,96,160,81,0.0037593984962406013,1500.0,1505,1439.0,1500
4.799999999999991,97,160,82,0.0035714285714285713,1500.0,1505,1438.0,1500
4.849999999999991,98,161,85,0.0038461538461538464,1500.1,1505,1435.0,1500
4.899999999999991,99,162,85,0.003401360544217687,1500.2,1505,1435.0,1500
4.94999999999999,100,161,88,0.004329004329004329,1500.1,1505,1432.0,1500
4.99999999999999,101,161,91,0.008771929824561403,1500.1,1505,1429.0,1500
5.04999999999999,102,160,89,0.0038461538461538464,1500.0,1505,1431.0,1500
5.09999999999999,103,160,91,0.005263157894736842,1500.0,1505,1429.0,1500
5.14999999999999,104,158,94,0.009523809523809525,1499.8,1505,1426.0,1500
5.1999999999999895,105,161,92,0.0058823529411764705,1500.1,1505,1428.0,1500
5.249999999999989,106,161,89,0.0078125,1500.1,1505,1431.0,1500
5.299999999999989,107,160,92,0.004048582995951417,1500.0,1505,1428.0,1500
5.349999999999989,108,159,91,0.005555555555555556,1499.9,1505,1429.0,1500
5.399999999999989,109,159,93,0.006944444444444444,1499.9,1505,1427.0,1500
5.449999999999989,110,160,95,0.006578947368421052,1500.0,1505,1425.0,1500
5.4999999999999885,111,160,93,0.0043859649122807015,1500.0,1505,1427.0,1500
5.549999999999988,112,159,95,0.00625,1499.9,1505,1425.0,1500
5.599999999999988,113,159,94,0.004048582995951417,1499.9,1505,1426.0,1500
5.649999999999988,114,159,97,0.007936507936507936,1499.9,1505,1423.0,1500
5.699999999999988,115,159,92,0.0043859649122807015,1499.9,1505,1428.0,1500
5.749999999999988,116,159,96,0.007518796992481203,1499.9,1505,1424.0,1500
5.799999999999987,117,160,93,0.016666666666666666,1500.0,1505,1427.0,1500
5.849999999999987,118,159,93,0.0043859649122807015,1499.9,1505,1427.0,1500
5.899999999999987,119,161,89,0.011111111111111112,1500.1,1505,1431.0,1500
5.949999999999987,120,159,93,0.004048582995951417,1499.9,1505,1427.0,1500
5.999999999999987,121,162,93,0.009523809523809525,1500.2,1505,1427.0,1500
6.0499999999999865,122,159,94,0.011111111111111112,1499.9,1505,1426.0,1500
6.099999999999986,123,160,94,0.004784688995215311,1500.0,1505,1426.0,1500
6.149999999999986,124,160,92,0.006578947368421052,1500.0,1505,1428.0,1500
6.199999999999986,125,158,96,0.013333333333333334,1499.8,1505,1424.0,1500
6.249999999999986,126,163,96,0.02,1500.3,1505,1424.0,1500
6.299999999999986,127,162,95,0.016666666666666666,1500.2,1505,1425.0,1500
6.349999999999985,128,160,94,0.007518796992481203,1500.0,1505,1426.0,1500
6.399999999999985,129,154,91,0.03125,1499.4,1505,1429.0,1500
6.449999999999985,130,160,90,0.007352941176470588,1500.0,1505,1430.0,1500
6.499999999999985,131,159,91,0.013888888888888888,1499.9,1505,1429.0,1500
6.549999999999985,132,155,92,0.025,1499.5,1505,1428.0,1500
6.5999999999999845,133,162,92,0.016666666666666666,1500.2,1505,1428.0,1500
6.649999999999984,134,163,84,0.014285714285714285,1500.3,1505,1436.0,1500
6.699999999999984,135,160,84,0.011904761904761904,1500.0,1505,1436.0,1500
6.749999999999984,136,157,86,0.030303030303030304,1499.7,1505,1434.0,1500
6.799999999999984,137,159,87,0.013888888888888888,1499.9,1505,1433.0,1500
6.849999999999984,138,155,85,0.016666666666666666,1499.5,1505,1435.0,1500
6.8999999999999835,139,156,91,0.014285714285714285,1499.6,1505,1429.0,1500
6.949999999999983,140,160,83,0.011111111111111112,1500.0,1505,1437.0,1500
6.999999999999983,141,158,89,0.00625,1499.8,1505,1431.0,1500
7.049999999999983,142,157,85,0.006172839506172839,1499.7,1505,1435.0,1500
7.099999999999983,143,153,90,0.016666666666666666,1499.3,1505,1430.0,1500
7.149999999999983,144,159,88,0.01282051282051282,1499.9,1505,1432.0,1500
7.199999999999982,145,157,89,0.007518796992481203,1499.7,1505,1431.0,1500
7.249999999999982,146,156,88,0.0035714285714285713,1499.6,1505,1432.0,1500
7.299999999999982,147,158,89,0.004901960784313725,1499.8,1505,1431.0,1500
7.349999999999982,148,156,89,0.005291005291005291,1499.6,1505,1431.0,1500
7.399999999999982,149,156,90,0.004329004329004329,1499.6,1505,1430.0,1500
7.4499999999999815,150,157,91,0.005263157894736842,1499.7,1505,1429.0,1500
7.499999999999981,151,155,89,0.003663003663003663,1499.5,1505,1431.0,1500
7.549999999999981,152,154,86,0.011764705882352941,1499.4,1505,1434.0,1500
7.599999999999981,153,154,85,0.015625,1499.4,1505,1435.0,1500
7.649999999999981,154,155,90,0.005434782608695652,1499.5,1505,1430.0,1500
7.699999999999981,155,156,85,0.0038461538461538464,1499.6,1505,1435.0,1500
7.7499999999999805,156,145,89,0.041666666666666664,1498.5,1505,1431.0,1500
7.79999999999998,157,154,86,0.004629629629629629,1499.4,1505,1434.0,1500
7.84999999999998,158,153,84,0.0033444816053511705,1499.3,1505,1436.0,1500
7.89999999999998,159,153,83,0.0038461538461538464,1499.3,1505,1437.0,1500
7.94999999999998,160,153,79,0.002352941176470588,1499.3,1498.5294117647059,1441.0,1500
7.99999999999998,161,151,78,0.002717391304347826,1499.1,1502.1739130434783,1442.0,1500
8.04999999999998,162,150,76,0.0034965034965034965,1499.0,1505,1444.0,1500
8.09999999999998,163,152,76,0.0023148148148148147,1499.2,1498.148148148148,1444.0,1500
8.14999999999998,164,151,77,0.0020242914979757085,1499.1,1495.2429149797572,1443.0,1500
8.199999999999982,165,150,77,0.0022624434389140274,1499.0,1497.6244343891403,1443.0,1500
8.249999999999982,166,150,74,0.00205761316872428,1499.0,1495.5761316872429,1446.0,1500
8.299999999999983,167,149,74,0.0018796992481203006,1498.9,1495,1446.0,1500
8.349999999999984,168,149,74,0.0016420361247947454,1498.9,1495,1446.0,1500
8.399999999999984,169,148,76,0.002380952380952381,1498.8,1498.8095238095239,1444.0,1500
8.449999999999985,170,149,72,0.0016129032258064516,1498.9,1495,1448.0,1500
8.499999999999986,171,148,72,0.001488095238095238,1498.8,1495,1448.0,1500
8.549999999999986,172,147,70,0.001851851851851852,1498.7,1495,1450.0,1500
8.599999999999987,173,147,73,0.001736111111111111,1498.7,1495,1447.0,1500
8.649999999999988,174,147,75,0.002304147465437788,1498.7,1498.041474654378,1445.0,1500
8.699999999999989,175,147,73,0.0020161290322580645,1498.7,1495.1612903225807,1447.0,1500
8.74999999999999,176,146,76,0.003125,1498.6,1505,1444.0,1500
8.79999999999999,177,147,70,0.0015151515151515152,1498.7,1495,1450.0,1500
8.84999999999999,178,146,74,0.0032258064516129032,1498.6,1505,1446.0,1500
8.899999999999991,179,146,70,0.0016339869281045752,1498.6,1495,1450.0,1500
8.949999999999992,180,146,73,0.0023148148148148147,1498.6,1498.148148148148,1447.0,1500
8.999999999999993,181,145,70,0.0015037593984962407,1498.5,1495,1450.0,1500
9.049999999999994,182,141,71,0.003703703703703704,1498.1,1505,1449.0,1500
9.099999999999994,183,147,70,0.002028397565922921,1498.7,1495.283975659229,1450.0,1500
9.149999999999995,184,145,71,0.001953125,1498.5,1495,1449.0,1500
9.199999999999996,185,137,67,0.006944444444444444,1497.7,1505,1453.0,1500
9.249999999999996,186,140,68,0.0016835016835016834,1498.0,1495,1452.0,1500
9.299999999999997,187,137,72,0.001644736842105263,1497.7,1495,1448.0,1500
9.349999999999998,188,139,74,0.0015625,1497.9,1495,1446.0,1500
9.399999999999999,189,138,71,0.0021929824561403508,1497.8,1496.9298245614036,1449.0,1500
9.45,190,137,76,0.0014705882352941176,1497.7,1495,1444.0,1500
9.5,191,137,76,0.0017006802721088435,1497.7,1495,1444.0,1500
9.55,192,137,79,0.0024390243902439024,1497.7,1499.3902439024391,1441.0,1500
9.600000000000001,193,137,70,0.0008741258741258741,1497.7,1495,1450.0,1500
9.650000000000002,194,138,70,0.0008305647840531562,1497.8,1495,1450.0,1500
9.700000000000003,195,138,73,0.0009302325581395349,1497.8,1495,1447.0,1500
9.750000000000004,196,139,73,0.001336898395721925,1497.9,1495,1447.0,1500
9.800000000000004,197,139,80,0.0021645021645021645,1497.9,1496.6450216450216,1440.0,1500
9.850000000000005,198,142,70,0.0008019246190858059,1498.2,1495,1450.0,1500
9.900000000000006,199,143,69,0.0006793478260869565,1498.3,1495,1451.0,1500
9.950000000000006,200,145,75,0.0010638297872340426,1498.5,1495,1445.0,1500
10.000000000000007,201,145,70,0.0006648936170212766,1498.5,1495,1450.0,1500
10.050000000000008,202,146,73,0.0007092198581560284,1498.6,1495,1447.0,1500
10.100000000000009,203,147,72,0.0006313131313131314,1498.7,1495,1448.0,1500
10.15000000000001,204,147,73,0.0006313131313131314,1498.7,1495,1447.0,1500
10.20000000000001,205,148,74,0.0006510416666666666,1498.8,1495,1446.0,1500
10.25000000000001,206,149,75,0.0006447453255963894,1498.9,1495,1445.0,1500
10.300000000000011,207,149,75,0.0006313131313131314,1498.9,1495,1445.0,1500
10.350000000000012,208,150,74,0.000588235294117647,1499.0,1495,1446.0,1500
10.400000000000013,209,150,73,0.001182033096926714,1499.0,1495,1447.0,1500
10.450000000000014,210,150,73,0.0006510416666666666,1499.0,1495,1447.0,1500
10.500000000000014,211,151,72,0.0006648936170212766,1499.1,1495,1448.0,1500
10.550000000000015,212,152,71,0.000625,1499.2,1495,1449.0,1500
10.600000000000016,213,152,70,0.0006127450980392157,1499.2,1495,1450.0,1500
10.650000000000016,214,154,70,0.0006184291898577613,1499.4,1495,1450.0,1500
10.700000000000017,215,153,71,0.000744047619047619,1499.3,1495,1449.0,1500
10.750000000000018,216,153,68,0.0006648936170212766,1499.3,1495,1452.0,1500
10.800000000000018,217,154,67,0.0006377551020408163,1499.4,1495,1453.0,1500
10.85000000000002,218,154,67,0.0006060606060606061,1499.4,1495,1453.0,1500
10.90000000000002,219,154,65,0.0006060606060606061,1499.4,1495,1455.0,1500
10.95000000000002,220,153,66,0.0006944444444444445,1499.3,1495,1454.0,1500
11.000000000000021,221,153,63,0.0006583278472679394,1499.3,1495,1457.0,1500
11.050000000000022,222,153,61,0.0006802721088435374,1499.3,1495,1459.0,1500
11.100000000000023,223,151,58,0.0006447453255963894,1499.1,1495,1462.0,1500
11.150000000000023,224,150,62,0.0012515644555694619,1499.0,1495,1458.0,1500
11.200000000000024,225,149,49,0.0007168458781362007,1498.9,1495,1470,1500
11.250000000000025,226,147,53,0.0016611295681063123,1498.7,1495,1467.0,1500
11.300000000000026,227,146,43,0.0015503875968992248,1498.6,1495,1470,1500
11.350000000000026,228,146,26,0.0017857142857142857,1498.6,1495,1470,1500
11.400000000000027,229,142,26,0.0009380863039399625,1498.2,1495,1470,1500
11.450000000000028,230,146,19,0.004,1498.6,1505,1470,1500
11.500000000000028,231,144,11,0.005714285714285714,1498.4,1505,1470,1500
11.55000000000003,232,142,1,0.009615384615384616,1498.2,1505,1470,1500
11.60000000000003,233,142,1,0.017543859649122806,1498.2,1505,1470,1500
11.65000000000003,233,,,,1500.0,1500.0,1420.0,1500
11.700000000000031,233,,,,1500.0,1500.0,1420.0,1500
11.750000000000032,233,,,,1500.0,1500.0,1420.0,1500
11.800000000000033,233,,,,1500.0,1500.0,1420.0,1500
11.850000000000033,233,,,,1500.0,1500.0,1420.0,1500
11.900000000000034,233,,,,1500.0,1500.0,1420.0,1500
11.950000000000035,233,,,,1500.0,1500.0,1420.0,1500
12.000000000000036,233,,,,1500.0,1500.0,1420.0,1500
12.050000000000036,233,,,,1500.0,1500.0,1420.0,1500
12.100000000000037,233,,,,1500.0,1500.0,1420.0,1500
12.150000000000038,233,,,,1500.0,1500.0,1420.0,1500
12.200000000000038,233,,,,1500.0,1500.0,1420.0,1500
12.250000000000039,233,,,,1500.0,1500.0,1420.0,1500
12.30000000000004,233,,,,1500.0,1500.0,1420.0,1500
12.35000000000004,233,,,,1500.0,1500.0,1420.0,1500
12.400000000000041,233,,,,1500.0,1500.0,1420.0,1500
12.450000000000042,233,,,,1500.0,1500.0,1420.0,1500
12.500000000000043,233,,,,1500.0,1500.0,1420.0,1500
12.550000000000043,233,,,,1500.0,1500.0,1420.0,1500
12.600000000000044,233,,,,1500.0,1500.0,1420.0,1500
12.650000000000045,233,,,,1500.0,1500.0,1420.0,1500
12.700000000000045,233,,,,1500.0,1500.0,1420.0,1500
12.750000000000046,233,,,,1500.0,1500.0,1420.0,1500
12.800000000000047,233,,,,1500.0,1500.0,1420.0,1500
12.850000000000048,233,,,,1500.0,1500.0,1420.0,1500
12.900000000000048,233,,,,1500.0,1500.0,1420.0,1500
12.950000000000049,233,,,,1500.0,1500.0,1420.0,1500
13.00000000000005,233,,,,1500.0,1500.0,1420.0,1500
13.05000000000005,233,,,,1500.0,1500.0,1420.0,1500
13.100000000000051,233,,,,1500.0,1500.0,1420.0,1500
13.150000000000052,233,,,,1500.0,1500.0,1420.0,1500
13.200000000000053,233,,,,1500.0,1500.0,1420.0,1500
13.250000000000053,233,,,,1500.0,1500.0,1420.0,1500
13.300000000000054,233,,,,1500.0,1500.0,1420.0,1500
13.350000000000055,233,,,,1500.0,1500.0,1420.0,1500
13.400000000000055,233,,,,1500.0,1500.0,1420.0,1500
13.450000000000056,233,,,,1500.0,1500.0,1420.0,1500
13.500000000000057,233,,,,1500.0,1500.0,1420.0,1500
13.550000000000058,233,,,,1500.0,1500.0,1420.0,1500
13.600000000000058,233,,,,1500.0,1500.0,1420.0,1500
13.650000000000059,233,,,,1500.0,1500.0,1420.0,1500
13.70000000000006,233,,,,1500.0,1500.0,1420.0,1500
13.75000000000006,233,,,,1500.0,1500.0,1420.0,1500
13.800000000000061,233,,,,1500.0,1500.0,1420.0,1500
13.850000000000062,233,,,,1500.0,1500.0,1420.0,1500
13.900000000000063,233,,,,1500.0,1500.0,1420.0,1500
13.950000000000063,234,112,1,0.03571428571428571,1495.2,1505,1470,1500
14.000000000000064,234,,,,1500.0,1500.0,1420.0,1500
14.050000000000065,235,109,1,0.016666666666666666,1494.9,1505,1470,1500
14.100000000000065,235,,,,1500.0,1500.0,1420.0,1500
14.150000000000066,236,112,1,0.016666666666666666,1495.2,1505,1470,1500
14.200000000000067,236,,,,1500.0,1500.0,1420.0,1500
14.250000000000068,236,,,,1500.0,1500.0,1420.0,1500
14.300000000000068,236,,,,1500.0,1500.0,1420.0,1500
14.350000000000069,236,,,,1500.0,1500.0,1420.0,1500
14.40000000000007,236,,,,1500.0,1500.0,1420.0,1500
14.45000000000007,236,,,,1500.0,1500.0,1420.0,1500
14.500000000000071,236,,,,1500.0,1500.0,1420.0,1500
14.550000000000072,236,,,,1500.0,1500.0,1420.0,1500
14.600000000000072,236,,,,1500.0,1500.0,1420.0,1500
14.650000000000073,236,,,,1500.0,1500.0,1420.0,1500
14.700000000000074,236,,,,1500.0,1500.0,1420.0,1500
14.750000000000075,236,,,,1500.0,1500.0,1420.0,1500
14.800000000000075,236,,,,1500.0,1500.0,1420.0,1500
14.850000000000076,236,,,,1500.0,1500.0,1420.0,1500
14.900000000000077,236,,,,1500.0,1500.0,1420.0,1500
14.950000000000077,236,,,,1500.0,1500.0,1420.0,1500
15.000000000000078,236,,,,1500.0,1500.0,1420.0,1500
15.050000000000079,236,,,,1500.0,1500.0,1420.0,1500
15.10000000000008,236,,,,1500.0,1500.0,1420.0,1500
15.15000000000008,236,,,,1500.0,1500.0,1420.0,1500
15.200000000000081,236,,,,1500.0,1500.0,1420.0,1500
15.250000000000082,237,140,2,0.037037037037037035,1498.0,1505,1470,1500
15.300000000000082,238,143,12,0.030303030303030304,1498.3,1505,1470,1500
15.350000000000083,238,,,,1500.0,1500.0,1420.0,1500
15.400000000000084,239,147,7,0.02,1498.7,1505,1470,1500
15.450000000000085,240,149,15,0.022727272727272728,1498.9,1505,1470,1500
15.500000000000085,241,152,10,0.025,1499.2,1505,1470,1500
15.550000000000086,242,152,17,0.025,1499.2,1505,1470,1500
15.600000000000087,243,156,17,0.01818181818181818,1499.6,1505,1470,1500
15.650000000000087,244,153,20,0.020833333333333332,1499.3,1505,1470,1500
15.700000000000088,245,153,18,0.0078125,1499.3,1505,1470,1500
15.750000000000089,246,151,15,0.004166666666666667,1499.1,1505,1470,1500
15.80000000000009,247,151,17,0.004201680672268907,1499.1,1505,1470,1500
15.85000000000009,248,150,25,0.05555555555555555,1499.0,1505,1470,1500
15.900000000000091,249,150,21,0.005555555555555556,1499.0,1505,1470,1500
15.950000000000092,250,150,22,0.007142857142857143,1499.0,1505,1470,1500
16.000000000000092,251,150,18,0.014285714285714285,1499.0,1505,1470,1500
16.050000000000093,252,151,25,0.008928571428571428,1499.1,1505,1470,1500
16.100000000000094,253,152,25,0.007142857142857143,1499.2,1505,1470,1500
16.150000000000095,254,155,19,0.008333333333333333,1499.5,1505,1470,1500
16.200000000000095,255,159,26,0.005555555555555556,1499.9,1505,1470,1500
16.250000000000096,256,164,30,0.013888888888888888,1500.4,1505,1470,1500
16.300000000000097,257,171,21,0.03125,1501.1,1505,1470,1500
16.350000000000097,258,171,26,0.01020408163265306,1501.1,1505,1470,1500
16.400000000000098,259,180,23,0.020833333333333332,1502.0,1505,1470,1500
16.4500000000001,260,184,25,0.017857142857142856,1502.4,1505,1470,1500
16.5000000000001,261,189,25,0.009523809523809525,1502.9,1505,1470,1500
16.5500000000001,262,196,30,0.017857142857142856,1503.6,1505,1470,1500
16.6000000000001,263,200,28,0.005555555555555556,1504.0,1505,1470,1500
16.6500000000001,264,204,30,0.011111111111111112,1504.4,1505,1470,1500
16.700000000000102,265,204,26,0.013888888888888888,1504.4,1505,1470,1500
16.750000000000103,266,210,25,0.0125,1505.0,1505,1470,1500
16.800000000000104,267,213,21,0.020833333333333332,1505.3,1505,1470,1500
16.850000000000104,268,209,18,0.022727272727272728,1504.9,1505,1470,1500
16.900000000000105,269,212,20,0.015625,1505.2,1505,1470,1500
16.950000000000106,270,213,26,0.030303030303030304,1505.3,1505,1470,1500
17.000000000000107,271,212,19,0.01098901098901099,1505.2,1505,1470,1500
17.050000000000107,272,211,23,0.004464285714285714,1505.1,1505,1470,1500
17.100000000000108,273,210,23,0.007407407407407408,1505.0,1505,1470,1500
17.15000000000011,274,209,26,0.016666666666666666,1504.9,1505,1470,1500
17.20000000000011,275,204,23,0.017857142857142856,1504.4,1505,1470,1500
17.25000000000011,276,204,23,0.025,1504.4,1505,1470,1500
17.30000000000011,277,202,23,0.022727272727272728,1504.2,1505,1470,1500
17.35000000000011,277,,,,1500.0,1500.0,1420.0,1500
17.400000000000112,278,203,26,0.025,1504.3,1505,1470,1500
17.450000000000113,279,204,28,0.047619047619047616,1504.4,1505,1470,1500
17.500000000000114,280,201,26,0.047619047619047616,1504.1,1505,1470,1500
17.550000000000114,280,,,,1500.0,1500.0,1420.0,1500
17.600000000000115,280,,,,1500.0,1500.0,1420.0,1500
17.650000000000116,280,,,,1500.0,1500.0,1420.0,1500
17.700000000000117,280,,,,1500.0,1500.0,1420.0,1500
17.750000000000117,280,,,,1500.0,1500.0,1420.0,1500
17.800000000000118,280,,,,1500.0,1500.0,1420.0,1500
17.85000000000012,280,,,,1500.0,1500.0,1420.0,1500
17.90000000000012,280,,,,1500.0,1500.0,1420.0,1500
17.95000000000012,280,,,,1500.0,1500.0,1420.0,1500
18.00000000000012,280,,,,1500.0,1500.0,1420.0,1500
18.05000000000012,280,,,,1500.0,1500.0,1420.0,1500
18.100000000000122,280,,,,1500.0,1500.0,1420.0,1500
18.150000000000123,280,,,,1500.0,1500.0,1420.0,1500
18.200000000000124,280,,,,1500.0,1500.0,1420.0,1500
18.250000000000124,280,,,,1500.0,1500.0,1420.0,1500
18.300000000000125,280,,,,1500.0,1500.0,1420.0,1500
18.350000000000126,280,,,,1500.0,1500.0,1420.0,1500
18.400000000000126,280,,,,1500.0,1500.0,1420.0,1500
18.450000000000127,280,,,,1500.0,1500.0,1420.0,1500
18.500000000000128,280,,,,1500.0,1500.0,1420.0,1500
18.55000000000013,280,,,,1500.0,1500.0,1420.0,1500
18.60000000000013,280,,,,1500.0,1500.0,1420.0,1500
18.65000000000013,280,,,,1500.0,1500.0,1420.0,1500
18.70000000000013,280,,,,1500.0,1500.0,1420.0,1500
18.75000000000013,280,,,,1500.0,1500.0,1420.0,1500
18.800000000000132,280,,,,1500.0,1500.0,1420.0,1500
18.850000000000133,280,,,,1500.0,1500.0,1420.0,1500
18.900000000000134,280,,,,1500.0,1500.0,1420.0,1500
18.950000000000134,280,,,,1500.0,1500.0,1420.0,1500
19.000000000000135,280,,,,1500.0,1500.0,1420.0,1500
