time,frame,x,y,size_inv,roll,pitch,thrust,yaw
0.00022983551025390625,1,,,,1500.0,1490.0,1400.0,1500
0.021963834762573242,2,,,,1500.0,1490.0,1400.0,1500
0.04326581954956055,3,63,123,0.041666666666666664,1490.3,1530,1385,1500
0.0644369125366211,4,,,,1500.0,1490.0,1400.0,1500
0.0854649543762207,5,,,,1500.0,1490.0,1400.0,1500
0.10666799545288086,6,,,,1500.0,1490.0,1400.0,1500
0.12781095504760742,7,,,,1500.0,1490.0,1400.0,1500
0.1490318775177002,8,62,116,0.041666666666666664,1490.2,1530,1385,1500
0.1701819896697998,9,,,,1500.0,1490.0,1400.0,1500
0.19147181510925293,10,66,120,0.041666666666666664,1490.5999999999999,1530,1385,1500
0.21276497840881348,11,,,,1500.0,1490.0,1400.0,1500
0.23415088653564453,12,,,,1500.0,1490.0,1400.0,1500
0.25557684898376465,13,23,162,0.02,1486.3,1530,1385,1500
0.2771139144897461,14,28,153,0.010416666666666666,1486.8,1530,1385,1500
0.2986769676208496,15,23,159,0.0018796992481203006,1486.3,1450,1385,1500
0.3202219009399414,16,24,151,0.001201923076923077,1486.4000000000001,1450,1385,1500
0.3418009281158447,17,28,149,0.0008012820512820513,1486.8,1450,1385,1500
0.36334896087646484,18,27,148,0.0006253908692933083,1486.7,1450,1385,1500
0.3848710060119629,19,28,142,0.00065359477124183,1486.8,1450,1385,1500
0.40641188621520996,20,27,149,0.0004761904761904762,1486.7,1450,1385,1500
0.42792701721191406,21,28,148,0.00036683785766691124,1486.8,1450,1385,1500
0.44947099685668945,22,32,145,0.00025680534155110427,1487.2,1450,1385,1500
0.4709467887878418,23,29,143,0.00024906600249066,1486.9000000000001,1450,1385,1500
0.49245381355285645,24,30,140,0.00021645021645021645,1487.0,1450,1385,1500
0.5139338970184326,25,28,140,0.0002077274615704196,1486.8,1450,1385,1500
0.5354559421539307,26,27,140,0.00021645021645021645,1486.7,1450,1385,1500
0.5569508075714111,27,24,143,0.00023255813953488373,1486.4000000000001,1450,1385,1500
0.5784900188446045,28,20,145,0.00026752273943285177,1486.0,1450,1385,1500
0.600031852722168,29,20,143,0.0002771618625277162,1486.0,1450,1385,1500
0.6217048168182373,30,19,144,0.00026595744680851064,1485.9000000000001,1450,1385,1500
0.6432278156280518,31,17,143,0.00032102728731942215,1485.7,1450,1385,1500
0.6647520065307617,32,18,144,0.0003071253071253071,1485.8,1450,1385,1500
0.6862349510192871,33,17,147,0.0003322259136212625,1485.7,1450,1385,1500
0.7081329822540283,34,16,148,0.00035236081747709656,1485.5999999999999,1450,1385,1500
0.7309169769287109,35,15,149,0.0003624501631025734,1485.5,1450,1385,1500
0.7536959648132324,36,15,147,0.00038402457757296467,1485.5,1450,1385,1500
0.7763547897338867,37,13,149,0.0004152823920265781,1485.3,1450,1385,1500
0.7990648746490479,38,10,151,0.0005473453749315818,1485.0,1450,1385,1500
0.821727991104126,39,10,151,0.0005175983436853002,1485.0,1450,1385,1500
0.8444108963012695,40,7,149,0.0006377551020408163,1484.7,1450,1385,1500
0.8670518398284912,41,7,147,0.0006349206349206349,1484.7,1450,1385,1500
0.8897409439086914,42,7,172,0.0012121212121212121,1484.7,1450,1385,1500
0.9124100208282471,43,6,173,0.0014285714285714286,1484.5999999999999,1450,1385,1500
0.935175895690918,44,5,180,0.002331002331002331,1484.5,1450,1385,1500
0.9578418731689453,45,4,190,0.005555555555555556,1484.4000000000001,1500.1111111111111,1385,1500
0.9806928634643555,46,3,191,0.008928571428571428,1484.3,1530,1385,1500
1.0034129619598389,47,3,194,0.014285714285714285,1484.3,1530,1385,1500
1.0261099338531494,48,2,195,0.023809523809523808,1484.2,1530,1385,1500
1.0487489700317383,49,1,195,0.037037037037037035,1484.0999999999999,1530,1385,1500
1.0714688301086426,50,1,195,0.037037037037037035,1484.0999999999999,1530,1385,1500
1.094132900238037,51,1,197,0.06666666666666667,1484.0999999999999,1530,1385,1500
1.1167099475860596,52,,,,1500.0,1490.0,1400.0,1500
1.1392970085144043,53,65,118,0.025,1490.5,1530,1385,1500
1.1618659496307373,54,,,,1500.0,1490.0,1400.0,1500
1.1844818592071533,55,64,117,0.02857142857142857,1490.4000000000001,1530,1385,1500
1.2072038650512695,56,65,119,0.037037037037037035,1490.5,1530,1385,1500
1.2298438549041748,57,63,120,0.027777777777777776,1490.3,1530,1385,1500
1.260725975036621,58,,,,1500.0,1490.0,1400.0,1500
1.2833919525146484,59,,,,1500.0,1490.0,1400.0,1500
1.3060429096221924,60,66,118,0.047619047619047616,1490.5999999999999,1530,1385,1500
1.328624963760376,61,,,,1500.0,1490.0,1400.0,1500
1.351166009902954,62,,,,1500.0,1490.0,1400.0,1500
1.3736019134521484,63,,,,1500.0,1490.0,1400.0,1500
1.3962228298187256,64,63,115,0.03571428571428571,1490.3,1530,1385,1500
1.418773889541626,65,,,,1500.0,1490.0,1400.0,1500
1.4414138793945312,66,63,117,0.03571428571428571,1490.3,1530,1385,1500
1.4641458988189697,67,65,121,0.020833333333333332,1490.5,1530,1385,1500
1.4867169857025146,68,,,,1500.0,1490.0,1400.0,1500
1.5093958377838135,69,62,123,0.05555555555555555,1490.2,1530,1385,1500
1.5321028232574463,70,62,120,0.05,1490.2,1530,1385,1500
1.554762840270996,71,66,121,0.016666666666666666,1490.5999999999999,1530,1385,1500
1.5773439407348633,72,,,,1500.0,1490.0,1400.0,1500
1.5999410152435303,73,66,124,0.025,1490.5999999999999,1530,1385,1500
1.6228020191192627,74,,,,1500.0,1490.0,1400.0,1500
1.645291805267334,75,,,,1500.0,1490.0,1400.0,1500
1.6679229736328125,76,64,121,0.027777777777777776,1490.4000000000001,1530,1385,1500
1.6906979084014893,77,63,118,0.047619047619047616,1490.3,1530,1385,1500
1.71356201171875,78,64,118,0.020833333333333332,1490.4000000000001,1530,1385,1500
1.7362189292907715,79,64,122,0.018518518518518517,1490.4000000000001,1530,1385,1500
1.758786916732788,80,,,,1500.0,1490.0,1400.0,1500
1.7812488079071045,81,,,,1500.0,1490.0,1400.0,1500
1.8037469387054443,82,,,,1500.0,1490.0,1400.0,1500
1.826244831085205,83,,,,1500.0,1490.0,1400.0,1500
1.8487248420715332,84,,,,1500.0,1490.0,1400.0,1500
1.87115478515625,85,,,,1500.0,1490.0,1400.0,1500
1.8936219215393066,86,,,,1500.0,1490.0,1400.0,1500
1.9160559177398682,87,,,,1500.0,1490.0,1400.0,1500
1.9387218952178955,88,64,119,0.025,1490.4000000000001,1530,1385,1500
1.9614028930664062,89,,,,1500.0,1490.0,1400.0,1500
1.9840738773345947,90,65,120,0.016666666666666666,1490.5,1530,1385,1500
2.006732940673828,91,66,122,0.027777777777777776,1490.5999999999999,1530,1385,1500
2.0294549465179443,92,62,121,0.047619047619047616,1490.2,1530,1385,1500
2.0519700050354004,93,,,,1500.0,1490.0,1400.0,1500
2.0744779109954834,94,,,,1500.0,1490.0,1400.0,1500
2.0970959663391113,95,64,117,0.020833333333333332,1490.4000000000001,1530,1385,1500
2.1198198795318604,96,63,116,0.025,1490.3,1530,1385,1500
2.1425669193267822,97,65,122,0.030303030303030304,1490.5,1530,1385,1500
2.1652259826660156,98,65,122,0.015151515151515152,1490.5,1530,1385,1500
2.1877918243408203,99,,,,1500.0,1490.0,1400.0,1500
2.210519790649414,100,68,125,0.047619047619047616,1490.8,1530,1385,1500
2.2333149909973145,101,63,122,0.03571428571428571,1490.3,1530,1385,1500
2.2560110092163086,102,63,118,0.047619047619047616,1490.3,1530,1385,1500
2.278527021408081,103,,,,1500.0,1490.0,1400.0,1500
2.301165819168091,104,66,122,0.022727272727272728,1490.5999999999999,1530,1385,1500
2.323720932006836,105,,,,1500.0,1490.0,1400.0,1500
2.3463408946990967,106,62,122,0.03333333333333333,1490.2,1530,1385,1500
2.3688478469848633,107,,,,1500.0,1490.0,1400.0,1500
2.3913469314575195,108,,,,1500.0,1490.0,1400.0,1500
2.4139368534088135,109,63,122,0.047619047619047616,1490.3,1530,1385,1500
2.4365389347076416,110,,,,1500.0,1490.0,1400.0,1500
2.459141969680786,111,1,194,0.025,1484.0999999999999,1530,1385,1500
2.481829881668091,112,2,195,0.020833333333333332,1484.2,1530,1385,1500
2.5044729709625244,113,5,190,0.005050505050505051,1484.5,1490.0101010101009,1385,1500
2.527268886566162,114,7,180,0.001736111111111111,1484.7,1450,1385,1500
2.5499467849731445,115,9,171,0.0008771929824561404,1484.9000000000001,1450,1385,1500
2.5728018283843994,116,11,177,0.000966183574879227,1485.0999999999999,1450,1385,1500
2.595479965209961,117,13,131,0.0002703433360367667,1485.3,1450,1385,1500
2.6182539463043213,118,15,103,0.00016714023065351831,1485.5,1450,1394.0,1500
2.6411218643188477,119,17,100,0.00013958682300390843,1485.7,1450,1400.0,1500
2.6639750003814697,120,22,99,0.00010869565217391305,1486.2,1450,1402.0,1500
2.6870369911193848,121,23,100,0.00010469011725293132,1486.3,1450,1400.0,1500
2.709892988204956,122,26,99,9.433962264150943e-05,1486.5999999999999,1450,1402.0,1500
2.732862949371338,123,27,99,8.928571428571429e-05,1486.7,1450,1402.0,1500
2.7556588649749756,124,29,99,8.474576271186441e-05,1486.9000000000001,1450,1402.0,1500
2.7784149646759033,125,31,99,7.8125e-05,1487.0999999999999,1450,1402.0,1500
2.801241874694824,126,33,99,7.352941176470588e-05,1487.3,1450,1402.0,1500
2.8239870071411133,127,35,123,9.137426900584795e-05,1487.5,1450,1385,1500
2.846653938293457,128,37,128,9.324009324009324e-05,1487.7,1450,1385,1500
2.8692808151245117,129,39,129,8.977466558937069e-05,1487.9000000000001,1450,1385,1500
2.8919758796691895,130,41,132,8.884150675195451e-05,1488.0999999999999,1450,1385,1500
2.91461181640625,131,43,132,8.480325644504748e-05,1488.3,1450,1385,1500
2.937295913696289,132,46,130,7.791803023219573e-05,1488.5999999999999,1450,1385,1500
2.95991587638855,133,48,131,7.580351728320194e-05,1488.8,1450,1385,1500
2.9827330112457275,134,50,130,7.174630506528914e-05,1489.0,1450,1385,1500
3.005358934402466,135,51,132,7.191657677094571e-05,1489.0999999999999,1450,1385,1500
3.0280349254608154,136,53,131,6.871907641561298e-05,1489.3,1450,1385,1500
3.0507359504699707,137,54,131,6.635700066357e-05,1489.4000000000001,1450,1385,1500
3.073498010635376,138,56,129,6.221226825930074e-05,1489.5999999999999,1450,1385,1500
3.096139907836914,139,59,126,5.917860101787194e-05,1489.9000000000001,1450,1385,1500
3.118844985961914,140,59,125,5.795421616922631e-05,1489.9000000000001,1450,1385,1500
3.1414759159088135,141,59,124,5.7077625570776254e-05,1489.9000000000001,1450,1385,1500
3.164174795150757,142,59,126,5.8275058275058275e-05,1489.9000000000001,1450,1385,1500
3.1868069171905518,143,59,125,5.868544600938967e-05,1489.9000000000001,1450,1385,1500
3.209481954574585,144,59,125,5.9101654846335695e-05,1489.9000000000001,1450,1385,1500
3.2321388721466064,145,59,123,5.8275058275058275e-05,1489.9000000000001,1450,1385,1500
3.254814863204956,146,58,123,5.926277112717791e-05,1489.8,1450,1385,1500
3.277448892593384,147,58,123,5.9769290538521305e-05,1489.8,1450,1385,1500
3.3001108169555664,148,57,124,6.0284543043163735e-05,1489.7,1450,1385,1500
3.32291579246521,149,57,124,5.945303210463734e-05,1489.7,1450,1385,1500
3.345580816268921,150,57,124,5.9154096421177164e-05,1489.7,1450,1385,1500
3.3682069778442383,151,56,123,5.847953216374269e-05,1489.5999999999999,1450,1385,1500
3.3909850120544434,152,57,123,5.7587100489490355e-05,1489.7,1450,1385,1500
3.4137518405914307,153,57,119,5.50357732526142e-05,1489.7,1450,1385,1500
3.4364240169525146,154,57,99,4.3103448275862066e-05,1489.7,1450,1402.0,1500
3.4591619968414307,155,58,99,4.294979169351029e-05,1489.8,1450,1402.0,1500
3.4819538593292236,156,58,97,4.3237634036665516e-05,1489.8,1450,1406.0,1500
3.504696846008301,157,58,96,4.368338284116722e-05,1489.8,1450,1408.0,1500
3.527519941329956,158,59,95,4.363001745200698e-05,1489.9000000000001,1450,1410.0,1500
3.5503649711608887,159,60,94,4.372731645458918e-05,1490.0,1450,1412.0,1500
3.573227882385254,160,59,92,4.4802867383512545e-05,1489.9000000000001,1450,1415,1500
3.595896005630493,161,60,91,4.5160998961297026e-05,1490.0,1450,1415,1500
3.6186180114746094,162,61,114,6.459948320413436e-05,1490.0999999999999,1450,1385,1500
3.641270875930786,163,61,114,6.948787436592315e-05,1490.0999999999999,1450,1385,1500
3.6639699935913086,164,61,111,7.121492664862555e-05,1490.0999999999999,1450,1385,1500
3.6866018772125244,165,60,109,7.24427702115329e-05,1490.0,1450,1385,1500
3.709296941757202,166,60,107,7.704160246533128e-05,1490.0,1450,1386.0,1500
3.7320709228515625,167,60,106,7.987858455148175e-05,1490.0,1450,1388.0,1500
3.754865884780884,168,58,99,8.609556607834697e-05,1489.8,1450,1402.0,1500
3.7776060104370117,169,56,96,9.043226623259179e-05,1489.5999999999999,1450,1408.0,1500
3.8004448413848877,170,55,92,9.398496240601504e-05,1489.5,1450,1415,1500
3.8231699466705322,171,54,88,9.881422924901186e-05,1489.4000000000001,1450,1415,1500
3.8461790084838867,172,53,83,0.00010064412238325282,1489.3,1450,1415,1500
3.8688600063323975,173,52,79,0.00010482180293501048,1489.2,1450,1415,1500
3.8915438652038574,174,52,77,0.00011204481792717087,1489.2,1450,1415,1500
3.9142208099365234,175,50,75,0.00012103606874848704,1489.0,1450,1415,1500
3.9370079040527344,176,49,68,0.0001365001365001365,1488.9000000000001,1450,1415,1500
3.9597249031066895,177,25,64,0.00033738191632928474,1486.5,1450,1415,1500
3.982347011566162,178,17,61,0.0005714285714285715,1485.7,1450,1415,1500
4.005029916763306,179,14,48,0.0058823529411764705,1485.4000000000001,1506.6470588235295,1415,1500
4.027763843536377,180,7,54,0.013333333333333334,1484.7,1530,1415,1500
4.050484895706177,181,5,55,0.013888888888888888,1484.5,1530,1415,1500
4.073184013366699,182,3,65,0.0078125,1484.3,1530,1415,1500
4.095817804336548,183,6,52,0.007936507936507936,1484.5999999999999,1530,1415,1500
4.118438005447388,184,3,57,0.015625,1484.3,1530,1415,1500
4.141120910644531,185,3,62,0.008928571428571428,1484.3,1530,1415,1500
4.163728952407837,186,3,62,0.012987012987012988,1484.3,1530,1415,1500
4.186392784118652,187,1,65,0.037037037037037035,1484.0999999999999,1530,1415,1500
4.2090089321136475,188,4,42,0.014285714285714285,1484.4000000000001,1530,1415,1500
4.231698989868164,189,1,66,0.047619047619047616,1484.0999999999999,1530,1415,1500
4.2543418407440186,190,4,44,0.02,1484.4000000000001,1530,1415,1500
4.277009010314941,191,1,70,0.03571428571428571,1484.0999999999999,1530,1415,1500
4.299659967422485,192,5,51,0.01818181818181818,1484.5,1530,1415,1500
4.322343826293945,193,5,53,0.013888888888888888,1484.5,1530,1415,1500
4.344970941543579,194,4,59,0.013888888888888888,1484.4000000000001,1530,1415,1500
4.367660999298096,195,2,83,0.018518518518518517,1484.2,1530,1415,1500
4.390424966812134,196,15,83,0.0008960573476702509,1485.5,1450,1415,1500
4.413277864456177,197,22,89,0.0004725897920604915,1486.2,1450,1415,1500
4.435961008071899,198,38,94,0.0002564102564102564,1487.8,1450,1412.0,1500
4.4587719440460205,199,38,98,0.00023741690408357076,1487.8,1450,1404.0,1500
4.4815449714660645,200,37,103,0.00023084025854108956,1487.7,1450,1394.0,1500
4.50433087348938,201,35,110,0.00021367521367521368,1487.5,1450,1385,1500
4.526996850967407,202,35,116,0.00020120724346076458,1487.5,1450,1385,1500
4.549712896347046,203,35,121,0.00020120724346076458,1487.5,1450,1385,1500
4.572359800338745,204,32,126,0.0002079002079002079,1487.2,1450,1385,1500
4.595062017440796,205,34,136,0.0001680672268907563,1487.4000000000001,1450,1385,1500
4.6177709102630615,206,28,144,0.00020283975659229209,1486.8,1450,1385,1500
4.640527963638306,207,27,148,0.00020429009193054137,1486.7,1450,1385,1500
4.663261890411377,208,27,149,0.00020429009193054137,1486.7,1450,1385,1500
4.685971021652222,209,25,153,0.0002228163992869875,1486.5,1450,1385,1500
4.708626985549927,210,24,156,0.00022988505747126436,1486.4000000000001,1450,1385,1500
4.731429815292358,211,24,156,0.00023730422401518748,1486.4000000000001,1450,1385,1500
4.754108905792236,212,23,157,0.00024509803921568627,1486.3,1450,1385,1500
4.776808977127075,213,23,158,0.0002563445270443476,1486.3,1450,1385,1500
4.799462795257568,214,23,160,0.00026932399676811203,1486.3,1450,1385,1500
4.822196006774902,215,22,162,0.0002937720329024677,1486.2,1450,1385,1500
4.8448498249053955,216,23,163,0.0002914602156805596,1486.3,1450,1385,1500
4.867583990097046,217,22,164,0.0003061849357011635,1486.2,1450,1385,1500
4.8902268409729,218,22,165,0.000315059861373661,1486.2,1450,1385,1500
4.913127899169922,219,23,165,0.00031289111389236547,1486.3,1450,1385,1500
4.935783863067627,220,22,167,0.00033444816053511704,1486.2,1450,1385,1500
4.958477020263672,221,22,168,0.0003450655624568668,1486.2,1450,1385,1500
4.981122016906738,222,21,169,0.0003875968992248062,1486.0999999999999,1450,1385,1500
5.00383186340332,223,29,76,0.00029761904761904765,1486.9000000000001,1450,1415,1500
5.026497840881348,224,29,81,0.0002824858757062147,1486.9000000000001,1450,1415,1500
5.049537897109985,225,29,87,0.0002564102564102564,1486.9000000000001,1450,1415,1500
5.07225489616394,226,29,93,0.00023218017181332715,1486.9000000000001,1450,1414.0,1500
5.095080852508545,227,28,95,0.0002403268445085316,1486.8,1450,1410.0,1500
5.117832899093628,228,28,130,0.00012403870007442322,1486.8,1450,1385,1500
5.140591859817505,229,28,130,0.0001249375312343828,1486.8,1450,1385,1500
5.1633148193359375,230,29,131,0.0001246261216350947,1486.9000000000001,1450,1385,1500
5.1860058307647705,231,28,132,0.00012866700977869275,1486.8,1450,1385,1500
5.208676815032959,232,28,133,0.00012963443090484831,1486.8,1450,1385,1500
5.23140287399292,233,28,133,0.00013061650992685477,1486.8,1450,1385,1500
5.254057884216309,234,28,135,0.00013706140350877192,1486.8,1450,1385,1500
5.276753902435303,235,28,135,0.00013706140350877192,1486.8,1450,1385,1500
5.299404859542847,236,28,136,0.0001381406271584473,1486.8,1450,1385,1500
5.322105884552002,237,27,137,0.00014285714285714287,1486.7,1450,1385,1500
5.344744920730591,238,28,137,0.0001414827391058291,1486.8,1450,1385,1500
5.367430925369263,239,28,137,0.0001414827391058291,1486.8,1450,1385,1500
5.3900909423828125,240,28,137,0.0001414827391058291,1486.8,1450,1385,1500
5.413057804107666,241,28,137,0.0001414827391058291,1486.8,1450,1385,1500
5.435801982879639,242,27,138,0.00014518002322880372,1486.7,1450,1385,1500
5.4585089683532715,243,27,138,0.00014637002341920375,1486.7,1450,1385,1500
5.4811859130859375,244,26,138,0.00015179113539769278,1486.5999999999999,1450,1385,1500
5.503915786743164,245,26,139,0.0001559332605644784,1486.5999999999999,1450,1385,1500
5.526596784591675,246,26,139,0.00015304560759106213,1486.5999999999999,1450,1385,1500
5.549309015274048,247,26,139,0.00015432098765432098,1486.5999999999999,1450,1385,1500
5.571959018707275,248,26,140,0.0001556178026766262,1486.5999999999999,1450,1385,1500
5.5946807861328125,249,25,140,0.00016297262059973924,1486.5,1450,1385,1500
5.617491006851196,250,25,143,0.00017170329670329672,1486.5,1450,1385,1500
5.640264987945557,251,25,143,0.00017018379850238256,1486.5,1450,1385,1500
5.663028001785278,252,25,144,0.00017325017325017325,1486.5,1450,1385,1500
5.685701847076416,253,25,146,0.0001832508704416346,1486.5,1450,1385,1500
5.708343982696533,254,24,146,0.00018867924528301886,1486.4000000000001,1450,1385,1500
5.731074810028076,255,24,146,0.00018867924528301886,1486.4000000000001,1450,1385,1500
5.753696918487549,256,23,148,0.0002042483660130719,1486.3,1450,1385,1500
5.776381969451904,257,24,148,0.000196078431372549,1486.4000000000001,1450,1385,1500
5.799034833908081,258,23,149,0.00020833333333333335,1486.3,1450,1385,1500
5.821743011474609,259,23,149,0.00020833333333333335,1486.3,1450,1385,1500
5.8443968296051025,260,23,150,0.00021710811984368216,1486.3,1450,1385,1500
5.867102861404419,261,23,151,0.00021934634788330776,1486.3,1450,1385,1500
5.889788866043091,262,23,150,0.00022163120567375886,1486.3,1450,1385,1500
5.91290283203125,263,22,155,0.00024968789013732833,1486.2,1450,1385,1500
5.9356749057769775,264,22,153,0.00023894862604540023,1486.2,1450,1385,1500
5.958341836929321,265,21,156,0.00027041644131963225,1486.0999999999999,1450,1385,1500
5.981069803237915,266,21,155,0.0002642706131078224,1486.0999999999999,1450,1385,1500
6.003722906112671,267,20,157,0.00029036004645760743,1486.0,1450,1385,1500
6.026427984237671,268,20,157,0.00029036004645760743,1486.0,1450,1385,1500
6.0490639209747314,269,20,158,0.000297441998810232,1486.0,1450,1385,1500
6.0717480182647705,270,19,159,0.00030864197530864197,1485.9000000000001,1450,1385,1500
6.094414949417114,271,19,160,0.0003205128205128205,1485.9000000000001,1450,1385,1500
6.117132902145386,272,20,161,0.0003132832080200501,1486.0,1450,1385,1500
6.139763832092285,273,21,163,0.00032299741602067185,1486.0999999999999,1450,1385,1500
6.16258978843689,274,22,162,0.0002962962962962963,1486.2,1450,1385,1500
6.18523383140564,275,23,161,0.0002799552071668533,1486.3,1450,1385,1500
6.20792293548584,276,24,162,0.0002834467120181406,1486.4000000000001,1450,1385,1500
6.230952978134155,277,25,164,0.00027616680475006904,1486.5,1450,1385,1500
6.253739833831787,278,25,162,0.0002598752598752599,1486.5,1450,1385,1500
6.276407957077026,279,27,161,0.00024242424242424242,1486.7,1450,1385,1500
6.299116849899292,280,27,162,0.00024131274131274132,1486.7,1450,1385,1500
6.321769952774048,281,28,161,0.00023084025854108956,1486.8,1450,1385,1500
6.344496965408325,282,29,159,0.00020576131687242798,1486.9000000000001,1450,1385,1500
6.367157936096191,283,30,158,0.00019992003198720512,1487.0,1450,1385,1500
6.389885902404785,284,30,158,0.00019751135690302193,1487.0,1450,1385,1500
6.412766933441162,285,30,157,0.00018975332068311195,1487.0,1450,1385,1500
6.435489892959595,286,31,158,0.00019124115509657678,1487.0999999999999,1450,1385,1500
6.458155870437622,287,32,157,0.00018099547511312217,1487.2,1450,1385,1500
6.480907917022705,288,33,161,0.00019098548510313216,1487.3,1450,1385,1500
6.503638982772827,289,32,156,0.00017889087656529517,1487.2,1450,1385,1500
6.526372909545898,290,32,157,0.00017825311942959,1487.2,1450,1385,1500
6.549037933349609,291,33,158,0.0001798237727027513,1487.3,1450,1385,1500
6.571735858917236,292,32,159,0.00018705574261129816,1487.2,1450,1385,1500
6.594403982162476,293,33,156,0.00017355085039916696,1487.3,1450,1385,1500
6.6171958446502686,294,33,156,0.00017155601303825698,1487.3,1450,1385,1500
6.640072822570801,295,33,157,0.0001755926251097454,1487.3,1450,1385,1500
6.6629228591918945,296,33,156,0.00016903313049357674,1487.3,1450,1385,1500
6.685631990432739,297,33,157,0.0001755926251097454,1487.3,1450,1385,1500
6.708346843719482,298,33,158,0.0001793400286944046,1487.3,1450,1385,1500
6.731112003326416,299,33,156,0.0001709986320109439,1487.3,1450,1385,1500
6.753835916519165,300,33,156,0.00016903313049357674,1487.3,1450,1385,1500
6.7765138149261475,301,33,155,0.00016960651289009497,1487.3,1450,1385,1500
6.799222946166992,302,32,154,0.0001665001665001665,1487.2,1450,1385,1500
6.8218748569488525,303,32,152,0.00016118633139909736,1487.2,1450,1385,1500
6.844575881958008,304,32,151,0.00015620118712902218,1487.2,1450,1385,1500
6.867233991622925,305,34,148,0.00014208581983518045,1487.4000000000001,1450,1385,1500
6.889915943145752,306,35,147,0.0001341381623071764,1487.5,1450,1385,1500
6.912794828414917,307,34,143,0.00012642225031605562,1487.4000000000001,1450,1385,1500
6.935520887374878,308,31,140,0.00013338668800853674,1487.0999999999999,1450,1385,1500
6.958187818527222,309,32,137,0.00012307692307692307,1487.2,1450,1385,1500
6.980942010879517,310,27,128,0.00012487512487512488,1486.7,1450,1385,1500
7.003651857376099,311,27,124,0.00012040939193257074,1486.7,1450,1385,1500
7.02635383605957,312,26,119,0.00011502185415228893,1486.5999999999999,1450,1385,1500
7.049003839492798,313,26,152,0.0001949317738791423,1486.5999999999999,1450,1385,1500
7.071691989898682,314,26,151,0.00019451468585878233,1486.5999999999999,1450,1385,1500
7.094344854354858,315,26,148,0.0001849796522382538,1486.5999999999999,1450,1385,1500
7.117036819458008,316,25,145,0.00017642907551164433,1486.5,1450,1385,1500
7.139704942703247,317,24,137,0.00018867924528301886,1486.4000000000001,1450,1385,1500
7.162684917449951,318,24,131,0.00018691588785046728,1486.4000000000001,1450,1385,1500
7.185498952865601,319,23,124,0.00019654088050314466,1486.3,1450,1385,1500
7.208247900009155,320,23,112,0.00020859407592824363,1486.3,1450,1385,1500
7.231024980545044,321,22,106,0.00022675736961451248,1486.2,1450,1388.0,1500
7.253963947296143,322,21,98,0.0002553626149131767,1486.0999999999999,1450,1404.0,1500
7.276808977127075,323,21,92,0.0002840909090909091,1486.0999999999999,1450,1415,1500
7.299554824829102,324,21,85,0.0003322259136212625,1486.0999999999999,1450,1415,1500
7.322276830673218,325,21,82,0.0003471017007983339,1486.0999999999999,1450,1415,1500
7.34499979019165,326,21,76,0.00037509377344336085,1486.0999999999999,1450,1415,1500
7.367685794830322,327,21,69,0.0004306632213608958,1486.0999999999999,1450,1415,1500
7.390504837036133,328,21,67,0.0004306632213608958,1486.0999999999999,1450,1415,1500
7.413647890090942,329,15,58,0.0007501875468867217,1485.5,1450,1415,1500
7.436407804489136,330,9,54,0.001349527665317139,1484.9000000000001,1450,1415,1500
7.45914101600647,331,6,52,0.001984126984126984,1484.5999999999999,1450,1415,1500
7.481890916824341,332,5,52,0.002457002457002457,1484.5,1450,1415,1500
7.504580974578857,333,5,50,0.002840909090909091,1484.5,1450,1415,1500
7.527355909347534,334,4,46,0.003703703703703704,1484.4000000000001,1463.0740740740741,1415,1500
7.550203800201416,335,2,46,0.005747126436781609,1484.2,1503.9425287356321,1415,1500
7.573190927505493,336,1,38,0.013888888888888888,1484.0999999999999,1530,1415,1500
7.595878839492798,337,1,38,0.02564102564102564,1484.0999999999999,1530,1415,1500
7.6186277866363525,338,67,120,0.015151515151515152,1490.7,1530,1385,1500
7.6412739753723145,339,1,30,0.027777777777777776,1484.0999999999999,1530,1415,1500
7.663955926895142,340,1,34,0.06666666666666667,1484.0999999999999,1530,1415,1500
7.686586856842041,341,1,40,0.05555555555555555,1484.0999999999999,1530,1415,1500
7.709251880645752,342,68,119,0.022222222222222223,1490.8,1530,1385,1500
7.731897830963135,343,65,117,0.047619047619047616,1490.5,1530,1385,1500
7.7545998096466064,344,68,119,0.047619047619047616,1490.8,1530,1385,1500
7.777246952056885,345,66,122,0.015151515151515152,1490.5999999999999,1530,1385,1500
7.799924850463867,346,61,122,0.05555555555555555,1490.0999999999999,1530,1385,1500
7.822682857513428,347,64,119,0.01818181818181818,1490.4000000000001,1530,1385,1500
7.845268964767456,348,,,,1500.0,1490.0,1400.0,1500
7.868005990982056,349,65,117,0.03333333333333333,1490.5,1530,1385,1500
7.890739917755127,350,,,,1500.0,1490.0,1400.0,1500
7.913355827331543,351,,,,1500.0,1490.0,1400.0,1500
7.935783863067627,352,,,,1500.0,1490.0,1400.0,1500
7.958378791809082,353,65,116,0.025,1490.5,1530,1385,1500
7.9810309410095215,354,62,122,0.047619047619047616,1490.2,1530,1385,1500
8.003756999969482,355,66,117,0.023809523809523808,1490.5999999999999,1530,1385,1500
8.026388883590698,356,64,116,0.041666666666666664,1490.4000000000001,1530,1385,1500
8.049052000045776,357,65,119,0.047619047619047616,1490.5,1530,1385,1500
8.071534872055054,358,,,,1500.0,1490.0,1400.0,1500
8.094003915786743,359,,,,1500.0,1490.0,1400.0,1500
8.116569995880127,360,64,121,0.047619047619047616,1490.4000000000001,1530,1385,1500
8.139232873916626,361,66,116,0.025,1490.5999999999999,1530,1385,1500
8.161886930465698,362,1,60,0.023809523809523808,1484.0999999999999,1530,1415,1500
8.184621810913086,363,1,56,0.05555555555555555,1484.0999999999999,1530,1415,1500
8.20728588104248,364,1,65,0.047619047619047616,1484.0999999999999,1530,1415,1500
8.230003833770752,365,1,61,0.017543859649122806,1484.0999999999999,1530,1415,1500
8.252837896347046,366,2,64,0.006172839506172839,1484.2,1512.4567901234568,1415,1500
8.2757089138031,367,4,71,0.0032258064516129032,1484.4000000000001,1453.516129032258,1415,1500
8.298499822616577,368,6,71,0.002304147465437788,1484.5999999999999,1450,1415,1500
8.321233987808228,369,10,75,0.0012626262626262627,1485.0,1450,1415,1500
8.34387993812561,370,17,81,0.0008403361344537816,1485.7,1450,1415,1500
8.36658000946045,371,17,78,0.0006038647342995169,1485.7,1450,1415,1500
8.38923192024231,372,17,78,0.0006038647342995169,1485.7,1450,1415,1500
8.411929845809937,373,17,73,0.0007518796992481203,1485.7,1450,1415,1500
8.434611797332764,374,13,68,0.0012345679012345679,1485.3,1450,1415,1500
8.457412004470825,375,8,67,0.001388888888888889,1484.8,1450,1415,1500
8.48014497756958,376,11,61,0.0009881422924901185,1485.0999999999999,1450,1415,1500
8.503016948699951,377,12,53,0.0010121457489878543,1485.2,1450,1415,1500
8.525704860687256,378,8,52,0.0012626262626262627,1484.8,1450,1415,1500
8.548499822616577,379,8,47,0.0013550135501355014,1484.8,1450,1415,1500
8.57120394706726,380,6,43,0.0017857142857142857,1484.5999999999999,1450,1415,1500
8.593955993652344,381,6,40,0.001984126984126984,1484.5999999999999,1450,1415,1500
8.616798877716064,382,2,34,0.00641025641025641,1484.2,1517.2051282051282,1415,1500
8.639663934707642,383,1,32,0.015151515151515152,1484.0999999999999,1530,1415,1500
8.662786960601807,384,2,31,0.007936507936507936,1484.2,1530,1415,1500
8.685495853424072,385,1,30,0.020833333333333332,1484.0999999999999,1530,1415,1500
8.708163976669312,386,1,34,0.013333333333333334,1484.0999999999999,1530,1415,1500
8.73099398612976,387,2,35,0.00641025641025641,1484.2,1517.2051282051282,1415,1500
8.753821849822998,388,1,39,0.02564102564102564,1484.0999999999999,1530,1415,1500
8.776518821716309,389,1,34,0.015151515151515152,1484.0999999999999,1530,1415,1500
8.79916501045227,390,66,115,0.016666666666666666,1490.5999999999999,1530,1385,1500
8.821863889694214,391,1,36,0.05,1484.0999999999999,1530,1415,1500
8.84449291229248,392,67,120,0.025,1490.7,1530,1385,1500
8.867163896560669,393,1,38,0.06666666666666667,1484.0999999999999,1530,1415,1500
8.889805793762207,394,67,118,0.01818181818181818,1490.7,1530,1385,1500
8.91270399093628,395,64,121,0.02857142857142857,1490.4000000000001,1530,1385,1500
8.935372829437256,396,64,125,0.037037037037037035,1490.4000000000001,1530,1385,1500
8.957952976226807,397,,,,1500.0,1490.0,1400.0,1500
8.980517864227295,398,,,,1500.0,1490.0,1400.0,1500
9.003227949142456,399,67,119,0.05555555555555555,1490.7,1530,1385,1500
9.025768995285034,400,,,,1500.0,1490.0,1400.0,1500
9.048391819000244,401,66,117,0.025,1490.5999999999999,1530,1385,1500
9.070961952209473,402,,,,1500.0,1490.0,1400.0,1500
9.09365200996399,403,66,116,0.025,1490.5999999999999,1530,1385,1500
9.116313934326172,404,66,118,0.020833333333333332,1490.5999999999999,1530,1385,1500
9.138904809951782,405,,,,1500.0,1490.0,1400.0,1500
9.161557912826538,406,67,119,0.037037037037037035,1490.7,1530,1385,1500
9.184319019317627,407,63,119,0.025,1490.3,1530,1385,1500
9.206856966018677,408,,,,1500.0,1490.0,1400.0,1500
9.229542016983032,409,64,117,0.03125,1490.4000000000001,1530,1385,1500
9.252084016799927,410,,,,1500.0,1490.0,1400.0,1500
9.27458381652832,411,,,,1500.0,1490.0,1400.0,1500
9.297176837921143,412,66,125,0.03571428571428571,1490.5999999999999,1530,1385,1500
9.319777011871338,413,,,,1500.0,1490.0,1400.0,1500
9.342373847961426,414,,,,1500.0,1490.0,1400.0,1500
9.36489987373352,415,,,,1500.0,1490.0,1400.0,1500
9.387336015701294,416,,,,1500.0,1490.0,1400.0,1500
9.409819841384888,417,,,,1500.0,1490.0,1400.0,1500
9.432376861572266,418,,,,1500.0,1490.0,1400.0,1500
9.455015897750854,419,65,118,0.017857142857142856,1490.5,1530,1385,1500
9.477728843688965,420,65,120,0.015873015873015872,1490.5,1530,1385,1500
9.500350952148438,421,,,,1500.0,1490.0,1400.0,1500
9.522880792617798,422,,,,1500.0,1490.0,1400.0,1500
9.545507907867432,423,66,118,0.030303030303030304,1490.5999999999999,1530,1385,1500
9.568206787109375,424,65,117,0.041666666666666664,1490.5,1530,1385,1500
9.591023921966553,425,66,115,0.03125,1490.5999999999999,1530,1385,1500
9.613831996917725,426,65,116,0.03125,1490.5,1530,1385,1500
9.636396884918213,427,,,,1500.0,1490.0,1400.0,1500
9.658981800079346,428,63,122,0.047619047619047616,1490.3,1530,1385,1500
9.681701898574829,429,66,116,0.037037037037037035,1490.5999999999999,1530,1385,1500
9.704385995864868,430,66,119,0.047619047619047616,1490.5999999999999,1530,1385,1500
9.727083921432495,431,,,,1500.0,1490.0,1400.0,1500
9.749760866165161,432,66,121,0.015384615384615385,1490.5999999999999,1530,1385,1500
9.772614002227783,433,66,116,0.03333333333333333,1490.5999999999999,1530,1385,1500
9.795156002044678,434,,,,1500.0,1490.0,1400.0,1500
9.8176908493042,435,,,,1500.0,1490.0,1400.0,1500
9.840397834777832,436,66,117,0.027777777777777776,1490.5999999999999,1530,1385,1500
9.863196849822998,437,,,,1500.0,1490.0,1400.0,1500
9.885779857635498,438,,,,1500.0,1490.0,1400.0,1500
9.908239841461182,439,,,,1500.0,1490.0,1400.0,1500
9.930826902389526,440,,,,1500.0,1490.0,1400.0,1500
9.953499794006348,441,66,119,0.030303030303030304,1490.5999999999999,1530,1385,1500
9.976159811019897,442,,,,1500.0,1490.0,1400.0,1500
9.998674869537354,443,,,,1500.0,1490.0,1400.0,1500
10.021313905715942,444,65,118,0.03571428571428571,1490.5,1530,1385,1500
10.044195890426636,445,,,,1500.0,1490.0,1400.0,1500
10.06672191619873,446,,,,1500.0,1490.0,1400.0,1500
10.089295864105225,447,63,120,0.03571428571428571,1490.3,1530,1385,1500
10.112020015716553,448,67,118,0.037037037037037035,1490.7,1530,1385,1500
10.134711980819702,449,66,119,0.022727272727272728,1490.5999999999999,1530,1385,1500
10.157405853271484,450,67,119,0.022727272727272728,1490.7,1530,1385,1500
10.180035829544067,451,1,36,0.05555555555555555,1484.0999999999999,1530,1415,1500
10.202913999557495,452,1,35,0.018518518518518517,1484.0999999999999,1530,1415,1500
10.225615978240967,453,2,38,0.01282051282051282,1484.2,1530,1415,1500
10.248358011245728,454,2,44,0.0045045045045045045,1484.2,1479.0900900900901,1415,1500
10.271214962005615,455,12,49,0.0008012820512820513,1485.2,1450,1415,1500
10.293989896774292,456,15,51,0.0006325110689437065,1485.5,1450,1415,1500
10.316742897033691,457,18,52,0.0005060728744939271,1485.8,1450,1415,1500
10.339457988739014,458,25,55,0.0003380662609871535,1486.5,1450,1415,1500
10.362133979797363,459,34,60,0.0002229654403567447,1487.4000000000001,1450,1415,1500
10.384862899780273,460,36,61,0.000201450443190975,1487.5999999999999,1450,1415,1500
10.407546997070312,461,37,63,0.00018796992481203009,1487.7,1450,1415,1500
10.43035101890564,462,39,64,0.00016233766233766234,1487.9000000000001,1450,1415,1500
10.453133821487427,463,41,68,0.00013528138528138528,1488.0999999999999,1450,1415,1500
10.475880861282349,464,45,70,0.00010064412238325282,1488.5,1450,1415,1500
10.498557806015015,465,48,71,9.372071227741331e-05,1488.8,1450,1415,1500
10.521302938461304,466,49,72,9.009009009009009e-05,1488.9000000000001,1450,1415,1500
10.543989896774292,467,52,72,8.281573498964803e-05,1489.2,1450,1415,1500
10.566768884658813,468,53,71,7.846829880728186e-05,1489.3,1450,1415,1500
10.589462995529175,469,55,71,7.440476190476191e-05,1489.5,1450,1415,1500
10.612201929092407,470,57,71,7.066139061616732e-05,1489.7,1450,1415,1500
10.634919881820679,471,58,72,6.889899407468652e-05,1489.8,1450,1415,1500
10.657662868499756,472,59,72,6.666666666666667e-05,1489.9000000000001,1450,1415,1500
10.680396795272827,473,61,73,6.451612903225807e-05,1490.0999999999999,1450,1415,1500
10.703245878219604,474,63,73,6.299212598425197e-05,1490.3,1450,1415,1500
10.726004838943481,475,64,72,6.103888176768602e-05,1490.4000000000001,1450,1415,1500
10.748775959014893,476,64,72,6.103888176768602e-05,1490.4000000000001,1450,1415,1500
10.77145791053772,477,65,71,6.0584030049678906e-05,1490.5,1450,1415,1500
10.794228792190552,478,65,71,6.106870229007633e-05,1490.5,1450,1415,1500
10.817009925842285,479,65,71,6.159152500615915e-05,1490.5,1450,1415,1500
10.839770793914795,480,66,70,6.16294835449279e-05,1490.5999999999999,1450,1415,1500
10.862607955932617,481,66,69,6.16294835449279e-05,1490.5999999999999,1450,1415,1500
10.885343790054321,482,66,69,6.213881811967936e-05,1490.5999999999999,1450,1415,1500
10.908056020736694,483,66,67,6.324310650139134e-05,1490.5999999999999,1450,1415,1500
10.930914878845215,484,66,66,6.378364587319811e-05,1490.5999999999999,1450,1415,1500
10.953691005706787,485,66,64,6.271165182490907e-05,1490.5999999999999,1450,1415,1500
10.976518869400024,486,66,64,6.489292667099286e-05,1490.5999999999999,1450,1415,1500
10.999307870864868,487,67,62,6.385696040868455e-05,1490.7,1450,1415,1500
11.022114992141724,488,66,62,6.663113006396588e-05,1490.5999999999999,1450,1415,1500
11.044816970825195,489,66,62,6.663113006396588e-05,1490.5999999999999,1450,1415,1500
11.068529844284058,490,66,62,6.72314105149926e-05,1490.5999999999999,1450,1415,1500
11.09211778640747,491,66,60,6.7842605156038e-05,1490.5999999999999,1450,1415,1500
11.116192817687988,492,66,59,6.909894969596462e-05,1490.5999999999999,1450,1415,1500
11.139697790145874,493,66,57,7.175660160734788e-05,1490.5999999999999,1450,1415,1500
11.163142919540405,494,66,60,6.846501437765302e-05,1490.5999999999999,1450,1415,1500
11.186532974243164,495,66,60,6.846501437765302e-05,1490.5999999999999,1450,1415,1500
11.209810972213745,496,66,60,6.909894969596462e-05,1490.5999999999999,1450,1415,1500
11.233531951904297,497,66,60,6.846501437765302e-05,1490.5999999999999,1450,1415,1500
11.256839990615845,498,66,60,6.961849067112225e-05,1490.5999999999999,1450,1415,1500
11.280243873596191,499,66,61,6.961849067112225e-05,1490.5999999999999,1450,1415,1500
11.303642988204956,500,66,61,7.093204709887927e-05,1490.5999999999999,1450,1415,1500
11.326974868774414,501,65,62,7.134194192765928e-05,1490.5,1450,1415,1500
11.350204944610596,502,65,65,7.003291547027102e-05,1490.5,1450,1415,1500
11.373664855957031,503,65,65,6.815703380588877e-05,1490.5,1450,1415,1500
11.396978855133057,504,64,67,6.740815638692282e-05,1490.4000000000001,1450,1415,1500
11.420405864715576,505,64,72,6.305170239596469e-05,1490.4000000000001,1450,1415,1500
11.443789958953857,506,64,75,6.251562890722681e-05,1490.4000000000001,1450,1415,1500
11.467140913009644,507,63,81,6.25e-05,1490.3,1450,1415,1500
11.490520000457764,508,63,85,6.103515625e-05,1490.3,1450,1415,1500
11.514009952545166,509,63,90,5.920312592504884e-05,1490.3,1450,1415,1500
11.537317991256714,510,63,96,5.705808513066301e-05,1490.3,1450,1408.0,1500
11.56085991859436,511,61,104,5.84385226741468e-05,1490.0999999999999,1450,1392.0,1500
11.58431100845337,512,61,111,5.8072009291521487e-05,1490.0999999999999,1450,1385,1500
11.607656955718994,513,59,119,5.592841163310962e-05,1489.9000000000001,1450,1385,1500
11.631049871444702,514,59,123,5.4923930356456306e-05,1489.9000000000001,1450,1385,1500
11.654496908187866,515,59,124,5.6022408963585436e-05,1489.9000000000001,1450,1385,1500
11.678010940551758,516,59,124,5.6022408963585436e-05,1489.9000000000001,1450,1385,1500
11.701470851898193,517,58,126,5.854115443156539e-05,1489.8,1450,1385,1500
11.724845886230469,518,58,122,5.467468562055768e-05,1489.8,1450,1385,1500
11.748302936553955,519,61,99,4.032258064516129e-05,1490.0999999999999,1450,1402.0,1500
11.771790981292725,520,62,99,4e-05,1490.2,1450,1402.0,1500
11.795212984085083,521,62,99,4e-05,1490.2,1450,1402.0,1500
11.81863784790039,522,62,99,4e-05,1490.2,1450,1402.0,1500
11.842126846313477,523,62,99,4e-05,1490.2,1450,1402.0,1500
11.865631818771362,524,61,99,4.065040650406504e-05,1490.0999999999999,1450,1402.0,1500
11.88904595375061,525,61,99,4.065040650406504e-05,1490.0999999999999,1450,1402.0,1500
11.912495851516724,526,59,99,4.1666666666666665e-05,1489.9000000000001,1450,1402.0,1500
11.93592381477356,527,58,99,4.2372881355932206e-05,1489.8,1450,1402.0,1500
11.959438800811768,528,58,99,4.2372881355932206e-05,1489.8,1450,1402.0,1500
11.983016014099121,529,58,99,4.2372881355932206e-05,1489.8,1450,1402.0,1500
12.006523847579956,530,58,99,4.2372881355932206e-05,1489.8,1450,1402.0,1500
12.02993392944336,531,59,99,4.201680672268908e-05,1489.9000000000001,1450,1402.0,1500
12.053528785705566,532,59,99,4.201680672268908e-05,1489.9000000000001,1450,1402.0,1500
12.07697081565857,533,59,99,4.201680672268908e-05,1489.9000000000001,1450,1402.0,1500
12.10050082206726,534,59,99,4.1666666666666665e-05,1489.9000000000001,1450,1402.0,1500
12.124008893966675,535,59,99,4.1666666666666665e-05,1489.9000000000001,1450,1402.0,1500
12.147487878799438,536,59,99,4.201680672268908e-05,1489.9000000000001,1450,1402.0,1500
12.171032905578613,537,59,99,4.1666666666666665e-05,1489.9000000000001,1450,1402.0,1500
12.194588899612427,538,59,99,4.201680672268908e-05,1489.9000000000001,1450,1402.0,1500
12.218114852905273,539,60,99,4.132231404958678e-05,1490.0,1450,1402.0,1500
12.241581916809082,540,59,99,4.1666666666666665e-05,1489.9000000000001,1450,1402.0,1500
12.265004873275757,541,59,99,4.1666666666666665e-05,1489.9000000000001,1450,1402.0,1500
12.288476943969727,542,60,99,4.132231404958678e-05,1490.0,1450,1402.0,1500
12.311914920806885,543,60,99,4.132231404958678e-05,1490.0,1450,1402.0,1500
12.335367918014526,544,60,99,4.132231404958678e-05,1490.0,1450,1402.0,1500
12.358832836151123,545,60,99,4.098360655737705e-05,1490.0,1450,1402.0,1500
12.382386922836304,546,60,99,4.098360655737705e-05,1490.0,1450,1402.0,1500
12.405876874923706,547,60,99,4.098360655737705e-05,1490.0,1450,1402.0,1500
12.433251857757568,548,59,99,4.1666666666666665e-05,1489.9000000000001,1450,1402.0,1500
12.456926822662354,549,59,99,4.1666666666666665e-05,1489.9000000000001,1450,1402.0,1500
12.480540990829468,550,60,99,4.132231404958678e-05,1490.0,1450,1402.0,1500
12.504000902175903,551,56,118,5.462689828471539e-05,1489.5999999999999,1450,1385,1500
12.527385950088501,552,56,113,5.482456140350877e-05,1489.5999999999999,1450,1385,1500
12.550781965255737,553,55,105,5.812263876780006e-05,1489.5,1450,1390.0,1500
12.574285984039307,554,55,100,6.0871682493304114e-05,1489.5,1450,1400.0,1500
12.597750902175903,555,55,95,6.34437254155564e-05,1489.5,1450,1410.0,1500
12.62121295928955,556,54,90,6.540222367560497e-05,1489.4000000000001,1450,1415,1500
12.644569873809814,557,54,86,6.734006734006734e-05,1489.4000000000001,1450,1415,1500
12.668071985244751,558,54,81,7.057163020465773e-05,1489.4000000000001,1450,1415,1500
12.691478967666626,559,54,77,7.39863865048831e-05,1489.4000000000001,1450,1415,1500
12.714906930923462,560,54,75,7.64525993883792e-05,1489.4000000000001,1450,1415,1500
12.738209962844849,561,53,71,8.051529790660226e-05,1489.3,1450,1415,1500
12.761595964431763,562,53,68,8.198065256599443e-05,1489.3,1450,1415,1500
12.784899950027466,563,53,66,8.496176720475786e-05,1489.3,1450,1415,1500
12.808228015899658,564,53,66,8.653513326410523e-05,1489.3,1450,1415,1500
12.83154296875,565,52,66,9.159186664224217e-05,1489.2,1450,1415,1500
12.854862928390503,566,53,64,9.16254352208173e-05,1489.3,1450,1415,1500
12.87813687324524,567,52,63,0.00010131712259371833,1489.2,1450,1415,1500
12.901479005813599,568,52,63,0.00010700909577314071,1489.2,1450,1415,1500
12.92480993270874,569,52,61,0.00010351966873706004,1489.2,1450,1415,1500
12.948132991790771,570,52,62,0.00010582010582010582,1489.2,1450,1415,1500
12.97140884399414,571,52,62,0.00010700909577314071,1489.2,1450,1415,1500
12.994796991348267,572,52,61,0.00011074197120708749,1489.2,1450,1415,1500
13.018082857131958,573,52,62,0.00011337868480725624,1489.2,1450,1415,1500
13.041412830352783,574,52,61,0.00011337868480725624,1489.2,1450,1415,1500
13.064674854278564,575,52,63,0.00011474469305794607,1489.2,1450,1415,1500
13.08800196647644,576,52,62,0.00011337868480725624,1489.2,1450,1415,1500
13.111323833465576,577,52,60,0.00011904761904761905,1489.2,1450,1415,1500
13.134657859802246,578,52,62,0.00011204481792717087,1489.2,1450,1415,1500
13.157915830612183,579,51,62,0.00011052166224580017,1489.0999999999999,1450,1415,1500
13.181258916854858,580,51,62,0.00011446886446886447,1489.0999999999999,1450,1415,1500
13.204620838165283,581,51,63,0.00011052166224580017,1489.0999999999999,1450,1415,1500
13.228020906448364,582,51,62,0.00011180679785330948,1489.0999999999999,1450,1415,1500
13.25130295753479,583,51,63,0.00010451505016722408,1489.0999999999999,1450,1415,1500
13.274619817733765,584,51,65,0.00010683760683760684,1489.0999999999999,1450,1415,1500
13.297904968261719,585,51,66,0.00010121457489878542,1489.0999999999999,1450,1415,1500
13.321343898773193,586,51,69,0.00010439503079653408,1489.0999999999999,1450,1415,1500
13.344663858413696,587,50,70,0.00010893246187363834,1489.0,1450,1415,1500
13.368030786514282,588,50,73,9.611687812379854e-05,1489.0,1450,1415,1500
13.391327857971191,589,50,75,9.337068160597572e-05,1489.0,1450,1415,1500
13.414650917053223,590,50,81,9.167583425009168e-05,1489.0,1450,1415,1500
13.437927007675171,591,49,84,8.771929824561403e-05,1488.9000000000001,1450,1415,1500
13.461246013641357,592,49,86,8.333333333333333e-05,1488.9000000000001,1450,1415,1500
13.484527826309204,593,49,92,8e-05,1488.9000000000001,1450,1415,1500
13.507867813110352,594,49,98,7.953551260637875e-05,1488.9000000000001,1450,1404.0,1500
13.53132700920105,595,48,103,7.910140800506249e-05,1488.8,1450,1394.0,1500
13.554786920547485,596,49,104,7.042253521126761e-05,1488.9000000000001,1450,1392.0,1500
13.578219890594482,597,49,109,6.734006734006734e-05,1488.9000000000001,1450,1385,1500
13.60157585144043,598,49,113,6.559097468188377e-05,1488.9000000000001,1450,1385,1500
13.625260829925537,599,50,115,6.188118811881188e-05,1489.0,1450,1385,1500
13.648659944534302,600,49,120,6.289308176100629e-05,1488.9000000000001,1450,1385,1500
13.672005891799927,601,50,120,6.266449429753102e-05,1489.0,1450,1385,1500
13.695329904556274,602,50,122,6.387735547748324e-05,1489.0,1450,1385,1500
13.718683004379272,603,50,123,6.407791874919902e-05,1489.0,1450,1385,1500
13.741999864578247,604,50,124,6.492663290481755e-05,1489.0,1450,1385,1500
13.765270948410034,605,50,127,6.76132521974307e-05,1489.0,1450,1385,1500
13.788565874099731,606,51,127,6.695681285570806e-05,1489.0999999999999,1450,1385,1500
13.811867952346802,607,51,128,6.789327177676693e-05,1489.0999999999999,1450,1385,1500
13.835352897644043,608,51,128,6.771397616468039e-05,1489.0999999999999,1450,1385,1500
13.858747005462646,609,51,128,6.771397616468039e-05,1489.0999999999999,1450,1385,1500
13.881536960601807,610,51,129,6.819421713038734e-05,1489.0999999999999,1450,1385,1500
13.904307842254639,611,52,128,6.70690811535882e-05,1489.2,1450,1385,1500
13.927107810974121,612,51,127,6.677350427350428e-05,1489.0999999999999,1450,1385,1500
13.949833869934082,613,52,127,6.506180871828237e-05,1489.2,1450,1385,1500
13.972708940505981,614,53,127,6.445375443119562e-05,1489.3,1450,1385,1500
13.995425939559937,615,52,129,6.802721088435374e-05,1489.2,1450,1385,1500
14.018219947814941,616,51,128,6.724045185583647e-05,1489.0999999999999,1450,1385,1500
14.041079998016357,617,51,129,6.885629690835227e-05,1489.0999999999999,1450,1385,1500
14.063905954360962,618,50,128,6.972528238739367e-05,1489.0,1450,1385,1500
14.086609840393066,619,49,129,7.092198581560284e-05,1488.9000000000001,1450,1385,1500
14.109373807907104,620,49,125,7.014590347923682e-05,1488.9000000000001,1450,1385,1500
14.132133960723877,621,47,122,7.494004796163069e-05,1488.7,1450,1385,1500
14.154992818832397,622,45,110,8.426019548365353e-05,1488.5,1450,1385,1500
14.178691864013672,623,45,106,9.555661729574773e-05,1488.5,1450,1388.0,1500
14.202544927597046,624,43,102,0.00010822510822510823,1488.3,1450,1396.0,1500
14.226408958435059,625,42,96,0.00013842746400885935,1488.2,1450,1408.0,1500
14.25022292137146,626,25,91,0.0002870264064293915,1486.5,1450,1415,1500
14.274105787277222,627,20,84,0.0003933910306845004,1486.0,1450,1415,1500
14.297857999801636,628,25,18,0.0005060728744939271,1486.5,1450,1415,1500
14.321635007858276,629,25,18,0.0005159958720330237,1486.5,1450,1415,1500
14.345440864562988,630,23,19,0.0005341880341880342,1486.3,1450,1415,1500
14.369242906570435,631,23,20,0.0005189413596263622,1486.3,1450,1415,1500
14.393409967422485,632,23,20,0.0005189413596263622,1486.3,1450,1415,1500
14.41716480255127,633,24,20,0.0004977600796416127,1486.4000000000001,1450,1415,1500
14.440973997116089,634,24,20,0.00048590864917395527,1486.4000000000001,1450,1415,1500
14.464857816696167,635,24,15,0.0006377551020408163,1486.4000000000001,1450,1415,1500
14.488613843917847,636,19,13,0.0009157509157509158,1485.9000000000001,1450,1415,1500
14.512691020965576,637,11,9,0.007518796992481203,1485.0999999999999,1530,1415,1500
14.536464929580688,638,65,116,0.022727272727272728,1490.5,1530,1385,1500
14.560266017913818,639,63,121,0.018518518518518517,1490.3,1530,1385,1500
14.584134817123413,640,20,101,0.022727272727272728,1486.0,1530,1398.0,1500
14.607980012893677,641,25,99,0.05555555555555555,1486.5,1530,1402.0,1500
14.631886005401611,642,21,112,0.015625,1486.0999999999999,1530,1385,1500
14.655574798583984,643,,,,1500.0,1490.0,1400.0,1500
14.679381847381592,644,24,120,0.017857142857142856,1486.4000000000001,1530,1385,1500
14.703595876693726,645,26,124,0.02857142857142857,1486.5999999999999,1530,1385,1500
14.727376937866211,646,,,,1500.0,1490.0,1400.0,1500
14.751000881195068,647,,,,1500.0,1490.0,1400.0,1500
14.774662017822266,648,,,,1500.0,1490.0,1400.0,1500
14.798367977142334,649,64,114,0.041666666666666664,1490.4000000000001,1530,1385,1500
14.822276830673218,650,,,,1500.0,1490.0,1400.0,1500
14.845791816711426,651,,,,1500.0,1490.0,1400.0,1500
14.869602918624878,652,,,,1500.0,1490.0,1400.0,1500
14.89415693283081,653,64,117,0.015873015873015872,1490.4000000000001,1530,1385,1500
14.917948007583618,654,15,133,0.037037037037037035,1485.5,1530,1385,1500
14.94171690940857,655,20,140,0.011111111111111112,1486.0,1530,1385,1500
14.96543002128601,656,23,147,0.0196078431372549,1486.3,1530,1385,1500
14.989146947860718,657,24,154,0.018518518518518517,1486.4000000000001,1530,1385,1500
15.013373851776123,658,30,160,0.013888888888888888,1487.0,1530,1385,1500
15.036963939666748,659,,,,1500.0,1490.0,1400.0,1500
15.06054401397705,660,,,,1500.0,1490.0,1400.0,1500
15.084197998046875,661,,,,1500.0,1490.0,1400.0,1500
15.107844829559326,662,66,125,0.0625,1490.5999999999999,1530,1385,1500
15.13158893585205,663,65,122,0.030303030303030304,1490.5,1530,1385,1500
15.155339002609253,664,63,121,0.017857142857142856,1490.3,1530,1385,1500
15.179044008255005,665,,,,1500.0,1490.0,1400.0,1500
15.20296597480774,666,68,119,0.05555555555555555,1490.8,1530,1385,1500
15.226650953292847,667,,,,1500.0,1490.0,1400.0,1500
15.250134944915771,668,,,,1500.0,1490.0,1400.0,1500
15.27374792098999,669,,,,1500.0,1490.0,1400.0,1500
15.29725694656372,670,,,,1500.0,1490.0,1400.0,1500
15.32080888748169,671,,,,1500.0,1490.0,1400.0,1500
15.344380855560303,672,,,,1500.0,1490.0,1400.0,1500
15.368031978607178,673,63,115,0.05555555555555555,1490.3,1530,1385,1500
15.391861915588379,674,66,118,0.01818181818181818,1490.5999999999999,1530,1385,1500
15.415483951568604,675,,,,1500.0,1490.0,1400.0,1500
15.439101934432983,676,64,119,0.041666666666666664,1490.4000000000001,1530,1385,1500
15.463105916976929,677,66,120,0.019230769230769232,1490.5999999999999,1530,1385,1500
15.48677682876587,678,,,,1500.0,1490.0,1400.0,1500
15.510459899902344,679,65,122,0.016666666666666666,1490.5,1530,1385,1500
15.533793926239014,680,,,,1500.0,1490.0,1400.0,1500
15.556862831115723,681,,,,1500.0,1490.0,1400.0,1500
15.579969882965088,682,,,,1500.0,1490.0,1400.0,1500
15.603243827819824,683,,,,1500.0,1490.0,1400.0,1500
15.626504898071289,684,,,,1500.0,1490.0,1400.0,1500
15.64961290359497,685,,,,1500.0,1490.0,1400.0,1500
15.672953844070435,686,65,123,0.011904761904761904,1490.5,1530,1385,1500
15.696098804473877,687,,,,1500.0,1490.0,1400.0,1500
15.71930480003357,688,,,,1500.0,1490.0,1400.0,1500
15.742393016815186,689,,,,1500.0,1490.0,1400.0,1500
15.765479803085327,690,,,,1500.0,1490.0,1400.0,1500
15.788486003875732,691,,,,1500.0,1490.0,1400.0,1500
15.811631917953491,692,,,,1500.0,1490.0,1400.0,1500
15.83480191230774,693,65,117,0.025,1490.5,1530,1385,1500
15.858163833618164,694,63,117,0.041666666666666664,1490.3,1530,1385,1500
15.881476879119873,695,,,,1500.0,1490.0,1400.0,1500
15.904662847518921,696,,,,1500.0,1490.0,1400.0,1500
15.927851915359497,697,68,123,0.023809523809523808,1490.8,1530,1385,1500
15.9510498046875,698,,,,1500.0,1490.0,1400.0,1500
15.974081993103027,699,,,,1500.0,1490.0,1400.0,1500
15.997175931930542,700,,,,1500.0,1490.0,1400.0,1500
16.020527839660645,701,62,121,0.05,1490.2,1530,1385,1500
16.04392695426941,702,67,125,0.0625,1490.7,1530,1385,1500
16.06705093383789,703,,,,1500.0,1490.0,1400.0,1500
16.09012794494629,704,,,,1500.0,1490.0,1400.0,1500
16.113472938537598,705,65,125,0.03125,1490.5,1530,1385,1500
16.136850833892822,706,65,118,0.05,1490.5,1530,1385,1500
16.159990787506104,707,,,,1500.0,1490.0,1400.0,1500
