time,x,y,size_inv,roll,pitch,thrust,yaw
0.0004367828369140625,200,51,0.0043859649122807015,1508.0,1502.0,1350,1500.0
0.022217988967895508,200,51,0.0043859649122807015,1508.0,1502.0,1350,1500.0
0.04364299774169922,200,51,0.0043859649122807015,1508.0,1502.0,1350,1500.0
0.06502890586853027,200,52,0.004545454545454545,1508.0,1502.0,1350,1500.0
0.08640289306640625,200,51,0.004166666666666667,1508.0,1502.0,1350,1500.0
0.10772395133972168,200,52,0.004784688995215311,1508.0,1502.0,1350,1500.0
0.12920594215393066,200,52,0.004545454545454545,1508.0,1502.0,1350,1500.0
0.15067696571350098,201,51,0.0043859649122807015,1508.2,1502.0,1350,1500.0
0.17220282554626465,200,51,0.004166666666666667,1508.0,1502.0,1350,1500.0
0.19364690780639648,200,52,0.004545454545454545,1508.0,1502.0,1350,1500.0
0.2152538299560547,200,51,0.0043859649122807015,1508.5999999999999,1502.0,1350,1500.0
0.23703479766845703,201,52,0.004784688995215311,1509.4000000000001,1502.0,1350,1500.0
0.25880980491638184,201,52,0.004784688995215311,1508.8,1502.0,1350,1500.0
0.2805979251861572,200,52,0.005263157894736842,1508.5999999999999,1502.0,1350,1500.0
0.30245184898376465,200,52,0.005263157894736842,1508.5999999999999,1502.0,1350,1500.0
0.3242218494415283,200,53,0.004784688995215311,1508.5999999999999,1502.0,1350,1500.0
0.3459928035736084,200,52,0.005263157894736842,1507.4000000000001,1502.0,1350,1500.0
0.3677668571472168,200,52,0.004784688995215311,1506.8,1502.0,1350,1500.0
0.3895599842071533,200,52,0.004545454545454545,1506.8,1502.0,1350,1500.0
0.41136789321899414,200,51,0.005263157894736842,1506.8,1502.0,1350,1500.0
0.43320488929748535,200,52,0.005263157894736842,1506.8,1502.0,1350,1500.0
0.45498085021972656,199,54,0.005,1506.5999999999999,1502.0,1350,1500.0
0.4767577648162842,199,56,0.005263157894736842,1506.5999999999999,1502.0,1350,1500.0
0.4985527992248535,199,57,0.005263157894736842,1506.0,1502.0,1350,1500.0
0.5203428268432617,199,60,0.004784688995215311,1505.4000000000001,1502.0,1339.8399999999999,1500.0
0.5421547889709473,199,61,0.004545454545454545,1504.8,1502.0,1324.3199999999999,1500.0
0.5639779567718506,199,61,0.005263157894736842,1505.4000000000001,1502.0,1316.96,1500.0
0.5858159065246582,199,61,0.005263157894736842,1506.0,1502.0,1315.2,1500.0
0.6076278686523438,199,61,0.005263157894736842,1506.5999999999999,1502.0,1316.24,1500.0
0.629450798034668,199,61,0.005263157894736842,1507.2,1502.0,1327.04,1500.0
0.6513049602508545,198,62,0.005050505050505051,1507.0,1502.0,1336.6400000000001,1500.0
0.673149824142456,199,62,0.004784688995215311,1507.2,1502.0,1344.72,1500.0
0.6949679851531982,199,63,0.004784688995215311,1507.2,1502.0,1347.4400000000001,1500.0
0.7167928218841553,199,64,0.005263157894736842,1507.2,1502.0,1347.3599999999999,1500.0
0.7386188507080078,198,66,0.004784688995215311,1506.4000000000001,1502.0,1339.1199999999999,1500.0
0.7604649066925049,198,66,0.004784688995215311,1507.0,1502.0,1334.72,1500.0
0.7822549343109131,198,69,0.004784688995215311,1506.4000000000001,1502.0,1322.4000000000001,1500.0
0.8040788173675537,198,70,0.004784688995215311,1505.8,1502.0,1313.8399999999999,1500.0
0.8259057998657227,197,71,0.004784688995215311,1504.4000000000001,1502.0,1306.6400000000001,1500.0
0.8477268218994141,197,72,0.004784688995215311,1504.4000000000001,1502.0,1303.5999999999999,1500.0
0.8695559501647949,196,73,0.004545454545454545,1503.0,1502.0,1297.76,1500.0
0.8913857936859131,196,75,0.004784688995215311,1502.4000000000001,1502.0,1296.24,1500.0
0.9132299423217773,195,77,0.004545454545454545,1501.0,1502.0,1293.28,1500.0
0.935032844543457,195,78,0.004784688995215311,1501.0,1502.0,1291.52,1500.0
0.9568338394165039,195,79,0.004784688995215311,1500.4000000000001,1502.0,1288.4000000000001,1500.0
0.9786529541015625,194,81,0.004545454545454545,1500.2,1502.0,1284.0,1500.0
1.000471830368042,194,82,0.004784688995215311,1500.2,1502.0,1280.8800000000001,1500.0
1.0222837924957275,194,83,0.004784688995215311,1501.4000000000001,1502.0,1280.5599999999999,1500.0
1.0440897941589355,194,83,0.004784688995215311,1502.0,1502.0,1282.8800000000001,1500.0
1.0661609172821045,193,85,0.004784688995215311,1501.8,1502.0,1281.3599999999999,1500.0
1.088000774383545,192,85,0.004166666666666667,1501.5999999999999,1502.0,1286.48,1500.0
1.1098108291625977,192,86,0.004784688995215311,1501.5999999999999,1502.0,1289.04,1500.0
1.1316277980804443,191,87,0.005050505050505051,1500.2,1502.0,1290.24,1500.0
1.1534488201141357,191,88,0.004784688995215311,1499.0,1502.0,1288.6400000000001,1500.0
1.1752588748931885,190,89,0.004545454545454545,1498.2,1502.0,1289.8399999999999,1500.0
1.1970748901367188,190,89,0.0043859649122807015,1498.2,1502.0,1289.52,1500.0
1.2188868522644043,190,90,0.0043859649122807015,1498.2,1502.0,1288.0,1500.0
1.240684986114502,188,92,0.004784688995215311,1497.8,1502.0,1283.8399999999999,1500.0
1.2625629901885986,188,93,0.004784688995215311,1497.8,1502.0,1282.24,1500.0
1.2843828201293945,187,93,0.0043859649122807015,1497.5999999999999,1502.0,1281.9200000000001,1500.0
1.3061959743499756,186,94,0.004166666666666667,1496.2,1502.0,1278.96,1500.0
1.3279988765716553,186,94,0.0043859649122807015,1495.0,1502.0,1278.6400000000001,1500.0
1.349820852279663,185,95,0.0043859649122807015,1494.8,1502.0,1279.9200000000001,1500.0
1.371635913848877,185,95,0.0043859649122807015,1494.8,1502.0,1283.8399999999999,1500.0
1.3934438228607178,184,96,0.004784688995215311,1494.5999999999999,1502.0,1283.76,1500.0
1.4152538776397705,184,96,0.0043859649122807015,1495.8,1502.0,1287.6800000000001,1500.0
1.4370698928833008,183,97,0.004784688995215311,1496.2,1502.0,1287.5999999999999,1500.0
1.4588978290557861,182,97,0.0043859649122807015,1496.0,1502.0,1288.8,1500.0
1.4807147979736328,182,97,0.0043859649122807015,1496.0,1502.0,1288.6400000000001,1500.0
1.502619981765747,182,98,0.004784688995215311,1496.5999999999999,1502.0,1288.6400000000001,1500.0
1.52445387840271,181,98,0.0043859649122807015,1495.8,1502.0,1288.48,1500.0
1.546271800994873,181,98,0.0043859649122807015,1496.4000000000001,1502.0,1291.1199999999999,1500.0
1.568100929260254,180,98,0.0043859649122807015,1496.8,1502.0,1292.4000000000001,1500.0
1.5899238586425781,179,97,0.0043859649122807015,1496.5999999999999,1502.0,1296.3199999999999,1500.0
1.61173677444458,178,97,0.004166666666666667,1495.2,1502.0,1300.48,1500.0
1.6335678100585938,178,97,0.004166666666666667,1495.2,1502.0,1304.6400000000001,1500.0
1.655404806137085,177,97,0.004784688995215311,1493.8,1502.0,1307.4400000000001,1500.0
1.677217960357666,176,97,0.004166666666666667,1492.4000000000001,1502.0,1310.24,1500.0
1.6990258693695068,176,97,0.0043859649122807015,1492.4000000000001,1502.0,1310.24,1500.0
1.720841884613037,175,97,0.004166666666666667,1492.8,1502.0,1308.8800000000001,1500.0
1.7427399158477783,175,97,0.0043859649122807015,1492.8,1502.0,1307.52,1500.0
1.764570951461792,175,97,0.0043859649122807015,1494.0,1502.0,1306.1600000000001,1500.0
1.7863588333129883,173,97,0.004166666666666667,1494.2,1502.0,1304.8,1500.0
1.8081638813018799,173,97,0.0043859649122807015,1494.2,1502.0,1304.8,1500.0
1.8299849033355713,172,97,0.0043859649122807015,1494.0,1502.0,1304.8,1500.0
1.8518049716949463,171,97,0.004166666666666667,1493.2,1502.0,1304.8,1500.0
1.8736188411712646,171,96,0.0043859649122807015,1492.0,1502.0,1307.4400000000001,1500.0
1.895432949066162,170,96,0.004166666666666667,1491.8,1502.0,1308.8800000000001,1500.0
1.917245864868164,170,95,0.0043859649122807015,1491.8,1502.0,1312.96,1500.0
1.9390628337860107,168,94,0.004166666666666667,1490.8,1502.0,1318.48,1500.0
1.9608738422393799,167,94,0.004166666666666667,1490.5999999999999,1502.0,1322.8,1500.0
1.9827589988708496,167,94,0.004166666666666667,1490.5999999999999,1502.0,1324.3199999999999,1500.0
2.004565954208374,166,93,0.004166666666666667,1489.8,1502.0,1328.48,1500.0
2.0263559818267822,166,93,0.0043859649122807015,1489.2,1502.0,1328.6400000000001,1500.0
2.048165798187256,165,93,0.0043859649122807015,1489.5999999999999,1502.0,1326.0,1500.0
2.0699899196624756,164,93,0.0043859649122807015,1490.0,1502.0,1323.3599999999999,1500.0
2.0918118953704834,163,93,0.004166666666666667,1489.8,1502.0,1322.0799999999999,1500.0
2.113832950592041,163,93,0.0043859649122807015,1490.4000000000001,1502.0,1318.0,1500.0
2.1356728076934814,163,93,0.0043859649122807015,1491.0,1502.0,1315.28,1500.0
2.1574947834014893,162,93,0.004784688995215311,1490.8,1502.0,1313.9200000000001,1500.0
2.179318904876709,161,92,0.004166666666666667,1490.5999999999999,1502.0,1315.2,1500.0
2.2011637687683105,161,92,0.004784688995215311,1491.8,1502.0,1315.28,1500.0
2.2229959964752197,160,91,0.0043859649122807015,1491.5999999999999,1502.0,1319.3599999999999,1500.0
2.244771957397461,160,91,0.004048582995951417,1491.5999999999999,1502.0,1322.24,1500.0
2.266594886779785,158,90,0.004545454545454545,1490.5999999999999,1502.0,1327.76,1500.0
2.288449764251709,158,89,0.0043859649122807015,1490.5999999999999,1502.0,1331.9200000000001,1500.0
2.310311794281006,157,89,0.004166666666666667,1489.2,1502.0,1334.8800000000001,1500.0
2.3321359157562256,157,89,0.004784688995215311,1489.2,1502.0,1335.04,1500.0
2.3539559841156006,156,88,0.004629629629629629,1488.4000000000001,1502.0,1337.8399999999999,1500.0
2.375760793685913,156,88,0.0043859649122807015,1489.5999999999999,1502.0,1336.6400000000001,1500.0
2.397580862045288,155,88,0.0043859649122807015,1489.4000000000001,1502.0,1334.0,1500.0
2.419386863708496,154,88,0.004166666666666667,1489.8,1502.0,1331.3599999999999,1500.0
2.4412357807159424,154,88,0.0043859649122807015,1489.8,1502.0,1330.0799999999999,1500.0
2.4630978107452393,153,87,0.004166666666666667,1490.2,1502.0,1328.6400000000001,1500.0
2.484907865524292,153,87,0.0043859649122807015,1489.5999999999999,1502.0,1327.3599999999999,1500.0
2.5067389011383057,152,87,0.004784688995215311,1489.4000000000001,1502.0,1327.4400000000001,1500.0
2.5285439491271973,151,86,0.004166666666666667,1489.2,1502.0,1330.1600000000001,1500.0
2.5503578186035156,151,86,0.004784688995215311,1489.2,1502.0,1331.6800000000001,1500.0
2.5726637840270996,150,85,0.0043859649122807015,1489.0,1502.0,1334.4000000000001,1500.0
2.596644878387451,149,84,0.004166666666666667,1488.2,1502.0,1338.5599999999999,1500.0
2.6205358505249023,148,84,0.004166666666666667,1487.4000000000001,1502.0,1341.52,1500.0
2.644542932510376,148,83,0.004166666666666667,1487.4000000000001,1502.0,1344.3199999999999,1500.0
2.6684138774871826,148,83,0.0043859649122807015,1487.4000000000001,1502.0,1345.9200000000001,1500.0
2.69229793548584,147,83,0.004166666666666667,1487.2,1502.0,1346.0799999999999,1500.0
2.716169834136963,147,83,0.004166666666666667,1488.4000000000001,1502.0,1343.4400000000001,1500.0
2.740015983581543,146,82,0.0043859649122807015,1489.4000000000001,1502.0,1343.4400000000001,1500.0
2.7640209197998047,145,82,0.0043859649122807015,1489.2,1502.0,1340.8,1500.0
2.787899971008301,145,82,0.004166666666666667,1489.2,1502.0,1338.1600000000001,1500.0
2.8118109703063965,145,82,0.004784688995215311,1489.8,1502.0,1336.8800000000001,1500.0
2.835754871368408,144,82,0.004629629629629629,1489.0,1502.0,1336.96,1500.0
2.85959792137146,143,82,0.004545454545454545,1488.2,1502.0,1334.24,1500.0
2.883457899093628,143,82,0.004166666666666667,1488.8,1502.0,1332.8800000000001,1500.0
2.9073269367218018,143,82,0.0043859649122807015,1489.4000000000001,1502.0,1331.52,1500.0
2.9312589168548584,142,82,0.004166666666666667,1488.5999999999999,1502.0,1330.1600000000001,1500.0
2.9551868438720703,142,82,0.004545454545454545,1489.2,1502.0,1328.8,1500.0
2.9791038036346436,142,81,0.0043859649122807015,1490.4000000000001,1502.0,1331.4400000000001,1500.0
3.003225803375244,142,81,0.0043859649122807015,1491.0,1502.0,1332.8800000000001,1500.0
3.0275349617004395,141,80,0.0043859649122807015,1490.8,1502.0,1336.96,1500.0
3.051909923553467,141,80,0.0043859649122807015,1492.0,1502.0,1339.8399999999999,1500.0
3.0762548446655273,141,80,0.0043859649122807015,1492.5999999999999,1502.0,1342.72,1500.0
3.100554943084717,140,80,0.004166666666666667,1491.8,1502.0,1342.8,1500.0
3.1252048015594482,140,80,0.004784688995215311,1491.2,1502.0,1342.8800000000001,1500.0
3.1495018005371094,140,80,0.0043859649122807015,1491.8,1502.0,1340.1600000000001,1500.0
3.17409086227417,139,80,0.004166666666666667,1491.0,1502.0,1337.4400000000001,1500.0
3.198377847671509,139,81,0.004545454545454545,1490.4000000000001,1502.0,1332.0799999999999,1500.0
3.222622871398926,139,81,0.0043859649122807015,1491.0,1502.0,1329.28,1500.0
3.24713397026062,139,81,0.004784688995215311,1491.5999999999999,1502.0,1326.48,1500.0
3.271458864212036,139,81,0.004784688995215311,1491.5999999999999,1502.0,1325.04,1500.0
3.295820951461792,138,80,0.004166666666666667,1492.0,1502.0,1326.24,1500.0
3.320098876953125,138,80,0.004166666666666667,1492.5999999999999,1502.0,1329.04,1500.0
3.344770908355713,138,80,0.004166666666666667,1492.5999999999999,1502.0,1331.8399999999999,1500.0
3.369046926498413,138,81,0.004784688995215311,1492.5999999999999,1502.0,1332.0,1500.0
3.393328905105591,138,81,0.004784688995215311,1492.5999999999999,1502.0,1333.3599999999999,1500.0
3.417604923248291,137,81,0.004166666666666667,1492.4000000000001,1502.0,1331.9200000000001,1500.0
3.4419257640838623,137,81,0.004166666666666667,1492.4000000000001,1502.0,1329.1199999999999,1500.0
3.46651291847229,137,81,0.0043859649122807015,1492.4000000000001,1502.0,1326.3199999999999,1500.0
3.490816831588745,137,81,0.0043859649122807015,1492.4000000000001,1502.0,1326.3199999999999,1500.0
3.515213966369629,137,82,0.004784688995215311,1492.4000000000001,1502.0,1323.6800000000001,1500.0
3.539489984512329,137,82,0.0043859649122807015,1493.0,1502.0,1323.5999999999999,1500.0
3.563771963119507,136,83,0.004545454545454545,1492.8,1502.0,1320.8800000000001,1500.0
3.5880789756774902,136,83,0.004629629629629629,1492.8,1502.0,1319.3599999999999,1500.0
3.612355947494507,137,83,0.0043859649122807015,1493.5999999999999,1502.0,1316.48,1500.0
3.636647939682007,136,83,0.0043859649122807015,1493.4000000000001,1502.0,1316.4000000000001,1500.0
3.6610569953918457,136,83,0.0043859649122807015,1492.8,1502.0,1316.3199999999999,1500.0
3.685476779937744,136,83,0.004166666666666667,1493.4000000000001,1502.0,1319.04,1500.0
3.7097628116607666,136,83,0.004166666666666667,1494.0,1502.0,1321.76,1500.0
3.7344799041748047,136,83,0.004166666666666667,1493.4000000000001,1502.0,1324.48,1500.0
3.7587478160858154,137,83,0.004784688995215311,1494.8,1502.0,1325.8399999999999,1500.0
3.783021926879883,137,83,0.004784688995215311,1496.0,1502.0,1327.2,1500.0
3.8072798252105713,136,83,0.004166666666666667,1495.8,1502.0,1327.2,1500.0
3.8315908908843994,136,83,0.004166666666666667,1495.8,1502.0,1327.2,1500.0
3.8559229373931885,137,83,0.0043859649122807015,1497.2,1502.0,1327.2,1500.0
3.8801729679107666,136,84,0.004545454545454545,1495.8,1502.0,1324.5599999999999,1500.0
3.907355785369873,137,84,0.004784688995215311,1495.4000000000001,1502.0,1323.1199999999999,1500.0
3.9318008422851562,137,84,0.0043859649122807015,1496.0,1502.0,1321.6800000000001,1500.0
3.9561948776245117,136,84,0.004166666666666667,1495.8,1502.0,1320.24,1500.0
3.9804558753967285,137,84,0.0043859649122807015,1495.4000000000001,1502.0,1318.8,1500.0
4.005112886428833,137,84,0.0043859649122807015,1496.5999999999999,1502.0,1320.1600000000001,1500.0
4.0293967723846436,137,85,0.004784688995215311,1496.5999999999999,1502.0,1318.8800000000001,1500.0
4.053756952285767,137,85,0.004784688995215311,1496.0,1502.0,1318.8,1500.0
4.077918767929077,137,85,0.004784688995215311,1496.5999999999999,1502.0,1318.72,1500.0
4.101916790008545,138,85,0.004784688995215311,1497.4000000000001,1502.0,1318.6400000000001,1500.0
4.125887870788574,137,85,0.004784688995215311,1496.5999999999999,1502.0,1317.2,1500.0
4.149776935577393,138,85,0.004784688995215311,1497.4000000000001,1502.0,1318.5599999999999,1500.0
4.173649787902832,138,85,0.005050505050505051,1498.0,1502.0,1319.9200000000001,1500.0
4.197521924972534,138,84,0.0043859649122807015,1498.0,1502.0,1323.9200000000001,1500.0
4.2214508056640625,138,84,0.0043859649122807015,1497.4000000000001,1502.0,1326.72,1500.0
4.245390892028809,138,84,0.004784688995215311,1498.0,1502.0,1329.52,1500.0
4.269263982772827,138,84,0.004784688995215311,1497.4000000000001,1502.0,1330.96,1500.0
4.29341983795166,138,84,0.0043859649122807015,1496.8,1502.0,1332.4000000000001,1500.0
4.317344903945923,138,85,0.004784688995215311,1496.2,1502.0,1328.4000000000001,1500.0
4.341278791427612,138,85,0.005050505050505051,1496.2,1502.0,1325.5999999999999,1500.0
4.365240812301636,139,86,0.004784688995215311,1496.4000000000001,1502.0,1320.1600000000001,1500.0
4.389121770858765,139,86,0.004784688995215311,1497.0,1502.0,1315.9200000000001,1500.0
4.413002967834473,139,86,0.004784688995215311,1497.5999999999999,1502.0,1311.6800000000001,1500.0
4.43688178062439,139,85,0.0043859649122807015,1498.2,1502.0,1314.24,1500.0
4.460724830627441,139,85,0.004784688995215311,1498.8,1502.0,1315.5999999999999,1500.0
4.484834909439087,139,85,0.005050505050505051,1498.2,1502.0,1319.76,1500.0
4.508748769760132,140,84,0.0043859649122807015,1498.4000000000001,1502.0,1326.5599999999999,1500.0
4.532634973526001,140,84,0.0043859649122807015,1498.4000000000001,1502.0,1332.1600000000001,1500.0
4.556509971618652,140,84,0.0043859649122807015,1498.4000000000001,1502.0,1333.5999999999999,1500.0
4.580376863479614,140,84,0.0043859649122807015,1498.4000000000001,1502.0,1335.04,1500.0
4.6044299602508545,140,85,0.004784688995215311,1499.0,1502.0,1332.48,1500.0
4.628349781036377,140,85,0.004784688995215311,1498.4000000000001,1502.0,1328.3199999999999,1500.0
4.652289867401123,140,85,0.004784688995215311,1497.8,1502.0,1324.1600000000001,1500.0
4.67616081237793,141,85,0.004784688995215311,1498.0,1502.0,1321.3599999999999,1500.0
4.700044870376587,141,85,0.0043859649122807015,1498.0,1502.0,1318.5599999999999,1500.0
4.724049806594849,141,86,0.004784688995215311,1498.0,1502.0,1315.9200000000001,1500.0
4.747915983200073,141,86,0.004784688995215311,1498.5999999999999,1502.0,1315.8399999999999,1500.0
4.771868944168091,141,86,0.004784688995215311,1499.2,1502.0,1315.76,1500.0
4.795836925506592,142,85,0.0043859649122807015,1499.4000000000001,1502.0,1318.3199999999999,1500.0
4.819742918014526,142,85,0.004784688995215311,1499.4000000000001,1502.0,1319.6800000000001,1500.0
4.8436338901519775,142,85,0.004784688995215311,1499.4000000000001,1502.0,1322.48,1500.0
4.86751389503479,142,85,0.004784688995215311,1499.4000000000001,1502.0,1325.28,1500.0
4.8914618492126465,142,85,0.004784688995215311,1499.4000000000001,1502.0,1328.0799999999999,1500.0
4.915416955947876,142,84,0.004545454545454545,1498.8,1502.0,1330.72,1500.0
4.939292907714844,142,84,0.004545454545454545,1498.2,1502.0,1332.1600000000001,1500.0
4.963192939758301,143,84,0.004784688995215311,1498.4000000000001,1502.0,1332.24,1500.0
4.987076997756958,143,84,0.004784688995215311,1498.4000000000001,1502.0,1332.3199999999999,1500.0
5.010993957519531,143,84,0.004784688995215311,1498.4000000000001,1502.0,1332.4000000000001,1500.0
5.034928798675537,143,84,0.004784688995215311,1499.0,1502.0,1331.04,1500.0
5.058787822723389,143,84,0.004784688995215311,1499.5999999999999,1502.0,1329.6800000000001,1500.0
5.08269190788269,144,84,0.004784688995215311,1499.8,1502.0,1328.3199999999999,1500.0
5.106613874435425,144,83,0.0043859649122807015,1499.8,1502.0,1329.5999999999999,1500.0
5.130492925643921,144,83,0.004784688995215311,1499.8,1502.0,1329.6800000000001,1500.0
5.154635906219482,144,83,0.004784688995215311,1499.8,1502.0,1331.1199999999999,1500.0
5.178725957870483,144,83,0.004784688995215311,1499.8,1502.0,1332.5599999999999,1500.0
5.2026708126068115,144,83,0.004784688995215311,1499.2,1502.0,1334.0,1500.0
5.226564884185791,144,83,0.004545454545454545,1498.5999999999999,1502.0,1332.6400000000001,1500.0
5.250453948974609,145,82,0.004784688995215311,1498.8,1502.0,1333.9200000000001,1500.0
5.274432897567749,145,82,0.004784688995215311,1498.8,1502.0,1334.0,1500.0
5.298292875289917,144,82,0.004545454545454545,1498.0,1502.0,1334.0799999999999,1500.0
5.3221518993377686,145,82,0.004784688995215311,1498.8,1502.0,1334.1600000000001,1500.0
5.346065998077393,145,82,0.004784688995215311,1499.4000000000001,1502.0,1335.5999999999999,1500.0
5.369959831237793,145,82,0.004784688995215311,1498.8,1502.0,1334.24,1500.0
5.394253969192505,145,82,0.004784688995215311,1498.2,1502.0,1332.8800000000001,1500.0
5.418166875839233,145,82,0.004784688995215311,1498.8,1502.0,1331.52,1500.0
5.442034959793091,145,82,0.004784688995215311,1498.2,1502.0,1330.1600000000001,1500.0
5.465918779373169,145,82,0.004784688995215311,1497.5999999999999,1502.0,1328.8,1500.0
5.489825963973999,145,82,0.004784688995215311,1497.5999999999999,1502.0,1328.8,1500.0
5.513723850250244,145,82,0.004784688995215311,1497.5999999999999,1502.0,1328.8,1500.0
5.537601947784424,145,82,0.004784688995215311,1497.0,1502.0,1328.8,1500.0
5.561578989028931,145,81,0.0043859649122807015,1497.0,1502.0,1331.4400000000001,1500.0
5.585591793060303,145,81,0.0043859649122807015,1497.0,1502.0,1332.8800000000001,1500.0
5.609480857849121,145,81,0.0043859649122807015,1497.0,1502.0,1334.3199999999999,1500.0
5.633394956588745,145,82,0.004784688995215311,1497.0,1502.0,1333.1199999999999,1500.0
5.657279968261719,145,82,0.004784688995215311,1497.0,1502.0,1333.1199999999999,1500.0
5.681212902069092,145,82,0.004784688995215311,1497.0,1502.0,1330.3199999999999,1500.0
5.705163955688477,145,82,0.004166666666666667,1497.0,1502.0,1327.52,1500.0
5.729046821594238,145,82,0.0043859649122807015,1497.0,1502.0,1324.72,1500.0
