time,x,y,size_inv,roll,pitch,thrust,yaw
0.0013079643249511719,175,70.0,3842.2032246921453,1503.45,1501.4260161234606,1337.2,1500.0
0.025463104248046875,174,71.175,3842.2032246921453,1503.6700000000001,1501.4260161234606,1336.943,1500.0
0.049382925033569336,175,71.175,3842.2032246921453,1504.3199999999999,1501.4260161234606,1338.096,1500.0
0.07323694229125977,174,71.175,3842.2032246921453,1504.54,1501.4260161234606,1339.249,1500.0
0.09701895713806152,175,71.175,3842.2032246921453,1505.1900000000001,1501.4260161234606,1340.402,1500.0
0.12085413932800293,175,72.175,3810.1848644863771,1505.6400000000001,1501.2659243224318,1340.3150000000001,1500.0
0.14461994171142578,174,72.175,3778.1665042806089,1505.8599999999999,1501.105832521403,1341.4279999999999,1500.0
0.16839194297790527,175,71.175,3778.1665042806089,1506.51,1501.105832521403,1343.7809999999999,1500.0
0.19231295585632324,174,71.175,3778.1665042806089,1506.73,1501.105832521403,1344.934,1500.0
0.21611309051513672,175,72.175,3746.1481440748407,1507.3800000000001,1500.9457407203743,1344.847,1500.0
0.24027109146118164,175,71.175,3746.1481440748407,1507.3800000000001,1490.3796818524706,1344.5999999999999,1500.0
0.26474905014038086,174,72.1985,3746.1481440748407,1507.1800000000001,1491.3402326586438,1344.69796,1500.0
0.2894139289855957,174,72.1985,3714.1297838690725,1504.95,1491.180140857615,1343.2241199999999,1500.0
0.3140850067138672,174,70.081,3714.1297838690725,1504.95,1491.1801408576148,1347.3404799999998,1500.0
0.3384840488433838,175,67.8695,3682.1114236633048,1505.1500000000001,1491.9805998627592,1350,1500.0
0.36292004585266113,175,64.752,3682.1114236633048,1505.1500000000001,1491.9805998627592,1350,1500.0
0.3872389793395996,176,62.7285,3714.1297838690725,1509.8099999999999,1492.1406916637879,1350,1500.0
0.4115331172943115,176,63.8225,3714.1297838690725,1516.4400000000001,1494.061793276134,1350,1500.0
0.4358041286468506,177,66.94,3682.1114236633048,1520,1494.8622522812782,1350,1500.0
0.4600410461425781,176,69.0105,3682.1114236633048,1520,1496.7833538936243,1350,1500.0
0.48431897163391113,177,71.0575,3650.0930634575366,1520,1497.5838128987684,1350,1500.0
0.5085361003875732,177,72.0575,3650.0930634575366,1520,1496.6232620925955,1338.9484,1500.0
0.5329599380493164,178,72.0105,3682.1114236633048,1520,1495.8228030874513,1315.8227199999999,1500.0
0.5572190284729004,177,71.94,3682.1114236633048,1520,1496.7833538936243,1304.4355599999999,1500.0
0.5814459323883057,177,71.8695,3682.1114236633048,1520,1496.7833538936243,1301.95496,1500.0
0.6057279109954834,176,71.799,3682.1114236633048,1514.8099999999999,1498.7044555059704,1309.54728,1500.0
0.6301939487457275,177,71.7755,3650.0930634575366,1512.8399999999999,1500.4654653172877,1322.6690000000001,1500.0
0.6547219753265381,175,72.752,3618.0747032517684,1501.4100000000001,1499.344822710086,1331.56512,1500.0
0.6791341304779053,176,73.705,3618.0747032517684,1499.3800000000001,1497.4237210977396,1334.67992,1500.0
0.7036070823669434,176,73.6815,3618.0747032517684,1494.98,1495.5026194853938,1335.9870800000001,1500.0
0.7279860973358154,175,73.6345,3650.0930634575366,1494.72,1493.7416096740762,1334.4087999999999,1500.0
0.7524011135101318,175,74.564,3618.0747032517684,1490.26,1492.6209670668745,1328.89444,1500.0
0.7767930030822754,174,74.517,3618.0747032517684,1494.3399999999999,1494.5420686792204,1327.41768,1500.0
0.8011729717254639,174,75.4935,3586.0563430460002,1492.05,1495.3425276843648,1326.0708400000001,1500.0
0.8255660533905029,174,76.47,3586.0563430460002,1489.76,1496.3030784905379,1323.3479200000002,1500.0
0.8500111103057861,174,77.47,3586.0563430460002,1489.7,1495.3425276843648,1319.1210800000001,1500.0
0.8744370937347412,174,78.4465,3586.0563430460002,1491.8099999999999,1495.3425276843648,1316.15084,1500.0
0.8988230228424072,173,79.4465,3586.0563430460002,1491.55,1494.3819768781916,1310.2527600000001,1500.0
0.9233570098876953,172,80.423,3586.0563430460002,1491.23,1495.3425276843648,1304.4148400000001,1500.0
0.9477109909057617,173,81.3995,3586.0563430460002,1493.54,1496.3030784905377,1299.9369200000001,1500.0
0.9724681377410889,172,81.3525,3586.0563430460002,1491.05,1498.224180102884,1299.6188,1500.0
0.9968991279602051,172,82.329,3586.0563430460002,1488.76,1499.184730909057,1298.1363999999999,1500.0
1.0213110446929932,171,83.329,3554.037982840232,1486.27,1499.0246391080282,1298.04972,1500.0
1.0457091331481934,170,85.329,3554.037982840232,1485.95,1498.064088301855,1295.2891999999999,1500.0
1.0701439380645752,169,86.3525,3554.037982840232,1480,1497.1035374956821,1293.6328000000001,1500.0
1.0945160388946533,169,87.329,3554.037982840232,1480,1496.1429866895089,1289.1350400000001,1500.0
1.1188359260559082,168,88.3055,3554.037982840232,1480,1495.1824358833358,1284.6372799999999,1500.0
1.1433990001678467,168,89.282,3554.037982840232,1480,1496.1429866895089,1280.17336,1500.0
1.167686939239502,168,89.2585,3586.0563430460002,1480,1498.2241801028838,1281.21524,1500.0
1.1919519901275635,167,90.235,3586.0563430460002,1480,1500.1452817152299,1281.1887200000001,1500.0
1.216231107711792,166,91.235,3554.037982840232,1480,1500.9457407203743,1282.4921199999999,1500.0
1.2405259609222412,166,92.2585,3554.037982840232,1480,1501.9062915265472,1283.69964,1500.0
1.26481294631958,165,93.2585,3554.037982840232,1480,1501.9062915265472,1284.8695600000001,1500.0
1.289180040359497,165,93.2585,3586.0563430460002,1480,1501.105832521403,1284.4536800000001,1500.0
1.3136260509490967,164,94.2585,3618.0747032517684,1480,1501.2659243224318,1282.7400399999999,1500.0
1.3379859924316406,163,95.235,3618.0747032517684,1480,1503.1870259347779,1281.1204,1500.0
1.3623261451721191,163,95.2115,3618.0747032517684,1480,1505.108127547124,1282.2723599999999,1500.0
1.3866231441497803,162,95.188,3650.0930634575366,1480,1508.149871766672,1284.93012,1500.0
1.4109349250793457,162,95.188,3650.0930634575366,1480,1510.0709733790181,1287.5916400000001,1500.0
1.4352269172668457,161,96.188,3682.1114236633048,1480,1511.1916159862201,1289.08512,1500.0
1.4596049785614014,160,97.188,3682.1114236633048,1480,1511.1916159862199,1290.5128,1500.0
1.4839990139007568,160,97.188,3714.1297838690725,1480,1512.3122585934218,1291.68272,1500.0
1.5082790851593018,159,97.188,3746.1481440748407,1480,1512.4723503944506,1291.4268400000001,1500.0
1.532750129699707,158,97.1645,3746.1481440748407,1480,1513.4329012006237,1291.2329999999999,1500.0
1.5570769309997559,158,96.1175,3746.1481440748407,1480,1513.4329012006237,1295.21504,1500.0
1.5813400745391846,158,96.0705,3778.1665042806089,1480,1514.5535438078257,1299.5367200000001,1500.0
1.60561203956604,157,95.0,3810.1848644863771,1480,1514.7136356088545,1306.6600800000001,1500.0
1.6299669742584229,157,94.953,3810.1848644863771,1480,1513.7530848026815,1312.65488,1500.0
1.6543900966644287,157,93.906,3810.1848644863771,1480,1512.7925339965084,1321.2915599999999,1500.0
1.6786880493164062,156,92.859,3810.1848644863771,1480,1512.7925339965084,1327.1443200000001,1500.0
1.7031500339508057,155,91.812,3842.2032246921453,1480,1511.9920749913642,1333.01316,1500.0
1.7274730205535889,154,91.7885,3810.1848644863771,1480,1508.9503307718162,1334.6902399999999,1500.0
1.7517950534820557,155,90.765,3810.1848644863771,1480,1507.0292291594701,1338.9095600000001,1500.0
1.7759909629821777,154,90.765,3810.1848644863771,1480,1505.108127547124,1339.0010400000001,1500.0
1.8002829551696777,154,90.765,3810.1848644863771,1480,1503.1870259347779,1337.58484,1500.0
1.8246541023254395,153,91.765,3778.1665042806089,1480,1499.184730909057,1330.6609599999999,1500.0
1.8489990234375,153,91.7885,3778.1665042806089,1480,1498.224180102884,1326.26512,1500.0
1.8733410835266113,154,92.812,3746.1481440748407,1480,1496.1429866895089,1316.39356,1500.0
1.897611141204834,153,92.8355,3746.1481440748407,1481.4300000000001,1494.2218850771628,1309.1120800000001,1500.0
1.9219701290130615,153,93.8825,3714.1297838690725,1483.54,1491.180140857615,1300.51864,1500.0
1.9463260173797607,152,93.8825,3682.1114236633048,1485.45,1490.0594982504131,1297.40552,1500.0
1.9707679748535156,153,94.906,3682.1114236633048,1487.8199999999999,1488.138396638067,1291.68812,1500.0
1.995142936706543,152,95.9295,3650.0930634575366,1485.3299999999999,1487.017754030865,1288.7546400000001,1500.0
2.0199460983276367,153,95.9765,3590.9822446161188,1487.7,1483.9883245652425,1286.99108,1500.0
2.0444939136505127,152,97.0,3558.9638844103511,1487.4400000000001,1482.0549081989711,1285.5134800000001,1500.0
2.0688700675964355,152,98.047,3558.9638844103511,1489.6099999999999,1481.2421344399015,1281.1399999999999,1500.0
2.0934031009674072,152,100.1175,3526.9455242045829,1487.3800000000001,1479.3087180736302,1275.3906399999998,1500.0
2.117799997329712,152,101.1645,3526.9455242045829,1491.72,1478.4959443145608,1270.83564,1500.0
2.14217209815979,152,102.188,3494.9271639988146,1489.49,1480.1091770787743,1264.9346399999999,1500.0
2.166517972946167,152,103.282,3494.9271639988146,1491.6600000000001,1482.84305245019,1258.81556,1500.0
2.1908681392669678,152,104.329,3494.9271639988146,1491.6600000000001,1484.6163770154326,1254.1768,1500.0
2.2152230739593506,153,106.376,3494.9271639988146,1496.26,1488.310803193021,1250,1500.0
2.2396130561828613,153,107.47,3494.9271639988146,1498.49,1491.0446785644367,1250,1500.0
2.2639639377593994,152,108.517,3522.0196226344647,1500.46,1494.8745670352037,1250,1500.0
2.288383960723877,152,108.564,3522.0196226344647,1500.46,1497.6084424066191,1250,1500.0
2.312994956970215,152,109.564,3522.0196226344647,1500.46,1500.3423177780346,1250,1500.0
2.3373501300811768,153,108.564,3494.9271639988146,1498.49,1501.1674062910295,1251.84716,1500.0
2.3618009090423584,152,107.5405,3494.9271639988146,1493.8900000000001,1502.1279570972024,1261.5493200000001,1500.0
2.3861849308013916,153,106.4935,3494.9271639988146,1496.3199999999999,1500.5024095790636,1274.327,1500.0
2.4105429649353027,153,105.4465,3494.9271639988146,1498.55,1498.8768620609246,1287.25612,1500.0
2.434915065765381,154,104.423,3494.9271639988146,1503.21,1497.2513145427856,1303.0069599999999,1500.0
2.4593961238861084,153,103.3995,3494.9271639988146,1503.01,1497.2513145427856,1314.6477199999999,1500.0
2.483896017074585,154,101.3995,3526.9455242045829,1509.8399999999999,1498.3719571499876,1325.9866399999999,1500.0
2.508294105529785,154,101.423,3526.9455242045829,1509.9000000000001,1500.1452817152301,1330.508,1500.0
2.5328030586242676,154,101.4465,3526.9455242045829,1509.96,1501.9186062804727,1332.0,1500.0
2.5571670532226562,154,100.47,3526.9455242045829,1505.6199999999999,1503.6919308457152,1331.8723600000001,1500.0
2.581540107727051,154,100.4935,3554.037982840232,1507.8499999999999,1505.6007177041358,1329.0050799999999,1500.0
2.605907917022705,154,99.4935,3554.037982840232,1503.51,1505.4529406570323,1324.5979600000001,1500.0
2.6303629875183105,156,98.4935,3554.037982840232,1506.2,1505.3051636099287,1323.1205600000001,1500.0
2.654829978942871,156,97.4935,3554.037982840232,1508.49,1505.157386562825,1324.5728799999999,1500.0
2.6792500019073486,155,96.47,3554.037982840232,1510.52,1505.0096095157216,1326.1849999999999,1500.0
2.7037601470947266,156,95.4465,3554.037982840232,1513.01,1503.2362849504791,1330.7287200000001,1500.0
2.728158950805664,156,94.3995,3522.0196226344642,1517.47,1501.3028685842078,1336.7283199999999,1500.0
2.7525670528411865,157,92.376,3522.0196226344642,1515.5599999999999,1499.5295440189652,1343.9816000000001,1500.0
2.776932954788208,156,91.3525,3522.0196226344642,1511.02,1497.7562194537229,1348.6767600000001,1500.0
2.8012890815734863,156,90.329,3522.0196226344642,1511.0799999999999,1495.9828948884801,1350,1500.0
2.825623035430908,157,89.329,3522.0196226344642,1509.1700000000001,1495.022344082307,1350,1500.0
2.849976062774658,157,88.3525,3522.0196226344642,1507.0599999999999,1495.9828948884801,1350,1500.0
2.8743410110473633,158,88.376,3522.0196226344642,1507.3199999999999,1496.9434456946533,1350,1500.0
2.8986010551452637,158,88.3995,3522.0196226344642,1511.78,1497.9039965008262,1350,1500.0
2.923063039779663,158,87.423,3522.0196226344642,1514.0699999999999,1498.8645473069992,1349.6939600000001,1500.0
2.9474520683288574,159,87.423,3522.0196226344642,1516.5599999999999,1499.8250981131723,1344.1188,1500.0
2.9721429347991943,159,86.423,3554.037982840232,1518.8499999999999,1500.945740720374,1339.87336,1500.0
2.9965579509735107,159,85.3995,3554.037982840232,1518.9100000000001,1501.9062915265472,1339.9477199999999,1500.0
3.020946979522705,160,84.376,3554.037982840232,1519.23,1502.8668423327201,1342.9536800000001,1500.0
3.0452980995178223,160,83.3525,3554.037982840232,1519.3499999999999,1503.8273931388933,1346.09124,1500.0
3.0696980953216553,160,82.3055,3554.037982840232,1517.24,1504.7879439450664,1350,1500.0
3.0940470695495605,160,82.3055,3554.037982840232,1515.1300000000001,1503.8273931388933,1350,1500.0
3.1183419227600098,160,81.3055,3554.037982840232,1515.1900000000001,1502.8668423327204,1350,1500.0
3.1428959369659424,160,80.282,3526.9455242045819,1510.8499999999999,1500.9580554742995,1350,1500.0
3.1671669483184814,160,80.282,3526.9455242045819,1506.51,1499.1847309090572,1350,1500.0
3.191437005996704,160,80.282,3526.9455242045819,1504.3399999999999,1497.4114063438146,1350,1500.0
3.215817928314209,160,80.282,3494.9271639988137,1502.1700000000001,1495.4779899775431,1350,1500.0
3.240320920944214,160,79.282,3467.8347053631646,1500.0,1492.7564293600528,1350,1500.0
3.2646830081939697,161,78.2585,3440.7422467275146,1502.4300000000001,1490.847642501632,1349.4026000000001,1500.0
3.289133071899414,161,78.235,3440.7422467275146,1504.6600000000001,1489.0743179363894,1348.2025999999998,1500.0
3.3135969638824463,161,78.2115,3440.7422467275146,1506.8900000000001,1487.3009933711469,1348.46036,1500.0
3.338015079498291,161,78.235,3440.7422467275146,1509.1199999999999,1487.4487704182504,1348.62788,1500.0
3.362460136413574,161,78.2585,3440.7422467275146,1511.3499999999999,1489.222094983493,1347.3215600000001,1500.0
3.386883020401001,161,79.3055,3467.8347053631646,1509.1800000000001,1492.7564293600528,1341.8055199999999,1500.0
3.411252021789551,161,80.3525,3467.8347053631646,1507.01,1496.1553014434342,1334.7159999999999,1500.0
3.4356040954589844,161,81.423,3467.8347053631646,1504.8399999999999,1499.5541735268157,1325.9909600000001,1500.0
3.4600419998168945,161,81.4465,3440.7422467275146,1502.6700000000001,1501.0442587517764,1318.5542800000001,1500.0
3.484477996826172,161,82.4465,3440.7422467275146,1500.5,1501.857032510846,1309.9316000000001,1500.0
3.508831024169922,161,82.423,3440.7422467275146,1500.5,1500.231484992707,1306.8945200000001,1500.0
3.533370018005371,161,81.3995,3413.6497880918641,1500.5,1497.6577014223203,1309.4948400000001,1500.0
3.5577499866485596,161,80.329,3386.5573294562141,1500.5,1494.2711440928642,1316.72244,1500.0
3.5820930004119873,161,80.2585,3386.5573294562141,1500.5,1492.645596574725,1322.8853999999999,1500.0
3.6064600944519043,161,79.2115,3359.4648708205641,1500.5,1490.0718130043383,1334.4958799999999,1500.0
3.6308319568634033,161,78.188,3332.3724121849141,1500.5,1487.4980294339514,1346.0622800000001,1500.0
3.655219078063965,160,78.188,3305.2799535492641,1498.0699999999999,1485.7370196226343,1350,1500.0
3.679577112197876,160,79.2115,3305.2799535492641,1495.8399999999999,1485.7370196226343,1350,1500.0
3.70405912399292,160,79.235,3305.2799535492641,1493.6099999999999,1484.9242458635647,1350,1500.0
3.7285640239715576,159,80.3055,3305.2799535492641,1488.95,1485.7370196226343,1343.5743199999999,1500.0
3.7531321048736572,159,82.376,3282.0578461472783,1484.49,1487.3625671407733,1329.2994000000001,1500.0
3.777513027191162,158,84.4465,3282.0578461472783,1482.0,1489.9169989549916,1313.4349199999999,1500.0
3.8018341064453125,158,85.4935,3282.0578461472783,1480,1491.6586570101408,1301.6126400000001,1500.0
3.826092004776001,158,86.5405,3254.9653875116283,1480,1492.4520790130418,1288.44436,1500.0
3.850395917892456,157,87.564,3254.9653875116283,1480,1492.5681895500518,1278.2517600000001,1500.0
3.8747899532318115,158,87.5405,3254.9653875116283,1480,1493.2648527721115,1276.5387599999999,1500.0
3.899125099182129,157,87.517,3254.9653875116283,1481.3199999999999,1493.1487422351013,1280.6570000000002,1500.0
3.923607110977173,158,87.4935,3227.8729288759787,1485.8599999999999,1492.0843956458436,1286.34872,1500.0
3.9483230113983154,158,87.47,3204.6508214739933,1490.2,1491.9682851088339,1294.9739200000001,1500.0
3.972849130630493,157,87.47,3204.6508214739933,1494.3399999999999,1491.9682851088339,1304.9808399999999,1500.0
3.9972620010375977,157,87.47,3227.8729288759787,1494.28,1492.0843956458439,1312.10608,1500.0
4.021664142608643,157,87.47,3227.8729288759787,1496.45,1492.0843956458439,1316.3496399999999,1500.0
4.046066999435425,157,87.4935,3227.8729288759787,1494.22,1493.7099431639829,1319.04144,1500.0
4.070423126220703,157,88.4935,3204.6508214739933,1491.99,1495.103269608102,1317.6317200000001,1500.0
4.0947699546813965,156,88.517,3181.428714072008,1489.5599999999999,1495.7999328301614,1315.9680000000001,1500.0
4.1192851066589355,156,88.5405,3158.2066066700227,1489.5,1494.4066063860423,1314.3024,1500.0
4.143819093704224,156,88.5405,3134.9844992680373,1487.27,1492.3166167198638,1312.69696,1500.0
4.16817307472229,156,87.517,3134.9844992680373,1487.21,1489.5299638316255,1313.89132,1500.0
4.192517995834351,156,87.47,3134.9844992680373,1487.1500000000001,1487.4399741654468,1316.8135199999999,1500.0
4.216843128204346,156,86.423,3111.762391866052,1489.3199999999999,1485.9305371843177,1322.5092,1500.0
4.241208076477051,156,86.423,3088.5402844640666,1491.49,1485.8144266473078,1327.0142799999999,1500.0
4.2655980587005615,156,85.3995,3065.3181770620813,1493.6600000000001,1486.3949793323575,1334.2213999999999,1500.0
4.290064096450806,156,85.423,3042.096069660096,1495.8299999999999,1486.2788687953475,1337.2405200000001,1500.0
4.314548969268799,156,86.4465,3042.096069660096,1498.0,1485.5822055732879,1336.0942,1500.0
4.338958024978638,155,87.517,3042.096069660096,1495.5699999999999,1485.5822055732879,1330.3863999999999,1500.0
4.363420009613037,155,88.564,3042.096069660096,1493.3399999999999,1486.2788687953475,1323.16716,1500.0
4.387826919555664,155,88.611,3021.9702432450422,1491.1099999999999,1486.9677913149399,1314.21444,1500.0
4.412264108657837,155,89.658,2998.7481358430568,1488.8800000000001,1488.3378956516569,1304.0118,1500.0
4.436655044555664,155,90.6815,2998.7481358430568,1486.6500000000001,1489.824110525384,1295.29324,1500.0
4.461007118225098,154,90.6815,2998.7481358430568,1486.3900000000001,1490.6136621770515,1292.2242000000001,1500.0
4.485368967056274,155,90.6815,2998.7481358430568,1488.76,1490.7065506066594,1292.0867599999999,1500.0
4.509828090667725,155,90.658,2998.7481358430568,1490.9300000000001,1491.310325399111,1293.5349200000001,1500.0
4.534301042556763,155,89.658,2978.6223094280026,1493.0999999999999,1491.9063594890954,1300.49452,1500.0
4.55870795249939,155,89.6345,2978.6223094280026,1495.27,1492.6030227111548,1307.79,1500.0
4.5832200050354,155,88.6345,2958.4964830129488,1499.6700000000001,1492.5952820086875,1316.2413999999999,1500.0
4.607607126235962,154,88.611,2938.3706565978946,1497.24,1491.9837665137686,1322.1309200000001,1500.0
4.6319899559021,154,88.611,2938.3706565978946,1495.01,1490.8691053584732,1327.8625199999999,1500.0
4.656403064727783,154,88.6345,2938.3706565978946,1492.78,1490.2653305660217,1329.30816,1500.0
4.680834054946899,154,88.6345,2938.3706565978946,1490.55,1489.6615557735699,1329.3242399999999,1500.0
4.705265045166016,154,88.658,2938.3706565978946,1486.1500000000001,1490.2653305660217,1326.47828,1500.0
4.729740142822266,154,88.658,2938.3706565978946,1488.3199999999999,1492.0766549433765,1323.5947200000001,1500.0
4.754234075546265,154,88.658,2938.3706565978946,1490.49,1493.8879793207313,1320.7431200000001,1500.0
4.778604984283447,154,87.658,2938.3706565978946,1492.6600000000001,1495.0955289056346,1321.95732,1500.0
4.803139925003052,154,87.6815,2918.2448301828408,1494.8299999999999,1495.5986745660109,1321.9414400000001,1500.0
4.827594041824341,154,87.705,2918.2448301828408,1497.0,1495.5986745660109,1323.3175200000001,1500.0
4.851954936981201,154,87.6815,2918.2448301828408,1497.0,1494.9948997735594,1324.8158000000001,1500.0
4.876317024230957,154,87.6815,2918.2448301828408,1497.0,1494.3911249811079,1326.2858799999999,1500.0
4.900674104690552,155,86.6345,2898.119003767787,1499.4300000000001,1493.0829462641293,1327.6880799999999,1500.0
4.925418138504028,155,86.6345,2877.9931773527328,1501.6600000000001,1492.3785423396023,1327.89968,1500.0
4.949923038482666,155,85.611,2840.2572528245064,1503.8900000000001,1490.4540101886628,1330.84716,1500.0
4.9743969440460205,155,84.5875,2820.1314264094526,1506.1199999999999,1488.0137537358376,1335.2026799999999,1500.0
4.99882698059082,155,84.5875,2800.0055999943988,1508.3499999999999,1484.9697224905606,1338.3299999999999,1500.0
5.023380994796753,156,84.611,2800.0055999943988,1508.6099999999999,1483.2338699622621,1339.82368,1500.0
5.047827959060669,156,84.6345,2800.0055999943988,1508.6700000000001,1482.1017922264155,1341.2515599999999,1500.0
5.072257041931152,157,85.658,2782.3955018812262,1511.1600000000001,1482.6175165283012,1337.1078399999999,1500.0
5.09661602973938,157,85.6815,2764.785403768054,1513.45,1483.812487471695,1331.2964400000001,1500.0
5.121005058288574,157,85.7285,2764.785403768054,1515.74,1486.3030584905578,1325.3891599999999,1500.0
5.145431995391846,157,86.7755,2747.1753056548814,1515.8,1487.5735012830082,1318.2639200000001,1500.0
5.169863939285278,157,87.799,2729.5652075417092,1515.8599999999999,1487.7118663396116,1309.75884,1500.0
5.194363117218018,157,87.8695,2747.1753056548814,1511.52,1488.4791634716855,1306.5536,1500.0
5.2187371253967285,157,89.893,2729.5652075417092,1507.1800000000001,1488.9948877735712,1299.5486800000001,1500.0
5.243420124053955,157,88.893,2729.5652075417092,1502.8399999999999,1488.9948877735712,1297.7435599999999,1500.0
5.267915964126587,157,88.8695,2711.9551094285371,1500.6700000000001,1489.4351402264006,1297.70012,1500.0
5.292668104171753,157,88.846,2694.3450113153644,1498.5,1490.403695622625,1300.5243599999999,1500.0
5.317146062850952,157,87.799,2694.3450113153644,1498.5,1489.8753926792299,1304.8899200000001,1500.0
5.341524124145508,158,86.752,2694.3450113153644,1500.9300000000001,1489.8753926792299,1316.3969999999999,1500.0
5.365908145904541,158,85.752,2661.1965913376284,1503.1600000000001,1488.7151979800092,1326.4237599999999,1500.0
5.390365123748779,159,85.7285,2661.1965913376284,1507.8199999999999,1488.2490483240722,1333.82284,1500.0
5.4148290157318115,159,85.752,2661.1965913376284,1512.28,1488.3112016115306,1339.67392,1500.0
5.4392290115356445,159,85.752,2643.5864932244558,1516.74,1488.2853044084229,1342.5257200000001,1500.0
5.463654041290283,159,85.799,2628.048171359892,1516.8,1487.2753134872262,1339.56988,1500.0
5.488054990768433,159,85.8225,2594.899751382156,1516.8599999999999,1487.1717246747958,1335.1684,1500.0
5.51242995262146,159,86.846,2594.899751382156,1512.52,1486.705575018859,1328.05924,1500.0
5.536754131317139,160,86.846,2594.899751382156,1510.6099999999999,1485.7111224195269,1322.27604,1500.0
5.561093091964722,160,86.8695,2594.899751382156,1508.5,1485.773275706985,1317.85472,1500.0
5.585430145263672,160,86.893,2579.3614295175921,1508.5599999999999,1486.2238870410574,1314.95508,1500.0
5.6098480224609375,160,86.893,2579.3614295175921,1508.6199999999999,1487.7466425837847,1313.50944,1500.0
5.634264945983887,161,86.893,2563.8231076530283,1513.28,1488.7255568612522,1314.96156,1500.0
5.658657073974609,161,86.893,2548.2847857884644,1513.3399999999999,1489.2383214827828,1316.3817200000001,1500.0
5.683198928833008,161,85.8695,2532.7464639239006,1513.4000000000001,1488.7566335049814,1320.56972,1500.0
5.707587003707886,161,85.8695,2532.7464639239006,1513.46,1488.8187867924396,1323.5314000000001,1500.0
5.731989145278931,162,84.8695,2532.7464639239006,1515.95,1487.8864874805658,1329.10112,1500.0
5.7563581466674805,162,84.846,2517.2081420593368,1513.8399999999999,1487.3426462153061,1332.1409200000001,1500.0
5.780712127685547,162,84.8225,2487.8579785373831,1513.9000000000001,1486.7815401479745,1335.2145599999999,1500.0
5.805077075958252,161,83.8225,2472.3196566728193,1511.53,1486.7556429448671,1338.00224,1500.0
5.829545974731445,161,83.8225,2472.3196566728193,1509.3599999999999,1486.3412876951452,1339.5579599999999,1500.0
5.8540050983428955,161,83.846,2472.3196566728193,1502.79,1485.9269324454235,1338.25164,1500.0
5.878674030303955,161,84.8695,2458.5078150154291,1498.3900000000001,1485.4953123936302,1334.20568,1500.0
5.90317702293396,162,84.893,2444.6959733580393,1496.4200000000001,1485.9441972474954,1331.26008,1500.0
5.927544116973877,162,84.9165,2444.6959733580393,1498.6500000000001,1486.9282909655844,1326.8725999999999,1500.0
5.951924085617065,162,84.94,2444.6959733580393,1500.8800000000001,1487.9123846836735,1322.45128,1500.0
5.976340055465698,162,85.94,2430.884131700649,1505.28,1488.4130639437537,1316.8439599999999,1500.0
6.000714063644409,162,85.94,2417.0722900432593,1509.6800000000001,1488.8619487976189,1315.3344,1500.0
6.025123119354248,162,85.9635,2417.0722900432593,1509.6800000000001,1489.3280984535559,1313.8605600000001,1500.0
6.0495569705963135,162,85.9635,2403.2604483858695,1507.51,1488.8446839955473,1313.8407199999999,1500.0
6.074026107788086,162,85.94,2389.4486067284793,1505.3399999999999,1487.946914287817,1313.9487200000001,1500.0
6.098412036895752,162,85.94,2375.6367650710895,1503.1700000000001,1487.4634998298084,1316.79656,1500.0
6.122957944869995,162,84.9165,2375.6367650710895,1501.0,1487.4634998298084,1320.9544800000001,1500.0
6.147313117980957,162,84.9165,2375.6367650710895,1501.0,1487.0491445800865,1323.91804,1500.0
6.1716389656066895,162,83.893,2375.6367650710895,1501.0,1487.4634998298084,1329.55168,1500.0
6.195996046066284,162,83.893,2375.6367650710895,1501.0,1488.7065655789734,1333.8593599999999,1500.0
6.220477104187012,162,83.9165,2389.4486067284793,1501.0,1490.8474010358689,1336.7449999999999,1500.0
6.244977951049805,161,84.9165,2389.4486067284793,1498.5699999999999,1492.5048220347555,1334.1530399999999,1500.0
6.269433975219727,161,84.9165,2389.4486067284793,1496.3399999999999,1494.1622430336424,1332.72912,1500.0
6.293957948684692,161,84.94,2389.4486067284793,1494.1099999999999,1495.4053087828074,1328.37736,1500.0
6.318356037139893,161,84.9165,2389.4486067284793,1491.8800000000001,1496.2340192822508,1324.1478,1500.0
6.3430280685424805,161,83.893,2403.2604483858695,1489.6500000000001,1496.3030784905379,1322.65788,1500.0
6.3674280643463135,160,82.846,2403.2604483858695,1489.3900000000001,1496.3030784905379,1326.8958,1500.0
6.391922950744629,160,81.799,2403.2604483858695,1489.3299999999999,1496.3030784905379,1332.6414,1500.0
6.416456937789917,160,80.752,2403.2604483858695,1489.27,1496.3030784905379,1341.3524400000001,1500.0
6.440838098526001,160,80.705,2389.4486067284793,1489.21,1495.8196640325293,1348.86536,1500.0
6.465198993682861,159,79.6815,2389.4486067284793,1486.72,1494.9909535330858,1350,1500.0
6.4895570278167725,159,79.658,2389.4486067284793,1486.6600000000001,1494.1622430336424,1350,1500.0
6.513958930969238,159,78.658,2403.2604483858695,1486.5999999999999,1493.8169469922077,1350,1500.0
6.5382421016693115,159,79.658,2403.2604483858695,1486.54,1493.402591742486,1350,1500.0
6.5625200271606445,158,79.658,2403.2604483858695,1484.05,1493.8169469922077,1349.8721600000001,1500.0
6.586869955062866,158,79.658,2389.4486067284793,1486.1600000000001,1494.1622430336424,1344.1783599999999,1500.0
6.6112470626831055,158,79.658,2389.4486067284793,1486.0999999999999,1494.5765982833641,1339.84268,1500.0
6.635623931884766,158,79.658,2389.4486067284793,1486.04,1494.1622430336424,1334.1309200000001,1500.0
6.660093069076538,157,79.6815,2389.4486067284793,1483.55,1493.7478877839208,1332.58104,1500.0
6.684577941894531,157,79.658,2403.2604483858695,1485.6600000000001,1493.402591742486,1331.1853199999998,1500.0
6.70906400680542,157,80.658,2389.4486067284793,1485.5999999999999,1493.3335325341991,1328.5133600000001,1500.0
6.7335450649261475,157,80.6345,2389.4486067284793,1485.54,1493.3335325341991,1327.1354000000001,1500.0
6.757966995239258,156,80.611,2375.6367650710895,1483.05,1493.2644733259121,1327.15128,1500.0
6.782410144805908,156,79.5875,2389.4486067284793,1485.1600000000001,1493.7478877839208,1328.5467999999998,1500.0
6.806823968887329,156,79.564,2389.4486067284793,1485.0999999999999,1493.3335325341991,1328.71036,1500.0
6.83124303817749,156,79.5405,2389.4486067284793,1485.04,1493.3335325341991,1331.70776,1500.0
6.855919122695923,155,79.517,2389.4486067284793,1482.55,1493.3335325341991,1334.6732,1500.0
6.88037109375,156,79.517,2389.4486067284793,1487.0899999999999,1494.1622430336424,1337.5446400000001,1500.0
6.90480899810791,155,80.517,2375.6367650710895,1486.8299999999999,1493.6788285756338,1334.87832,1500.0
6.929224967956543,155,80.5405,2361.8249234136993,1486.77,1493.1954141176252,1333.3161200000002,1500.0
6.953691005706787,155,81.5405,2361.8249234136993,1486.71,1492.3667036181816,1327.71632,1500.0
6.978080987930298,154,81.5405,2361.8249234136993,1488.6199999999999,1491.5379931187383,1323.28268,1500.0
7.0024731159210205,154,81.5405,2361.8249234136993,1484.1600000000001,1490.2949273695731,1318.8810000000001,1500.0
7.0268940925598145,154,82.5405,2348.0130817563095,1484.0999999999999,1489.8115129115645,1316.0312800000002,1500.0
7.051269054412842,154,83.564,2348.0130817563095,1484.04,1490.2258681612861,1311.77728,1500.0
7.075613975524902,154,83.564,2348.0130817563095,1483.98,1490.640223411008,1311.5834399999999,1500.0
7.100039005279541,154,83.564,2335.6551181681184,1486.1500000000001,1490.622049935143,1311.42156,1500.0
7.124498128890991,154,84.564,2335.6551181681184,1490.49,1490.6656662772189,1308.61968,1500.0
7.148864030838013,153,84.564,2323.2971545799273,1490.23,1490.6911091434299,1308.4577999999999,1500.0
7.173362970352173,154,85.5875,2323.2971545799273,1492.5999999999999,1490.3639865778603,1308.4277199999999,1500.0
7.197756052017212,154,85.5875,2310.9391909917367,1494.77,1489.6043352867036,1308.26584,1500.0
7.222151041030884,154,86.5875,2310.9391909917367,1494.77,1489.6479516287798,1305.46396,1500.0
7.2465291023254395,154,86.5875,2298.5812274035457,1494.77,1489.2590392452689,1306.6620799999998,1500.0
7.270880937576294,154,86.5875,2286.2232638153546,1499.1700000000001,1488.8265105196824,1306.5001999999999,1500.0
7.295222043991089,154,86.5875,2273.8653002271635,1499.1700000000001,1488.0232428864499,1307.8121599999999,1500.0
7.319697141647339,154,86.564,2261.5073366389724,1499.1700000000001,1487.5907141608632,1309.18616,1500.0
7.344243049621582,154,87.564,2273.8653002271635,1499.1700000000001,1487.2817650711584,1310.6919600000001,1500.0
7.368616104125977,154,87.564,2261.5073366389724,1499.1700000000001,1487.2199752532174,1312.0377599999999,1500.0
7.3931519985198975,154,87.564,2273.8653002271635,1497.0,1488.0232428864499,1313.38356,1500.0
7.4175519943237305,155,88.5875,2273.8653002271635,1499.4300000000001,1489.5061985170328,1310.63536,1500.0
7.441957950592041,155,88.611,2273.8653002271635,1501.6600000000001,1491.3598930552614,1308.9875200000001,1500.0
7.466386079788208,156,89.6345,2273.8653002271635,1506.3199999999999,1492.4721097781987,1306.1058399999999,1500.0
7.490818023681641,156,89.6815,2273.8653002271635,1510.78,1493.9550654087816,1304.3282799999999,1500.0
7.515233039855957,156,90.6815,2286.2232638153546,1515.24,1494.7583330420139,1299.96712,1500.0
7.539670944213867,157,90.705,2286.2232638153546,1517.73,1495.1290719496596,1299.6097199999999,1500.0
7.5641350746154785,157,90.6815,2298.5812274035457,1520,1495.5616006752464,1299.4403199999999,1500.0
7.588392019271851,158,90.6815,2298.5812274035457,1520,1496.3030784905379,1300.7485200000001,1500.0
7.612795114517212,158,89.6345,2298.5812274035457,1520,1496.6738173981835,1304.9523999999999,1500.0
7.637028932571411,158,89.6345,2298.5812274035457,1520,1496.6738173981835,1310.6998800000001,1500.0
7.661320924758911,158,88.611,2286.2232638153546,1518.47,1496.241288672597,1317.8232399999999,1500.0
7.685676097869873,159,88.5875,2298.5812274035457,1518.79,1495.5616006752464,1323.6826799999999,1500.0
7.7101030349731445,159,87.564,2286.2232638153546,1516.6800000000001,1494.3875941343683,1330.8240000000001,1500.0
7.734533071517944,159,87.564,2298.5812274035457,1514.5699999999999,1493.7079061370177,1333.7416000000001,1500.0
7.758970022201538,160,86.5405,2286.2232638153546,1514.8900000000001,1492.9046385037852,1338.0012400000001,1500.0
7.783421039581299,160,86.517,2298.5812274035457,1517.1800000000001,1493.337167229372,1338.19696,1500.0
7.808072090148926,160,85.517,2298.5812274035457,1515.0699999999999,1493.337167229372,1340.97064,1500.0
7.832438945770264,161,85.517,2298.5812274035457,1517.5599999999999,1494.0786450446635,1339.6785199999999,1500.0
7.856806993484497,161,85.5405,2310.9391909917367,1519.8499999999999,1494.5111737702503,1339.74828,1500.0
7.8811259269714355,161,85.564,2298.5812274035457,1517.74,1495.1908617676006,1336.9184,1500.0
7.905447006225586,161,85.5875,2310.9391909917367,1515.6300000000001,1495.2526515855416,1335.38084,1500.0
7.929841041564941,162,85.5875,2310.9391909917367,1518.1199999999999,1495.6233904931873,1331.1034399999999,1500.0
7.9542601108551025,162,84.5875,2310.9391909917367,1516.01,1495.6233904931873,1330.8579999999999,1500.0
7.978598117828369,162,84.564,2310.9391909917367,1513.9000000000001,1495.2526515855416,1329.5403999999999,1500.0
8.003068923950195,162,84.5405,2323.2971545799273,1513.96,1495.6851803111283,1329.7144000000001,1500.0
8.02745008468628,162,83.5405,2310.9391909917367,1514.02,1495.2526515855416,1332.5979600000001,1500.0
8.051801919937134,162,83.517,2310.9391909917367,1509.6800000000001,1494.8819126778958,1335.7035599999999,1500.0
8.076117992401123,162,83.517,2310.9391909917367,1507.51,1494.51117377025,1335.9809600000001,1500.0
8.10044813156128,162,83.517,2310.9391909917367,1505.3399999999999,1494.51117377025,1336.1606000000002,1500.0
8.124797105789185,162,83.517,2323.2971545799273,1503.1700000000001,1493.8314857728997,1336.2424799999999,1500.0
8.14919114112854,162,83.517,2323.2971545799273,1501.0,1494.2022246805454,1333.4924000000001,1500.0
8.173588991165161,162,83.517,2323.2971545799273,1501.0,1494.572963588191,1330.67652,1500.0
8.197924137115479,161,83.517,2335.6551181681184,1498.5699999999999,1495.3762312214235,1329.22064,1500.0
8.222243070602417,161,83.4935,2335.6551181681184,1496.3399999999999,1496.117709036715,1327.8587600000001,1500.0
8.246577024459839,161,83.4935,2335.6551181681184,1494.1099999999999,1496.4884479443606,1326.50064,1500.0
8.270893096923828,161,82.47,2361.8249234136997,1491.8800000000001,1497.4043911279559,1329.2045599999999,1500.0
8.295248985290527,161,82.4465,2361.8249234136997,1489.6500000000001,1498.1894852853234,1330.7742800000001,1500.0
8.319736003875732,160,81.4465,2375.6367650710899,1489.3900000000001,1498.7165160854081,1334.9558,1500.0
8.344300985336304,160,81.4465,2375.6367650710899,1489.3299999999999,1499.1744876772059,1337.8715199999999,1500.0
8.368649959564209,160,81.4465,2389.4486067284797,1489.27,1500.4866126346578,1340.7872400000001,1500.0
8.393125057220459,160,81.423,2389.4486067284797,1489.21,1500.1594900690882,1340.8992000000001,1500.0
8.417443037033081,160,80.423,2403.2604483858695,1489.1500000000001,1500.3157819615269,1343.5571599999998,1500.0
8.441792964935303,160,80.3995,2417.0722900432597,1491.3199999999999,1500.42845751189,1342.2771599999999,1500.0
8.466162919998169,160,80.376,2430.8841317006495,1493.49,1500.9554883119745,1341.06296,1500.0
8.490487098693848,159,80.3525,2460.2342952226036,1493.23,1501.6120051275971,1339.8825999999999,1500.0
8.514832973480225,160,79.329,2460.2342952226036,1495.5999999999999,1502.9068652829774,1342.7022400000001,1500.0
8.539223909378052,160,79.329,2474.0461368799934,1497.77,1503.856429396923,1341.5256400000001,1500.0
8.563666105270386,160,79.3055,2489.5844587445572,1497.77,1504.8664203181197,1341.7052799999999,1500.0
8.587995052337646,160,79.282,2518.9346222665108,1497.77,1505.9972648538185,1341.8529599999999,1500.0
8.61233401298523,159,79.282,2534.4729441310747,1499.74,1506.1785452755717,1341.9066399999999,1500.0
8.636649131774902,159,79.282,2548.2847857884649,1497.51,1506.7655485460107,1339.1264800000001,1500.0
8.660995960235596,159,79.282,2548.2847857884649,1495.28,1506.8691373584411,1337.70632,1500.0
8.685354948043823,159,79.2585,2548.2847857884649,1493.05,1506.4547821087194,1336.3143600000001,1500.0
8.70975399017334,159,80.2585,2563.8231076530287,1490.8199999999999,1505.2376135626621,1332.22036,1500.0
8.734161138534546,159,80.235,2563.8231076530287,1490.8199999999999,1503.8909590010664,1329.4203600000001,1500.0
8.758846998214722,159,80.2115,2579.3614295175926,1492.99,1502.2594352052872,1328.0461599999999,1500.0
8.783329963684082,159,79.1645,2594.8997513821564,1495.1600000000001,1501.5084163151666,1329.4078400000001,1500.0
8.807698011398315,159,79.141,2594.8997513821564,1497.3299999999999,1501.1458554716603,1329.54132,1500.0
8.832108974456787,159,79.141,2594.8997513821564,1499.5,1500.7315002219386,1332.47856,1500.0
8.85647702217102,159,80.141,2594.8997513821564,1499.5,1500.7832946281537,1332.71,1500.0
8.88078498840332,160,80.141,2610.4380732467203,1501.9300000000001,1500.8609862374765,1334.07564,1500.0
8.905102968215942,160,81.1645,2625.9763951112841,1504.1600000000001,1500.4725281908625,1329.80764,1500.0
8.929512977600098,159,81.1645,2641.5147169758479,1503.96,1500.5502198001852,1326.7339999999999,1500.0
8.953932046890259,159,82.1645,2641.5147169758479,1503.96,1501.0163694561222,1319.6603600000001,1500.0
8.978284120559692,159,82.1645,2641.5147169758479,1503.96,1501.4825191120592,1316.61868,1500.0
9.002792119979858,159,82.141,2641.5147169758479,1499.5599999999999,1501.4825191120592,1313.671,1500.0
9.027162075042725,159,82.1175,2641.5147169758479,1495.1600000000001,1501.0163694561222,1315.0468799999999,1500.0
9.051501035690308,159,82.1175,2641.5147169758479,1495.1600000000001,1499.6179204883115,1316.42652,1500.0
9.075844049453735,159,82.1175,2641.5147169758479,1495.1600000000001,1498.2194715205007,1320.60616,1500.0
9.100222110748291,160,82.1175,2659.1248150890201,1497.5899999999999,1497.437375986651,1323.4258,1500.0
9.124629974365234,159,83.1175,2659.1248150890201,1499.5599999999999,1497.0333796181724,1323.53964,1500.0
9.149027109146118,160,83.1175,2659.1248150890201,1504.1600000000001,1497.0955329056305,1323.39572,1500.0
9.173403978347778,159,83.094,2659.1248150890201,1503.96,1497.6238358490257,1323.31384,1500.0
9.197710990905762,159,83.094,2659.1248150890201,1503.96,1498.1521387924208,1321.84376,1500.0
9.222048044204712,159,83.0705,2659.1248150890201,1499.5599999999999,1497.6238358490257,1320.4357199999999,1500.0
9.246428966522217,159,83.047,2659.1248150890201,1499.5599999999999,1497.0955329056305,1321.89348,1500.0
9.270733118057251,159,83.047,2659.1248150890201,1495.1600000000001,1496.5672299622354,1323.355,1500.0
9.295053958892822,159,83.047,2676.7349132021927,1495.1600000000001,1496.6552804528014,1324.75072,1500.0
9.319504022598267,158,84.0705,2676.7349132021927,1492.73,1496.6552804528014,1323.4444000000001,1500.0
9.34399700164795,158,84.0705,2676.7349132021927,1492.6700000000001,1497.1835833961966,1323.3004800000001,1500.0
9.368453979492188,157,85.094,2694.3450113153649,1488.01,1498.3282397735527,1319.02872,1500.0
9.39317512512207,157,86.094,2694.3450113153649,1485.72,1499.384845660343,1313.3451600000001,1500.0
9.417566061019897,157,86.1175,2711.9551094285371,1481.26,1500.001199094304,1308.83152,1500.0
9.441960096359253,157,87.1175,2711.9551094285371,1481.2,1500.5295020376991,1304.57188,1500.0
9.466323137283325,156,87.1175,2711.9551094285371,1480,1501.0578049810945,1301.5442,1500.0
9.490605115890503,156,87.094,2729.5652075417097,1480.8199999999999,1501.1458554716603,1301.47632,1500.0
9.514986038208008,155,87.094,2747.1753056548819,1480.5,1501.7622089056213,1304.1802399999999,1500.0
9.539413928985596,155,87.0705,2747.1753056548819,1480.3800000000001,1501.7622089056213,1307.0119999999999,1500.0
9.563908100128174,155,87.0705,2764.7854037680545,1480,1502.3785623395822,1311.2236,1500.0
9.588197946548462,155,88.0705,2747.1753056548819,1480.2,1502.2905118490164,1312.7952,1500.0
9.612596035003662,155,88.1175,2747.1753056548819,1480.1400000000001,1501.7622089056213,1313.98496,1500.0
9.637017011642456,155,88.1175,2764.7854037680545,1484.48,1500.7936535093968,1313.87112,1500.0
9.661531925201416,155,89.141,2747.1753056548819,1488.8199999999999,1499.6489971320407,1310.95748,1500.0
9.686095952987671,154,89.141,2747.1753056548819,1490.73,1497.5357853584599,1307.9120399999999,1500.0
9.710521936416626,154,89.141,2747.1753056548819,1490.6700000000001,1496.4791794716696,1307.6666,1500.0
9.735266923904419,154,88.141,2747.1753056548819,1490.6099999999999,1495.9508765282744,1310.2247199999999,1500.0
9.759762048721313,154,88.1175,2729.5652075417097,1488.3800000000001,1494.2779172075232,1311.6448800000001,1500.0
9.78419804573059,154,88.094,2711.9551094285371,1486.1500000000001,1493.1332608301668,1315.9966400000001,1500.0
9.808574914932251,154,87.094,2711.9551094285371,1488.3199999999999,1492.6049578867717,1322.9602,1500.0
9.833143949508667,154,87.0705,2711.9551094285371,1490.49,1491.5483519999814,1327.4258,1500.0
9.857515096664429,153,87.094,2694.3450113153649,1490.23,1489.8753926792299,1328.93724,1500.0
9.88188910484314,153,87.1175,2694.3450113153649,1490.1700000000001,1489.8753926792299,1330.3490400000001,1500.0
9.90625810623169,154,88.1645,2694.3450113153649,1492.54,1490.403695622625,1327.5672,1500.0
9.930645942687988,153,88.188,2694.3450113153649,1490.1099999999999,1490.9319985660202,1323.1797200000001,1500.0
9.955018997192383,154,89.235,2694.3450113153649,1490.3099999999999,1491.4603015094156,1315.99056,1500.0
9.979428052902222,154,90.3055,2676.7349132021927,1494.71,1492.42885690564,1308.6574800000001,1500.0
10.003895998001099,154,90.3525,2676.7349132021927,1499.1099999999999,1492.9571598490352,1302.58268,1500.0
10.028317928314209,154,91.376,2661.1965913376289,1499.1099999999999,1492.4133185837754,1296.8258000000001,1500.0
10.052848100662231,154,92.423,2643.5864932244563,1503.51,1491.3308154938775,1290.95884,1500.0
10.077233076095581,155,92.423,2643.5864932244563,1505.9400000000001,1490.3363628945453,1289.3118400000001,1500.0
10.10161304473877,155,92.423,2643.5864932244563,1506.0,1489.8702132386084,1290.6302800000001,1500.0
10.125951051712036,155,92.423,2625.9763951112841,1506.0599999999999,1488.7877101487104,1292.04836,1500.0
10.150357961654663,156,91.3995,2625.9763951112841,1510.72,1488.7255568612522,1297.6103599999999,1500.0
10.174797058105469,157,90.376,2643.5864932244563,1515.4400000000001,1490.3363628945453,1307.54584,1500.0
10.19930100440979,157,90.376,2661.1965913376289,1517.73,1492.4754718712336,1314.8291999999999,1500.0
10.223726034164429,158,90.3995,2661.1965913376289,1520,1493.9982274139609,1320.59464,1500.0
10.248029947280884,158,90.4465,2678.8066894508011,1520,1497.1939422774394,1326.20028,1500.0
10.272309064865112,158,91.517,2694.3450113153649,1520,1500.3792982596751,1324.77844,1500.0
10.29663610458374,159,91.564,2711.9551094285371,1520,1502.5184072363634,1320.2274,1500.0
10.320948123931885,159,91.5875,2729.5652075417097,1520,1504.1292132696565,1315.6707200000001,1500.0
10.34525203704834,160,91.611,2747.1753056548819,1520,1506.2683222463447,1311.146,1500.0
10.369590044021606,160,91.5875,2747.1753056548819,1520,1506.7344719022817,1306.84312,1500.0
10.393994092941284,160,89.5405,2764.7854037680545,1520,1506.8846756803059,1312.30548,1500.0
10.418285131454468,160,86.47,2764.7854037680545,1519.47,1506.4185260243689,1324.94112,1500.0
10.442867994308472,161,85.376,2731.636983790318,1519.79,1504.2638787258161,1336.8461199999999,1500.0
10.467236042022705,162,84.329,2731.636983790318,1520,1501.2183676403615,1350,1500.0
10.491430044174194,161,82.3055,2714.0268856771459,1517.8,1498.0848060643411,1350,1500.0
10.515775918960571,162,81.2585,2714.0268856771459,1518.1199999999999,1494.4488387480333,1350,1500.0
10.540111064910889,163,80.2585,2696.4167875639732,1520,1490.7248209411596,1350,1500.0
10.564352989196777,163,79.282,2696.4167875639732,1520,1489.6060617669109,1350,1500.0
10.588508129119873,163,79.3055,2678.8066894508011,1520,1488.3992521020964,1350,1500.0
10.612826108932495,163,79.3525,2678.8066894508011,1520,1488.337098814638,1350,1500.0
10.637025117874146,163,80.3995,2661.1965913376289,1520,1488.186895036614,1350,1500.0
10.661247968673706,163,80.4465,2643.5864932244563,1514.52,1488.564994201985,1350,1500.0
10.685548067092896,163,81.4935,2659.1248150890201,1510.1800000000001,1488.5805325238496,1338.88096,1500.0
10.709993124008179,163,81.517,2659.1248150890201,1508.01,1489.5749851231817,1328.8362399999999,1500.0
10.73474907875061,163,81.517,2659.1248150890201,1503.6700000000001,1490.0411347791187,1321.7032799999999,1500.0
10.759233951568604,163,80.517,2659.1248150890201,1501.5,1491.563890321846,1321.56584,1500.0
10.783697128295898,162,80.4935,2659.1248150890201,1499.0699999999999,1493.6149488079684,1321.7820400000001,1500.0
10.808077096939087,162,80.517,2641.5147169758479,1496.8399999999999,1494.1173545482559,1326.1676400000001,1500.0
10.832490921020508,163,80.5405,2625.9763951112841,1497.04,1493.6356665704545,1330.55324,1500.0
10.85683798789978,162,81.5875,2625.9763951112841,1494.6099999999999,1493.2316702019757,1332.13904,1500.0
10.881195068359375,162,82.611,2625.9763951112841,1492.3800000000001,1492.299370890102,1328.05528,1500.0
10.90556812286377,162,82.611,2625.9763951112841,1494.55,1490.8387686348328,1325.0699999999999,1500.0
10.930038928985596,161,82.611,2625.9763951112841,1494.29,1490.9009219222912,1320.7266,1500.0
10.954555034637451,161,81.5875,2625.9763951112841,1489.8299999999999,1491.8953745216234,1319.1190799999999,1500.0
10.979008913040161,160,81.564,2625.9763951112841,1487.3399999999999,1492.8898271209553,1319.277,1500.0
11.003484010696411,160,80.517,2625.9763951112841,1485.05,1493.8842797202874,1326.3966,1500.0
11.027857065200806,159,79.517,2643.5864932244563,1480,1495.4950857535805,1334.9317600000002,1500.0
11.052170991897583,159,79.517,2643.5864932244563,1480,1496.4895383529126,1342.23496,1500.0
11.07646894454956,159,79.517,2676.7349132021927,1480,1498.1780359955285,1346.6404000000002,1500.0
11.100717067718506,159,80.5405,2676.7349132021927,1480,1499.7007915382558,1346.8540800000001,1500.0
11.124990940093994,159,80.564,2676.7349132021927,1480,1501.2235470809831,1343.9103600000001,1500.0
11.149338960647583,159,80.564,2676.7349132021927,1486.48,1501.68969673692,1338.1948400000001,1500.0
11.173785924911499,159,80.564,2676.7349132021927,1490.8199999999999,1502.1558463928568,1332.4793200000001,1500.0
11.198177099227905,159,80.564,2676.7349132021927,1495.1600000000001,1500.6330908501297,1328.1557600000001,1500.0
11.22252893447876,158,80.5405,2676.7349132021927,1494.9000000000001,1499.1103353074025,1326.7919999999999,1500.0
11.246901988983154,159,79.4935,2676.7349132021927,1497.27,1497.5875797646752,1329.6538399999999,1500.0
11.271278142929077,158,78.423,2659.1248150890201,1494.8399999999999,1495.9767737313821,1335.4454000000001,1500.0
11.295705080032349,158,77.376,2659.1248150890201,1492.6099999999999,1494.4540181886548,1342.7164399999999,1500.0
11.320276021957397,158,76.329,2641.5147169758479,1490.3800000000001,1493.3093618112985,1350,1500.0
11.344713926315308,157,76.3055,2641.5147169758479,1490.1199999999999,1492.2527559245082,1350,1500.0
11.369048118591309,158,76.282,2641.5147169758479,1488.0899999999999,1491.1961500377179,1350,1500.0
11.393418073654175,158,76.282,2641.5147169758479,1490.26,1491.1961500377179,1350,1500.0
11.41772198677063,158,76.3055,2625.9763951112841,1492.4300000000001,1490.6523087724581,1350,1500.0
11.441987991333008,157,77.329,2625.9763951112841,1492.1700000000001,1491.2427650033117,1349.7397599999999,1500.0
11.466381072998047,158,78.329,2625.9763951112841,1496.77,1491.833221234165,1339.8663200000001,1500.0
11.490742921829224,157,78.329,2625.9763951112841,1496.51,1492.4236774650185,1332.5509999999999,1500.0
11.515124082565308,158,78.329,2625.9763951112841,1496.71,1492.4858307524767,1326.69156,1500.0
11.539551973342896,158,79.329,2625.9763951112841,1496.71,1493.4802833518088,1319.68184,1500.0
11.564068078994751,158,79.376,2610.4380732467203,1501.1099999999999,1493.4025917424858,1318.0377599999999,1500.0
11.588469982147217,158,81.3995,2594.8997513821564,1498.9400000000001,1492.8587504772263,1313.9400000000001,1500.0
11.613003969192505,158,82.423,2579.3614295175926,1503.3399999999999,1491.8487595560296,1309.6003599999999,1500.0
11.637421131134033,158,83.4465,2579.3614295175926,1503.3399999999999,1490.9164602441558,1303.7868800000001,1500.0
11.661822080612183,158,83.4465,2594.8997513821564,1503.3399999999999,1490.0618525416048,1301.96964,1500.0
11.686522006988525,158,84.4465,2594.8997513821564,1501.1700000000001,1490.0618525416048,1296.2520400000001,1500.0
11.711098909378052,158,83.3995,2594.8997513821564,1501.1700000000001,1490.9941518534786,1298.80432,1500.0
11.735697031021118,158,83.376,2594.8997513821564,1499.0,1492.8587504772263,1303.0280399999999,1500.0
11.760167121887207,158,83.3525,2594.8997513821564,1499.0,1494.7233491009738,1310.1514,1500.0
11.784613132476807,158,83.3525,2579.3614295175926,1499.0,1495.111807147588,1315.8865599999999,1500.0
11.809063911437988,158,83.376,2579.3614295175926,1499.0,1495.111807147588,1324.29576,1500.0
11.83358097076416,158,84.3995,2594.8997513821564,1499.0,1495.1894987569108,1324.3475599999999,1500.0
11.8579580783844,157,85.3995,2610.4380732467203,1496.5699999999999,1495.2671903662335,1321.5298,1500.0
11.882353067398071,158,85.3995,2610.4380732467203,1496.77,1495.2671903662335,1318.4542799999999,1500.0
11.906750917434692,158,85.3995,2610.4380732467203,1496.77,1496.6656393340443,1315.3787600000001,1500.0
11.931148052215576,158,85.3995,2610.4380732467203,1496.77,1498.064088301855,1311.0090399999999,1500.0
11.955552101135254,158,85.376,2610.4380732467203,1496.77,1498.530237957792,1310.99108,1500.0
11.979990005493164,158,84.3525,2610.4380732467203,1501.1700000000001,1498.064088301855,1316.47892,1500.0
12.004431962966919,157,84.3055,2610.4380732467203,1498.74,1497.5979386459182,1320.8946000000001,1500.0
12.02883005142212,158,83.2585,2625.9763951112841,1498.9400000000001,1497.209480599304,1328.0179600000001,1500.0
12.053333044052124,158,82.235,2625.9763951112841,1498.9400000000001,1496.743330943367,1336.5550000000001,1500.0
12.077728033065796,158,82.235,2625.9763951112841,1498.9400000000001,1496.7433309433673,1342.40608,1500.0
12.102098941802979,157,83.2585,2625.9763951112841,1494.3399999999999,1497.209480599304,1341.3293200000001,1500.0
12.126482009887695,157,83.282,2610.4380732467203,1496.51,1497.1317889899813,1341.28712,1500.0
12.150864124298096,157,84.329,2610.4380732467203,1494.28,1496.1994896781075,1335.57744,1500.0
12.175230026245117,157,84.3525,2594.8997513821564,1492.05,1494.7233491009738,1328.19632,1500.0
12.199717044830322,157,85.376,2594.8997513821564,1489.8199999999999,1493.3249001331631,1318.1733199999999,1500.0
12.224209070205688,156,85.3995,2594.8997513821564,1489.5599999999999,1491.9264511653523,1313.5742399999999,1500.0
12.24864411354065,157,86.4465,2594.8997513821564,1489.76,1491.4603015094153,1306.3689999999999,1500.0
12.273149967193604,157,86.4465,2579.3614295175926,1491.9300000000001,1490.9164602441558,1304.77568,1500.0
12.29756498336792,157,86.4465,2579.3614295175926,1494.0999999999999,1491.3826099000926,1304.64012,1500.0
12.321999073028564,157,86.4465,2563.8231076530287,1496.27,1491.3049182907698,1307.3703599999999,1500.0
12.346442937850952,157,86.4465,2563.8231076530287,1500.6700000000001,1491.3049182907698,1308.7744399999999,1500.0
12.370834112167358,158,86.47,2563.8231076530287,1503.0999999999999,1490.8387686348328,1313.01612,1500.0
12.395236015319824,158,86.4935,2548.2847857884649,1505.3299999999999,1490.7610770255101,1315.8000400000001,1500.0
12.41975712776184,157,86.517,2548.2847857884649,1505.1300000000001,1490.2949273695731,1318.5181600000001,1500.0
12.444329977035522,157,86.4935,2532.746463923901,1505.1300000000001,1490.2172357602503,1319.9345599999999,1500.0
12.468775033950806,157,86.47,2532.746463923901,1502.96,1490.2172357602503,1321.35284,1500.0
12.493294954299927,157,85.4465,2532.746463923901,1498.5599999999999,1490.2172357602503,1324.0868399999999,1500.0
12.517663955688477,157,84.4465,2532.746463923901,1494.1600000000001,1490.6833854161873,1328.29844,1500.0
12.541974067687988,158,84.47,2532.746463923901,1496.5899999999999,1491.1495350721241,1331.3137999999999,1500.0
12.56640100479126,158,84.4935,2532.746463923901,1498.8199999999999,1492.0818343839981,1334.2295200000001,1500.0
12.59079909324646,158,85.517,2532.746463923901,1501.05,1493.0141336958718,1334.4056,1500.0
12.615190029144287,159,85.5405,2532.746463923901,1507.8800000000001,1493.9464330077458,1332.8500799999999,1500.0
12.639949083328247,160,85.564,2532.746463923901,1516.9400000000001,1494.4125826636825,1328.42876,1500.0
12.66444706916809,160,85.564,2532.746463923901,1519.23,1494.8787323196195,1324.0694800000001,1500.0
12.688807964324951,161,85.564,2532.746463923901,1520,1494.8787323196195,1319.8079600000001,1500.0
12.713236093521118,161,85.564,2532.746463923901,1520,1494.8787323196195,1318.4442000000001,1500.0
12.737564086914062,161,85.564,2532.746463923901,1520,1494.8787323196195,1318.5382,1500.0
12.76189398765564,161,84.5405,2532.746463923901,1520,1494.8787323196195,1322.7600400000001,1500.0
12.78615403175354,161,84.5405,2548.2847857884649,1520,1495.4225735848793,1325.72172,1500.0
12.810445070266724,162,84.517,2563.8231076530287,1518.1199999999999,1496.4325645060758,1328.7134799999999,1500.0
12.834873914718628,162,83.47,2563.8231076530287,1513.8399999999999,1497.3648638179498,1333.04916,1500.0
12.859319925308228,162,83.4465,2579.3614295175926,1511.73,1498.8410043950832,1336.15852,1500.0
12.883819103240967,162,81.3995,2579.3614295175926,1511.79,1500.239453362894,1341.7459999999999,1500.0
12.908227920532227,162,81.376,2594.8997513821564,1511.8499999999999,1501.2494442840907,1344.93912,1500.0
12.932622909545898,162,80.329,2610.4380732467203,1509.6800000000001,1501.7932855493505,1350,1500.0
12.956936120986938,163,80.3055,2610.4380732467203,1509.9400000000001,1502.2594352052872,1350,1500.0
12.9812490940094,162,79.3055,2594.8997513821564,1507.5699999999999,1501.2494442840907,1350,1500.0
13.005599975585938,161,79.3055,2610.4380732467203,1502.97,1500.8609862374765,1350,1500.0
13.029982089996338,162,79.329,2610.4380732467203,1501.0,1499.9286869256027,1350,1500.0
13.054328918457031,162,79.329,2610.4380732467203,1501.0,1498.530237957792,1349.9264800000001,1500.0
13.078683137893677,161,79.329,2610.4380732467203,1494.1700000000001,1497.1317889899813,1347.02892,1500.0
13.103228092193604,161,79.3055,2610.4380732467203,1491.9400000000001,1497.1317889899813,1341.42536,1500.0
13.12762713432312,161,78.2585,2610.4380732467203,1494.1099999999999,1496.1994896781075,1341.3416,1500.0
13.15203309059143,160,77.2115,2610.4380732467203,1489.45,1495.7333400221705,1342.86328,1500.0
13.176382064819336,159,76.141,2610.4380732467203,1482.5599999999999,1495.7333400221705,1347.3786,1500.0
13.200758934020996,160,75.1175,2594.8997513821564,1484.8699999999999,1495.1894987569108,1350,1500.0
13.225055932998657,160,75.094,2610.4380732467203,1484.8099999999999,1494.8010407102968,1350,1500.0
13.249443054199219,159,75.094,2594.8997513821564,1480.1500000000001,1494.257199445037,1350,1500.0
13.273858070373535,158,77.1645,2594.8997513821564,1480,1493.7910497891,1350,1500.0
13.29811692237854,158,78.2115,2579.3614295175926,1484.1099999999999,1492.7810588679033,1348.6987199999999,1500.0
13.32250714302063,158,79.2585,2563.8231076530287,1481.8199999999999,1492.2372176026436,1335.75164,1500.0
13.34691309928894,158,80.282,2548.2847857884649,1480,1490.2949273695731,1321.3250800000001,1500.0
13.371218919754028,155,81.3055,2548.2847857884649,1480,1489.3626280576993,1306.8486,1500.0
13.395540952682495,157,82.3055,2518.9346222665108,1480,1487.403073022557,1298.18164,1500.0
13.420045137405396,156,83.3055,2489.5844587445572,1480,1485.4953123936302,1292.46216,1500.0
13.444550037384033,157,83.3055,2475.7726170871674,1480,1483.7170377802411,1292.2662400000002,1500.0
13.46893310546875,155,84.329,2446.4224535652133,1480,1482.3790156196815,1292.26604,1500.0
13.493336915969849,154,85.329,2432.6106119078236,1480.1800000000001,1480.238180162786,1293.71984,1500.0
13.51775312423706,155,85.3525,2417.0722900432597,1480,1479.383572460235,1296.2957200000001,1500.0
13.542081117630005,154,87.3995,2390.9024847976784,1480,1478.9855733387919,1294.8717999999999,1500.0
13.566383123397827,153,88.4465,2364.7326795520971,1480,1478.1650409034878,1291.7162799999999,1500.0
13.590656042098999,152,89.5405,2338.5628743065158,1480,1477.8542744661963,1288.40284,1500.0
13.614934921264648,152,91.5875,2324.7510326491256,1480,1478.0196530965677,1282.40616,1500.0
13.63968300819397,152,92.6345,2324.7510326491256,1480,1478.3058853414414,1274.8075999999999,1500.0
13.664165019989014,151,94.705,2324.7510326491256,1480,1479.281800995391,1267.3709200000001,1500.0
13.688506126403809,151,95.7285,2324.7510326491256,1480,1481.4135497143541,1262.6484,1500.0
13.712996006011963,150,95.752,2324.7510326491256,1480,1484.2349818423932,1260.7632800000001,1500.0
13.73730206489563,150,95.799,2312.393069060935,1480,1487.0382404945674,1263.1538800000001,1500.0
13.761606931686401,150,96.8225,2275.1010965859814,1480,1488.1319202721224,1265.7984799999999,1500.0
13.785926103591919,151,96.846,2287.4590601741725,1480,1489.0594944802713,1272.6227200000001,1500.0
13.810267925262451,150,96.846,2299.8170237623635,1480,1489.5727134386987,1280.91704,1500.0
13.834644079208374,151,95.846,2299.8170237623635,1486.6400000000001,1489.2390484218174,1290.42932,1500.0
13.859080076217651,151,94.8225,2287.4590601741725,1493.21,1488.7999772449193,1298.79132,1500.0
13.883570909500122,151,94.8225,2275.1010965859814,1499.78,1490.2276855088728,1307.367,1500.0
13.908005952835083,150,93.799,2262.7431329977908,1497.3499999999999,1490.543177049889,1315.89464,1500.0
13.932430028915405,152,92.799,2262.7431329977908,1504.3800000000001,1490.1789805935546,1324.4421199999999,1500.0
13.956839084625244,151,91.799,2250.3851694095997,1502.01,1489.3822554116337,1331.59764,1500.0
13.981215953826904,153,90.799,2250.3851694095997,1504.7,1489.0180589552992,1337.2634399999999,1500.0
14.005604028701782,153,90.8225,2261.5073366389715,1506.99,1488.6658569930357,1340.2752399999999,1500.0
14.030081033706665,153,89.8225,2249.1493730507805,1515.8499999999999,1488.937732191976,1343.0574799999999,1500.0
14.054548978805542,154,89.8695,2249.1493730507805,1516.1700000000001,1489.6421361165028,1341.7156399999999,1500.0
14.078967094421387,154,89.8695,2261.5073366389715,1520,1491.5205465819079,1338.9902,1500.0
14.103349924087524,155,89.893,2273.8653002271626,1520,1493.3989570473129,1334.79468,1500.0
14.127609968185425,156,88.8695,2286.2232638153537,1520,1494.6100374789557,1333.3951999999999,1500.0
14.151886940002441,156,87.8695,2286.2232638153537,1520,1496.1300670003031,1331.9994799999999,1500.0
14.176151990890503,157,87.8695,2286.2232638153537,1520,1497.6500965216508,1330.89536,1500.0
14.200438976287842,158,86.8695,2298.5812274035443,1520,1498.4904380456476,1333.79124,1500.0
14.224720001220703,159,85.8695,2310.9391909917354,1520,1498.9600406619988,1339.5529200000001,1500.0
14.249069929122925,160,85.846,2323.2971545799264,1520,1499.3925693875856,1341.2788800000001,1500.0
