time,frame,x,y,size_inv,roll,pitch,thrust,yaw
0,1,157,96,0.00030525030525030525,1499.7,1480,1208.0,1500
0.05,2,157,98,0.0002738225629791895,1499.7,1480,1204.0,1500
0.1,3,157,95,0.00030120481927710846,1499.7,1480,1210.0,1500
0.15000000000000002,4,157,97,0.0002938583602703497,1499.7,1480,1206.0,1500
0.2,5,158,101,0.00023623907394283014,1499.8,1480,1198.0,1500
0.25,6,157,98,0.0002738225629791895,1499.7,1480,1204.0,1500
0.3,7,156,99,0.00027100271002710027,1499.6,1480,1202.0,1500
0.35,8,156,105,0.0003933910306845004,1499.6,1480,1190.0,1500
0.39999999999999997,9,157,102,0.0003933910306845004,1499.7,1480,1196.0,1500
0.44999999999999996,10,157,105,0.0004154549231408392,1499.7,1480,1190.0,1500
0.49999999999999994,11,157,100,0.0002738225629791895,1499.7,1480,1200.0,1500
0.5499999999999999,12,156,99,0.00029036004645760743,1499.6,1480,1202.0,1500
0.6,13,157,106,0.00027434842249657066,1499.7,1480,1188.0,1500
0.65,14,157,105,0.00023452157598499062,1499.7,1480,1190.0,1500
0.7000000000000001,15,157,111,0.000297441998810232,1499.7,1480,1178.0,1500
0.7500000000000001,16,157,108,0.000333667000333667,1499.7,1480,1184.0,1500
0.8000000000000002,17,157,104,0.0002519526329050139,1499.7,1480,1192.0,1500
0.8500000000000002,18,157,111,0.00029394473838918284,1499.7,1480,1178.0,1500
0.9000000000000002,19,157,111,0.00027434842249657066,1499.7,1480,1178.0,1500
0.9500000000000003,20,156,108,0.00024509803921568627,1499.6,1480,1184.0,1500
1.0000000000000002,21,157,107,0.00023741690408357076,1499.7,1480,1186.0,1500
1.0500000000000003,22,157,110,0.00026838432635534085,1499.7,1480,1180.0,1500
1.1000000000000003,23,157,104,0.00023741690408357076,1499.7,1480,1192.0,1500
1.1500000000000004,24,155,106,0.00022727272727272727,1499.5,1480,1188.0,1500
1.2000000000000004,25,156,113,0.00030864197530864197,1499.6,1480,1174.0,1500
1.2500000000000004,26,155,106,0.00022862368541380886,1499.5,1480,1188.0,1500
1.3000000000000005,27,157,107,0.0002450379808870375,1499.7,1480,1186.0,1500
1.3500000000000005,28,154,109,0.00023293733985557886,1499.4,1480,1182.0,1500
1.4000000000000006,29,153,109,0.0002244668911335578,1499.3,1480,1182.0,1500
1.4500000000000006,30,152,109,0.00024342745861733204,1499.2,1480,1182.0,1500
1.5000000000000007,31,154,105,0.00029515938606847696,1499.4,1480,1190.0,1500
1.5500000000000007,32,163,105,0.000474158368895211,1500.3,1480,1190.0,1500
1.6000000000000008,33,163,105,0.000474158368895211,1500.3,1480,1190.0,1500
1.6500000000000008,34,163,105,0.000474158368895211,1500.3,1480,1190.0,1500
1.7000000000000008,35,163,105,0.000474158368895211,1500.3,1480,1190.0,1500
1.7500000000000009,36,163,105,0.000474158368895211,1500.3,1480,1190.0,1500
1.800000000000001,37,163,105,0.000474158368895211,1500.3,1480,1190.0,1500
1.850000000000001,38,163,105,0.000474158368895211,1500.3,1480,1190.0,1500
1.900000000000001,39,163,105,0.000474158368895211,1500.3,1480,1190.0,1500
1.950000000000001,40,163,105,0.000474158368895211,1500.3,1480,1190.0,1500
2.000000000000001,41,163,105,0.000474158368895211,1500.3,1480,1190.0,1500
2.0500000000000007,42,163,105,0.000474158368895211,1500.3,1480,1190.0,1500
2.1000000000000005,43,163,105,0.000474158368895211,1500.3,1480,1190.0,1500
2.1500000000000004,44,163,105,0.000474158368895211,1500.3,1480,1190.0,1500
2.2,45,163,105,0.000474158368895211,1500.3,1480,1190.0,1500
2.25,46,163,105,0.000474158368895211,1500.3,1480,1190.0,1500
2.3,47,163,105,0.000474158368895211,1500.3,1480,1190.0,1500
2.3499999999999996,48,163,105,0.000474158368895211,1500.3,1480,1190.0,1500
2.3999999999999995,49,163,105,0.000474158368895211,1500.3,1480,1190.0,1500
2.4499999999999993,50,163,105,0.000474158368895211,1500.3,1480,1190.0,1500
2.499999999999999,51,163,105,0.000474158368895211,1500.3,1480,1190.0,1500
2.549999999999999,52,163,105,0.000474158368895211,1500.3,1480,1190.0,1500
2.5999999999999988,53,163,105,0.000474158368895211,1500.3,1480,1190.0,1500
2.6499999999999986,54,163,105,0.000474158368895211,1500.3,1480,1190.0,1500
2.6999999999999984,55,163,105,0.000474158368895211,1500.3,1480,1190.0,1500
2.7499999999999982,56,163,105,0.000474158368895211,1500.3,1480,1190.0,1500
2.799999999999998,57,163,105,0.000474158368895211,1500.3,1480,1190.0,1500
2.849999999999998,58,163,105,0.000474158368895211,1500.3,1480,1190.0,1500
2.8999999999999977,59,163,105,0.000474158368895211,1500.3,1480,1190.0,1500
2.9499999999999975,60,163,105,0.000474158368895211,1500.3,1480,1190.0,1500
2.9999999999999973,61,163,105,0.000474158368895211,1500.3,1480,1190.0,1500
3.049999999999997,62,163,105,0.000474158368895211,1500.3,1480,1190.0,1500
3.099999999999997,63,163,105,0.000474158368895211,1500.3,1480,1190.0,1500
3.149999999999997,64,163,105,0.000474158368895211,1500.3,1480,1190.0,1500
3.1999999999999966,65,163,105,0.000474158368895211,1500.3,1480,1190.0,1500
3.2499999999999964,66,163,105,0.000474158368895211,1500.3,1480,1190.0,1500
3.2999999999999963,67,163,105,0.000474158368895211,1500.3,1480,1190.0,1500
3.349999999999996,68,163,105,0.000474158368895211,1500.3,1480,1190.0,1500
3.399999999999996,69,163,105,0.000474158368895211,1500.3,1480,1190.0,1500
3.4499999999999957,70,163,105,0.000474158368895211,1500.3,1480,1190.0,1500
3.4999999999999956,71,163,105,0.000474158368895211,1500.3,1480,1190.0,1500
3.5499999999999954,72,163,105,0.000474158368895211,1500.3,1480,1190.0,1500
3.599999999999995,73,163,105,0.000474158368895211,1500.3,1480,1190.0,1500
3.649999999999995,74,163,105,0.000474158368895211,1500.3,1480,1190.0,1500
3.699999999999995,75,163,105,0.000474158368895211,1500.3,1480,1190.0,1500
3.7499999999999947,76,163,105,0.000474158368895211,1500.3,1480,1190.0,1500
3.7999999999999945,77,163,105,0.000474158368895211,1500.3,1480,1190.0,1500
3.8499999999999943,78,163,105,0.000474158368895211,1500.3,1480,1190.0,1500
3.899999999999994,79,163,105,0.000474158368895211,1500.3,1480,1190.0,1500
3.949999999999994,80,163,105,0.000474158368895211,1500.3,1480,1190.0,1500
3.999999999999994,81,163,105,0.000474158368895211,1500.3,1480,1190.0,1500
4.049999999999994,82,163,105,0.000474158368895211,1500.3,1480,1190.0,1500
4.099999999999993,83,163,105,0.000474158368895211,1500.3,1480,1190.0,1500
4.149999999999993,84,163,105,0.000474158368895211,1500.3,1480,1190.0,1500
4.199999999999993,85,163,105,0.000474158368895211,1500.3,1480,1190.0,1500
4.249999999999993,86,163,105,0.000474158368895211,1500.3,1480,1190.0,1500
4.299999999999993,87,163,105,0.000474158368895211,1500.3,1480,1190.0,1500
4.3499999999999925,88,163,105,0.000474158368895211,1500.3,1480,1190.0,1500
4.399999999999992,89,163,105,0.000474158368895211,1500.3,1480,1190.0,1500
4.449999999999992,90,163,105,0.000474158368895211,1500.3,1480,1190.0,1500
4.499999999999992,91,163,105,0.000474158368895211,1500.3,1480,1190.0,1500
4.549999999999992,92,163,105,0.000474158368895211,1500.3,1480,1190.0,1500
4.599999999999992,93,163,105,0.000474158368895211,1500.3,1480,1190.0,1500
4.6499999999999915,94,163,105,0.000474158368895211,1500.3,1480,1190.0,1500
4.699999999999991,95,163,105,0.000474158368895211,1500.3,1480,1190.0,1500
4.749999999999991,96,163,105,0.000474158368895211,1500.3,1480,1190.0,1500
4.799999999999991,97,163,105,0.000474158368895211,1500.3,1480,1190.0,1500
4.849999999999991,98,163,105,0.000474158368895211,1500.3,1480,1190.0,1500
4.899999999999991,99,163,105,0.000474158368895211,1500.3,1480,1190.0,1500
4.94999999999999,100,163,105,0.000474158368895211,1500.3,1480,1190.0,1500
4.99999999999999,101,163,105,0.000474158368895211,1500.3,1480,1190.0,1500
5.04999999999999,102,163,105,0.000474158368895211,1500.3,1480,1190.0,1500
5.09999999999999,103,163,105,0.000474158368895211,1500.3,1480,1190.0,1500
5.14999999999999,104,163,105,0.000474158368895211,1500.3,1480,1190.0,1500
