time,frame,x,y,size_inv,roll,pitch,thrust,yaw
0.00024890899658203125,1,,,,1500.0,1490.0,1400.0,1500
0.021910905838012695,2,160,55,0.0005656108597285068,1500.0,1489.3122171945702,1415,1500
0.043248891830444336,3,160,55,0.0005767012687427913,1500.0,1489.5340253748559,1415,1500
0.06440901756286621,4,160,55,0.0005656108597285068,1500.0,1489.3122171945702,1415,1500
0.08550596237182617,5,160,55,0.0005656108597285068,1500.0,1489.3122171945702,1415,1500
0.10659289360046387,6,160,56,0.0005827505827505828,1500.0,1489.6550116550115,1415,1500
0.1279449462890625,7,160,56,0.0005827505827505828,1500.0,1489.6550116550115,1415,1500
0.1491990089416504,8,160,55,0.0005656108597285068,1500.0,1489.3122171945702,1415,1500
0.17054986953735352,9,160,55,0.0005656108597285068,1500.0,1489.3122171945702,1415,1500
0.1920788288116455,10,160,55,0.0005656108597285068,1500.0,1489.3122171945702,1415,1500
0.21350884437561035,11,160,55,0.0005656108597285068,1500.0,1489.3122171945702,1415,1500
0.2350149154663086,12,160,56,0.0005827505827505828,1500.0,1489.6550116550115,1415,1500
0.25655078887939453,13,160,55,0.0005656108597285068,1500.0,1489.3122171945702,1415,1500
0.27807188034057617,14,160,55,0.0005656108597285068,1500.0,1489.3122171945702,1415,1500
0.29958581924438477,15,160,56,0.0005827505827505828,1500.0,1489.6550116550115,1415,1500
0.32106900215148926,16,160,55,0.0005767012687427913,1500.0,1489.5340253748559,1415,1500
0.3427460193634033,17,160,55,0.0005656108597285068,1500.0,1489.3122171945702,1415,1500
0.36443495750427246,18,160,55,0.0005767012687427913,1500.0,1489.5340253748559,1415,1500
0.3860189914703369,19,160,55,0.0005656108597285068,1500.0,1489.3122171945702,1415,1500
0.4075148105621338,20,160,55,0.0005656108597285068,1500.0,1489.3122171945702,1415,1500
0.42903590202331543,21,160,55,0.0005767012687427913,1500.0,1489.5340253748559,1415,1500
0.45052385330200195,22,160,56,0.0005827505827505828,1500.0,1489.6550116550115,1415,1500
0.4720888137817383,23,160,55,0.0005656108597285068,1500.0,1489.3122171945702,1415,1500
0.49356698989868164,24,160,55,0.0005656108597285068,1500.0,1489.3122171945702,1415,1500
0.5151128768920898,25,160,55,0.0005767012687427913,1500.0,1489.5340253748559,1415,1500
0.5365958213806152,26,160,55,0.0005656108597285068,1500.0,1489.3122171945702,1415,1500
0.5581598281860352,27,160,55,0.0005767012687427913,1500.0,1489.5340253748559,1415,1500
0.5796167850494385,28,160,55,0.0005767012687427913,1500.0,1489.5340253748559,1415,1500
0.6011378765106201,29,160,55,0.0005767012687427913,1500.0,1489.5340253748559,1415,1500
0.6227397918701172,30,160,55,0.0005767012687427913,1500.0,1489.5340253748559,1415,1500
0.6443789005279541,31,160,55,0.0005656108597285068,1500.0,1489.3122171945702,1415,1500
0.6658740043640137,32,160,55,0.0005767012687427913,1500.0,1489.5340253748559,1415,1500
0.6873478889465332,33,160,55,0.0005767012687427913,1500.0,1489.5340253748559,1415,1500
0.7089638710021973,34,160,55,0.0005767012687427913,1500.0,1489.5340253748559,1415,1500
0.7305519580841064,35,160,56,0.0005602240896358543,1500.0,1489.2044817927172,1415,1500
0.752281904220581,36,160,56,0.0005602240896358543,1500.0,1489.2044817927172,1415,1500
0.7738399505615234,37,160,56,0.0005602240896358543,1500.0,1489.2044817927172,1415,1500
0.7954599857330322,38,160,55,0.0005767012687427913,1500.0,1489.5340253748559,1415,1500
0.8169407844543457,39,160,56,0.0005602240896358543,1500.0,1489.2044817927172,1415,1500
0.8384180068969727,40,160,55,0.0005767012687427913,1500.0,1489.5340253748559,1415,1500
0.8599188327789307,41,160,55,0.0005656108597285068,1500.0,1489.3122171945702,1415,1500
0.8814809322357178,42,160,56,0.0005602240896358543,1500.0,1489.2044817927172,1415,1500
0.9031088352203369,43,160,55,0.0005656108597285068,1500.0,1489.3122171945702,1415,1500
0.9246439933776855,44,160,55,0.0005656108597285068,1500.0,1489.3122171945702,1415,1500
0.9461758136749268,45,160,55,0.0005656108597285068,1500.0,1489.3122171945702,1415,1500
0.9677169322967529,46,160,55,0.0005656108597285068,1500.0,1489.3122171945702,1415,1500
0.989238977432251,47,160,55,0.0005656108597285068,1500.0,1489.3122171945702,1415,1500
1.011051893234253,48,160,55,0.0005656108597285068,1500.0,1489.3122171945702,1415,1500
1.032641887664795,49,160,55,0.0005656108597285068,1500.0,1489.3122171945702,1415,1500
1.0541999340057373,50,160,55,0.0005656108597285068,1500.0,1489.3122171945702,1415,1500
1.075730800628662,51,160,55,0.0005656108597285068,1500.0,1489.3122171945702,1415,1500
1.097249984741211,52,160,55,0.0005656108597285068,1500.0,1489.3122171945702,1415,1500
1.1187357902526855,53,160,55,0.0005656108597285068,1500.0,1489.3122171945702,1415,1500
1.1403248310089111,54,160,55,0.0005656108597285068,1500.0,1489.3122171945702,1415,1500
1.161836862564087,55,160,55,0.0005656108597285068,1500.0,1489.3122171945702,1415,1500
1.1833298206329346,56,160,55,0.0005656108597285068,1500.0,1489.3122171945702,1415,1500
1.2048239707946777,57,161,55,0.0005767012687427913,1500.0999999999999,1489.5340253748559,1415,1500
1.2263708114624023,58,161,55,0.0005767012687427913,1500.0999999999999,1489.5340253748559,1415,1500
1.247837781906128,59,161,55,0.0005767012687427913,1500.0999999999999,1489.5340253748559,1415,1500
1.2693719863891602,60,161,55,0.0005767012687427913,1500.0999999999999,1489.5340253748559,1415,1500
1.2908589839935303,61,161,55,0.0005767012687427913,1500.0999999999999,1489.5340253748559,1415,1500
1.3124268054962158,62,161,55,0.0005767012687427913,1500.0999999999999,1489.5340253748559,1415,1500
1.333927869796753,63,161,55,0.0005767012687427913,1500.0999999999999,1489.5340253748559,1415,1500
1.3554627895355225,64,161,55,0.0005767012687427913,1500.0999999999999,1489.5340253748559,1415,1500
1.3770709037780762,65,161,55,0.0005767012687427913,1500.0999999999999,1489.5340253748559,1415,1500
1.3986330032348633,66,161,55,0.0005767012687427913,1500.0999999999999,1489.5340253748559,1415,1500
1.42026686668396,67,161,55,0.0005767012687427913,1500.0999999999999,1489.5340253748559,1415,1500
1.4417498111724854,68,161,55,0.0005767012687427913,1500.0999999999999,1489.5340253748559,1415,1500
1.463282823562622,69,161,55,0.0005767012687427913,1500.0999999999999,1489.5340253748559,1415,1500
1.484773874282837,70,161,55,0.0005767012687427913,1500.0999999999999,1489.5340253748559,1415,1500
1.506330966949463,71,161,55,0.0005767012687427913,1500.0999999999999,1489.5340253748559,1415,1500
1.5278708934783936,72,161,55,0.0005767012687427913,1500.0999999999999,1489.5340253748559,1415,1500
1.5493879318237305,73,160,55,0.0005656108597285068,1500.0,1489.3122171945702,1415,1500
1.570889949798584,74,160,55,0.0005656108597285068,1500.0,1489.3122171945702,1415,1500
1.5924999713897705,75,160,55,0.0005656108597285068,1500.0,1489.3122171945702,1415,1500
1.6139769554138184,76,160,55,0.0005656108597285068,1500.0,1489.3122171945702,1415,1500
1.6354799270629883,77,160,55,0.0005656108597285068,1500.0,1489.3122171945702,1415,1500
1.6569709777832031,78,160,55,0.0005656108597285068,1500.0,1489.3122171945702,1415,1500
1.678494930267334,79,160,55,0.0005656108597285068,1500.0,1489.3122171945702,1415,1500
1.699965000152588,80,160,55,0.0005656108597285068,1500.0,1489.3122171945702,1415,1500
1.721538782119751,81,160,55,0.0005656108597285068,1500.0,1489.3122171945702,1415,1500
1.7430698871612549,82,160,55,0.0005656108597285068,1500.0,1489.3122171945702,1415,1500
1.7645959854125977,83,160,55,0.0005656108597285068,1500.0,1489.3122171945702,1415,1500
1.7861089706420898,84,160,55,0.0005767012687427913,1500.0,1489.5340253748559,1415,1500
1.807694911956787,85,160,55,0.0005656108597285068,1500.0,1489.3122171945702,1415,1500
1.829230785369873,86,160,55,0.0005767012687427913,1500.0,1489.5340253748559,1415,1500
1.850728988647461,87,160,55,0.0005767012687427913,1500.0,1489.5340253748559,1415,1500
1.8723359107971191,88,160,55,0.0005767012687427913,1500.0,1489.5340253748559,1415,1500
1.8938169479370117,89,160,55,0.0005767012687427913,1500.0,1489.5340253748559,1415,1500
1.9153199195861816,90,160,55,0.0005767012687427913,1500.0,1489.5340253748559,1415,1500
1.9368078708648682,91,160,55,0.0005767012687427913,1500.0,1489.5340253748559,1415,1500
1.9585838317871094,92,160,55,0.0005767012687427913,1500.0,1489.5340253748559,1415,1500
1.9801688194274902,93,160,55,0.0005767012687427913,1500.0,1489.5340253748559,1415,1500
2.0016980171203613,94,160,55,0.0005767012687427913,1500.0,1489.5340253748559,1415,1500
2.023247003555298,95,160,55,0.0005767012687427913,1500.0,1489.5340253748559,1415,1500
2.0447709560394287,96,160,55,0.0005767012687427913,1500.0,1489.5340253748559,1415,1500
2.0662758350372314,97,160,55,0.0005767012687427913,1500.0,1489.5340253748559,1415,1500
2.0877699851989746,98,160,55,0.0005767012687427913,1500.0,1489.5340253748559,1415,1500
2.1092588901519775,99,160,55,0.0005767012687427913,1500.0,1489.5340253748559,1415,1500
2.1308109760284424,100,160,55,0.0005767012687427913,1500.0,1489.5340253748559,1415,1500
2.152333974838257,101,160,55,0.0005767012687427913,1500.0,1489.5340253748559,1415,1500
2.1738269329071045,102,159,55,0.0005656108597285068,1499.9000000000001,1489.3122171945702,1415,1500
2.1953139305114746,103,159,55,0.0005656108597285068,1499.9000000000001,1489.3122171945702,1415,1500
2.216845989227295,104,159,55,0.0005656108597285068,1499.9000000000001,1489.3122171945702,1415,1500
2.2383618354797363,105,159,55,0.0005656108597285068,1499.9000000000001,1489.3122171945702,1415,1500
2.259877920150757,106,159,55,0.0005656108597285068,1499.9000000000001,1489.3122171945702,1415,1500
2.2814579010009766,107,159,55,0.0005656108597285068,1499.9000000000001,1489.3122171945702,1415,1500
2.3031129837036133,108,159,55,0.0005656108597285068,1499.9000000000001,1489.3122171945702,1415,1500
2.324633836746216,109,159,55,0.0005656108597285068,1499.9000000000001,1489.3122171945702,1415,1500
2.3462398052215576,110,159,55,0.0005656108597285068,1499.9000000000001,1489.3122171945702,1415,1500
2.367954969406128,111,159,55,0.0005656108597285068,1499.9000000000001,1489.3122171945702,1415,1500
2.389509916305542,112,159,55,0.0005656108597285068,1499.9000000000001,1489.3122171945702,1415,1500
2.4110379219055176,113,159,55,0.0005656108597285068,1499.9000000000001,1489.3122171945702,1415,1500
2.432662010192871,114,159,55,0.0005656108597285068,1499.9000000000001,1489.3122171945702,1415,1500
2.4541778564453125,115,160,55,0.0005767012687427913,1500.0,1489.5340253748559,1415,1500
2.475691795349121,116,160,55,0.0005767012687427913,1500.0,1489.5340253748559,1415,1500
2.4971888065338135,117,160,55,0.0005767012687427913,1500.0,1489.5340253748559,1415,1500
2.518723964691162,118,160,55,0.0005656108597285068,1500.0,1489.3122171945702,1415,1500
2.540238857269287,119,160,55,0.0005767012687427913,1500.0,1489.5340253748559,1415,1500
2.561762809753418,120,160,55,0.0005767012687427913,1500.0,1489.5340253748559,1415,1500
2.5832409858703613,121,160,55,0.0005656108597285068,1500.0,1489.3122171945702,1415,1500
2.604780912399292,122,160,55,0.0005656108597285068,1500.0,1489.3122171945702,1415,1500
2.626304864883423,123,160,55,0.0005656108597285068,1500.0,1489.3122171945702,1415,1500
2.647808790206909,124,160,55,0.0005656108597285068,1500.0,1489.3122171945702,1415,1500
2.6692938804626465,125,160,55,0.0005656108597285068,1500.0,1489.3122171945702,1415,1500
2.690823793411255,126,160,55,0.0005656108597285068,1500.0,1489.3122171945702,1415,1500
2.712345838546753,127,160,55,0.0005656108597285068,1500.0,1489.3122171945702,1415,1500
2.733865976333618,128,160,55,0.0005656108597285068,1500.0,1489.3122171945702,1415,1500
2.7553529739379883,129,160,55,0.0005656108597285068,1500.0,1489.3122171945702,1415,1500
2.7768847942352295,130,160,55,0.0005656108597285068,1500.0,1489.3122171945702,1415,1500
2.798398971557617,131,160,55,0.0005656108597285068,1500.0,1489.3122171945702,1415,1500
2.8199188709259033,132,160,55,0.0005656108597285068,1500.0,1489.3122171945702,1415,1500
2.841517925262451,133,160,55,0.0005656108597285068,1500.0,1489.3122171945702,1415,1500
2.863204002380371,134,160,55,0.0005656108597285068,1500.0,1489.3122171945702,1415,1500
2.8847320079803467,135,160,55,0.0005656108597285068,1500.0,1489.3122171945702,1415,1500
2.9062628746032715,136,160,55,0.0005767012687427913,1500.0,1489.5340253748559,1415,1500
2.9279367923736572,137,160,55,0.0005656108597285068,1500.0,1489.3122171945702,1415,1500
2.9494760036468506,138,160,55,0.0005656108597285068,1500.0,1489.3122171945702,1415,1500
2.9710159301757812,139,160,56,0.0005602240896358543,1500.0,1489.2044817927172,1415,1500
2.9926278591156006,140,160,56,0.0005602240896358543,1500.0,1489.2044817927172,1415,1500
3.0141148567199707,141,160,55,0.0005767012687427913,1500.0,1489.5340253748559,1415,1500
3.0356149673461914,142,160,56,0.0005602240896358543,1500.0,1489.2044817927172,1415,1500
3.057098865509033,143,160,56,0.0005494505494505495,1500.0,1488.9890109890109,1415,1500
3.0786359310150146,144,160,56,0.0005602240896358543,1500.0,1489.2044817927172,1415,1500
3.100109815597534,145,160,55,0.0005767012687427913,1500.0,1489.5340253748559,1415,1500
3.1216249465942383,146,160,56,0.0005602240896358543,1500.0,1489.2044817927172,1415,1500
3.143122911453247,147,160,55,0.0005767012687427913,1500.0,1489.5340253748559,1415,1500
3.1646878719329834,148,160,55,0.0005767012687427913,1500.0,1489.5340253748559,1415,1500
3.186173915863037,149,160,55,0.0005656108597285068,1500.0,1489.3122171945702,1415,1500
3.2076737880706787,150,160,55,0.0005656108597285068,1500.0,1489.3122171945702,1415,1500
3.2291879653930664,151,160,55,0.0005656108597285068,1500.0,1489.3122171945702,1415,1500
3.2507338523864746,152,160,55,0.0005656108597285068,1500.0,1489.3122171945702,1415,1500
3.2722108364105225,153,160,55,0.0005656108597285068,1500.0,1489.3122171945702,1415,1500
3.293712854385376,154,160,55,0.0005656108597285068,1500.0,1489.3122171945702,1415,1500
3.3151988983154297,155,160,55,0.0005656108597285068,1500.0,1489.3122171945702,1415,1500
3.336772918701172,156,160,55,0.0005656108597285068,1500.0,1489.3122171945702,1415,1500
3.3582749366760254,157,160,55,0.0005656108597285068,1500.0,1489.3122171945702,1415,1500
3.3798129558563232,158,160,55,0.0005656108597285068,1500.0,1489.3122171945702,1415,1500
3.401404857635498,159,160,55,0.0005767012687427913,1500.0,1489.5340253748559,1415,1500
3.4230358600616455,160,160,55,0.0005656108597285068,1500.0,1489.3122171945702,1415,1500
3.444577932357788,161,160,55,0.0005656108597285068,1500.0,1489.3122171945702,1415,1500
3.466110944747925,162,160,55,0.0005656108597285068,1500.0,1489.3122171945702,1415,1500
3.4877519607543945,163,160,55,0.0005767012687427913,1500.0,1489.5340253748559,1415,1500
3.5092968940734863,164,160,55,0.0005767012687427913,1500.0,1489.5340253748559,1415,1500
3.530803918838501,165,160,55,0.0005767012687427913,1500.0,1489.5340253748559,1415,1500
3.552377939224243,166,160,55,0.0005656108597285068,1500.0,1489.3122171945702,1415,1500
3.573856830596924,167,160,56,0.0005494505494505495,1500.0,1488.9890109890109,1415,1500
3.5953760147094727,168,160,56,0.0005494505494505495,1500.0,1488.9890109890109,1415,1500
3.6168630123138428,169,160,56,0.0005494505494505495,1500.0,1488.9890109890109,1415,1500
3.6383938789367676,170,160,56,0.0005494505494505495,1500.0,1488.9890109890109,1415,1500
3.6598939895629883,171,160,56,0.0005656108597285068,1500.0,1489.3122171945702,1415,1500
3.6816208362579346,172,160,56,0.0005656108597285068,1500.0,1489.3122171945702,1415,1500
3.7033028602600098,173,160,56,0.0005656108597285068,1500.0,1489.3122171945702,1415,1500
3.7248589992523193,174,160,56,0.0005656108597285068,1500.0,1489.3122171945702,1415,1500
3.746389865875244,175,160,56,0.0005827505827505828,1500.0,1489.6550116550115,1415,1500
3.7678868770599365,176,160,56,0.0005827505827505828,1500.0,1489.6550116550115,1415,1500
3.789433002471924,177,159,56,0.000588235294117647,1499.9000000000001,1489.7647058823529,1415,1500
3.811020851135254,178,160,56,0.0005767012687427913,1500.0,1489.5340253748559,1415,1500
3.8328628540039062,179,160,56,0.0005767012687427913,1500.0,1489.5340253748559,1415,1500
3.854442834854126,180,159,56,0.000588235294117647,1499.9000000000001,1489.7647058823529,1415,1500
3.8759758472442627,181,159,56,0.0005656108597285068,1499.9000000000001,1489.3122171945702,1415,1500
3.8974769115448,182,159,56,0.0005767012687427913,1499.9000000000001,1489.5340253748559,1415,1500
3.9192140102386475,183,158,56,0.0006060606060606061,1499.8,1490.121212121212,1415,1500
3.9407529830932617,184,158,56,0.0006060606060606061,1499.8,1490.121212121212,1415,1500
3.962305784225464,185,157,56,0.0006313131313131314,1499.7,1490.6262626262626,1415,1500
3.983797788619995,186,157,55,0.0006127450980392157,1499.7,1490.2549019607843,1415,1500
4.005312919616699,187,157,55,0.0006313131313131314,1499.7,1490.6262626262626,1415,1500
4.02679181098938,188,158,55,0.0006184291898577613,1499.8,1490.3685837971552,1415,1500
4.048287868499756,189,157,55,0.0006313131313131314,1499.7,1490.6262626262626,1415,1500
4.069748878479004,190,157,55,0.0006313131313131314,1499.7,1490.6262626262626,1415,1500
4.091324806213379,191,158,55,0.0006184291898577613,1499.8,1490.3685837971552,1415,1500
4.112882852554321,192,157,55,0.0006313131313131314,1499.7,1490.6262626262626,1415,1500
4.134418964385986,193,157,55,0.0006060606060606061,1499.7,1490.121212121212,1415,1500
4.155885934829712,194,157,55,0.0006313131313131314,1499.7,1490.6262626262626,1415,1500
4.1774139404296875,195,157,55,0.0006313131313131314,1499.7,1490.6262626262626,1415,1500
4.198917865753174,196,157,55,0.0006313131313131314,1499.7,1490.6262626262626,1415,1500
4.220520973205566,197,157,54,0.0006510416666666666,1499.7,1491.0208333333333,1415,1500
4.241991996765137,198,158,54,0.0006377551020408163,1499.8,1490.7551020408164,1415,1500
4.263514995574951,199,158,54,0.0006510416666666666,1499.8,1491.0208333333333,1415,1500
4.28502082824707,200,158,55,0.0006720430107526882,1499.8,1491.4408602150538,1415,1500
4.306605815887451,201,158,55,0.0006720430107526882,1499.8,1491.4408602150538,1415,1500
4.328081846237183,202,158,55,0.0006720430107526882,1499.8,1491.4408602150538,1415,1500
4.349669933319092,203,159,55,0.0006583278472679394,1499.9000000000001,1491.1665569453587,1415,1500
4.371488809585571,204,159,55,0.0006863417982155113,1499.9000000000001,1491.7268359643103,1415,1500
4.393168926239014,205,159,55,0.0006863417982155113,1499.9000000000001,1491.7268359643103,1415,1500
4.414736986160278,206,159,55,0.0007092198581560284,1499.9000000000001,1492.1843971631206,1415,1500
4.436250925064087,207,159,56,0.0006863417982155113,1499.9000000000001,1491.7268359643103,1415,1500
4.457734823226929,208,159,56,0.0006863417982155113,1499.9000000000001,1491.7268359643103,1415,1500
4.479263782501221,209,159,56,0.0006720430107526882,1499.9000000000001,1491.4408602150538,1415,1500
4.500818967819214,210,159,56,0.0006863417982155113,1499.9000000000001,1491.7268359643103,1415,1500
4.522355794906616,211,159,56,0.0006720430107526882,1499.9000000000001,1491.4408602150538,1415,1500
4.543838977813721,212,159,56,0.0006720430107526882,1499.9000000000001,1491.4408602150538,1415,1500
4.56538987159729,213,159,56,0.0006720430107526882,1499.9000000000001,1491.4408602150538,1415,1500
4.586911916732788,214,159,57,0.0006720430107526882,1499.9000000000001,1491.4408602150538,1415,1500
4.608477830886841,215,160,57,0.0006863417982155113,1500.0,1491.7268359643103,1415,1500
4.629942893981934,216,160,57,0.0006863417982155113,1500.0,1491.7268359643103,1415,1500
4.651558876037598,217,160,57,0.0006863417982155113,1500.0,1491.7268359643103,1415,1500
4.673170804977417,218,160,57,0.0006720430107526882,1500.0,1491.4408602150538,1415,1500
4.695122957229614,219,160,57,0.0007092198581560284,1500.0,1492.1843971631206,1415,1500
4.718004941940308,220,161,57,0.0007092198581560284,1500.0999999999999,1492.1843971631206,1415,1500
4.7407708168029785,221,160,57,0.0007246376811594203,1500.0,1492.4927536231885,1415,1500
4.763700008392334,222,161,57,0.0007092198581560284,1500.0999999999999,1492.1843971631206,1415,1500
4.786489963531494,223,161,57,0.0007092198581560284,1500.0999999999999,1492.1843971631206,1415,1500
4.8092169761657715,224,161,57,0.0007092198581560284,1500.0999999999999,1492.1843971631206,1415,1500
4.832186937332153,225,161,57,0.0007092198581560284,1500.0999999999999,1492.1843971631206,1415,1500
4.854987859725952,226,161,57,0.0007092198581560284,1500.0999999999999,1492.1843971631206,1415,1500
4.878168821334839,227,161,57,0.0007092198581560284,1500.0999999999999,1492.1843971631206,1415,1500
4.900949001312256,228,161,58,0.0007496251874062968,1500.0999999999999,1492.992503748126,1415,1500
4.924022912979126,229,161,58,0.0007496251874062968,1500.0999999999999,1492.992503748126,1415,1500
4.94677996635437,230,161,58,0.0007496251874062968,1500.0999999999999,1492.992503748126,1415,1500
4.969635963439941,231,160,58,0.0007575757575757576,1500.0,1493.1515151515152,1415,1500
4.992358922958374,232,161,58,0.0007407407407407407,1500.0999999999999,1492.8148148148148,1415,1500
5.015094995498657,233,161,59,0.0007836990595611285,1500.0999999999999,1493.6739811912225,1415,1500
5.0379087924957275,234,161,59,0.0008019246190858059,1500.0999999999999,1494.0384923817162,1415,1500
5.060670852661133,235,162,59,0.0007496251874062968,1500.2,1492.992503748126,1415,1500
5.083603858947754,236,161,59,0.0007836990595611285,1500.0999999999999,1493.6739811912225,1415,1500
5.106424808502197,237,161,59,0.0007836990595611285,1500.0999999999999,1493.6739811912225,1415,1500
5.129122018814087,238,162,59,0.0008019246190858059,1500.2,1494.0384923817162,1415,1500
5.152016878128052,239,162,59,0.0008019246190858059,1500.2,1494.0384923817162,1415,1500
5.174793004989624,240,162,59,0.0007836990595611285,1500.2,1493.6739811912225,1415,1500
5.197605848312378,241,162,59,0.0008116883116883117,1500.2,1494.2337662337663,1415,1500
5.220340967178345,242,162,59,0.0008305647840531562,1500.2,1494.6112956810632,1415,1500
5.243078947067261,243,162,59,0.0008305647840531562,1500.2,1494.6112956810632,1415,1500
5.265901803970337,244,162,59,0.0008305647840531562,1500.2,1494.6112956810632,1415,1500
5.288688898086548,245,162,60,0.0008019246190858059,1500.2,1494.0384923817162,1415,1500
5.3116538524627686,246,162,60,0.0008019246190858059,1500.2,1494.0384923817162,1415,1500
5.334637880325317,247,162,60,0.0008019246190858059,1500.2,1494.0384923817162,1415,1500
5.357329845428467,248,162,60,0.0008305647840531562,1500.2,1494.6112956810632,1415,1500
5.380119800567627,249,161,60,0.0008116883116883117,1500.0999999999999,1494.2337662337663,1415,1500
5.402817964553833,250,161,61,0.0007836990595611285,1500.0999999999999,1493.6739811912225,1415,1500
5.425634860992432,251,161,61,0.0007836990595611285,1500.0999999999999,1493.6739811912225,1415,1500
5.448357820510864,252,161,61,0.0008305647840531562,1500.0999999999999,1494.6112956810632,1415,1500
5.471082925796509,253,161,61,0.0008305647840531562,1500.0999999999999,1494.6112956810632,1415,1500
5.494154930114746,254,160,61,0.0008116883116883117,1500.0,1494.2337662337663,1415,1500
5.516955852508545,255,160,61,0.0008305647840531562,1500.0,1494.6112956810632,1415,1500
5.539743900299072,256,160,61,0.0008305647840531562,1500.0,1494.6112956810632,1415,1500
5.562562942504883,257,160,61,0.0008305647840531562,1500.0,1494.6112956810632,1415,1500
5.585519790649414,258,159,62,0.0008417508417508417,1499.9000000000001,1494.8350168350169,1415,1500
5.6084208488464355,259,159,61,0.0008116883116883117,1499.9000000000001,1494.2337662337663,1415,1500
5.6312689781188965,260,159,62,0.0008613264427217916,1499.9000000000001,1495.2265288544359,1415,1500
5.654157876968384,261,159,62,0.0008305647840531562,1499.9000000000001,1494.6112956810632,1415,1500
5.676916837692261,262,159,61,0.0008305647840531562,1499.9000000000001,1494.6112956810632,1415,1500
5.699760913848877,263,158,62,0.0008019246190858059,1499.8,1494.0384923817162,1415,1500
5.722641944885254,264,157,62,0.0008710801393728223,1499.7,1495.4216027874565,1415,1500
5.745320796966553,265,156,62,0.000925925925925926,1499.5999999999999,1496.5185185185185,1415,1500
5.7681498527526855,266,156,62,0.0008928571428571428,1499.5999999999999,1495.8571428571429,1415,1500
5.790841817855835,267,156,62,0.000925925925925926,1499.5999999999999,1496.5185185185185,1415,1500
5.813962936401367,268,156,62,0.000925925925925926,1499.5999999999999,1496.5185185185185,1415,1500
5.836690902709961,269,156,62,0.000925925925925926,1499.5999999999999,1496.5185185185185,1415,1500
5.85984992980957,270,156,62,0.000925925925925926,1499.5999999999999,1496.5185185185185,1415,1500
5.882615804672241,271,156,62,0.000925925925925926,1499.5999999999999,1496.5185185185185,1415,1500
5.905371904373169,272,156,62,0.0009615384615384616,1499.5999999999999,1497.2307692307693,1415,1500
5.928215980529785,273,156,63,0.000925925925925926,1499.5999999999999,1496.5185185185185,1415,1500
5.950965881347656,274,157,62,0.0009861932938856016,1499.7,1497.7238658777121,1415,1500
5.974162817001343,275,157,63,0.000949667616334283,1499.7,1496.9933523266857,1415,1500
5.996929883956909,276,157,63,0.000925925925925926,1499.7,1496.5185185185185,1415,1500
6.019706964492798,277,157,63,0.000925925925925926,1499.7,1496.5185185185185,1415,1500
6.0424909591674805,278,157,63,0.0009615384615384616,1499.7,1497.2307692307693,1415,1500
6.065210819244385,279,157,63,0.0009615384615384616,1499.7,1497.2307692307693,1415,1500
6.088077783584595,280,157,63,0.0009615384615384616,1499.7,1497.2307692307693,1415,1500
6.110843896865845,281,158,63,0.0009861932938856016,1499.8,1497.7238658777121,1415,1500
6.1339569091796875,282,158,64,0.0010256410256410256,1499.8,1498.5128205128206,1415,1500
6.156686782836914,283,158,64,0.0010256410256410256,1499.8,1498.5128205128206,1415,1500
6.179425954818726,284,158,64,0.0009861932938856016,1499.8,1497.7238658777121,1415,1500
6.202203989028931,285,158,64,0.0009861932938856016,1499.8,1497.7238658777121,1415,1500
6.224989891052246,286,158,64,0.0009615384615384616,1499.8,1497.2307692307693,1415,1500
6.24779200553894,287,158,65,0.001,1499.8,1498.0,1415,1500
6.270522832870483,288,158,65,0.0010256410256410256,1499.8,1498.5128205128206,1415,1500
6.2932069301605225,289,159,64,0.0010683760683760685,1499.9000000000001,1499.3675213675215,1415,1500
6.316067934036255,290,158,64,0.0010964912280701754,1499.8,1499.9298245614036,1415,1500
6.338996887207031,291,158,64,0.0010964912280701754,1499.8,1499.9298245614036,1415,1500
6.362168788909912,292,159,64,0.0010683760683760685,1499.9000000000001,1499.3675213675215,1415,1500
6.384954929351807,293,159,65,0.0011148272017837235,1499.9000000000001,1500.2965440356745,1415,1500
6.407829999923706,294,159,65,0.0011750881316098707,1499.9000000000001,1501.5017626321974,1415,1500
6.43061089515686,295,159,65,0.0010683760683760685,1499.9000000000001,1499.3675213675215,1415,1500
6.453433990478516,296,159,65,0.0010964912280701754,1499.9000000000001,1499.9298245614036,1415,1500
6.476294994354248,297,159,65,0.0010964912280701754,1499.9000000000001,1499.9298245614036,1415,1500
6.499072790145874,298,159,65,0.0010964912280701754,1499.9000000000001,1499.9298245614036,1415,1500
6.522135972976685,299,159,65,0.0010964912280701754,1499.9000000000001,1499.9298245614036,1415,1500
6.545126914978027,300,159,65,0.0010964912280701754,1499.9000000000001,1499.9298245614036,1415,1500
6.567935943603516,301,160,66,0.0011750881316098707,1500.0,1501.5017626321974,1415,1500
6.59069299697876,302,160,66,0.0011750881316098707,1500.0,1501.5017626321974,1415,1500
6.613569974899292,303,160,66,0.0011750881316098707,1500.0,1501.5017626321974,1415,1500
6.636371850967407,304,159,66,0.0012077294685990338,1499.9000000000001,1502.1545893719806,1415,1500
6.6591408252716064,305,158,66,0.0012787723785166241,1499.8,1503.5754475703325,1415,1500
6.6821229457855225,306,158,66,0.0012787723785166241,1499.8,1503.5754475703325,1415,1500
6.705093860626221,307,159,66,0.0011904761904761906,1499.9000000000001,1501.8095238095239,1415,1500
6.728099822998047,308,159,66,0.0011904761904761906,1499.9000000000001,1501.8095238095239,1415,1500
6.751073837280273,309,158,66,0.0012254901960784314,1499.8,1502.5098039215686,1415,1500
6.774397850036621,310,158,66,0.0011904761904761906,1499.8,1501.8095238095239,1415,1500
6.797230958938599,311,158,66,0.0011574074074074073,1499.8,1501.148148148148,1415,1500
6.820037841796875,312,158,66,0.0011574074074074073,1499.8,1501.148148148148,1415,1500
6.842840909957886,313,158,66,0.0011574074074074073,1499.8,1501.148148148148,1415,1500
6.865564823150635,314,158,67,0.0012422360248447205,1499.8,1502.8447204968945,1415,1500
6.888739824295044,315,158,67,0.0011904761904761906,1499.8,1501.8095238095239,1415,1500
6.9116950035095215,316,158,67,0.0011574074074074073,1499.8,1501.148148148148,1415,1500
6.9346699714660645,317,158,67,0.0011904761904761906,1499.8,1501.8095238095239,1415,1500
6.957381963729858,318,157,67,0.0011574074074074073,1499.7,1501.148148148148,1415,1500
6.980244874954224,319,157,67,0.0011904761904761906,1499.7,1501.8095238095239,1415,1500
7.002949953079224,320,157,68,0.0012077294685990338,1499.7,1502.1545893719806,1415,1500
7.025743007659912,321,157,68,0.0011574074074074073,1499.7,1501.148148148148,1415,1500
7.048454999923706,322,157,68,0.0011904761904761906,1499.7,1501.8095238095239,1415,1500
7.071164846420288,323,157,68,0.0011904761904761906,1499.7,1501.8095238095239,1415,1500
7.0943708419799805,324,157,68,0.0012422360248447205,1499.7,1502.8447204968945,1415,1500
7.117114782333374,325,157,68,0.0012422360248447205,1499.7,1502.8447204968945,1415,1500
7.139910936355591,326,157,68,0.0012422360248447205,1499.7,1502.8447204968945,1415,1500
7.162707805633545,327,157,67,0.0011904761904761906,1499.7,1501.8095238095239,1415,1500
7.1853978633880615,328,157,68,0.0012422360248447205,1499.7,1502.8447204968945,1415,1500
7.2082438468933105,329,157,67,0.0011904761904761906,1499.7,1501.8095238095239,1415,1500
7.230979919433594,330,157,68,0.0012422360248447205,1499.7,1502.8447204968945,1415,1500
7.254166841506958,331,157,67,0.0012987012987012987,1499.7,1503.9740259740261,1415,1500
7.276870012283325,332,157,68,0.0012422360248447205,1499.7,1502.8447204968945,1415,1500
7.299613952636719,333,157,67,0.0012987012987012987,1499.7,1503.9740259740261,1415,1500
7.322383880615234,334,157,68,0.0012422360248447205,1499.7,1502.8447204968945,1415,1500
7.345104932785034,335,157,68,0.0012422360248447205,1499.7,1502.8447204968945,1415,1500
7.367862939834595,336,157,68,0.0012422360248447205,1499.7,1502.8447204968945,1415,1500
7.390607833862305,337,156,68,0.0012077294685990338,1499.5999999999999,1502.1545893719806,1415,1500
7.413301944732666,338,157,68,0.0012422360248447205,1499.7,1502.8447204968945,1415,1500
7.436131000518799,339,156,68,0.0012422360248447205,1499.5999999999999,1502.8447204968945,1415,1500
7.458838939666748,340,156,68,0.0012422360248447205,1499.5999999999999,1502.8447204968945,1415,1500
7.481782913208008,341,156,68,0.0012422360248447205,1499.5999999999999,1502.8447204968945,1415,1500
7.504712820053101,342,156,68,0.0011904761904761906,1499.5999999999999,1501.8095238095239,1415,1500
7.527448892593384,343,156,68,0.0011904761904761906,1499.5999999999999,1501.8095238095239,1415,1500
7.550292015075684,344,156,69,0.0012787723785166241,1499.5999999999999,1503.5754475703325,1415,1500
7.573120832443237,345,156,69,0.0012787723785166241,1499.5999999999999,1503.5754475703325,1415,1500
7.595954895019531,346,157,69,0.0012422360248447205,1499.7,1502.8447204968945,1415,1500
7.618850946426392,347,157,69,0.0012422360248447205,1499.7,1502.8447204968945,1415,1500
7.641660928726196,348,156,70,0.0012787723785166241,1499.5999999999999,1503.5754475703325,1415.0,1500
7.664635896682739,349,157,69,0.0012987012987012987,1499.7,1503.9740259740261,1415,1500
7.687312841415405,350,156,70,0.0012787723785166241,1499.5999999999999,1503.5754475703325,1415.0,1500
7.7103118896484375,351,157,70,0.0012422360248447205,1499.7,1502.8447204968945,1415.0,1500
7.7331578731536865,352,156,70,0.001402524544179523,1499.5999999999999,1506.0504908835906,1415.0,1500
7.756135940551758,353,156,70,0.001358695652173913,1499.5999999999999,1505.1739130434783,1415.0,1500
7.778946876525879,354,157,70,0.0013774104683195593,1499.7,1505.5482093663911,1415.0,1500
7.801935911178589,355,156,70,0.0014204545454545455,1499.5999999999999,1506.409090909091,1415.0,1500
7.824918985366821,356,158,70,0.001336898395721925,1499.8,1504.7379679144385,1415.0,1500
7.8477699756622314,357,158,70,0.001336898395721925,1499.8,1504.7379679144385,1415.0,1500
7.870609998703003,358,157,70,0.001466275659824047,1499.7,1507.3255131964809,1415.0,1500
7.893862962722778,359,157,70,0.001466275659824047,1499.7,1507.3255131964809,1415.0,1500
7.916693925857544,360,157,70,0.0015151515151515152,1499.7,1508.3030303030303,1415.0,1500
7.939507961273193,361,158,70,0.001466275659824047,1499.8,1507.3255131964809,1415.0,1500
7.962407827377319,362,158,70,0.0014204545454545455,1499.8,1506.409090909091,1415.0,1500
7.98525595664978,363,158,70,0.0014204545454545455,1499.8,1506.409090909091,1415.0,1500
8.00815200805664,364,158,70,0.0014204545454545455,1499.8,1506.409090909091,1415.0,1500
8.030999898910522,365,158,71,0.0015360983102918587,1499.8,1508.7219662058371,1414.5,1500
8.05408501625061,366,158,71,0.0015360983102918587,1499.8,1508.7219662058371,1414.5,1500
8.076925992965698,367,158,71,0.0015360983102918587,1499.8,1508.7219662058371,1414.5,1500
8.099710941314697,368,158,71,0.001488095238095238,1499.8,1507.7619047619048,1414.5,1500
8.122629880905151,369,158,71,0.0015360983102918587,1499.8,1508.7219662058371,1414.5,1500
8.14539885520935,370,158,71,0.001488095238095238,1499.8,1507.7619047619048,1414.5,1500
8.16839599609375,371,158,71,0.001466275659824047,1499.8,1507.3255131964809,1414.5,1500
8.191195964813232,372,158,71,0.001466275659824047,1499.8,1507.3255131964809,1414.5,1500
8.214457988739014,373,158,71,0.001466275659824047,1499.8,1507.3255131964809,1414.5,1500
8.23727297782898,374,158,72,0.0015360983102918587,1499.8,1508.7219662058371,1414.0,1500
8.260195016860962,375,158,72,0.0015360983102918587,1499.8,1508.7219662058371,1414.0,1500
8.283000946044922,376,158,72,0.0015360983102918587,1499.8,1508.7219662058371,1414.0,1500
8.305846929550171,377,158,72,0.0015360983102918587,1499.8,1508.7219662058371,1414.0,1500
8.328678846359253,378,158,72,0.0015360983102918587,1499.8,1508.7219662058371,1414.0,1500
8.351739883422852,379,157,72,0.0015873015873015873,1499.7,1509.7460317460318,1414.0,1500
8.374983787536621,380,157,72,0.0015360983102918587,1499.7,1508.7219662058371,1414.0,1500
8.397877931594849,381,157,72,0.0015360983102918587,1499.7,1508.7219662058371,1414.0,1500
8.42070198059082,382,157,72,0.0015360983102918587,1499.7,1508.7219662058371,1414.0,1500
8.443645000457764,383,157,73,0.0015360983102918587,1499.7,1508.7219662058371,1413.5,1500
8.466519832611084,384,157,73,0.0015360983102918587,1499.7,1508.7219662058371,1413.5,1500
8.489333868026733,385,156,72,0.0015625,1499.5999999999999,1509.25,1414.0,1500
8.512235879898071,386,156,73,0.001488095238095238,1499.5999999999999,1507.7619047619048,1413.5,1500
8.535120964050293,387,156,73,0.0015360983102918587,1499.5999999999999,1508.7219662058371,1413.5,1500
8.557941913604736,388,156,73,0.0015360983102918587,1499.5999999999999,1508.7219662058371,1413.5,1500
8.58083200454712,389,156,73,0.0015360983102918587,1499.5999999999999,1508.7219662058371,1413.5,1500
8.603864908218384,390,155,73,0.001488095238095238,1499.5,1507.7619047619048,1413.5,1500
8.62671685218811,391,155,73,0.001488095238095238,1499.5,1507.7619047619048,1413.5,1500
8.649519920349121,392,156,73,0.0015360983102918587,1499.5999999999999,1508.7219662058371,1413.5,1500
8.672482013702393,393,155,73,0.001488095238095238,1499.5,1507.7619047619048,1413.5,1500
8.69541883468628,394,155,73,0.001488095238095238,1499.5,1507.7619047619048,1413.5,1500
8.718764781951904,395,156,72,0.0016129032258064516,1499.5999999999999,1510,1414.0,1500
8.741631984710693,396,155,73,0.0015360983102918587,1499.5,1508.7219662058371,1413.5,1500
8.764697790145874,397,155,72,0.0016666666666666668,1499.5,1510,1414.0,1500
8.787335872650146,398,155,72,0.0016666666666666668,1499.5,1510,1414.0,1500
8.810129880905151,399,155,72,0.0016129032258064516,1499.5,1510,1414.0,1500
8.832889795303345,400,155,72,0.0016666666666666668,1499.5,1510,1414.0,1500
8.855601787567139,401,155,73,0.0015873015873015873,1499.5,1509.7460317460318,1413.5,1500
8.87860894203186,402,155,73,0.0015873015873015873,1499.5,1509.7460317460318,1413.5,1500
8.90195083618164,403,155,73,0.0015873015873015873,1499.5,1509.7460317460318,1413.5,1500
8.92487096786499,404,155,73,0.0016666666666666668,1499.5,1510,1413.5,1500
8.947951793670654,405,155,73,0.0015873015873015873,1499.5,1509.7460317460318,1413.5,1500
8.97089695930481,406,155,73,0.0016666666666666668,1499.5,1510,1413.5,1500
8.993713855743408,407,155,73,0.0016666666666666668,1499.5,1510,1413.5,1500
9.016474962234497,408,155,73,0.0016666666666666668,1499.5,1510,1413.5,1500
9.039196968078613,409,154,74,0.0018796992481203006,1499.4000000000001,1510,1413.0,1500
9.06198787689209,410,155,74,0.0018148820326678765,1499.5,1510,1413.0,1500
9.084802865982056,411,155,74,0.0017857142857142857,1499.5,1510,1413.0,1500
9.107445001602173,412,155,74,0.001851851851851852,1499.5,1510,1413.0,1500
9.130271911621094,413,155,74,0.001851851851851852,1499.5,1510,1413.0,1500
9.152976989746094,414,155,74,0.001851851851851852,1499.5,1510,1413.0,1500
9.175696849822998,415,155,75,0.0018796992481203006,1499.5,1510,1412.5,1500
9.198463916778564,416,155,75,0.0018796992481203006,1499.5,1510,1412.5,1500
9.221283912658691,417,155,75,0.001949317738791423,1499.5,1510,1412.5,1500
9.24412488937378,418,155,75,0.001949317738791423,1499.5,1510,1412.5,1500
9.267021894454956,419,155,75,0.0018796992481203006,1499.5,1510,1412.5,1500
9.289710998535156,420,155,75,0.0019230769230769232,1499.5,1510,1412.5,1500
9.312588930130005,421,156,76,0.001949317738791423,1499.5999999999999,1510,1412.0,1500
9.335299015045166,422,156,76,0.001949317738791423,1499.5999999999999,1510,1412.0,1500
9.358086824417114,423,156,76,0.001949317738791423,1499.5999999999999,1510,1412.0,1500
9.380865812301636,424,156,76,0.001949317738791423,1499.5999999999999,1510,1412.0,1500
9.40371298789978,425,156,76,0.001949317738791423,1499.5999999999999,1510,1412.0,1500
9.426486015319824,426,156,76,0.0018796992481203006,1499.5999999999999,1510,1412.0,1500
9.449289798736572,427,156,75,0.00205761316872428,1499.5999999999999,1510,1412.5,1500
9.472103834152222,428,156,75,0.002136752136752137,1499.5999999999999,1510,1412.5,1500
9.494890928268433,429,156,75,0.002136752136752137,1499.5999999999999,1510,1412.5,1500
9.517531871795654,430,156,75,0.002136752136752137,1499.5999999999999,1510,1412.5,1500
9.540357828140259,431,157,75,0.00205761316872428,1499.7,1510,1412.5,1500
9.56305480003357,432,157,75,0.00205761316872428,1499.7,1510,1412.5,1500
9.58585786819458,433,157,75,0.002136752136752137,1499.7,1510,1412.5,1500
9.608650922775269,434,157,75,0.002136752136752137,1499.7,1510,1412.5,1500
9.631502866744995,435,157,75,0.002136752136752137,1499.7,1510,1412.5,1500
9.65452790260315,436,157,75,0.002136752136752137,1499.7,1510,1412.5,1500
9.677194833755493,437,157,75,0.002136752136752137,1499.7,1510,1412.5,1500
9.699898958206177,438,157,76,0.0020242914979757085,1499.7,1510,1412.0,1500
9.72268295288086,439,157,76,0.0020242914979757085,1499.7,1510,1412.0,1500
9.745402812957764,440,158,76,0.001949317738791423,1499.8,1510,1412.0,1500
9.768172979354858,441,157,76,0.0020242914979757085,1499.7,1510,1412.0,1500
9.79089879989624,442,157,76,0.0020242914979757085,1499.7,1510,1412.0,1500
9.81380295753479,443,157,76,0.002136752136752137,1499.7,1510,1412.0,1500
9.836603879928589,444,157,76,0.002136752136752137,1499.7,1510,1412.0,1500
9.859313011169434,445,157,76,0.002136752136752137,1499.7,1510,1412.0,1500
9.88208794593811,446,157,76,0.002136752136752137,1499.7,1510,1412.0,1500
9.90476679801941,447,157,77,0.0020242914979757085,1499.7,1510,1411.5,1500
9.927457809448242,448,157,77,0.002136752136752137,1499.7,1510,1411.5,1500
9.950230836868286,449,157,77,0.0020242914979757085,1499.7,1510,1411.5,1500
9.97302794456482,450,157,77,0.002136752136752137,1499.7,1510,1411.5,1500
9.99569296836853,451,157,77,0.00205761316872428,1499.7,1510,1411.5,1500
10.018536806106567,452,157,77,0.00205761316872428,1499.7,1510,1411.5,1500
10.041296005249023,453,157,78,0.002178649237472767,1499.7,1510,1411.0,1500
10.064138889312744,454,157,77,0.00205761316872428,1499.7,1510,1411.5,1500
10.086838006973267,455,156,78,0.001949317738791423,1499.5999999999999,1510,1411.0,1500
10.109530925750732,456,156,78,0.00205761316872428,1499.5999999999999,1510,1411.0,1500
10.132306814193726,457,156,78,0.00205761316872428,1499.5999999999999,1510,1411.0,1500
10.155324935913086,458,156,78,0.00205761316872428,1499.5999999999999,1510,1411.0,1500
10.178050994873047,459,155,78,0.002136752136752137,1499.5,1510,1411.0,1500
10.200812816619873,460,155,78,0.002136752136752137,1499.5,1510,1411.0,1500
10.223742008209229,461,155,78,0.00205761316872428,1499.5,1510,1411.0,1500
10.246562957763672,462,155,78,0.00205761316872428,1499.5,1510,1411.0,1500
10.269229888916016,463,155,78,0.00205761316872428,1499.5,1510,1411.0,1500
10.29208779335022,464,155,78,0.00205761316872428,1499.5,1510,1411.0,1500
10.314871788024902,465,155,78,0.002178649237472767,1499.5,1510,1411.0,1500
10.337615013122559,466,155,78,0.002178649237472767,1499.5,1510,1411.0,1500
10.360677003860474,467,155,77,0.00205761316872428,1499.5,1510,1411.5,1500
10.383598804473877,468,155,78,0.002178649237472767,1499.5,1510,1411.0,1500
10.406461000442505,469,155,78,0.0022624434389140274,1499.5,1510,1411.0,1500
10.429292917251587,470,155,78,0.0022624434389140274,1499.5,1510,1411.0,1500
10.452059984207153,471,155,78,0.0022624434389140274,1499.5,1510,1411.0,1500
10.47490382194519,472,155,78,0.0022624434389140274,1499.5,1510,1411.0,1500
10.497609853744507,473,155,78,0.0022624434389140274,1499.5,1510,1411.0,1500
10.520418882369995,474,155,78,0.0022624434389140274,1499.5,1510,1411.0,1500
10.543092966079712,475,155,78,0.0022624434389140274,1499.5,1510,1411.0,1500
10.5657799243927,476,155,78,0.002136752136752137,1499.5,1510,1411.0,1500
10.588527917861938,477,155,78,0.002136752136752137,1499.5,1510,1411.0,1500
10.611336946487427,478,155,79,0.0022624434389140274,1499.5,1510,1410.5,1500
10.634082794189453,479,155,79,0.0022624434389140274,1499.5,1510,1410.5,1500
10.656839847564697,480,155,79,0.0022624434389140274,1499.5,1510,1410.5,1500
10.679490804672241,481,156,79,0.002352941176470588,1499.5999999999999,1510,1410.5,1500
10.702332973480225,482,156,79,0.002136752136752137,1499.5999999999999,1510,1410.5,1500
10.725061893463135,483,156,80,0.002352941176470588,1499.5999999999999,1510,1410.0,1500
10.747766971588135,484,156,79,0.0025,1499.5999999999999,1510,1410.5,1500
10.770533800125122,485,156,79,0.0022222222222222222,1499.5999999999999,1510,1410.5,1500
10.793282985687256,486,156,80,0.002352941176470588,1499.5999999999999,1510,1410.0,1500
10.815940856933594,487,156,80,0.0022624434389140274,1499.5999999999999,1510,1410.0,1500
10.838826894760132,488,155,80,0.0025575447570332483,1499.5,1510,1410.0,1500
10.861723899841309,489,155,80,0.00267379679144385,1499.5,1510,1410.0,1500
10.884683847427368,490,155,80,0.00267379679144385,1499.5,1510,1410.0,1500
10.907333850860596,491,155,80,0.00267379679144385,1499.5,1510,1410.0,1500
10.93002986907959,492,156,80,0.002717391304347826,1499.5999999999999,1510,1410.0,1500
10.95278000831604,493,155,80,0.002840909090909091,1499.5,1510,1410.0,1500
10.975562810897827,494,155,80,0.002840909090909091,1499.5,1510,1410.0,1500
10.998572826385498,495,156,80,0.002717391304347826,1499.5999999999999,1510,1410.0,1500
11.02152395248413,496,156,80,0.0026041666666666665,1499.5999999999999,1510,1410.0,1500
11.044513940811157,497,156,80,0.002717391304347826,1499.5999999999999,1510,1410.0,1500
11.06728982925415,498,156,80,0.0026041666666666665,1499.5999999999999,1510,1410.0,1500
11.089940786361694,499,155,80,0.002840909090909091,1499.5,1510,1410.0,1500
11.112761974334717,500,156,80,0.002717391304347826,1499.5999999999999,1510,1410.0,1500
11.135447978973389,501,156,80,0.002717391304347826,1499.5999999999999,1510,1410.0,1500
11.158147811889648,502,156,80,0.002717391304347826,1499.5999999999999,1510,1410.0,1500
11.180863857269287,503,156,80,0.002717391304347826,1499.5999999999999,1510,1410.0,1500
11.203725814819336,504,156,80,0.002717391304347826,1499.5999999999999,1510,1410.0,1500
11.226545810699463,505,156,80,0.002717391304347826,1499.5999999999999,1510,1410.0,1500
11.249281883239746,506,156,80,0.002717391304347826,1499.5999999999999,1510,1410.0,1500
11.272089004516602,507,156,80,0.002717391304347826,1499.5999999999999,1510,1410.0,1500
11.29517388343811,508,156,80,0.002717391304347826,1499.5999999999999,1510,1410.0,1500
11.31784987449646,509,156,80,0.002717391304347826,1499.5999999999999,1510,1410.0,1500
11.340650796890259,510,155,80,0.002840909090909091,1499.5,1510,1410.0,1500
11.363326787948608,511,156,80,0.002717391304347826,1499.5999999999999,1510,1410.0,1500
11.385998964309692,512,156,80,0.002717391304347826,1499.5999999999999,1510,1410.0,1500
11.40874695777893,513,156,80,0.0025575447570332483,1499.5999999999999,1510,1410.0,1500
11.431687831878662,514,155,80,0.00267379679144385,1499.5,1510,1410.0,1500
11.454669952392578,515,156,80,0.0025575447570332483,1499.5999999999999,1510,1410.0,1500
11.47753095626831,516,156,80,0.0025575447570332483,1499.5999999999999,1510,1410.0,1500
11.50020980834961,517,156,80,0.0024509803921568627,1499.5999999999999,1510,1410.0,1500
11.523046970367432,518,156,80,0.0024509803921568627,1499.5999999999999,1510,1410.0,1500
11.545839786529541,519,156,80,0.0024509803921568627,1499.5999999999999,1510,1410.0,1500
11.56868290901184,520,156,80,0.0024509803921568627,1499.5999999999999,1510,1410.0,1500
11.591569900512695,521,156,80,0.0024509803921568627,1499.5999999999999,1510,1410.0,1500
11.614571809768677,522,156,80,0.0024509803921568627,1499.5999999999999,1510,1410.0,1500
11.63729190826416,523,155,79,0.002840909090909091,1499.5,1510,1410.5,1500
11.659963846206665,524,155,79,0.002840909090909091,1499.5,1510,1410.5,1500
11.682716846466064,525,155,79,0.0026041666666666665,1499.5,1510,1410.5,1500
11.705451965332031,526,156,80,0.002352941176470588,1499.5999999999999,1510,1410.0,1500
11.728190898895264,527,156,79,0.002403846153846154,1499.5999999999999,1510,1410.5,1500
11.750972986221313,528,155,79,0.0026041666666666665,1499.5,1510,1410.5,1500
11.773813962936401,529,154,79,0.002840909090909091,1499.4000000000001,1510,1410.5,1500
11.796648979187012,530,155,79,0.002717391304347826,1499.5,1510,1410.5,1500
11.819361925125122,531,155,79,0.002717391304347826,1499.5,1510,1410.5,1500
11.842119932174683,532,156,79,0.0025,1499.5999999999999,1510,1410.5,1500
11.864929914474487,533,156,79,0.002352941176470588,1499.5999999999999,1510,1410.5,1500
11.887690782546997,534,156,79,0.002352941176470588,1499.5999999999999,1510,1410.5,1500
11.910453796386719,535,156,79,0.002352941176470588,1499.5999999999999,1510,1410.5,1500
11.933243989944458,536,156,79,0.002352941176470588,1499.5999999999999,1510,1410.5,1500
11.955909967422485,537,155,79,0.0022624434389140274,1499.5,1510,1410.5,1500
11.9787278175354,538,155,79,0.0022624434389140274,1499.5,1510,1410.5,1500
12.001592874526978,539,155,79,0.0022624434389140274,1499.5,1510,1410.5,1500
12.024549961090088,540,155,79,0.0022624434389140274,1499.5,1510,1410.5,1500
12.047237873077393,541,155,79,0.0022624434389140274,1499.5,1510,1410.5,1500
12.069926977157593,542,155,79,0.0022624434389140274,1499.5,1510,1410.5,1500
12.092743873596191,543,155,79,0.0022624434389140274,1499.5,1510,1410.5,1500
12.11551284790039,544,155,79,0.0022624434389140274,1499.5,1510,1410.5,1500
12.138153791427612,545,155,79,0.0022624434389140274,1499.5,1510,1410.5,1500
12.160956859588623,546,155,79,0.0022624434389140274,1499.5,1510,1410.5,1500
12.183831930160522,547,155,78,0.0022624434389140274,1499.5,1510,1411.0,1500
12.20670485496521,548,156,78,0.002178649237472767,1499.5999999999999,1510,1411.0,1500
12.22945785522461,549,155,78,0.0022624434389140274,1499.5,1510,1411.0,1500
12.25216794013977,550,155,78,0.0022624434389140274,1499.5,1510,1411.0,1500
12.274899005889893,551,155,78,0.0022624434389140274,1499.5,1510,1411.0,1500
12.297626972198486,552,156,78,0.002178649237472767,1499.5999999999999,1510,1411.0,1500
12.320417881011963,553,156,77,0.00205761316872428,1499.5999999999999,1510,1411.5,1500
12.343275785446167,554,156,77,0.00205761316872428,1499.5999999999999,1510,1411.5,1500
12.366244792938232,555,156,77,0.00205761316872428,1499.5999999999999,1510,1411.5,1500
12.38906192779541,556,156,77,0.00205761316872428,1499.5999999999999,1510,1411.5,1500
12.411916971206665,557,156,77,0.00205761316872428,1499.5999999999999,1510,1411.5,1500
12.438809871673584,558,156,77,0.00205761316872428,1499.5999999999999,1510,1411.5,1500
12.461848974227905,559,156,77,0.00205761316872428,1499.5999999999999,1510,1411.5,1500
12.484999895095825,560,156,77,0.002136752136752137,1499.5999999999999,1510,1411.5,1500
12.507714986801147,561,156,77,0.002136752136752137,1499.5999999999999,1510,1411.5,1500
12.530514001846313,562,157,77,0.001949317738791423,1499.7,1510,1411.5,1500
12.553217887878418,563,157,77,0.001949317738791423,1499.7,1510,1411.5,1500
12.575898885726929,564,157,76,0.00205761316872428,1499.7,1510,1412.0,1500
12.598703861236572,565,157,76,0.00205761316872428,1499.7,1510,1412.0,1500
12.621610879898071,566,157,76,0.001949317738791423,1499.7,1510,1412.0,1500
12.644513845443726,567,157,76,0.001949317738791423,1499.7,1510,1412.0,1500
12.667255878448486,568,157,76,0.001949317738791423,1499.7,1510,1412.0,1500
12.689985990524292,569,156,75,0.0020242914979757085,1499.5999999999999,1510,1412.5,1500
12.712859869003296,570,157,75,0.001949317738791423,1499.7,1510,1412.5,1500
12.735605001449585,571,156,75,0.0020242914979757085,1499.5999999999999,1510,1412.5,1500
12.758314847946167,572,157,74,0.0017857142857142857,1499.7,1510,1413.0,1500
12.781061887741089,573,158,74,0.0018148820326678765,1499.8,1510,1413.0,1500
12.804136991500854,574,158,74,0.0017241379310344827,1499.8,1510,1413.0,1500
12.826929807662964,575,156,74,0.0020242914979757085,1499.5999999999999,1510,1413.0,1500
12.849687814712524,576,158,74,0.0017543859649122807,1499.8,1510,1413.0,1500
12.872432947158813,577,158,74,0.001697792869269949,1499.8,1510,1413.0,1500
12.895188808441162,578,158,73,0.0016129032258064516,1499.8,1510,1413.5,1500
12.917866945266724,579,158,73,0.0016129032258064516,1499.8,1510,1413.5,1500
12.940671920776367,580,158,73,0.0016129032258064516,1499.8,1510,1413.5,1500
12.963581800460815,581,158,73,0.0016129032258064516,1499.8,1510,1413.5,1500
12.986320972442627,582,158,73,0.0016129032258064516,1499.8,1510,1413.5,1500
13.009099960327148,583,158,73,0.0015360983102918587,1499.8,1508.7219662058371,1413.5,1500
13.031996011734009,584,158,73,0.0015360983102918587,1499.8,1508.7219662058371,1413.5,1500
13.05492901802063,585,158,73,0.0015360983102918587,1499.8,1508.7219662058371,1413.5,1500
13.077790975570679,586,158,73,0.0015360983102918587,1499.8,1508.7219662058371,1413.5,1500
13.100663900375366,587,158,73,0.0015360983102918587,1499.8,1508.7219662058371,1413.5,1500
13.123744010925293,588,157,73,0.0015360983102918587,1499.7,1508.7219662058371,1413.5,1500
13.146629810333252,589,157,73,0.0015360983102918587,1499.7,1508.7219662058371,1413.5,1500
13.169477939605713,590,157,73,0.0015360983102918587,1499.7,1508.7219662058371,1413.5,1500
13.19224500656128,591,157,73,0.0015360983102918587,1499.7,1508.7219662058371,1413.5,1500
13.215190887451172,592,157,72,0.001466275659824047,1499.7,1507.3255131964809,1414.0,1500
13.23796796798706,593,156,73,0.001488095238095238,1499.5999999999999,1507.7619047619048,1413.5,1500
13.260942935943604,594,156,72,0.001488095238095238,1499.5999999999999,1507.7619047619048,1414.0,1500
13.283971786499023,595,156,72,0.0015360983102918587,1499.5999999999999,1508.7219662058371,1414.0,1500
13.306935787200928,596,156,72,0.0015360983102918587,1499.5999999999999,1508.7219662058371,1414.0,1500
13.3298180103302,597,156,71,0.001488095238095238,1499.5999999999999,1507.7619047619048,1414.5,1500
13.352779865264893,598,155,71,0.0015360983102918587,1499.5,1508.7219662058371,1414.5,1500
13.37557601928711,599,155,71,0.0015360983102918587,1499.5,1508.7219662058371,1414.5,1500
13.398428916931152,600,155,71,0.0015360983102918587,1499.5,1508.7219662058371,1414.5,1500
13.421361923217773,601,155,70,0.001466275659824047,1499.5,1507.3255131964809,1415.0,1500
13.444326877593994,602,155,70,0.001466275659824047,1499.5,1507.3255131964809,1415.0,1500
13.467222929000854,603,154,70,0.0014204545454545455,1499.4000000000001,1506.409090909091,1415.0,1500
13.490141868591309,604,154,70,0.001488095238095238,1499.4000000000001,1507.7619047619048,1415.0,1500
13.513482809066772,605,154,69,0.0014204545454545455,1499.4000000000001,1506.409090909091,1415,1500
13.536269903182983,606,154,69,0.001466275659824047,1499.4000000000001,1507.3255131964809,1415,1500
13.559086799621582,607,155,69,0.0013774104683195593,1499.5,1505.5482093663911,1415,1500
13.58200478553772,608,155,69,0.0013774104683195593,1499.5,1505.5482093663911,1415,1500
13.605007886886597,609,155,69,0.0012787723785166241,1499.5,1503.5754475703325,1415,1500
13.627777814865112,610,155,69,0.0012422360248447205,1499.5,1502.8447204968945,1415,1500
13.650513887405396,611,155,69,0.0012422360248447205,1499.5,1502.8447204968945,1415,1500
13.6733078956604,612,155,69,0.0012422360248447205,1499.5,1502.8447204968945,1415,1500
13.696038007736206,613,155,69,0.0012422360248447205,1499.5,1502.8447204968945,1415,1500
13.718986988067627,614,155,69,0.0012422360248447205,1499.5,1502.8447204968945,1415,1500
13.74188494682312,615,155,68,0.0011904761904761906,1499.5,1501.8095238095239,1415,1500
13.764874935150146,616,155,68,0.0011904761904761906,1499.5,1501.8095238095239,1415,1500
13.787598848342896,617,155,68,0.0011574074074074073,1499.5,1501.148148148148,1415,1500
13.810329914093018,618,155,68,0.0011574074074074073,1499.5,1501.148148148148,1415,1500
13.833146810531616,619,155,68,0.0011574074074074073,1499.5,1501.148148148148,1415,1500
13.855939865112305,620,155,68,0.0011111111111111111,1499.5,1500.2222222222222,1415,1500
13.878762006759644,621,155,67,0.0011574074074074073,1499.5,1501.148148148148,1415,1500
13.901644945144653,622,155,67,0.0011574074074074073,1499.5,1501.148148148148,1415,1500
13.924474954605103,623,155,67,0.0011574074074074073,1499.5,1501.148148148148,1415,1500
13.947281837463379,624,155,67,0.0011904761904761906,1499.5,1501.8095238095239,1415,1500
13.970241785049438,625,155,67,0.0011111111111111111,1499.5,1500.2222222222222,1415,1500
13.993384838104248,626,155,67,0.001142857142857143,1499.5,1500.8571428571429,1415,1500
14.016279935836792,627,155,66,0.0011904761904761906,1499.5,1501.8095238095239,1415,1500
14.039316892623901,628,155,66,0.0011111111111111111,1499.5,1500.2222222222222,1415,1500
14.062205791473389,629,155,66,0.0011111111111111111,1499.5,1500.2222222222222,1415,1500
14.085254907608032,630,155,66,0.0011111111111111111,1499.5,1500.2222222222222,1415,1500
14.10816478729248,631,155,65,0.0011111111111111111,1499.5,1500.2222222222222,1415,1500
14.131426811218262,632,155,65,0.001142857142857143,1499.5,1500.8571428571429,1415,1500
14.154376983642578,633,155,65,0.0011111111111111111,1499.5,1500.2222222222222,1415,1500
14.177402973175049,634,156,64,0.0010395010395010396,1499.5999999999999,1498.7900207900209,1415,1500
14.20032286643982,635,155,64,0.0011111111111111111,1499.5,1500.2222222222222,1415,1500
14.223480939865112,636,155,64,0.0011111111111111111,1499.5,1500.2222222222222,1415,1500
14.246351957321167,637,157,64,0.0010256410256410256,1499.7,1498.5128205128206,1415,1500
14.269368886947632,638,157,63,0.0009861932938856016,1499.7,1497.7238658777121,1415,1500
14.292399883270264,639,157,63,0.0009861932938856016,1499.7,1497.7238658777121,1415,1500
14.31551194190979,640,156,63,0.0009615384615384616,1499.5999999999999,1497.2307692307693,1415,1500
14.33828592300415,641,156,63,0.001,1499.5999999999999,1498.0,1415,1500
14.36135983467102,642,156,63,0.0009615384615384616,1499.5999999999999,1497.2307692307693,1415,1500
14.384199857711792,643,156,63,0.000925925925925926,1499.5999999999999,1496.5185185185185,1415,1500
14.407068014144897,644,156,63,0.000925925925925926,1499.5999999999999,1496.5185185185185,1415,1500
14.42979097366333,645,156,63,0.000949667616334283,1499.5999999999999,1496.9933523266857,1415,1500
14.452586889266968,646,156,63,0.000949667616334283,1499.5999999999999,1496.9933523266857,1415,1500
14.475351810455322,647,156,63,0.000949667616334283,1499.5999999999999,1496.9933523266857,1415,1500
14.49809980392456,648,155,63,0.000925925925925926,1499.5,1496.5185185185185,1415,1500
14.520917892456055,649,155,63,0.000925925925925926,1499.5,1496.5185185185185,1415,1500
14.544034004211426,650,155,63,0.000949667616334283,1499.5,1496.9933523266857,1415,1500
14.56715178489685,651,155,62,0.000949667616334283,1499.5,1496.9933523266857,1415,1500
14.589911937713623,652,154,62,0.000925925925925926,1499.4000000000001,1496.5185185185185,1415,1500
14.61260199546814,653,154,62,0.000925925925925926,1499.4000000000001,1496.5185185185185,1415,1500
14.635385990142822,654,154,62,0.000949667616334283,1499.4000000000001,1496.9933523266857,1415,1500
14.658198833465576,655,154,62,0.000925925925925926,1499.4000000000001,1496.5185185185185,1415,1500
14.681420803070068,656,154,61,0.0009157509157509158,1499.4000000000001,1496.3150183150183,1415,1500
14.704291820526123,657,153,61,0.000925925925925926,1499.3,1496.5185185185185,1415,1500
14.727213859558105,658,154,61,0.0008818342151675485,1499.4000000000001,1495.6366843033509,1415,1500
14.749929904937744,659,155,60,0.0008305647840531562,1499.5,1494.6112956810632,1415,1500
14.772740840911865,660,155,60,0.0008613264427217916,1499.5,1495.2265288544359,1415,1500
14.79545283317566,661,155,59,0.0008305647840531562,1499.5,1494.6112956810632,1415,1500
14.818151950836182,662,154,59,0.0008116883116883117,1499.4000000000001,1494.2337662337663,1415,1500
14.840961933135986,663,154,59,0.0008116883116883117,1499.4000000000001,1494.2337662337663,1415,1500
14.864126920700073,664,154,59,0.0007836990595611285,1499.4000000000001,1493.6739811912225,1415,1500
14.886981010437012,665,154,58,0.0008116883116883117,1499.4000000000001,1494.2337662337663,1415,1500
14.90974497795105,666,154,58,0.0007836990595611285,1499.4000000000001,1493.6739811912225,1415,1500
14.932463884353638,667,154,58,0.0007836990595611285,1499.4000000000001,1493.6739811912225,1415,1500
14.955351829528809,668,154,58,0.0007836990595611285,1499.4000000000001,1493.6739811912225,1415,1500
14.97806692123413,669,153,58,0.0007836990595611285,1499.3,1493.6739811912225,1415,1500
15.00087594985962,670,154,57,0.0007662835249042146,1499.4000000000001,1493.3256704980843,1415,1500
15.023823976516724,671,153,57,0.0007836990595611285,1499.3,1493.6739811912225,1415,1500
15.04655385017395,672,153,57,0.0007836990595611285,1499.3,1493.6739811912225,1415,1500
15.069324970245361,673,153,57,0.0007836990595611285,1499.3,1493.6739811912225,1415,1500
15.092147827148438,674,154,57,0.0007662835249042146,1499.4000000000001,1493.3256704980843,1415,1500
15.114951848983765,675,153,56,0.0007407407407407407,1499.3,1492.8148148148148,1415,1500
15.137728929519653,676,153,56,0.0007407407407407407,1499.3,1492.8148148148148,1415,1500
15.160406827926636,677,153,56,0.0007012622720897616,1499.3,1492.0252454417953,1415,1500
