time,x,y,size_inv,roll,pitch,thrust,yaw
0.0013189315795898438,154,39.0,2625.9763951112855,1482.0,1503.0,1350,1494.0
0.025346994400024414,154,38.6945,2610.4380732467216,1480,1503.0,1350,1494.0
0.048973798751831055,154,38.6945,2594.8997513821578,1480,1503.0,1350,1494.0
0.07257580757141113,154,38.6945,2579.3614295175939,1480,1503.0,1350,1494.0
0.09626388549804688,154,38.6945,2563.8231076530301,1480,1503.0,1350,1494.0
0.12005496025085449,154,39.6945,2563.8231076530301,1480,1503.0,1350,1494.0
0.14370393753051758,154,38.6945,2548.2847857884663,1480,1503.0,1350,1494.0
0.16736793518066406,154,38.6945,2532.7464639239024,1480,1503.0,1350,1494.0
0.1910698413848877,154,39.6945,2532.7464639239024,1480,1503.0,1350,1494.0
0.21470999717712402,154,39.6945,2532.7464639239024,1480,1503.0,1350,1494.0
0.23865795135498047,154,39.718,2548.2847857884663,1480,1503.0,1350,1494.0
0.2629258632659912,154,39.7415,2563.8231076530301,1480,1503.0,1350,1494.0
0.28731489181518555,156,39.718,2563.8231076530301,1480,1503.0,1350,1496.0
0.31177783012390137,157,39.718,2579.3614295175939,1480,1503.0,1350,1497.0
0.3360419273376465,158,39.7415,2579.3614295175939,1480,1503.0,1350,1498.0
0.3603088855743408,160,40.812,2563.8231076530301,1480,1503.0,1350,1500.0
0.3845958709716797,161,42.9295,2550.0112659956403,1480,1503.0,1350,1501.0
0.4088928699493408,163,48.0,2536.1994243382501,1480,1503.0,1350,1503.0
0.43320584297180176,164,50.0705,2506.8492608162965,1489.0,1503.0,1350,1504.0
0.45760583877563477,165,51.0705,2477.4990972943424,1502.0,1503.0,1333.5109200000002,1505.0
0.48214197158813477,166,52.0705,2435.7909701841977,1516.0,1503.0,1317.5865199999998,1506.0
0.5065858364105225,167,53.0235,2394.0828430740526,1520,1503.0,1306.24324,1507.0
0.5311269760131836,167,54.0,2367.9130378284713,1520,1503.0,1307.69496,1507.0
0.5554759502410889,168,55.9765,2326.2049107183266,1520,1503.0,1310.8979200000001,1508.0
0.5798308849334717,167,57.9765,2312.3930690609368,1520,1503.0,1313.96072,1507.0
0.6041719913482666,167,58.9765,2286.2232638153555,1520,1503.0,1318.1276399999999,1507.0
0.6285479068756104,166,61.0235,2273.8653002271644,1520,1503.0,1317.8790799999999,1506.0
0.6529347896575928,165,63.047,2261.5073366389734,1520,1503.0,1310.5831999999998,1505.0
0.677358865737915,164,68.0705,2249.1493730507823,1520,1503.0,1295.1717999999998,1504.0
0.7018280029296875,163,70.0705,2236.7914094625912,1520,1503.0,1284.7485999999999,1503.0
0.7262048721313477,163,72.0705,2249.1493730507823,1520,1503.0,1272.8854000000001,1503.0
0.7506787776947021,162,73.047,2249.1493730507823,1520,1503.0,1265.2797600000001,1502.0
0.7750449180603027,162,75.0235,2261.5073366389734,1520,1503.0,1257.9657200000001,1502.0
0.7994439601898193,161,76.9765,2261.5073366389734,1520,1503.0,1259.24532,1501.0
0.8238158226013184,161,78.953,2261.5073366389734,1520,1503.0,1260.5305599999999,1501.0
0.8482308387756348,161,79.9295,2273.8653002271644,1520,1503.0,1265.8496399999999,1501.0
0.8726298809051514,160,80.906,2286.2232638153555,1520,1503.0,1269.7128399999999,1500.0
0.897068977355957,160,81.8825,2286.2232638153555,1517.0,1503.0,1274.9521199999999,1500.0
0.9216299057006836,160,82.859,2286.2232638153555,1513.0,1503.0,1277.4216799999999,1500.0
0.9461109638214111,159,85.859,2298.5812274035461,1507.0,1503.0,1275.95724,1499.0
0.9707069396972656,159,86.859,2286.2232638153555,1503.0,1503.0,1275.4670000000001,1499.0
0.9951918125152588,159,87.8825,2286.2232638153555,1500.0,1503.0,1274.8808800000002,1499.0
1.0196688175201416,158,89.8825,2273.8653002271644,1494.0,1503.0,1270.2891200000001,1498.0
1.0441789627075195,158,90.906,2273.8653002271644,1491.0,1503.0,1265.47344,1498.0
1.0688328742980957,158,93.9295,2261.5073366389734,1488.0,1503.0,1259.6158800000001,1498.0
1.093526840209961,158,94.953,2249.1493730507823,1485.0,1503.0,1256.15644,1498.0
1.1180977821350098,158,95.953,2236.7914094625912,1483.0,1503.0,1252.82296,1498.0
1.1426289081573486,158,95.9295,2236.7914094625912,1481.0,1503.0,1255.0234799999998,1498.0
1.167172908782959,158,96.9295,2236.7914094625912,1480,1503.0,1256.09356,1498.0
1.1917707920074463,159,97.906,2224.4334458744006,1481.0,1503.0,1260.17148,1499.0
1.2168920040130615,158,97.906,2224.4334458744006,1480,1503.0,1266.9269999999999,1498.0
1.2414648532867432,158,98.906,2213.3112786450283,1480,1503.0,1272.45056,1498.0
1.2658779621124268,159,98.906,2213.3112786450283,1480.0,1503.0,1276.38832,1499.0
1.290320873260498,158,98.906,2213.3112786450283,1480,1503.0,1281.7341200000001,1498.0
1.3147590160369873,159,99.906,2202.1891114156565,1481.0,1503.0,1283.0621599999999,1499.0
1.3392219543457031,158,99.9295,2191.0669441862847,1480,1503.0,1284.1361999999999,1498.0
1.3635718822479248,158,100.9295,2179.9447769569128,1480,1503.0,1284.03844,1498.0
1.3880548477172852,158,100.953,2168.822609727541,1480,1503.0,1285.1106,1498.0
1.4125628471374512,158,100.9765,2157.7004424981687,1480,1503.0,1284.78892,1498.0
1.4370110034942627,158,101.0,2136.51536206127,1480,1503.0,1285.90536,1498.0
1.4614880084991455,158,101.0235,2115.3302816243709,1480,1503.0,1287.05376,1498.0
1.4858319759368896,158,101.0235,2105.2673684168435,1480,1503.0,1289.6703600000001,1498.0
1.5101838111877441,159,101.0235,2084.0822879799443,1480.0,1503.0,1292.35276,1499.0
1.5346248149871826,159,101.0235,2062.8972075430456,1481.0,1503.0,1295.10096,1499.0
1.5590488910675049,159,101.0235,2052.8342943355183,1481.0,1503.0,1296.5549599999999,1499.0
1.5835049152374268,159,100.047,2042.7713811279912,1482.0,1503.0,1300.62076,1499.0
1.6080329418182373,159,100.047,2032.708467920464,1483.0,1503.0,1302.1547600000001,1499.0
1.6325569152832031,160,100.047,2022.6455547129367,1487.0,1503.0,1303.6568,1500.0
1.6571178436279297,160,100.0705,2003.4345385894762,1489.0,1503.0,1305.06484,1500.0
1.6817247867584229,160,100.0705,1994.2864356735422,1491.0,1503.0,1306.46912,1500.0
1.7062058448791504,161,99.0705,1994.2864356735422,1496.0,1503.0,1307.7472399999999,1501.0
1.7308259010314941,161,99.0705,1994.2864356735422,1499.0,1503.0,1307.82536,1501.0
1.7552897930145264,162,99.094,1994.2864356735422,1504.0,1503.0,1307.8414399999999,1502.0
1.7797420024871826,162,99.094,1994.2864356735422,1507.0,1503.0,1307.9515200000001,1502.0
1.8041927814483643,163,99.1175,1994.2864356735422,1513.0,1503.0,1307.99956,1503.0
1.8286709785461426,163,98.1175,1994.2864356735422,1517.0,1503.0,1309.2438399999999,1503.0
1.8531029224395752,164,98.1175,1994.2864356735422,1520,1503.0,1309.2881199999999,1504.0
1.8774888515472412,164,98.1175,1994.2864356735422,1520,1503.0,1309.3981999999999,1504.0
1.901906967163086,164,98.1175,2003.4345385894762,1520,1503.0,1309.47632,1504.0
1.926245927810669,165,98.1175,2022.6455547129367,1520,1503.0,1309.62024,1505.0
1.9507508277893066,165,97.1175,2032.708467920464,1520,1503.0,1310.96416,1505.0
1.9751238822937012,165,97.094,2042.7713811279912,1520,1503.0,1311.17012,1505.0
1.9994709491729736,165,96.094,2052.8342943355183,1520,1503.0,1313.9559200000001,1505.0
2.0238168239593506,166,95.0705,2074.0193747724175,1520,1503.0,1318.2437600000001,1506.0
2.0482449531555176,165,95.0705,2095.2044552093166,1520,1503.0,1321.27144,1505.0
2.0727148056030273,166,94.0705,2116.3895356462153,1520,1503.0,1325.4991200000002,1506.0
2.097212791442871,166,94.0705,2137.5746160831145,1520,1503.0,1328.461,1506.0
2.1217288970947266,166,94.0705,2171.1176601082047,1520,1503.0,1328.6228800000001,1506.0
2.1460928916931152,166,94.094,2204.6607041332945,1520,1503.0,1325.8569199999999,1506.0
2.1705899238586426,165,94.094,2228.1408349508579,1520,1503.0,1323.11916,1505.0
2.1949899196624756,165,94.094,2251.6209657684208,1520,1503.0,1318.9413999999999,1505.0
2.219407796859741,165,93.094,2288.9129382433739,1520,1503.0,1317.4356,1505.0
2.2437238693237305,165,93.0705,2312.3930690609368,1520,1503.0,1316.15184,1505.0
2.2681329250335693,164,93.0705,2324.7510326491279,1520,1503.0,1316.29764,1504.0
2.2925398349761963,164,92.047,2350.9208378947092,1520,1503.0,1319.1454799999999,1504.0
2.31697678565979,164,92.0705,2377.0906431402905,1520,1503.0,1322.0630799999999,1504.0
2.3414268493652344,163,93.0705,2389.4486067284815,1520,1503.0,1319.56888,1503.0
2.3657829761505127,163,93.0705,2403.2604483858713,1520,1503.0,1318.2088799999999,1503.0
2.390439987182617,163,93.0705,2417.0722900432615,1520,1503.0,1316.81692,1503.0
2.4148218631744385,163,93.0705,2430.8841317006513,1520,1503.0,1312.55916,1503.0
2.4391818046569824,162,93.0705,2444.6959733580416,1520,1503.0,1308.3671999999999,1502.0
2.4635519981384277,163,93.0705,2444.6959733580416,1520,1503.0,1308.3352400000001,1503.0
2.4880449771881104,161,93.0705,2458.5078150154313,1520,1503.0,1308.3352400000001,1501.0
2.512532949447632,161,93.0705,2472.3196566728211,1520,1503.0,1308.3352400000001,1501.0
2.5369138717651367,160,93.0705,2487.857978537385,1520,1503.0,1309.7272,1500.0
2.561340808868408,160,93.0705,2503.3963004019488,1519.0,1503.0,1311.0871999999999,1500.0
2.5857717990875244,159,93.0705,2532.7464639239029,1513.0,1503.0,1311.0871999999999,1499.0
2.610214948654175,159,93.0705,2548.2847857884667,1509.0,1503.0,1311.0871999999999,1499.0
2.6346848011016846,159,93.0705,2548.2847857884667,1505.0,1503.0,1311.0871999999999,1499.0
2.6591219902038574,159,93.0705,2548.2847857884667,1501.0,1503.0,1311.0871999999999,1499.0
2.6835999488830566,159,93.0705,2548.2847857884667,1498.0,1503.0,1311.0871999999999,1499.0
2.7081329822540283,159,93.094,2548.2847857884667,1494.0,1503.0,1311.0251599999999,1499.0
2.7326629161834717,159,93.0705,2548.2847857884667,1492.0,1503.0,1311.0533600000001,1499.0
2.7571918964385986,159,93.0705,2548.2847857884667,1490.0,1503.0,1311.0533600000001,1499.0
2.7817189693450928,159,93.0705,2532.7464639239029,1489.0,1503.0,1311.0533600000001,1499.0
2.8061559200286865,159,93.0705,2517.208142059339,1488.0,1503.0,1311.0533600000001,1499.0
2.830737829208374,159,93.0705,2517.208142059339,1488.0,1503.0,1311.11916,1499.0
2.8551769256591797,159,93.0705,2501.6698201947752,1488.0,1503.0,1311.11916,1499.0
2.8796329498291016,159,94.0705,2517.208142059339,1488.0,1503.0,1308.4791600000001,1499.0
2.9040579795837402,160,94.094,2532.7464639239029,1491.0,1503.0,1306.97712,1500.0
2.928447961807251,160,94.094,2548.2847857884667,1492.0,1503.0,1305.5032799999999,1500.0
2.9528698921203613,160,94.0705,2563.8231076530305,1493.0,1503.0,1304.05952,1500.0
2.9773647785186768,160,94.0705,2579.3614295175944,1494.0,1503.0,1302.61952,1500.0
3.001922845840454,161,94.0705,2594.8997513821582,1498.0,1503.0,1303.9795200000001,1501.0
3.02638578414917,161,94.047,2610.4380732467221,1500.0,1503.0,1305.4673600000001,1501.0
3.050996780395508,161,94.047,2625.9763951112859,1502.0,1503.0,1306.9269999999999,1501.0
3.0755279064178467,161,94.047,2625.9763951112859,1504.0,1503.0,1308.3208400000001,1501.0
3.09999680519104,161,94.047,2625.9763951112859,1506.0,1503.0,1309.71468,1501.0
3.1244688034057617,161,94.047,2610.4380732467221,1508.0,1503.0,1309.7485200000001,1501.0
3.1489098072052,160,94.047,2594.8997513821582,1506.0,1503.0,1309.6846,1500.0
3.173309803009033,160,94.047,2579.3614295175944,1506.0,1503.0,1309.62068,1500.0
3.197807788848877,160,94.0705,2563.8231076530305,1506.0,1503.0,1309.5266799999999,1500.0
3.222350835800171,160,95.047,2563.8231076530305,1506.0,1503.0,1306.88292,1500.0
3.2468597888946533,160,94.047,2548.2847857884667,1505.0,1503.0,1308.05096,1500.0
3.2714200019836426,160,94.047,2532.7464639239029,1504.0,1503.0,1308.05096,1500.0
3.295830011367798,160,94.0235,2532.7464639239029,1503.0,1503.0,1308.1130000000001,1500.0
3.320236921310425,160,94.0235,2532.7464639239029,1502.0,1503.0,1308.21264,1500.0
3.344667911529541,160,94.0235,2548.2847857884667,1501.0,1503.0,1311.04648,1500.0
3.369081974029541,160,94.0235,2563.8231076530305,1500.0,1503.0,1311.08032,1500.0
3.393497943878174,160,94.047,2579.3614295175944,1500.0,1503.0,1311.0521200000001,1500.0
3.4180150032043457,160,94.047,2594.8997513821582,1500.0,1503.0,1310.98632,1500.0
3.442534923553467,160,94.094,2610.4380732467221,1500.0,1503.0,1310.76448,1500.0
3.467036008834839,160,94.094,2610.4380732467221,1500.0,1503.0,1309.271,1500.0
3.4915788173675537,160,95.094,2625.9763951112859,1500.0,1503.0,1306.4975200000001,1500.0
3.516030788421631,160,94.094,2641.5147169758498,1500.0,1503.0,1307.6298400000001,1500.0
3.541496992111206,160,94.094,2641.5147169758498,1500.0,1503.0,1307.59412,1500.0
3.5660738945007324,160,94.0705,2641.5147169758498,1500.0,1503.0,1307.7520400000001,1500.0
3.5906898975372314,160,94.0705,2641.5147169758498,1500.0,1503.0,1307.88176,1500.0
3.6151769161224365,160,93.047,2641.5147169758498,1500.0,1503.0,1313.51352,1500.0
3.6396288871765137,160,93.047,2641.5147169758498,1500.0,1503.0,1315.08512,1500.0
3.6641077995300293,160,93.047,2641.5147169758498,1500.0,1503.0,1316.65672,1500.0
3.6885650157928467,159,93.047,2641.5147169758498,1497.0,1503.0,1318.0986,1499.0
3.713002920150757,159,93.047,2641.5147169758498,1496.0,1503.0,1319.5404799999999,1499.0
3.7375338077545166,159,93.0705,2641.5147169758498,1495.0,1503.0,1316.69452,1499.0
3.762061834335327,159,93.0705,2659.1248150890219,1494.0,1503.0,1315.23676,1499.0
3.786515951156616,159,94.0705,2659.1248150890219,1493.0,1503.0,1311.1390000000001,1499.0
3.8111867904663086,159,94.094,2659.1248150890219,1492.0,1503.0,1308.2111600000001,1499.0
3.8356668949127197,160,94.094,2659.1248150890219,1494.0,1503.0,1305.31152,1500.0
3.86010479927063,160,94.094,2659.1248150890219,1494.0,1503.0,1303.8696400000001,1500.0
3.8845558166503906,160,94.094,2659.1248150890219,1494.0,1503.0,1302.42776,1500.0
3.908984899520874,160,94.094,2659.1248150890219,1494.0,1503.0,1303.7858800000001,1500.0
3.9334328174591064,160,94.094,2659.1248150890219,1495.0,1503.0,1305.2098000000001,1500.0
3.957920789718628,160,94.094,2659.1248150890219,1496.0,1503.0,1306.63372,1500.0
3.9824559688568115,160,94.094,2659.1248150890219,1497.0,1503.0,1308.02568,1500.0
4.006980895996094,161,93.0705,2625.9763951112859,1501.0,1503.0,1312.11968,1501.0
4.03169584274292,161,94.0705,2625.9763951112859,1503.0,1503.0,1310.9854800000001,1501.0
4.056285858154297,161,94.094,2625.9763951112859,1505.0,1503.0,1310.9572800000001,1501.0
4.080844879150391,161,94.1175,2625.9763951112859,1506.0,1503.0,1310.8952400000001,1501.0
4.1052868366241455,161,94.1175,2625.9763951112859,1507.0,1503.0,1310.8614,1501.0
4.129711866378784,161,95.141,2625.9763951112859,1508.0,1503.0,1305.25972,1501.0
4.15416693687439,161,95.1645,2625.9763951112859,1509.0,1503.0,1303.6242,1501.0
4.1785688400268555,161,95.1645,2625.9763951112859,1510.0,1503.0,1302.08268,1501.0
4.2030088901519775,161,95.1645,2625.9763951112859,1511.0,1503.0,1300.6069599999998,1501.0
4.227568864822388,161,94.141,2643.5864932244581,1512.0,1503.0,1301.8332800000001,1501.0
4.2521209716796875,162,94.1175,2676.7349132021945,1515.0,1503.0,1306.1512,1502.0
4.276572942733765,162,93.094,2694.3450113153667,1516.0,1503.0,1311.8487600000001,1502.0
4.301134824752808,162,93.0705,2711.9551094285389,1517.0,1503.0,1316.3482000000001,1502.0
4.325596809387207,162,93.0705,2749.6910339567653,1518.0,1503.0,1320.78748,1502.0
4.3500518798828125,162,92.0705,2767.3011320699379,1519.0,1503.0,1325.0009600000001,1502.0
4.374495983123779,162,92.0705,2784.9112301831101,1520.0,1503.0,1326.5566800000001,1502.0
4.398932933807373,162,93.094,2822.6471547113365,1520,1503.0,1322.5126,1502.0
4.4233078956604,162,93.1175,2840.2572528245087,1520,1503.0,1319.56888,1502.0
4.447690010070801,162,93.1175,2857.8673509376813,1520,1503.0,1316.65336,1502.0
4.472113847732544,162,94.141,2877.9931773527351,1520,1503.0,1309.6277599999999,1502.0
4.4964659214019775,161,94.141,2898.1190037677889,1520,1503.0,1303.86232,1501.0
4.520986795425415,161,94.141,2918.2448301828431,1520.0,1503.0,1302.35464,1501.0
4.5454487800598145,161,94.141,2938.3706565978969,1519.0,1503.0,1300.94472,1501.0
4.569900989532471,161,94.1175,2938.3706565978969,1518.0,1503.0,1299.5968399999999,1501.0
4.594330787658691,161,94.1175,2958.4964830129511,1517.0,1503.0,1302.4465599999999,1501.0
4.618806838989258,161,93.094,2958.4964830129511,1516.0,1503.0,1307.9983199999999,1501.0
4.643274784088135,162,93.0705,2958.4964830129511,1518.0,1503.0,1310.9919600000001,1502.0
4.667799949645996,162,93.0705,2978.6223094280049,1518.0,1503.0,1313.92544,1502.0
4.6923840045928955,161,93.0705,2998.7481358430587,1515.0,1503.0,1316.79312,1501.0
4.716911792755127,161,93.0705,2998.7481358430587,1514.0,1503.0,1318.2688400000002,1501.0
4.741771936416626,161,93.0705,2998.7481358430587,1514.0,1503.0,1316.8787600000001,1501.0
4.766241788864136,161,93.0705,2998.7481358430587,1514.0,1503.0,1315.4228800000001,1501.0
4.790835857391357,160,93.0705,2998.7481358430587,1511.0,1503.0,1313.9670000000001,1500.0
4.8152689933776855,160,93.047,2998.7481358430587,1510.0,1503.0,1312.6051199999999,1500.0
4.839707851409912,160,92.0235,2978.6223094280049,1509.0,1503.0,1313.9170799999999,1500.0
4.864112854003906,160,92.0,2998.7481358430587,1508.0,1503.0,1315.4548399999999,1500.0
4.8885338306427,160,92.0,2998.7481358430587,1506.0,1503.0,1316.9963600000001,1500.0
4.912961006164551,159,92.0,2998.7481358430587,1501.0,1503.0,1318.5378799999999,1499.0
4.93746280670166,159,92.0235,2998.7481358430587,1499.0,1503.0,1319.95156,1499.0
4.962105989456177,159,92.0235,2998.7481358430587,1497.0,1503.0,1318.52764,1499.0
4.9868738651275635,159,92.0235,2998.7481358430587,1495.0,1503.0,1317.03792,1499.0
5.011508941650391,158,92.0,2998.7481358430587,1490.0,1503.0,1315.61024,1498.0
5.036019802093506,159,92.0,2998.7481358430587,1491.0,1503.0,1314.15436,1499.0
5.060470819473267,159,92.0,2998.7481358430587,1490.0,1503.0,1312.7962399999999,1499.0
5.0849289894104,158,92.0235,3018.8739622581129,1486.0,1503.0,1312.7680399999999,1498.0
5.109403848648071,159,92.0235,3018.8739622581129,1487.0,1503.0,1312.8,1499.0
5.13390588760376,159,93.047,3018.8739622581129,1486.0,1503.0,1310.06412,1499.0
5.158390998840332,159,93.047,3018.8739622581129,1486.0,1503.0,1308.5564400000001,1499.0
5.182814836502075,159,93.047,3018.8739622581129,1486.0,1503.0,1307.0168000000001,1499.0
5.207280874252319,159,93.047,3018.8739622581129,1486.0,1503.0,1305.54296,1499.0
5.231841802597046,160,92.0235,2998.7481358430587,1489.0,1503.0,1306.77116,1500.0
5.25627589225769,160,91.9765,2998.7481358430587,1491.0,1503.0,1309.7929999999999,1500.0
5.28085994720459,160,90.9295,2998.7481358430587,1492.0,1503.0,1315.52252,1500.0
5.305282831192017,160,90.906,2998.7481358430587,1493.0,1503.0,1320.0576799999999,1500.0
5.329721927642822,161,89.906,2978.6223094280049,1498.0,1503.0,1327.1726799999999,1501.0
5.354162931442261,161,90.9295,2978.6223094280049,1500.0,1503.0,1327.5198399999999,1501.0
5.378582954406738,161,90.953,2958.4964830129511,1502.0,1503.0,1327.5095999999999,1501.0
5.403045892715454,161,92.0,2958.4964830129511,1504.0,1503.0,1321.83188,1501.0
5.427580833435059,162,93.047,2938.3706565978969,1509.0,1503.0,1314.58068,1502.0
5.452120780944824,161,94.0705,2938.3706565978969,1509.0,1503.0,1303.08384,1501.0
5.476576805114746,162,94.0705,2938.3706565978969,1513.0,1503.0,1297.07296,1502.0
5.501158952713013,162,94.0705,2918.2448301828431,1515.0,1503.0,1291.1918000000001,1502.0
5.525672912597656,162,94.047,2918.2448301828431,1517.0,1503.0,1289.7282,1502.0
5.550110816955566,162,93.0235,2898.1190037677889,1519.0,1503.0,1293.902,1502.0
5.574512958526611,162,93.0235,2898.1190037677889,1520.0,1503.0,1301.0734,1502.0
5.598934888839722,162,94.0235,2898.1190037677889,1520,1503.0,1304.2128399999999,1502.0
5.6232898235321045,162,94.0235,2918.2448301828431,1520,1503.0,1308.5203200000001,1502.0
5.647708892822266,162,94.0235,2918.2448301828431,1520,1503.0,1311.33808,1502.0
5.672163963317871,162,93.0,2918.2448301828431,1520,1503.0,1312.56816,1502.0
5.696540832519531,163,92.9765,2918.2448301828431,1520,1503.0,1311.2401199999999,1503.0
5.7210588455200195,162,91.953,2918.2448301828431,1520,1503.0,1315.3859199999999,1502.0
5.745436906814575,162,91.9295,2938.3706565978969,1520,1503.0,1318.36556,1502.0
5.7698140144348145,163,91.953,2938.3706565978969,1520,1503.0,1321.28692,1503.0
5.79418683052063,163,92.953,2958.4964830129511,1520,1503.0,1320.12264,1503.0
5.818562984466553,164,92.9765,2978.6223094280049,1520,1503.0,1320.03052,1504.0
5.84294581413269,164,92.9765,2978.6223094280049,1520,1503.0,1315.7408,1504.0
5.8673388957977295,164,92.9765,2978.6223094280049,1520,1503.0,1311.38528,1504.0
5.891794919967651,164,92.9765,2978.6223094280049,1520,1503.0,1307.09556,1504.0
5.916500806808472,164,91.9295,3021.9702432450445,1520,1503.0,1309.76188,1504.0
5.941035985946655,164,90.906,3045.1923506470298,1520,1503.0,1313.9716000000001,1504.0
5.965401887893677,164,89.859,3088.5402844640694,1520,1503.0,1321.10916,1504.0
5.989748954772949,164,89.812,3088.5402844640694,1520,1503.0,1327.14636,1504.0
6.014064788818359,163,88.7885,3111.7623918660547,1520,1503.0,1335.7972400000001,1503.0
6.038478851318359,163,88.7885,3134.9844992680401,1520,1503.0,1338.92832,1503.0
6.062891960144043,162,88.7885,3158.2066066700254,1520,1503.0,1339.16164,1502.0
6.087340831756592,161,88.812,3181.4287140720107,1520,1503.0,1336.4013199999999,1501.0
6.111876010894775,161,89.812,3181.4287140720107,1520,1503.0,1330.8976,1501.0
6.136225938796997,160,89.8355,3204.6508214739961,1520,1503.0,1323.6660400000001,1500.0
6.1607348918914795,160,89.8355,3204.6508214739961,1520,1503.0,1317.8866,1500.0
6.185150861740112,159,90.859,3181.4287140720107,1515.0,1503.0,1310.7970800000001,1499.0
6.209644794464111,159,91.906,3158.2066066700254,1510.0,1503.0,1303.6614,1499.0
6.2341248989105225,158,91.9295,3181.4287140720107,1502.0,1503.0,1300.5840000000001,1498.0
6.258579969406128,158,92.9765,3158.2066066700254,1497.0,1503.0,1296.22848,1498.0
6.283001899719238,158,94.0,3134.9844992680401,1492.0,1503.0,1290.42732,1498.0
6.307508945465088,158,94.0,3111.7623918660547,1488.0,1503.0,1288.7201599999999,1498.0
6.332053899765015,157,94.0,3111.7623918660547,1482.0,1503.0,1289.91264,1497.0
6.356445789337158,157,94.0,3134.9844992680401,1480,1503.0,1289.8109199999999,1497.0
6.38093900680542,156,93.9765,3111.7623918660547,1480,1503.0,1292.6708799999999,1496.0
6.405303955078125,156,93.9765,3088.5402844640694,1480,1503.0,1298.36844,1496.0
6.429675817489624,156,92.9765,3111.7623918660547,1480,1503.0,1305.31404,1496.0
6.454065799713135,155,92.9765,3134.9844992680401,1480,1503.0,1309.63572,1495.0
6.478432893753052,155,92.9765,3111.7623918660547,1480,1503.0,1313.92544,1495.0
6.502794981002808,155,92.9765,3111.7623918660547,1480,1503.0,1316.7254399999999,1495.0
6.527253866195679,155,93.0,3111.7623918660547,1480,1503.0,1318.0714399999999,1495.0
6.551711797714233,154,93.0235,3134.9844992680401,1480,1503.0,1316.5835999999999,1494.0
6.5760498046875,154,94.047,3111.7623918660547,1480,1503.0,1312.42192,1494.0
6.6004109382629395,154,94.0705,3088.5402844640694,1480,1503.0,1309.4264000000001,1494.0
6.62481689453125,154,94.1175,3068.4144580490156,1480,1503.0,1306.3669600000001,1494.0
6.649147987365723,155,95.141,3068.4144580490156,1480,1503.0,1300.72768,1495.0
6.673492908477783,155,95.188,3025.066524231976,1480,1503.0,1297.61832,1495.0
6.697966814041138,155,96.2115,3001.8444168299907,1480,1503.0,1294.72912,1495.0
6.722431898117065,155,96.235,3001.8444168299907,1480,1503.0,1293.07188,1495.0
6.746819972991943,155,95.235,2981.7185904149364,1480,1503.0,1294.21444,1495.0
6.771262884140015,155,95.2115,2981.7185904149364,1480,1503.0,1297.05288,1495.0
6.795620918273926,155,94.188,2938.3706565978969,1480,1503.0,1302.6648,1495.0
6.820001840591431,156,94.1645,2938.3706565978969,1480,1503.0,1308.5844,1496.0
6.844380855560303,156,92.141,2918.2448301828431,1480,1503.0,1319.85168,1496.0
6.868707895278931,156,92.1175,2938.3706565978969,1480,1503.0,1325.88888,1496.0
6.893049955368042,157,91.1175,2918.2448301828431,1480,1503.0,1333.0801199999999,1497.0
6.917448997497559,157,91.141,2918.2448301828431,1480,1503.0,1336.0796,1497.0
6.9419028759002686,157,92.188,2918.2448301828431,1480,1503.0,1334.88544,1497.0
6.96624493598938,157,92.2115,2898.1190037677889,1480,1503.0,1329.18788,1497.0
6.990752935409546,157,92.235,2898.1190037677889,1480,1503.0,1324.7506800000001,1497.0
7.015093803405762,157,92.2585,2877.9931773527351,1480,1503.0,1317.5116,1497.0
7.0394628047943115,157,92.2585,2877.9931773527351,1480,1503.0,1311.75848,1497.0
7.063868999481201,158,92.235,2840.2572528245087,1480,1503.0,1309.0309600000001,1498.0
7.088270902633667,158,91.188,2840.2572528245087,1480,1503.0,1311.85708,1498.0
7.112640857696533,158,90.188,2820.1314264094549,1480,1503.0,1316.1645599999999,1498.0
7.13736891746521,158,90.188,2820.1314264094549,1480,1503.0,1320.69784,1498.0
7.161839008331299,159,90.188,2820.1314264094549,1480,1503.0,1325.1991599999999,1499.0
7.186179876327515,159,91.188,2782.3955018812285,1480,1503.0,1325.5707600000001,1499.0
7.210824966430664,159,90.2115,2782.3955018812285,1480,1503.0,1326.75676,1499.0
7.235229969024658,159,91.2115,2764.7854037680563,1480.0,1503.0,1321.299,1499.0
7.259661912918091,159,90.2115,2764.7854037680563,1482.0,1503.0,1319.6492800000001,1499.0
7.2841010093688965,160,90.188,2747.1753056548837,1487.0,1503.0,1316.8616,1500.0
7.308509826660156,160,89.1175,2764.7854037680563,1489.0,1503.0,1319.7038,1500.0
7.332920789718628,160,89.094,2747.1753056548837,1491.0,1503.0,1320.01316,1500.0
7.357398986816406,162,87.0705,2747.1753056548837,1499.0,1503.0,1329.79636,1502.0
7.381901979446411,161,87.0705,2747.1753056548837,1500.0,1503.0,1334.3513600000001,1501.0
7.406336784362793,161,87.0705,2747.1753056548837,1502.0,1503.0,1338.8405600000001,1501.0
7.430909872055054,161,88.094,2747.1753056548837,1504.0,1503.0,1336.2703200000001,1501.0
7.455362796783447,162,88.141,2729.5652075417115,1509.0,1503.0,1336.0664400000001,1502.0
7.4798359870910645,162,88.141,2747.1753056548837,1512.0,1503.0,1328.8931600000001,1502.0
7.504281997680664,162,88.141,2747.1753056548837,1515.0,1503.0,1323.07988,1502.0
7.528714895248413,162,88.141,2764.7854037680563,1517.0,1503.0,1317.29856,1502.0
7.553139925003052,162,88.141,2764.7854037680563,1519.0,1503.0,1315.8389199999999,1502.0
7.577595949172974,164,88.1175,2782.3955018812285,1520,1503.0,1314.6048799999999,1504.0
7.602029800415039,162,87.094,2782.3955018812285,1520,1503.0,1318.79664,1502.0
7.62640380859375,163,87.0705,2782.3955018812285,1520,1503.0,1321.82224,1503.0
7.65087890625,163,86.047,2782.3955018812285,1520,1503.0,1327.5216800000001,1503.0
7.675209999084473,163,86.0235,2800.0055999944007,1520,1503.0,1330.663,1503.0
7.699587821960449,163,86.0,2817.6156981075733,1520,1503.0,1333.7084400000001,1503.0
7.723959922790527,164,86.0,2837.7415245226271,1520,1503.0,1333.85988,1504.0
7.748281955718994,163,85.9765,2857.8673509376813,1520,1503.0,1334.00756,1503.0
7.772624969482422,164,86.0,2877.9931773527351,1520,1503.0,1331.1992,1504.0
7.797008991241455,163,86.0,2877.9931773527351,1520,1503.0,1328.3532399999999,1503.0
7.821426868438721,163,87.0235,2898.1190037677889,1520,1503.0,1322.7714000000001,1503.0
7.845799922943115,164,87.0235,2898.1190037677889,1520,1503.0,1319.80972,1504.0
7.8701629638671875,162,88.0235,2918.2448301828431,1520,1503.0,1314.1741999999999,1502.0
7.894509792327881,164,88.0235,2938.3706565978969,1520,1503.0,1311.1964399999999,1504.0
7.918843984603882,163,88.0,2958.4964830129511,1520,1503.0,1308.31268,1503.0
7.943177938461304,163,88.0,2978.6223094280049,1520,1503.0,1308.2984799999999,1503.0
7.967556953430176,164,87.9765,2978.6223094280049,1520,1503.0,1308.3463200000001,1504.0
7.9919798374176025,162,87.9765,2978.6223094280049,1520,1503.0,1311.1979200000001,1502.0
8.016357898712158,164,87.9765,2978.6223094280049,1520,1503.0,1314.01756,1504.0
8.040880918502808,162,87.953,2998.7481358430587,1520,1503.0,1316.8334399999999,1502.0
8.065243005752563,164,87.9295,2998.7481358430587,1520,1503.0,1318.2911999999999,1504.0
8.089609861373901,163,87.9295,3018.8739622581129,1520,1503.0,1319.6549600000001,1503.0
8.113977909088135,164,87.9295,3018.8739622581129,1520,1503.0,1319.6587199999999,1504.0
8.138345003128052,164,88.9295,3018.8739622581129,1520,1503.0,1317.0224800000001,1504.0
8.162681818008423,164,88.953,3018.8739622581129,1520,1503.0,1315.49036,1504.0
8.187138795852661,163,88.953,3018.8739622581129,1520,1503.0,1313.92064,1503.0
8.21162486076355,163,88.9295,3018.8739622581129,1520,1503.0,1312.4449199999999,1503.0
8.236005783081055,164,88.8825,3018.8739622581129,1520,1503.0,1311.0650800000001,1504.0
8.260379791259766,164,87.8355,3018.8739622581129,1520,1503.0,1315.19292,1504.0
8.28470492362976,163,86.7885,3018.8739622581129,1520,1503.0,1320.9262000000001,1503.0
8.30902886390686,163,86.765,3018.8739622581129,1520,1503.0,1325.4970800000001,1503.0
8.333668947219849,164,86.765,3018.8739622581129,1520,1503.0,1329.97396,1504.0
8.358088970184326,164,86.765,3018.8739622581129,1520,1503.0,1334.31924,1504.0
8.38245677947998,163,86.765,3018.8739622581129,1520,1503.0,1334.37292,1503.0
8.406868934631348,163,87.7885,3018.8739622581129,1520,1503.0,1328.761,1503.0
8.431294918060303,163,87.812,3042.0960696600982,1520,1503.0,1324.24944,1503.0
8.455644845962524,163,88.812,3042.0960696600982,1520,1503.0,1317.15804,1503.0
8.480020999908447,162,88.812,3065.3181770620836,1520,1503.0,1311.3305600000001,1502.0
8.504395008087158,162,89.812,3065.3181770620836,1520,1503.0,1304.287,1502.0
8.528741836547852,163,89.812,3088.5402844640689,1520,1503.0,1302.73316,1503.0
8.553101778030396,163,90.812,3088.5402844640689,1520,1503.0,1298.63708,1503.0
8.577504873275757,163,90.8355,3111.7623918660543,1520,1503.0,1298.4789599999999,1503.0
8.601907014846802,162,91.859,3111.7623918660543,1520,1503.0,1295.6469999999999,1502.0
8.626260995864868,162,92.859,3111.7623918660543,1520,1503.0,1294.2032400000001,1502.0
8.65074896812439,163,92.8825,3111.7623918660543,1520,1503.0,1292.50548,1503.0
8.675182819366455,161,93.8825,3088.5402844640689,1520,1503.0,1290.96396,1501.0
8.699651002883911,161,93.8825,3111.7623918660543,1520,1503.0,1289.3282400000001,1501.0
8.724063873291016,162,93.8825,3111.7623918660543,1520,1503.0,1290.5583200000001,1502.0
8.748398780822754,161,94.8825,3111.7623918660543,1520,1503.0,1290.5884000000001,1501.0
8.772739887237549,162,94.8825,3088.5402844640689,1520,1503.0,1291.88428,1502.0
8.797191858291626,161,94.8825,3088.5402844640689,1520.0,1503.0,1294.6201599999999,1501.0
8.821708917617798,161,94.8825,3088.5402844640689,1518.0,1503.0,1297.3240800000001,1501.0
8.846165895462036,160,94.8825,3068.4144580490147,1514.0,1503.0,1298.6360400000001,1500.0
8.870713949203491,160,95.859,3068.4144580490147,1512.0,1503.0,1298.8100400000001,1500.0
8.895121812820435,160,94.859,3048.2886316339609,1509.0,1503.0,1302.76388,1500.0
8.919541835784912,161,95.8825,3048.2886316339609,1511.0,1503.0,1301.45568,1501.0
8.943967819213867,161,95.8825,3025.0665242319756,1511.0,1503.0,1301.3756800000001,1501.0
8.968372821807861,161,95.906,3001.8444168299902,1510.0,1503.0,1301.2336399999999,1501.0
8.99279499053955,161,95.953,2981.7185904149364,1510.0,1503.0,1302.3699199999999,1501.0
9.017282962799072,161,97.0,2961.5927639998822,1509.0,1503.0,1297.9985199999999,1501.0
9.041812896728516,160,98.047,2941.4669375848284,1506.0,1503.0,1294.98524,1500.0
9.066262006759644,160,99.0705,2918.2448301828431,1505.0,1503.0,1290.5263199999999,1500.0
9.090842008590698,159,99.094,2918.2448301828431,1502.0,1503.0,1287.29936,1499.0
9.115264892578125,159,99.1175,2898.1190037677889,1501.0,1503.0,1282.84212,1499.0
9.139673948287964,159,99.1175,2898.1190037677889,1500.0,1503.0,1282.7046800000001,1499.0
9.164119005203247,158,99.094,2898.1190037677889,1495.0,1503.0,1284.1689200000001,1498.0
9.18858790397644,158,98.0705,2898.1190037677889,1492.0,1503.0,1291.1728000000001,1498.0
9.213058948516846,157,98.0705,2898.1190037677889,1486.0,1503.0,1296.9823200000001,1497.0
9.237565994262695,157,97.0705,2898.1190037677889,1482.0,1503.0,1305.43372,1497.0
9.262110948562622,157,97.094,2898.1190037677889,1480,1503.0,1311.1991600000001,1497.0
9.286465883255005,156,98.1175,2918.2448301828431,1480,1503.0,1312.8010400000001,1496.0
9.311144828796387,156,99.141,2918.2448301828431,1480,1503.0,1308.6713199999999,1496.0
9.33551287651062,156,99.2115,2938.3706565978969,1480,1503.0,1305.5517199999999,1496.0
9.359866857528687,155,99.235,2938.3706565978969,1480,1503.0,1299.6227200000001,1495.0
9.38420581817627,155,99.2115,2938.3706565978969,1480,1503.0,1293.8497600000001,1495.0
9.408577919006348,155,99.2115,2938.3706565978969,1480,1503.0,1290.9463599999999,1495.0
9.432946920394897,155,97.1645,2918.2448301828431,1480,1503.0,1297.7048,1495.0
9.457376956939697,155,96.141,2898.1190037677889,1480,1503.0,1304.9062799999999,1495.0
9.48182487487793,156,95.1175,2898.1190037677889,1480,1503.0,1315.0074,1496.0
9.506541967391968,156,95.094,2898.1190037677889,1480,1503.0,1323.8445999999999,1496.0
9.531091928482056,157,95.1175,2860.3830792395629,1480,1503.0,1331.1995999999999,1497.0
9.555469989776611,157,95.1175,2822.6471547113365,1480,1503.0,1331.4592399999999,1497.0
9.579833984375,158,95.141,2784.9112301831101,1480,1503.0,1328.69516,1498.0
9.604211807250977,158,95.188,2767.3011320699379,1480,1503.0,1322.9374399999999,1498.0
9.628569841384888,159,95.2115,2749.6910339567653,1480,1503.0,1317.1402399999999,1499.0
9.65293288230896,159,95.235,2729.5652075417115,1480,1503.0,1311.375,1499.0
9.677350997924805,159,95.235,2696.416787563975,1480,1503.0,1308.4218800000001,1499.0
9.701812982559204,160,94.2115,2663.268367586239,1480,1503.0,1309.6285600000001,1500.0
9.726337909698486,160,94.188,2645.6582694730669,1483.0,1503.0,1311.19264,1500.0
9.751178979873657,160,93.141,2628.0481713598942,1487.0,1503.0,1315.5903599999999,1500.0
9.775630950927734,160,92.1175,2628.0481713598942,1490.0,1503.0,1321.46756,1500.0
9.800086975097656,161,91.094,2612.5098494953304,1496.0,1503.0,1328.8186000000001,1501.0
9.824554920196533,161,90.0705,2612.5098494953304,1499.0,1503.0,1334.7457199999999,1501.0
9.84899091720581,161,89.0705,2596.9715276307666,1502.0,1503.0,1341.9549200000001,1501.0
9.873416900634766,161,89.0705,2581.4332057662027,1504.0,1503.0,1345.00056,1501.0
9.897885799407959,161,89.0705,2548.2847857884667,1506.0,1503.0,1345.1484399999999,1501.0
9.92240595817566,160,89.0705,2563.8231076530305,1505.0,1503.0,1342.4305200000001,1500.0
9.94687795639038,160,88.0705,2563.8231076530305,1505.0,1503.0,1340.8787600000001,1500.0
9.971390008926392,160,88.047,2548.2847857884667,1505.0,1503.0,1335.421,1500.0
9.995804786682129,160,88.0235,2548.2847857884667,1505.0,1503.0,1331.421,1500.0
10.020218849182129,160,87.0235,2532.7464639239029,1505.0,1503.0,1331.4247599999999,1500.0
10.044654846191406,160,87.0,2532.7464639239029,1504.0,1503.0,1331.6825200000001,1500.0
10.069103956222534,160,85.9765,2517.208142059339,1503.0,1503.0,1333.2060799999999,1500.0
10.093539953231812,160,85.9765,2532.7464639239029,1502.0,1503.0,1334.79564,1500.0
10.118002891540527,160,85.9765,2548.2847857884667,1501.0,1503.0,1336.3193999999999,1500.0
10.1425199508667,160,86.0,2548.2847857884667,1500.0,1503.0,1334.9811199999999,1500.0
10.166956901550293,159,87.047,2548.2847857884667,1497.0,1503.0,1330.8411599999999,1499.0
10.191500902175903,159,87.0705,2548.2847857884667,1496.0,1503.0,1326.38976,1499.0
10.215973854064941,159,89.1175,2548.2847857884667,1495.0,1503.0,1316.5944400000001,1499.0
10.240428924560547,159,89.141,2532.7464639239029,1494.0,1503.0,1309.2254399999999,1499.0
10.264864921569824,159,89.141,2532.7464639239029,1493.0,1503.0,1303.31044,1499.0
10.289299011230469,159,89.141,2532.7464639239029,1492.0,1503.0,1300.3589999999999,1499.0
10.313735008239746,159,89.1175,2532.7464639239029,1491.0,1503.0,1298.9273599999999,1499.0
10.3382568359375,159,89.1175,2517.208142059339,1490.0,1503.0,1303.19912,1499.0
10.362766981124878,159,90.141,2517.208142059339,1489.0,1503.0,1304.83464,1499.0
10.387375831604004,159,90.1645,2517.208142059339,1488.0,1503.0,1307.60436,1499.0
10.411999940872192,159,91.2115,2517.208142059339,1488.0,1503.0,1306.2142799999999,1499.0
10.436932802200317,159,91.235,2517.208142059339,1488.0,1503.0,1305.9208000000001,1499.0
10.462372779846191,160,92.235,2517.208142059339,1491.0,1503.0,1300.2316000000001,1500.0
10.487032890319824,160,91.188,2517.208142059339,1492.0,1503.0,1301.34032,1500.0
10.511599779129028,160,91.1645,2517.208142059339,1493.0,1503.0,1301.3204800000001,1500.0
10.536012887954712,160,90.0705,2517.208142059339,1494.0,1503.0,1307.0922,1500.0
10.560467958450317,161,89.0,2503.3963004019488,1498.0,1503.0,1314.4749999999999,1501.0
10.584894895553589,161,85.9295,2503.3963004019488,1500.0,1503.0,1331.4793199999999,1501.0
10.60935378074646,162,85.906,2487.857978537385,1505.0,1503.0,1340.5375200000001,1502.0
10.633814811706543,162,85.906,2474.0461368799952,1508.0,1503.0,1349.46976,1502.0
10.658334970474243,162,85.9295,2458.5078150154313,1511.0,1503.0,1350,1502.0
10.68304181098938,162,87.047,2458.5078150154313,1514.0,1503.0,1350,1502.0
10.707480907440186,162,91.1175,2444.6959733580416,1516.0,1503.0,1331.35376,1502.0
10.73204779624939,162,91.188,2444.6959733580416,1518.0,1503.0,1316.47956,1502.0
10.756500005722046,162,92.235,2444.6959733580416,1520.0,1503.0,1298.95784,1502.0
10.78106689453125,161,93.235,2444.6959733580416,1519.0,1503.0,1281.60616,1501.0
10.805553913116455,161,93.235,2458.5078150154313,1519.0,1503.0,1270.03936,1501.0
10.830004930496216,160,92.188,2458.5078150154313,1516.0,1503.0,1276.8099199999999,1500.0
10.85445499420166,160,92.1645,2458.5078150154313,1514.0,1503.0,1282.6154799999999,1500.0
10.87887191772461,160,92.141,2472.3196566728211,1512.0,1503.0,1291.3864799999999,1500.0
10.903270959854126,160,92.094,2487.857978537385,1510.0,1503.0,1303.0214000000001,1500.0
10.927737951278687,160,91.0705,2487.857978537385,1508.0,1503.0,1315.78216,1500.0
10.952244997024536,160,91.0705,2501.6698201947752,1506.0,1503.0,1318.8472400000001,1500.0
10.976728916168213,160,91.047,2501.6698201947752,1504.0,1503.0,1321.81268,1500.0
11.001230955123901,161,91.047,2501.6698201947752,1505.0,1503.0,1323.2601999999999,1501.0
11.025686979293823,161,91.0235,2501.6698201947752,1505.0,1503.0,1323.2781600000001,1501.0
11.050134897232056,161,91.0235,2517.208142059339,1505.0,1503.0,1320.40212,1501.0
11.074612855911255,162,91.0235,2532.7464639239029,1509.0,1503.0,1318.95,1502.0
11.099056959152222,162,91.047,2532.7464639239029,1511.0,1503.0,1317.402,1502.0
11.123499870300293,162,92.094,2532.7464639239029,1513.0,1503.0,1313.1500799999999,1502.0
11.147998809814453,162,92.094,2517.208142059339,1515.0,1503.0,1310.1526799999999,1502.0
11.172518014907837,163,92.094,2517.208142059339,1520.0,1503.0,1308.5472400000001,1503.0
11.197016954421997,163,92.094,2517.208142059339,1520,1503.0,1306.9418000000001,1503.0
11.221459865570068,163,91.0705,2517.208142059339,1520,1503.0,1308.13616,1503.0
11.24583387374878,163,91.047,2532.7464639239029,1520,1503.0,1311.0959600000001,1503.0
11.270241975784302,164,90.0,2532.7464639239029,1520,1503.0,1316.8235999999999,1504.0
11.294590950012207,164,89.9765,2532.7464639239029,1520,1503.0,1321.35688,1504.0
11.318911790847778,164,89.9765,2532.7464639239029,1520,1503.0,1325.86196,1504.0
11.34326696395874,165,88.953,2532.7464639239029,1520,1503.0,1330.1713199999999,1505.0
11.36768388748169,164,87.9295,2532.7464639239029,1520,1503.0,1334.4648,1504.0
11.3920738697052,164,87.8825,2548.2847857884667,1520,1503.0,1334.7225599999999,1504.0
11.41641879081726,164,87.859,2563.8231076530305,1520,1503.0,1334.9201599999999,1504.0
11.440934896469116,165,86.8355,2563.8231076530305,1520,1503.0,1337.7916,1505.0
11.46529483795166,165,86.8355,2563.8231076530305,1520,1503.0,1337.961,1505.0
11.48966383934021,164,87.859,2563.8231076530305,1520,1503.0,1332.5945200000001,1504.0
11.514011859893799,164,88.8825,2579.3614295175944,1520,1503.0,1327.0465200000001,1504.0
11.538319826126099,163,88.9295,2563.8231076530305,1520,1503.0,1322.5688,1503.0
11.562620878219604,162,89.9295,2563.8231076530305,1520,1503.0,1312.64168,1502.0
11.587041854858398,163,89.9295,2579.3614295175944,1520,1503.0,1305.3065199999999,1503.0
11.611546993255615,162,89.906,2594.8997513821582,1520,1503.0,1302.29116,1502.0
11.635877847671509,161,89.8825,2594.8997513821582,1520,1503.0,1302.23936,1501.0
11.66025185585022,161,89.8825,2579.3614295175944,1520,1503.0,1302.3229200000001,1501.0
11.68462085723877,161,89.8825,2579.3614295175944,1520,1503.0,1306.59844,1501.0
11.708970785140991,161,89.8825,2579.3614295175944,1520,1503.0,1310.8739600000001,1501.0
11.733370780944824,159,90.906,2579.3614295175944,1515.0,1503.0,1310.9896800000001,1499.0
11.75789189338684,160,91.9295,2579.3614295175944,1513.0,1503.0,1308.1738,1500.0
11.782418012619019,160,91.906,2594.8997513821582,1510.0,1503.0,1306.5842399999999,1500.0
11.807005882263184,161,90.8825,2579.3614295175944,1511.0,1503.0,1306.30852,1501.0
11.831632852554321,161,90.859,2563.8231076530305,1509.0,1503.0,1304.86664,1501.0
11.856431007385254,162,90.8825,2548.2847857884667,1511.0,1503.0,1306.2322799999999,1502.0
11.881047010421753,164,91.906,2532.7464639239029,1518.0,1503.0,1307.8218400000001,1504.0
11.905488014221191,166,91.9295,2532.7464639239029,1520,1503.0,1310.5117600000001,1506.0
11.929818868637085,167,92.953,2548.2847857884667,1520,1503.0,1307.6620399999999,1507.0
11.954124927520752,167,93.0,2548.2847857884667,1520,1503.0,1305.8506399999999,1507.0
11.97847580909729,167,94.047,2532.7464639239029,1520,1503.0,1300.0054,1507.0
12.002815008163452,166,95.094,2517.208142059339,1520,1503.0,1294.1263200000001,1506.0
12.027216911315918,165,95.094,2501.6698201947752,1520,1503.0,1289.6014,1505.0
12.05166482925415,163,95.094,2501.6698201947752,1520,1503.0,1289.3342400000001,1503.0
12.0760498046875,162,95.094,2487.857978537385,1520,1503.0,1289.23064,1502.0
12.10041880607605,162,94.047,2487.857978537385,1520,1503.0,1294.7907600000001,1502.0
12.124794006347656,160,93.0235,2474.0461368799952,1520,1503.0,1303.3361600000001,1500.0
12.149139881134033,159,91.9765,2460.2342952226054,1520,1503.0,1313.3854799999999,1499.0
12.173501968383789,158,90.953,2418.5261681124603,1520,1503.0,1323.48848,1498.0
12.197922945022583,157,90.953,2404.7143264550705,1513.0,1503.0,1332.29936,1497.0
12.222446918487549,157,90.953,2390.9024847976807,1503.0,1503.0,1336.7547199999999,1497.0
12.246960878372192,156,90.9765,2377.0906431402905,1491.0,1503.0,1336.85832,1496.0
12.271453857421875,155,90.0,2350.9208378947092,1480,1503.0,1336.6364799999999,1495.0
12.295790910720825,154,90.0,2324.7510326491279,1480,1503.0,1332.3770400000001,1494.0
12.320105791091919,154,90.047,2312.3930690609368,1480,1503.0,1327.99352,1494.0
12.344435930252075,154,90.0705,2286.2232638153555,1480,1503.0,1325.02828,1494.0
12.368774890899658,154,90.0705,2286.2232638153555,1480,1503.0,1323.549,1494.0
12.393163919448853,154,90.094,2286.2232638153555,1480,1503.0,1320.6974,1494.0
12.417588949203491,154,89.094,2312.3930690609368,1480,1503.0,1321.9059600000001,1494.0
12.442018985748291,154,89.1175,2312.3930690609368,1480,1503.0,1321.9840799999999,1494.0
12.466426849365234,154,89.1175,2312.3930690609368,1480,1503.0,1322.1561999999999,1494.0
12.490930795669556,154,89.1175,2312.3930690609368,1480,1503.0,1322.29636,1494.0
12.515314817428589,154,88.141,2324.7510326491279,1480,1503.0,1326.40832,1494.0
12.539675951004028,154,88.141,2337.1089962373189,1480,1503.0,1326.5484799999999,1494.0
12.563998937606812,155,88.141,2349.46695982551,1480,1503.0,1326.6905199999999,1495.0
12.58831787109375,155,88.1645,2361.8249234137011,1480,1503.0,1326.73856,1495.0
12.612688779830933,155,88.1645,2361.8249234137011,1480,1503.0,1326.8147999999999,1495.0
12.637130975723267,156,88.188,2361.8249234137011,1480,1503.0,1324.0628400000001,1496.0
12.66162395477295,156,88.2115,2348.0130817563108,1480,1503.0,1322.6370400000001,1496.0
12.685992002487183,156,88.235,2348.0130817563108,1480,1503.0,1321.14544,1496.0
12.71035385131836,156,88.235,2348.0130817563108,1480,1503.0,1319.74784,1496.0
12.734724998474121,157,87.2115,2335.6551181681198,1480,1503.0,1321.0522800000001,1497.0
12.759083986282349,157,87.1645,2335.6551181681198,1480,1503.0,1322.64644,1497.0
12.783463954925537,158,85.141,2323.2971545799292,1480,1503.0,1329.59204,1498.0
12.807915925979614,157,85.0705,2299.8170237623658,1480,1503.0,1334.3613600000001,1497.0
12.832368850708008,158,84.047,2287.4590601741747,1480,1503.0,1341.7161599999999,1498.0
12.856818914413452,158,84.047,2263.9789293566114,1480,1503.0,1344.97696,1498.0
12.881272792816162,158,84.047,2240.4987985390485,1480,1503.0,1348.0742,1498.0
12.90563678741455,158,84.047,2217.0186677214856,1480,1503.0,1345.4736800000001,1498.0
12.930006980895996,159,85.0705,2193.5385369039227,1480,1503.0,1339.9417599999999,1499.0
12.95435094833374,158,85.0705,2170.0584060863598,1480,1503.0,1332.77224,1498.0
12.978721857070923,159,85.0705,2148.8733256494606,1480,1503.0,1326.99468,1499.0
13.003129005432129,159,85.0705,2115.3302816243709,1480.0,1503.0,1321.2810400000001,1499.0
13.02766489982605,159,85.047,2094.1452011874717,1481.0,1503.0,1318.3814,1499.0
13.052510976791382,159,85.0235,2084.0822879799443,1483.0,1503.0,1318.4772800000001,1499.0
13.07706880569458,160,85.0235,2062.8972075430456,1487.0,1503.0,1319.9369199999999,1500.0
13.101597785949707,160,85.0,2052.8342943355183,1489.0,1503.0,1321.4585999999999,1500.0
13.12603497505188,160,85.0,2042.7713811279912,1491.0,1503.0,1322.95208,1500.0
13.150539875030518,160,84.9765,2032.708467920464,1493.0,1503.0,1324.4418000000001,1500.0
13.175022840499878,160,84.953,2022.6455547129367,1494.0,1503.0,1324.5075999999999,1500.0
13.199440002441406,160,84.953,2012.5826415054096,1496.0,1503.0,1324.5452,1500.0
13.223887920379639,160,84.953,2012.5826415054096,1497.0,1503.0,1324.5170000000001,1500.0
13.24831485748291,160,84.953,2012.5826415054096,1498.0,1503.0,1324.4887999999999,1500.0
13.272758960723877,160,84.9765,2012.5826415054096,1499.0,1503.0,1324.36472,1500.0
13.297235012054443,159,87.0235,2012.5826415054096,1497.0,1503.0,1318.8309199999999,1499.0
13.321752786636353,160,88.047,2012.5826415054096,1499.0,1503.0,1313.0514800000001,1500.0
13.346177816390991,159,88.094,2012.5826415054096,1496.0,1503.0,1308.4081200000001,1499.0
13.370742797851562,159,88.094,2012.5826415054096,1495.0,1503.0,1303.82116,1499.0
13.395179986953735,160,89.0705,2022.6455547129367,1497.0,1503.0,1296.7540000000001,1500.0
13.419604778289795,160,88.047,2022.6455547129367,1497.0,1503.0,1299.3242400000001,1500.0
13.444072961807251,160,88.0235,2022.6455547129367,1497.0,1503.0,1303.59412,1500.0
13.468504905700684,160,88.0235,2022.6455547129367,1497.0,1503.0,1307.9674,1500.0
13.492963790893555,160,87.9765,2022.6455547129367,1497.0,1503.0,1312.4647600000001,1500.0
13.517483949661255,160,87.953,2013.4974517970034,1497.0,1503.0,1319.6700000000001,1500.0
13.541991949081421,160,86.9295,2013.4974517970034,1498.0,1503.0,1323.8993599999999,1500.0
13.566429853439331,160,86.9295,2013.4974517970034,1498.0,1503.0,1325.4427599999999,1500.0
13.59102487564087,160,87.953,2004.3493488810695,1499.0,1503.0,1324.2202,1500.0
13.615458011627197,160,87.9765,2004.3493488810695,1500.0,1503.0,1324.0321999999999,1500.0
13.639890909194946,160,89.0235,1976.7857170517564,1500.0,1503.0,1319.7144800000001,1500.0
13.664333820343018,160,90.047,1967.6376141358226,1500.0,1503.0,1312.4772800000001,1500.0
13.68878984451294,160,91.0705,1958.4895112198888,1500.0,1503.0,1303.7982,1500.0
13.713246822357178,160,91.0705,1949.3414083039547,1500.0,1503.0,1299.2131200000001,1500.0
13.7376868724823,161,91.047,1940.1933053880209,1503.0,1503.0,1294.8198,1501.0
13.76217794418335,161,91.047,1940.1933053880209,1504.0,1503.0,1293.36184,1501.0
13.786600828170776,161,91.047,1931.0452024720871,1505.0,1503.0,1296.16164,1501.0
13.811282873153687,161,92.0705,1921.8970995561533,1506.0,1503.0,1299.1251999999999,1501.0
13.835753917694092,162,92.094,1921.8970995561533,1510.0,1503.0,1301.8629599999999,1502.0
13.860166788101196,162,92.094,1921.8970995561533,1512.0,1503.0,1304.53116,1502.0
13.884597778320312,162,93.094,1930.2497152620058,1514.0,1503.0,1303.13544,1502.0
13.909048795700073,162,93.094,1930.2497152620058,1516.0,1503.0,1301.5477599999999,1502.0
13.933486938476562,162,93.094,1930.2497152620058,1518.0,1503.0,1301.4339199999999,1502.0
13.957973957061768,163,93.094,1930.2497152620058,1520,1503.0,1301.38588,1503.0
13.982362985610962,163,93.094,1930.2497152620058,1520,1503.0,1301.3697999999999,1503.0
14.006757974624634,163,93.094,1930.2497152620058,1520,1503.0,1304.15372,1503.0
14.031337976455688,163,92.0705,1939.3978181779391,1520,1503.0,1309.63968,1503.0
14.05584192276001,163,92.047,1948.5459210938729,1520,1503.0,1312.5675200000001,1503.0
14.080161809921265,163,91.0235,1957.694024009807,1520,1503.0,1318.13724,1503.0
14.104498863220215,163,91.0,1957.694024009807,1520,1503.0,1322.5408,1503.0
14.128853797912598,163,91.0,1966.8421269257408,1520,1503.0,1325.5561599999999,1503.0
14.15315294265747,164,89.9765,1975.9902298416746,1520,1503.0,1328.4077600000001,1504.0
14.177544832229614,163,89.9765,1985.1383327576084,1520,1503.0,1329.9653599999999,1503.0
14.202284812927246,163,91.0,1994.2864356735422,1520,1503.0,1325.9551200000001,1503.0
14.226667881011963,163,91.0,2003.4345385894762,1520,1503.0,1323.1072799999999,1503.0
14.251165866851807,163,91.0235,2012.58264150541,1520,1503.0,1320.1974,1503.0
14.275497913360596,163,91.0235,2012.58264150541,1520,1503.0,1315.8418799999999,1503.0
14.299831867218018,163,91.0235,2012.58264150541,1520,1503.0,1311.5183199999999,1503.0
14.324167966842651,163,90.0,2012.58264150541,1520,1503.0,1314.1545599999999,1503.0
14.348514795303345,163,89.9765,2012.58264150541,1520,1503.0,1315.6566,1503.0
14.372857809066772,163,89.9765,2022.6455547129372,1520,1503.0,1317.19624,1503.0
14.39725399017334,163,90.0,2032.7084679204643,1520,1503.0,1320.0658000000001,1503.0
14.421687841415405,163,90.0,2042.7713811279914,1520,1503.0,1322.9635599999999,1503.0
14.44605278968811,163,90.047,2042.7713811279914,1520,1503.0,1321.47948,1503.0
14.470407009124756,162,91.0705,2052.8342943355187,1520,1503.0,1317.28396,1502.0
14.494802951812744,162,91.094,2062.8972075430456,1520,1503.0,1314.22264,1502.0
14.519146919250488,162,90.0705,2062.8972075430456,1520,1503.0,1313.9573600000001,1502.0
14.543484926223755,162,90.047,2072.960120750573,1520,1503.0,1312.52592,1502.0
14.56787395477295,161,89.0235,2072.960120750573,1520,1503.0,1315.29188,1501.0
14.59229588508606,161,88.0,2072.960120750573,1520,1503.0,1322.4294400000001,1501.0
14.616663932800293,160,87.9765,2062.8972075430456,1519.0,1503.0,1328.4666400000001,1500.0
14.64122986793518,160,87.9765,2062.8972075430456,1516.0,1503.0,1331.5778800000001,1500.0
14.665652990341187,160,86.953,2052.8342943355187,1513.0,1503.0,1337.32536,1500.0
14.690215826034546,159,86.9295,2052.8342943355187,1507.0,1503.0,1338.97696,1499.0
14.71485185623169,158,85.9295,2042.7713811279914,1501.0,1503.0,1338.9826,1498.0
14.739247798919678,158,85.9295,2032.7084679204643,1497.0,1503.0,1337.69048,1498.0
14.763686895370483,159,85.9295,2032.7084679204643,1496.0,1503.0,1337.7903200000001,1499.0
14.788228988647461,158,85.9295,2022.6455547129372,1490.0,1503.0,1335.0563199999999,1498.0
14.812796831130981,157,85.9295,2022.6455547129372,1484.0,1503.0,1333.6484800000001,1497.0
14.837324857711792,157,86.9765,2013.4974517970034,1480.0,1503.0,1328.06852,1497.0
14.86185598373413,158,87.9765,2004.3493488810695,1480.0,1503.0,1321.1369199999999,1498.0
14.886276006698608,158,87.9765,1985.1383327576089,1480,1503.0,1315.4053200000001,1498.0
14.910918951034546,158,87.9765,1975.9902298416753,1480,1503.0,1311.0656799999999,1498.0
14.935285806655884,157,87.9765,1966.8421269257415,1480,1503.0,1306.758,1497.0
14.959674835205078,157,88.953,1957.6940240098077,1480,1503.0,1304.1639600000001,1497.0
14.98405385017395,157,88.953,1948.5459210938739,1480,1503.0,1305.5417199999999,1497.0
15.008381843566895,158,88.953,1939.3978181779398,1480,1503.0,1306.91948,1498.0
15.032761812210083,157,88.953,1921.8970995561535,1480,1503.0,1308.2972400000001,1497.0
15.05720591545105,158,88.953,1904.3963809343672,1480,1503.0,1309.675,1498.0
15.081646919250488,158,88.9295,1896.043765228515,1480,1503.0,1312.42508,1498.0
15.105986833572388,158,87.8825,1887.6911495226625,1480,1503.0,1316.5510400000001,1498.0
15.130378007888794,159,87.859,1871.6819694197784,1480,1503.0,1319.4826399999999,1499.0
15.154706954956055,159,87.8825,1848.6287500716255,1480,1503.0,1322.3240000000001,1499.0
15.179041862487793,159,88.906,1832.6195699687414,1480,1503.0,1322.49152,1499.0
15.203428983688354,159,88.953,1809.5663506205885,1480.0,1503.0,1322.36932,1499.0
15.22800898551941,159,89.9765,1793.5571705177044,1482.0,1503.0,1316.6698799999999,1499.0
15.25258493423462,160,91.0,1770.5039511695516,1486.0,1503.0,1309.4308000000001,1500.0
15.277141809463501,160,92.047,1749.3011574546952,1489.0,1503.0,1300.72164,1500.0
15.301706790924072,160,92.0705,1734.6005538123948,1491.0,1503.0,1296.0726400000001,1500.0
15.326178789138794,161,93.0705,1713.3977600975384,1496.0,1503.0,1288.9754,1501.0
15.350766897201538,161,92.047,1698.697156455238,1499.0,1503.0,1290.0699199999999,1501.0
15.375573873519897,162,92.0,1685.1509271374132,1504.0,1503.0,1292.9580800000001,1502.0
15.400010824203491,163,92.0,1678.6487370648574,1510.0,1503.0,1298.68948,1503.0
15.424433946609497,163,91.9765,1665.1025077470324,1514.0,1503.0,1303.1567600000001,1503.0
15.448965787887573,164,91.9765,1658.6003176744766,1520,1503.0,1310.3319200000001,1504.0
15.473442792892456,164,92.0,1645.0540883566514,1520,1503.0,1313.1872799999999,1504.0
15.497895002365112,164,93.0235,1638.5518982840956,1520,1503.0,1311.8452399999999,1504.0
15.522305011749268,165,93.047,1638.5518982840956,1520,1503.0,1310.2454399999999,1505.0
15.54665994644165,165,93.0235,1632.0497082115396,1520,1503.0,1308.6381200000001,1505.0
15.571151971817017,166,92.0,1638.5518982840956,1520,1503.0,1308.34464,1506.0
15.595486879348755,165,90.9765,1638.5518982840956,1520,1503.0,1310.9827600000001,1505.0
15.619856834411621,165,89.953,1652.0981276019206,1520,1503.0,1318.0244399999999,1505.0
15.644215822219849,166,88.9295,1658.6003176744766,1520,1503.0,1326.6057599999999,1506.0
15.668572902679443,166,87.906,1665.1025077470324,1520,1503.0,1336.62708,1506.0
15.692989826202393,166,87.906,1678.6487370648574,1520,1503.0,1342.5544,1506.0
15.71743893623352,165,86.8825,1685.1509271374132,1520,1503.0,1348.2860000000001,1505.0
15.74186897277832,165,86.8825,1691.653117209969,1520,1503.0,1348.5316399999999,1505.0
15.766210794448853,164,85.8825,1698.155307282525,1520,1503.0,1348.5195200000001,1504.0
15.790664911270142,164,84.8825,1704.6574973550807,1520,1503.0,1347.11356,1504.0
15.814986944198608,164,84.906,1704.6574973550807,1520,1503.0,1345.83752,1504.0
15.839301824569702,163,85.953,1704.6574973550807,1520,1503.0,1340.35176,1503.0
15.863634824752808,163,87.094,1697.6134581098117,1520,1503.0,1334.5021200000001,1503.0
15.888085842132568,162,90.1645,1691.111268037256,1520,1503.0,1320.5075199999999,1502.0
15.912542819976807,162,91.2115,1684.6090779647002,1520,1503.0,1306.0254,1502.0
15.93693995475769,161,91.235,1677.5650387194314,1520,1503.0,1292.8034399999999,1501.0
15.961385011672974,161,91.2115,1677.5650387194314,1520,1503.0,1283.9952800000001,1501.0
15.985745906829834,161,90.141,1677.5650387194314,1520,1503.0,1281.17984,1501.0
16.010082006454468,161,88.047,1677.5650387194314,1520,1503.0,1292.5653600000001,1501.0
16.034492015838623,160,88.0235,1671.0628486468754,1518.0,1503.0,1305.7917199999999,1500.0
16.05895185470581,160,88.0,1664.5606585743196,1514.0,1503.0,1319.0857599999999,1500.0
16.083351850509644,160,89.0,1658.0584685017639,1511.0,1503.0,1328.2218800000001,1500.0
16.107805967330933,160,89.0,1651.5562784292081,1508.0,1503.0,1334.00884,1500.0
16.132316827774048,160,90.0235,1651.5562784292081,1506.0,1503.0,1327.05468,1500.0
16.156782865524292,159,90.0,1651.5562784292081,1501.0,1503.0,1319.90104,1499.0
16.18130087852478,160,88.9765,1639.0335419931744,1502.0,1503.0,1315.32348,1500.0
16.20569682121277,159,88.953,1626.5108055571407,1498.0,1503.0,1312.4117200000001,1499.0
16.230159997940063,159,88.9295,1613.9880691211069,1496.0,1503.0,1310.9896799999999,1499.0
16.254607915878296,160,88.9295,1601.4653326850735,1497.0,1503.0,1315.25308,1500.0
16.279069900512695,161,88.953,1595.4447863215958,1500.0,1503.0,1319.4205999999999,1501.0
16.303510904312134,161,89.9765,1583.8337326206031,1501.0,1503.0,1318.08044,1501.0
16.3281888961792,161,89.9765,1577.8131862571254,1502.0,1503.0,1316.54268,1501.0
16.352926015853882,161,90.0,1571.7926398936477,1503.0,1503.0,1314.87708,1501.0
16.377473831176758,161,91.0,1560.181586192655,1504.0,1503.0,1309.2077200000001,1501.0
16.402009963989258,162,91.0235,1548.5705324916623,1509.0,1503.0,1304.7740799999999,1502.0
16.426477909088135,163,92.047,1542.9800251541474,1514.0,1503.0,1301.92436,1503.0
16.45109486579895,163,92.0705,1542.9800251541474,1518.0,1503.0,1300.2727600000001,1503.0
16.475523948669434,163,93.1175,1537.3895178166324,1520,1503.0,1295.9830400000001,1503.0
16.49986696243286,164,93.1175,1537.3895178166324,1520,1503.0,1295.74972,1504.0
16.524197816848755,163,93.141,1537.3895178166324,1520,1503.0,1295.4882,1503.0
16.548882961273193,163,93.141,1542.9800251541474,1520,1503.0,1296.7287200000001,1503.0
16.573227882385254,163,94.1645,1537.3895178166324,1520,1503.0,1295.3329999999999,1503.0
16.597639799118042,163,94.188,1531.7990104791174,1520,1503.0,1298.00308,1503.0
16.62209701538086,163,94.2115,1531.7990104791174,1520,1503.0,1299.2793199999999,1503.0
16.64648199081421,162,94.2115,1531.7990104791174,1520,1503.0,1300.6176,1502.0
16.67104482650757,162,92.188,1537.3895178166324,1520,1503.0,1305.9059600000001,1502.0
16.69545888900757,162,91.1645,1531.7990104791174,1520,1503.0,1314.3019999999999,1502.0
16.71982479095459,162,90.1645,1531.7990104791174,1520,1503.0,1322.75172,1502.0
16.744168996810913,161,89.141,1526.2085031416023,1520,1503.0,1332.76928,1501.0
16.768520832061768,161,88.1645,1520.6179958040873,1520,1503.0,1344.10464,1501.0
16.792866945266724,160,87.188,1515.0274884665723,1519.0,1503.0,1350,1500.0
16.817262887954712,160,86.2115,1509.8225333592306,1516.0,1503.0,1350,1500.0
16.841701984405518,159,86.235,1509.8225333592306,1510.0,1503.0,1350,1499.0
16.86605978012085,158,86.2585,1509.8225333592306,1503.0,1503.0,1350,1498.0
16.89039182662964,159,85.2585,1509.8225333592306,1502.0,1503.0,1349.9502400000001,1499.0
16.91483998298645,158,83.235,1499.027070914374,1496.0,1503.0,1350,1498.0
16.939214944839478,158,82.2115,1499.027070914374,1492.0,1503.0,1350,1498.0
16.963559865951538,158,81.188,1493.8221158070323,1488.0,1503.0,1350,1498.0
16.988009929656982,158,80.235,1488.6171606996909,1485.0,1503.0,1350,1498.0
17.012504816055298,158,80.2585,1483.4122055923492,1482.0,1503.0,1350,1498.0
17.036948919296265,158,80.282,1478.2072504850075,1480.0,1503.0,1350,1498.0
17.061450004577637,158,80.3055,1478.2072504850075,1480,1503.0,1350,1498.0
17.085699796676636,158,80.3055,1473.0022953776659,1480,1503.0,1350,1498.0
17.109962940216064,158,80.3055,1467.7973402703242,1480,1503.0,1346.0294000000001,1498.0
17.13432288169861,158,81.3055,1457.7344270627973,1480,1503.0,1336.5217200000002,1498.0
17.15867280960083,158,81.3055,1452.8764689626119,1480,1503.0,1331.0318,1498.0
17.183026790618896,158,82.3525,1438.2690143065242,1480,1503.0,1324.2355600000001,1498.0
17.20742392539978,157,83.376,1428.8665147577781,1480,1503.0,1317.38564,1497.0
17.23189377784729,157,84.3995,1419.4640152090319,1480,1503.0,1310.35796,1497.0
17.256260871887207,158,85.3995,1405.8010080522604,1480,1503.0,1304.68652,1498.0
17.28079390525818,157,85.376,1392.1380008954886,1480,1503.0,1300.2451599999999,1497.0
17.305208921432495,157,85.376,1374.4726987129959,1480,1503.0,1298.67524,1497.0
