time,x,y,size_inv,roll,pitch,thrust,yaw
0.0008981227874755859,181,50,0.006493506493506494,1520,1496.0,1350,1520
0.024213075637817383,180,50,0.005050505050505051,1520,1496.0,1350,1520.0
0.04741406440734863,181,50,0.006493506493506494,1520,1496.0,1350,1520
0.07049202919006348,181,50,0.006493506493506494,1520,1496.0,1350,1520
0.09338116645812988,180,50,0.005050505050505051,1520,1496.0,1350,1520.0
0.1164860725402832,180,50,0.0053475935828877,1520,1496.0,1350,1520.0
0.1396191120147705,180,50,0.0053475935828877,1520,1496.0,1350,1520.0
0.16268420219421387,181,50,0.006493506493506494,1520,1496.0,1350,1520
0.1857140064239502,180,50,0.005050505050505051,1520,1496.0,1350,1520.0
0.20881319046020508,180,50,0.005050505050505051,1520,1496.0,1350,1520.0
0.23252105712890625,181,50,0.006493506493506494,1520,1496.0,1350,1520
0.2559940814971924,181,50,0.006493506493506494,1520,1496.0,1350,1520
0.27969908714294434,179,50,0.005050505050505051,1520,1496.0,1350,1519.0
0.30344200134277344,179,50,0.007142857142857143,1520,1496.0,1350,1519.0
0.3271632194519043,178,51,0.004784688995215311,1520,1496.0,1350,1518.0
0.35100817680358887,177,50,0.006060606060606061,1520,1496.0,1350,1517.0
0.3747670650482178,175,49,0.006060606060606061,1520,1496.0,1350,1515.0
0.398449182510376,170,47,0.006666666666666667,1520,1496.0,1350,1510.0
0.42241811752319336,166,48,0.005050505050505051,1520,1496.0,1350,1506.0
0.4462010860443115,164,48,0.006060606060606061,1520,1496.0,1350,1504.0
0.4699699878692627,161,49,0.006060606060606061,1520,1496.0,1350,1501.0
0.4936192035675049,159,50,0.006060606060606061,1520,1496.0,1350,1499.0
0.5172441005706787,156,52,0.006060606060606061,1520,1496.0,1350,1496.0
0.5409901142120361,151,55,0.005050505050505051,1520,1496.0,1350,1491.0
0.5647001266479492,150,56,0.005050505050505051,1509.0,1496.0,1350,1490.0
0.5884640216827393,149,57,0.0053475935828877,1480,1496.0,1350,1489.0
0.6125152111053467,148,58,0.005050505050505051,1480,1496.0,1348.0,1488.0
0.6363379955291748,147,59,0.005050505050505051,1480,1496.0,1345.1199999999999,1487.0
0.6601250171661377,147,60,0.0053475935828877,1480,1496.0,1344.6400000000001,1487.0
0.683906078338623,148,62,0.006493506493506494,1480,1496.0,1342.8800000000001,1488.0
0.7076880931854248,147,63,0.005050505050505051,1480,1496.0,1342.3199999999999,1487.0
0.7316370010375977,149,64,0.006493506493506494,1480,1496.0,1341.76,1489.0
0.7554221153259277,148,65,0.005050505050505051,1480,1496.0,1340.6400000000001,1488.0
0.7792441844940186,149,66,0.005050505050505051,1480,1496.0,1338.4000000000001,1489.0
0.8030800819396973,151,67,0.006493506493506494,1480,1496.0,1337.3599999999999,1491.0
0.8267791271209717,151,68,0.006493506493506494,1480,1496.0,1336.3199999999999,1491.0
0.8505101203918457,152,71,0.006493506493506494,1480,1496.0,1331.5999999999999,1492.0
0.8742160797119141,152,72,0.006493506493506494,1480,1496.0,1329.28,1492.0
0.89798903465271,151,73,0.005050505050505051,1480,1496.0,1326.96,1491.0
0.921821117401123,152,74,0.005050505050505051,1480,1496.0,1324.0799999999999,1492.0
0.945695161819458,154,75,0.006060606060606061,1480,1496.0,1321.2,1494.0
0.969642162322998,152,75,0.005050505050505051,1480,1496.0,1322.5599999999999,1492.0
0.9936761856079102,153,77,0.005050505050505051,1480,1496.0,1320.8800000000001,1493.0
1.0174272060394287,154,78,0.006493506493506494,1480,1496.0,1320.4000000000001,1494.0
1.0411980152130127,153,79,0.004629629629629629,1480,1496.0,1319.9200000000001,1493.0
1.06508207321167,153,81,0.005050505050505051,1480,1496.0,1317.5999999999999,1493.0
1.08892822265625,154,82,0.0043859649122807015,1480,1496.0,1314.1600000000001,1494.0
1.1130340099334717,153,83,0.004629629629629629,1480,1496.0,1311.9200000000001,1493.0
1.1369071006774902,156,85,0.005208333333333333,1480,1496.0,1307.8399999999999,1496.0
1.1607401371002197,155,86,0.006493506493506494,1480,1496.0,1304.96,1495.0
1.1844851970672607,154,86,0.004629629629629629,1480,1496.0,1305.1199999999999,1494.0
1.2083251476287842,154,87,0.004629629629629629,1480,1496.0,1304.6400000000001,1494.0
1.2324461936950684,155,87,0.005952380952380952,1480,1496.0,1305.4400000000001,1495.0
1.256667137145996,154,88,0.004629629629629629,1480,1496.0,1306.24,1494.0
1.2804710865020752,155,90,0.005208333333333333,1480,1496.0,1305.2,1495.0
1.3041980266571045,153,91,0.004629629629629629,1480,1496.0,1303.5999999999999,1493.0
1.327928066253662,156,92,0.004901960784313725,1480,1496.0,1302.0,1496.0
1.3517181873321533,154,92,0.0043859649122807015,1480,1496.0,1301.04,1494.0
1.3754889965057373,154,93,0.0043859649122807015,1480,1496.0,1298.3199999999999,1494.0
1.3995511531829834,153,94,0.004629629629629629,1480,1496.0,1296.8,1493.0
1.423410177230835,153,95,0.004629629629629629,1480,1496.0,1295.8399999999999,1493.0
1.4472169876098633,155,95,0.0043859649122807015,1480,1496.0,1296.72,1495.0
1.4710171222686768,154,96,0.004629629629629629,1480,1496.0,1295.76,1494.0
1.4948971271514893,154,96,0.004629629629629629,1480,1496.0,1296.6400000000001,1494.0
1.518747091293335,155,97,0.004048582995951417,1480,1496.0,1295.76,1495.0
1.5426690578460693,154,97,0.004629629629629629,1480,1496.0,1296.72,1494.0
1.5664920806884766,155,98,0.0038461538461538464,1480,1496.0,1295.28,1495.0
1.59029221534729,156,98,0.0043859649122807015,1480,1496.0,1296.24,1496.0
1.6140670776367188,155,98,0.004629629629629629,1480,1496.0,1296.6400000000001,1495.0
1.6378660202026367,155,99,0.004273504273504274,1480,1496.0,1295.8399999999999,1495.0
1.6616761684417725,156,99,0.004166666666666667,1480,1496.0,1295.6800000000001,1496.0
1.685582160949707,156,99,0.004166666666666667,1480,1496.0,1296.72,1496.0
1.7096140384674072,157,100,0.0038461538461538464,1480,1496.0,1295.3599999999999,1497.0
1.7336511611938477,157,100,0.004048582995951417,1480,1496.0,1295.2,1497.0
1.7574059963226318,156,100,0.004273504273504274,1480,1496.0,1295.6800000000001,1496.0
1.7813720703125,157,100,0.0043859649122807015,1480,1496.0,1296.1600000000001,1497.0
1.8051791191101074,157,100,0.004629629629629629,1480,1496.0,1296.0799999999999,1497.0
1.8292181491851807,158,100,0.0043859649122807015,1480,1496.0,1297.2,1498.0
1.85312819480896,157,100,0.004629629629629629,1480,1496.0,1298.3199999999999,1497.0
1.8770639896392822,158,100,0.0043859649122807015,1480,1496.0,1298.8800000000001,1498.0
1.9008312225341797,159,101,0.004048582995951417,1480,1496.0,1297.5999999999999,1499.0
1.924673080444336,158,100,0.004629629629629629,1480,1496.0,1299.3599999999999,1498.0
1.948545217514038,158,100,0.004629629629629629,1480,1496.0,1299.3599999999999,1498.0
1.9725151062011719,159,100,0.0043859649122807015,1480,1496.0,1299.3599999999999,1499.0
1.9963722229003906,159,101,0.0038461538461538464,1480,1496.0,1297.52,1499.0
2.020376205444336,160,100,0.0038461538461538464,1483.0,1496.0,1299.9200000000001,1500.0
2.044095039367676,160,99,0.0043859649122807015,1486.0,1496.0,1301.76,1500.0
2.067685127258301,160,99,0.0038461538461538464,1488.0,1496.0,1302.4000000000001,1500.0
2.0914180278778076,160,98,0.004166666666666667,1491.0,1496.0,1304.8800000000001,1500.0
2.1149680614471436,160,98,0.0043859649122807015,1493.0,1496.0,1307.3599999999999,1500.0
2.1385140419006348,160,98,0.004048582995951417,1494.0,1496.0,1308.0799999999999,1500.0
2.162525177001953,161,98,0.004048582995951417,1499.0,1496.0,1308.1600000000001,1501.0
2.1863059997558594,160,97,0.004629629629629629,1499.0,1496.0,1310.0799999999999,1500.0
2.2100181579589844,161,97,0.004048582995951417,1503.0,1496.0,1309.5999999999999,1501.0
2.2336480617523193,161,97,0.0038461538461538464,1505.0,1496.0,1308.5599999999999,1501.0
2.257308006286621,160,96,0.004629629629629629,1503.0,1496.0,1309.9200000000001,1500.0
2.280938148498535,161,96,0.0038461538461538464,1506.0,1496.0,1310.6400000000001,1501.0
2.304509162902832,161,95,0.004629629629629629,1507.0,1496.0,1312.0,1501.0
2.328141212463379,161,94,0.004629629629629629,1508.0,1496.0,1314.5599999999999,1501.0
2.352081060409546,161,93,0.004629629629629629,1509.0,1496.0,1317.76,1501.0
2.375777006149292,162,92,0.004166666666666667,1513.0,1496.0,1320.4000000000001,1502.0
2.3995110988616943,162,92,0.004048582995951417,1514.0,1496.0,1321.8399999999999,1502.0
2.423567056655884,161,91,0.004629629629629629,1513.0,1496.0,1324.48,1501.0
2.447420120239258,164,91,0.005208333333333333,1520,1496.0,1324.72,1504.0
2.4710609912872314,162,90,0.004629629629629629,1519.0,1496.0,1325.5999999999999,1502.0
2.494685173034668,162,89,0.004629629629629629,1520,1496.0,1326.48,1502.0
2.518134117126465,162,89,0.005050505050505051,1520,1496.0,1326.1600000000001,1502.0
2.5418801307678223,162,88,0.004629629629629629,1520,1496.0,1327.04,1502.0
2.5655620098114014,162,88,0.005050505050505051,1520,1496.0,1327.28,1502.0
2.589226007461548,163,87,0.0043859649122807015,1520,1496.0,1328.72,1503.0
2.6128501892089844,162,86,0.004629629629629629,1520,1496.0,1330.1600000000001,1502.0
2.6363701820373535,162,85,0.005050505050505051,1520,1496.0,1332.24,1502.0
2.659910202026367,162,84,0.005050505050505051,1520,1496.0,1334.3199999999999,1502.0
2.6836540699005127,162,83,0.005050505050505051,1520,1496.0,1337.04,1502.0
2.7073140144348145,163,83,0.005050505050505051,1520,1496.0,1337.9200000000001,1503.0
2.7309210300445557,165,82,0.006060606060606061,1520,1496.0,1340.0,1505.0
2.7545080184936523,164,81,0.006493506493506494,1520,1496.0,1341.52,1504.0
2.778097152709961,163,80,0.005050505050505051,1520,1496.0,1343.04,1503.0
2.8019800186157227,164,79,0.006493506493506494,1520,1496.0,1344.0,1504.0
2.825484037399292,164,78,0.007142857142857143,1520,1496.0,1346.1600000000001,1504.0
2.8491411209106445,162,78,0.005050505050505051,1520,1496.0,1346.48,1502.0
2.8726890087127686,163,77,0.004784688995215311,1520,1496.0,1348.0,1503.0
2.8961970806121826,163,77,0.006493506493506494,1520,1496.0,1347.6800000000001,1503.0
2.9197800159454346,163,76,0.006493506493506494,1520,1496.0,1348.5599999999999,1503.0
2.94342303276062,163,76,0.006493506493506494,1520,1496.0,1347.04,1503.0
2.9668819904327393,161,75,0.005050505050505051,1520,1496.0,1347.9200000000001,1501.0
2.9903810024261475,161,74,0.005050505050505051,1520,1496.0,1348.8,1501.0
3.0139341354370117,162,74,0.006493506493506494,1520,1496.0,1349.04,1502.0
3.0374021530151367,162,73,0.006493506493506494,1520,1496.0,1350,1502.0
3.0608270168304443,162,72,0.006493506493506494,1520,1496.0,1350,1502.0
3.0844361782073975,162,71,0.007142857142857143,1520,1496.0,1350,1502.0
3.107905149459839,160,71,0.005050505050505051,1519.0,1496.0,1350,1500.0
3.1314520835876465,160,70,0.005050505050505051,1516.0,1496.0,1350,1500.0
3.155032157897949,160,69,0.005050505050505051,1513.0,1496.0,1350,1500.0
3.178596019744873,161,69,0.006493506493506494,1513.0,1496.0,1350,1501.0
3.2023770809173584,161,69,0.006493506493506494,1513.0,1496.0,1350,1501.0
3.225980043411255,159,69,0.005050505050505051,1507.0,1496.0,1350,1499.0
3.2495880126953125,160,68,0.004784688995215311,1507.0,1496.0,1350,1500.0
3.2733120918273926,159,68,0.005050505050505051,1502.0,1496.0,1350,1499.0
3.2968831062316895,159,68,0.005050505050505051,1499.0,1496.0,1350,1499.0
3.320542097091675,159,68,0.005050505050505051,1496.0,1496.0,1350,1499.0
3.344121217727661,160,67,0.005555555555555556,1498.0,1496.0,1350,1500.0
3.3675990104675293,160,67,0.005555555555555556,1498.0,1496.0,1350,1500.0
3.3912830352783203,160,68,0.005050505050505051,1498.0,1496.0,1350,1500.0
3.415069103240967,161,67,0.007142857142857143,1500.0,1496.0,1350,1501.0
3.439300060272217,160,68,0.005050505050505051,1497.0,1496.0,1350,1500.0
3.4631190299987793,160,68,0.005050505050505051,1498.0,1496.0,1350,1500.0
3.486786127090454,159,68,0.005050505050505051,1495.0,1496.0,1350,1499.0
3.510322093963623,160,68,0.004784688995215311,1498.0,1496.0,1350,1500.0
3.533843994140625,159,68,0.005555555555555556,1496.0,1496.0,1349.52,1499.0
3.5574121475219727,161,69,0.006060606060606061,1502.0,1496.0,1347.6800000000001,1501.0
3.5810940265655518,159,69,0.005050505050505051,1497.0,1496.0,1347.5999999999999,1499.0
3.6048049926757812,159,69,0.005555555555555556,1496.0,1496.0,1347.52,1499.0
3.6285290718078613,160,70,0.006493506493506494,1498.0,1496.0,1345.04,1500.0
3.6524531841278076,158,70,0.005050505050505051,1491.0,1496.0,1344.3199999999999,1498.0
3.676086187362671,158,70,0.005050505050505051,1489.0,1496.0,1344.24,1498.0
3.70003604888916,158,70,0.005555555555555556,1487.0,1496.0,1344.1600000000001,1498.0
3.7238471508026123,159,71,0.006493506493506494,1489.0,1496.0,1342.24,1499.0
3.747666120529175,159,72,0.006493506493506494,1488.0,1496.0,1340.8800000000001,1499.0
3.7712650299072266,159,72,0.006493506493506494,1488.0,1496.0,1340.72,1499.0
3.794894218444824,159,72,0.007142857142857143,1486.0,1496.0,1340.0,1499.0
3.8184690475463867,158,72,0.005555555555555556,1483.0,1496.0,1339.28,1498.0
3.8422491550445557,157,72,0.005555555555555556,1480,1496.0,1339.76,1497.0
3.865854024887085,157,72,0.005555555555555556,1480,1496.0,1340.8800000000001,1497.0
3.889496088027954,157,73,0.005050505050505051,1480,1496.0,1340.1600000000001,1497.0
3.913053035736084,157,73,0.005050505050505051,1480,1496.0,1340.6400000000001,1497.0
3.936605215072632,158,74,0.004784688995215311,1480,1496.0,1339.28,1498.0
3.9601950645446777,157,74,0.005050505050505051,1480,1496.0,1338.5599999999999,1497.0
3.9837560653686523,158,74,0.005263157894736842,1480,1496.0,1337.28,1498.0
4.007264137268066,157,75,0.005050505050505051,1480,1496.0,1335.3599999999999,1497.0
4.030839204788208,157,76,0.005050505050505051,1480,1496.0,1332.8,1497.0
4.054410219192505,158,77,0.005050505050505051,1480,1496.0,1330.8,1498.0
4.077855110168457,159,78,0.006493506493506494,1480,1496.0,1328.1600000000001,1499.0
4.101377010345459,160,79,0.006060606060606061,1480,1496.0,1324.8800000000001,1500.0
4.124921083450317,158,80,0.005050505050505051,1480,1496.0,1321.5999999999999,1498.0
4.148615121841431,158,80,0.005050505050505051,1480,1496.0,1320.72,1498.0
4.172450065612793,159,80,0.006493506493506494,1480,1496.0,1320.48,1499.0
4.195922136306763,157,80,0.005050505050505051,1480,1496.0,1321.4400000000001,1497.0
4.219566106796265,158,80,0.004901960784313725,1480,1496.0,1323.5999999999999,1498.0
4.243408203125,158,80,0.004629629629629629,1480,1496.0,1326.4000000000001,1498.0
4.266995191574097,159,81,0.006493506493506494,1482.0,1496.0,1326.8,1499.0
4.290629148483276,158,81,0.005050505050505051,1480.0,1496.0,1327.8399999999999,1498.0
4.3142290115356445,158,81,0.004629629629629629,1480,1496.0,1328.3199999999999,1498.0
4.337932109832764,158,81,0.004629629629629629,1480,1496.0,1328.24,1498.0
4.361582040786743,158,82,0.005050505050505051,1480,1496.0,1325.76,1498.0
4.3854711055755615,158,83,0.005050505050505051,1480,1496.0,1323.8399999999999,1498.0
4.409335136413574,158,83,0.005050505050505051,1480,1496.0,1323.1199999999999,1498.0
4.433187007904053,158,83,0.004629629629629629,1480,1496.0,1322.4000000000001,1498.0
4.45688009262085,158,83,0.004629629629629629,1480,1496.0,1321.6800000000001,1498.0
4.480509042739868,159,83,0.005050505050505051,1480.0,1496.0,1322.1600000000001,1499.0
4.504202127456665,159,83,0.005050505050505051,1480.0,1496.0,1323.28,1499.0
4.527721166610718,159,83,0.005050505050505051,1481.0,1496.0,1324.4000000000001,1499.0
4.55149507522583,159,83,0.004629629629629629,1482.0,1496.0,1325.52,1499.0
4.575205087661743,159,83,0.004629629629629629,1483.0,1496.0,1326.6400000000001,1499.0
4.598917007446289,160,84,0.005050505050505051,1487.0,1496.0,1325.3599999999999,1500.0
4.622780084609985,160,84,0.005050505050505051,1489.0,1496.0,1324.72,1500.0
4.64640998840332,162,84,0.005208333333333333,1497.0,1496.0,1324.0799999999999,1502.0
4.670016050338745,160,84,0.004629629629629629,1495.0,1496.0,1323.4400000000001,1500.0
4.693557024002075,161,84,0.004629629629629629,1500.0,1496.0,1322.8,1501.0
4.717141151428223,161,85,0.005050505050505051,1502.0,1496.0,1321.52,1501.0
4.740800142288208,161,84,0.004629629629629629,1504.0,1496.0,1323.28,1501.0
4.764404058456421,161,84,0.004629629629629629,1506.0,1496.0,1323.8399999999999,1501.0
4.787975072860718,161,84,0.004629629629629629,1508.0,1496.0,1324.4000000000001,1501.0
4.811556100845337,161,85,0.005050505050505051,1510.0,1496.0,1323.1199999999999,1501.0
4.835183143615723,161,85,0.005050505050505051,1511.0,1496.0,1323.6800000000001,1501.0
4.858830213546753,164,85,0.005555555555555556,1520,1496.0,1323.04,1504.0
4.8829100131988525,162,85,0.005050505050505051,1517.0,1496.0,1322.4000000000001,1502.0
4.90664005279541,162,86,0.005050505050505051,1519.0,1496.0,1319.9200000000001,1502.0
4.930227041244507,162,86,0.005050505050505051,1520.0,1496.0,1319.8399999999999,1502.0
4.953818082809448,163,85,0.005263157894736842,1520,1496.0,1321.04,1503.0
4.977475166320801,165,86,0.006060606060606061,1520,1496.0,1319.76,1505.0
5.001137018203735,164,85,0.007142857142857143,1520,1496.0,1321.52,1504.0
5.0248730182647705,164,85,0.007142857142857143,1520,1496.0,1323.28,1504.0
5.0484302043914795,164,85,0.007142857142857143,1520,1496.0,1324.48,1504.0
5.072022199630737,162,85,0.005050505050505051,1520,1496.0,1324.48,1502.0
5.095872163772583,162,85,0.005050505050505051,1520,1496.0,1325.6800000000001,1502.0
5.120393991470337,162,85,0.005050505050505051,1520,1496.0,1325.6800000000001,1502.0
5.143947124481201,162,84,0.005555555555555556,1520,1496.0,1326.96,1502.0
5.167420148849487,163,84,0.007142857142857143,1520,1496.0,1327.04,1503.0
5.190909147262573,162,84,0.005555555555555556,1520,1496.0,1327.6800000000001,1502.0
5.214485168457031,163,84,0.007142857142857143,1520,1496.0,1327.76,1503.0
5.238020181655884,163,84,0.007142857142857143,1520,1496.0,1328.4000000000001,1503.0
5.261524200439453,162,84,0.005555555555555556,1520,1496.0,1327.8399999999999,1502.0
5.285100221633911,162,84,0.005555555555555556,1520,1496.0,1327.28,1502.0
5.308701038360596,163,84,0.006493506493506494,1520,1496.0,1326.72,1503.0
5.3326451778411865,162,84,0.005050505050505051,1520,1496.0,1326.1600000000001,1502.0
5.356257200241089,163,83,0.007142857142857143,1520,1496.0,1327.4400000000001,1503.0
5.379948139190674,163,83,0.007142857142857143,1520,1496.0,1328.0799999999999,1503.0
5.403454065322876,163,83,0.007142857142857143,1520,1496.0,1328.72,1503.0
5.426967144012451,162,83,0.0058823529411764705,1520,1496.0,1329.3599999999999,1502.0
5.4506731033325195,163,83,0.007142857142857143,1520,1496.0,1330.0,1503.0
5.474255084991455,161,82,0.005555555555555556,1520,1496.0,1331.28,1501.0
5.497871160507202,161,82,0.005555555555555556,1520,1496.0,1331.3599999999999,1501.0
5.521488189697266,161,82,0.005555555555555556,1520,1496.0,1331.4400000000001,1501.0
5.545145034790039,162,82,0.007142857142857143,1520,1496.0,1331.52,1502.0
5.568709135055542,162,83,0.006493506493506494,1520,1496.0,1329.76,1502.0
5.592459201812744,163,83,0.006060606060606061,1520,1496.0,1328.5599999999999,1503.0
5.615960121154785,163,83,0.006060606060606061,1520,1496.0,1327.3599999999999,1503.0
5.639726161956787,162,82,0.007142857142857143,1520,1496.0,1328.0,1502.0
5.663464069366455,160,82,0.005555555555555556,1518.0,1496.0,1327.4400000000001,1500.0
5.687143087387085,160,82,0.005555555555555556,1515.0,1496.0,1328.0799999999999,1500.0
5.710815191268921,161,82,0.007142857142857143,1517.0,1496.0,1329.28,1501.0
5.734424114227295,160,81,0.0058823529411764705,1514.0,1496.0,1332.3199999999999,1500.0
5.7580201625823975,161,81,0.007142857142857143,1516.0,1496.0,1332.96,1501.0
5.781725168228149,159,81,0.005555555555555556,1509.0,1496.0,1333.5999999999999,1499.0
5.805436134338379,159,81,0.005555555555555556,1506.0,1496.0,1333.6800000000001,1499.0
5.829168081283569,159,81,0.005555555555555556,1502.0,1496.0,1333.76,1499.0
5.852934122085571,160,81,0.007142857142857143,1501.0,1496.0,1332.6400000000001,1500.0
5.876538991928101,159,81,0.0058823529411764705,1496.0,1496.0,1332.0799999999999,1499.0
5.900063991546631,159,81,0.0058823529411764705,1495.0,1496.0,1331.52,1499.0
5.9237611293792725,160,81,0.007142857142857143,1497.0,1496.0,1330.96,1500.0
5.947590112686157,160,81,0.007142857142857143,1496.0,1496.0,1330.4000000000001,1500.0
5.971207141876221,159,81,0.006172839506172839,1493.0,1496.0,1330.4000000000001,1499.0
5.994775056838989,159,81,0.006172839506172839,1491.0,1496.0,1330.4000000000001,1499.0
6.018278121948242,159,81,0.0058823529411764705,1491.0,1496.0,1330.4000000000001,1499.0
6.042036056518555,160,81,0.007142857142857143,1494.0,1496.0,1330.4000000000001,1500.0
6.065842151641846,159,81,0.006535947712418301,1492.0,1496.0,1330.4000000000001,1499.0
6.089846134185791,159,80,0.0058823529411764705,1491.0,1496.0,1332.24,1499.0
6.113555192947388,160,80,0.007142857142857143,1494.0,1496.0,1332.8800000000001,1500.0
6.137328147888184,160,80,0.007142857142857143,1495.0,1496.0,1333.52,1500.0
6.160971164703369,160,80,0.007142857142857143,1495.0,1496.0,1334.1600000000001,1500.0
6.184574127197266,158,80,0.005555555555555556,1489.0,1496.0,1334.8,1498.0
6.208072185516357,158,80,0.006172839506172839,1488.0,1496.0,1334.24,1498.0
6.231688022613525,159,80,0.007936507936507936,1490.0,1496.0,1333.6800000000001,1499.0
6.2553551197052,159,79,0.007142857142857143,1490.0,1496.0,1334.96,1499.0
6.279153108596802,159,79,0.007142857142857143,1489.0,1496.0,1335.04,1499.0
6.303027153015137,159,79,0.007936507936507936,1489.0,1496.0,1335.1199999999999,1499.0
6.326636075973511,159,79,0.007936507936507936,1489.0,1496.0,1335.76,1499.0
6.350152015686035,158,79,0.006535947712418301,1485.0,1496.0,1336.4000000000001,1498.0
6.3737921714782715,159,78,0.007142857142857143,1486.0,1496.0,1337.6800000000001,1499.0
6.397383213043213,159,79,0.007936507936507936,1485.0,1496.0,1335.9200000000001,1499.0
6.4211180210113525,159,79,0.007936507936507936,1486.0,1496.0,1335.3599999999999,1499.0
6.444724082946777,159,79,0.007407407407407408,1487.0,1496.0,1334.8,1499.0
6.468324184417725,157,78,0.005555555555555556,1481.0,1496.0,1336.0799999999999,1497.0
6.492077112197876,157,78,0.0058823529411764705,1480,1496.0,1335.52,1497.0
6.515628099441528,157,78,0.0058823529411764705,1480,1496.0,1336.1600000000001,1497.0
6.5393970012664795,157,78,0.006535947712418301,1480,1496.0,1336.8,1497.0
6.563169002532959,157,77,0.0058823529411764705,1480,1496.0,1339.28,1497.0
6.586715221405029,157,77,0.0058823529411764705,1480,1496.0,1339.3599999999999,1497.0
6.610133171081543,157,77,0.005555555555555556,1480,1496.0,1340.0,1497.0
6.633717060089111,159,77,0.007936507936507936,1480,1496.0,1340.0799999999999,1499.0
6.657239198684692,158,77,0.006535947712418301,1480,1496.0,1340.1600000000001,1498.0
6.680898189544678,158,77,0.0058823529411764705,1480,1496.0,1339.04,1498.0
6.704504013061523,157,77,0.007407407407407408,1480,1496.0,1338.48,1497.0
6.728183031082153,159,77,0.0058823529411764705,1480,1496.0,1337.9200000000001,1499.0
6.752094030380249,160,77,0.007142857142857143,1480,1496.0,1337.3599999999999,1500.0
6.7757720947265625,159,77,0.0058823529411764705,1480,1496.0,1336.8,1499.0
6.7997331619262695,159,77,0.0058823529411764705,1481.0,1496.0,1336.8,1499.0
6.8237221240997314,159,77,0.006535947712418301,1483.0,1496.0,1336.8,1499.0
6.847361087799072,159,77,0.006535947712418301,1485.0,1496.0,1336.8,1499.0
6.871108055114746,159,76,0.0058823529411764705,1485.0,1496.0,1338.6400000000001,1499.0
6.894772052764893,159,76,0.006535947712418301,1486.0,1496.0,1339.28,1499.0
6.918374061584473,159,76,0.006535947712418301,1487.0,1496.0,1339.9200000000001,1499.0
6.942162036895752,159,76,0.006535947712418301,1489.0,1496.0,1340.5599999999999,1499.0
6.96589207649231,159,76,0.006535947712418301,1489.0,1496.0,1341.2,1499.0
6.989683151245117,159,76,0.0058823529411764705,1488.0,1496.0,1340.6400000000001,1499.0
7.013545036315918,160,76,0.007142857142857143,1491.0,1496.0,1340.0799999999999,1500.0
7.037203073501587,159,78,0.006535947712418301,1489.0,1496.0,1335.8399999999999,1499.0
7.060857057571411,159,78,0.0058823529411764705,1489.0,1496.0,1334.0,1499.0
7.0844972133636475,159,78,0.0058823529411764705,1489.0,1496.0,1332.1600000000001,1499.0
7.108063220977783,160,79,0.007936507936507936,1492.0,1496.0,1329.04,1500.0
7.131810188293457,159,79,0.006535947712418301,1490.0,1496.0,1327.1199999999999,1499.0
7.155412197113037,158,79,0.007407407407407408,1487.0,1496.0,1327.5999999999999,1498.0
7.17926812171936,158,79,0.007936507936507936,1486.0,1496.0,1328.0799999999999,1498.0
7.203218221664429,160,79,0.006535947712418301,1491.0,1496.0,1328.5599999999999,1500.0
7.226978063583374,158,79,0.007936507936507936,1486.0,1496.0,1330.24,1498.0
7.250647068023682,160,79,0.006535947712418301,1490.0,1496.0,1331.9200000000001,1500.0
7.274740219116211,160,79,0.006535947712418301,1491.0,1496.0,1332.48,1500.0
7.2984089851379395,160,79,0.011111111111111112,1492.0,1496.0,1333.04,1500.0
7.322342157363892,159,79,0.008547008547008548,1490.0,1496.0,1333.5999999999999,1499.0
7.346089124679565,161,79,0.006535947712418301,1495.0,1496.0,1333.5999999999999,1501.0
7.369909048080444,160,79,0.006666666666666667,1494.0,1496.0,1333.5999999999999,1500.0
7.393667221069336,161,79,0.0058823529411764705,1499.0,1496.0,1333.5999999999999,1501.0
7.417210102081299,161,80,0.011111111111111112,1502.0,1496.0,1331.76,1501.0
7.440808057785034,160,80,0.007936507936507936,1500.0,1496.0,1331.1199999999999,1500.0
7.464567184448242,160,80,0.007936507936507936,1502.0,1496.0,1330.48,1500.0
7.488277196884155,161,80,0.011111111111111112,1505.0,1496.0,1329.8399999999999,1501.0
7.512118101119995,160,80,0.007936507936507936,1503.0,1496.0,1329.2,1500.0
7.535787105560303,161,80,0.011111111111111112,1506.0,1496.0,1329.76,1501.0
7.559608221054077,161,80,0.011111111111111112,1508.0,1496.0,1330.3199999999999,1501.0
7.583532094955444,160,80,0.007936507936507936,1505.0,1496.0,1330.8800000000001,1500.0
7.607111215591431,162,80,0.010101010101010102,1511.0,1496.0,1331.4400000000001,1502.0
7.63077712059021,160,79,0.007936507936507936,1506.0,1496.0,1333.8399999999999,1500.0
7.654360055923462,160,79,0.007936507936507936,1505.0,1496.0,1334.48,1500.0
7.678116083145142,160,79,0.007936507936507936,1505.0,1496.0,1335.1199999999999,1500.0
7.702073097229004,160,79,0.007936507936507936,1505.0,1496.0,1335.76,1500.0
7.7257561683654785,161,79,0.007407407407407408,1507.0,1496.0,1336.4000000000001,1501.0
7.749661207199097,161,78,0.007936507936507936,1508.0,1496.0,1337.6800000000001,1501.0
7.773493051528931,162,78,0.011111111111111112,1511.0,1496.0,1337.76,1502.0
7.797215223312378,161,78,0.007936507936507936,1509.0,1496.0,1337.8399999999999,1501.0
7.820888042449951,163,78,0.011111111111111112,1516.0,1496.0,1337.9200000000001,1503.0
7.8444201946258545,162,78,0.007936507936507936,1514.0,1496.0,1338.0,1502.0
7.868056058883667,162,78,0.008928571428571428,1516.0,1496.0,1337.4400000000001,1502.0
7.891700029373169,163,79,0.011111111111111112,1520,1496.0,1335.04,1503.0
7.915248155593872,164,79,0.010101010101010102,1520,1496.0,1333.8399999999999,1504.0
7.9387969970703125,162,79,0.007936507936507936,1520,1496.0,1332.6400000000001,1502.0
7.9627580642700195,162,79,0.008928571428571428,1520,1496.0,1331.4400000000001,1502.0
7.98623514175415,164,80,0.010101010101010102,1520,1496.0,1328.96,1504.0
8.009842157363892,163,80,0.011111111111111112,1520,1496.0,1328.8800000000001,1503.0
8.033469200134277,163,80,0.011111111111111112,1520,1496.0,1328.8,1503.0
8.05692720413208,161,80,0.007936507936507936,1520,1496.0,1328.72,1501.0
8.080327987670898,161,80,0.007936507936507936,1520,1496.0,1328.6400000000001,1501.0
8.103890180587769,161,80,0.007936507936507936,1520,1496.0,1329.76,1501.0
