time,x,y,size_inv,roll,pitch,thrust,yaw
0.009194135665893555,147,43.1175,3522.019622634466,1497.01,1512.7761569810757,1350,1500.0
0.04045510292053223,147,43.1175,3522.019622634466,1496.6199999999999,1512.7761569810757,1350,1500.0
0.06268811225891113,146,43.1175,3522.019622634466,1496.0,1512.7761569810757,1350,1500.0
0.08496308326721191,146,43.1175,3522.019622634466,1495.5799999999999,1512.7761569810757,1350,1500.0
0.10723519325256348,146,43.1175,3522.019622634466,1495.1600000000001,1512.7761569810757,1350,1500.0
0.12944912910461426,146,43.1175,3522.019622634466,1494.74,1512.7761569810757,1350,1500.0
0.15175199508666992,146,43.1175,3522.019622634466,1494.3199999999999,1512.7761569810757,1350,1500.0
0.1741809844970703,146,43.1175,3522.019622634466,1493.9000000000001,1512.7761569810757,1350,1500.0
0.19642210006713867,146,43.1175,3522.019622634466,1493.48,1512.7761569810757,1350,1500.0
0.21865200996398926,146,43.1175,3522.019622634466,1493.0599999999999,1512.7761569810757,1350,1500.0
0.24103212356567383,146,43.1175,3522.019622634466,1490.8299999999999,1512.7761569810759,1350,1500.0
0.26364898681640625,146,43.1175,3522.019622634466,1493.0,1512.7761569810759,1350,1500.0
0.2862071990966797,146,43.1175,3522.019622634466,1493.0,1512.7761569810759,1350,1500.0
0.3087460994720459,146,43.1175,3522.019622634466,1493.0,1512.7761569810759,1350,1500.0
0.33128809928894043,146,43.1175,3522.019622634466,1493.0,1512.7761569810759,1350,1500.0
0.35391807556152344,146,43.1175,3494.927163998816,1493.0,1511.4757189665645,1350,1500.0
0.3764760494232178,146,43.1175,3467.834705363166,1493.0,1509.0915826066273,1350,1500.0
0.3989841938018799,146,43.1175,3440.742246727516,1493.0,1505.6237479012641,1350,1500.0
0.4214661121368408,146,43.1175,3413.649788091866,1493.0,1501.0722148504749,1350,1500.0
0.444047212600708,146,43.1175,3386.5573294562155,1493.0,1495.4369834542597,1350,1500.0
0.4665842056274414,146,43.1175,3359.4648708205655,1493.0,1490.8854504034705,1350,1500.0
0.4891211986541748,146,43.1175,3332.3724121849154,1493.0,1487.4176156981073,1350,1500.0
0.511667013168335,146,43.1175,3305.2799535492654,1493.0,1485.0334793381701,1350,1500.0
0.5342462062835693,146,43.1175,3278.1874949136154,1493.0,1483.7330413236589,1350,1500.0
0.5567920207977295,146,43.1175,3251.0950362779654,1493.0,1483.5163016545737,1350,1500.0
0.579355001449585,146,43.1175,3251.0950362779654,1493.0,1484.5999999999997,1350,1500.0
0.6019091606140137,146,43.1175,3251.0950362779654,1493.0,1486.7673966908517,1350,1500.0
0.6246061325073242,146,44.1175,3227.8729288759801,1493.0,1488.9038305718343,1350,1500.0
0.6471459865570068,146,43.1175,3227.8729288759801,1493.0,1492.309739657459,1350,1500.0
0.6696829795837402,146,44.1175,3204.6508214739947,1493.0,1495.6846859332143,1350,1500.0
0.6922411918640137,146,44.1175,3181.4287140720094,1493.0,1497.0470495674642,1350,1500.0
0.7148590087890625,146,44.1175,3208.5211727076594,1493.0,1498.8119297300152,1350,1500.0
0.7374000549316406,146,44.1175,3235.613631343309,1493.0,1502.4345784847249,1350,1500.0
0.7599442005157471,146,44.1175,3262.7060899789585,1493.0,1506.0572272394347,1350,1500.0
0.7825191020965576,146,44.1175,3289.7985486146085,1493.0,1511.5376445863033,1350,1500.0
0.8051071166992188,146,44.1175,3316.8910072502576,1493.0,1519.9595288707565,1350,1500.0
0.8276550769805908,146,44.1175,3343.9834658859081,1493.0,1527.2977148097839,1350,1500.0
0.8501951694488525,146,44.1175,3367.2055732878935,1493.0,1532.4375412480899,1350,1500.0
0.8728151321411133,145,44.1175,3394.298031923543,1490.5699999999999,1536.5246321508394,1350,1500.0
0.8953859806060791,145,44.1175,3444.6125979611779,1488.3399999999999,1539,1350,1500.0
0.9178709983825684,145,44.1175,3467.8347053631637,1486.1099999999999,1539,1350,1500.0
0.940385103225708,145,44.1175,3467.8347053631637,1483.8800000000001,1539,1350,1500.0
0.962989091873169,145,44.1175,3467.8347053631637,1481.6500000000001,1538.8158800811689,1350,1500.0
0.9855751991271973,145,44.1175,3467.8347053631637,1483.8199999999999,1536.4936693409704,1350,1500.0
1.008141040802002,145,44.1175,3467.8347053631637,1485.99,1531.2299916631869,1350,1500.0
1.0309350490570068,145,44.1175,3467.8347053631637,1488.1600000000001,1525.1922437386704,1350,1500.0
1.053551197052002,145,44.1175,3467.8347053631637,1490.3299999999999,1520.2381941595802,1350,1500.0
1.076127052307129,145,44.1175,3494.9271639988133,1492.5,1517.5134668910807,1350,1500.0
1.0986721515655518,145,44.1175,3494.9271639988133,1492.5,1515.6556982989218,1350,1500.0
1.121258020401001,145,44.1175,3494.9271639988133,1492.5,1515.8105123482683,1350,1500.0
1.1437890529632568,145,44.1175,3522.0196226344633,1492.5,1518.1946487082055,1350,1500.0
1.1663169860839844,145,43.1175,3494.9271639988133,1492.5,1519.0616073845465,1350,1500.0
1.1888501644134521,145,44.1175,3494.9271639988133,1492.5,1517.9779090391205,1350,1500.0
1.211414098739624,145,44.1175,3494.9271639988133,1492.5,1516.8942106936945,1350,1500.0
1.2340362071990967,145,44.1175,3494.9271639988133,1492.5,1515.8105123482685,1350,1500.0
1.256594181060791,145,43.1175,3526.9455242045815,1492.5,1514.0962986018674,1350,1500.0
1.2791500091552734,145,44.1175,3526.9455242045815,1492.5,1514.2933346646721,1350,1500.0
1.301680088043213,145,43.1175,3558.9638844103492,1492.5,1517.1109503627797,1350,1500.0
1.3242712020874023,145,44.1175,3558.9638844103492,1492.5,1519.6724191792409,1350,1500.0
1.3468141555786133,145,44.1175,3558.9638844103492,1492.5,1522.2338879957026,1350,1500.0
1.3693640232086182,145,44.1175,3558.9638844103492,1492.5,1523.3175863411284,1350,1500.0
1.3919401168823242,145,44.1175,3586.0563430459997,1492.5,1524.6180243556398,1350,1500.0
1.4146251678466797,145,44.1175,3586.0563430459997,1492.5,1523.1402538846044,1350,1500.0
1.4371581077575684,145,44.1175,3586.0563430459997,1492.5,1521.6624834135689,1350,1500.0
1.4596970081329346,145,44.1175,3586.0563430459997,1492.5,1520.1847129425335,1350,1500.0
1.4822261333465576,145,44.1175,3554.0379828402315,1492.5,1518.4507955898516,1350,1500.0
1.5048880577087402,145,44.1175,3554.0379828402315,1492.5,1514.8056284279644,1350,1500.0
1.527435064315796,145,44.1175,3522.0196226344633,1492.5,1510.9043143844308,1350,1500.0
1.5499742031097412,145,43.1175,3494.9271639988133,1492.5,1505.9587092080321,1350,1500.0
1.5725910663604736,145,44.1175,3494.9271639988133,1492.5,1501.2298437007187,1350,1500.0
1.5951941013336182,145,44.1175,3494.9271639988133,1492.5,1499.0624470098667,1350,1500.0
1.617793083190918,145,44.1175,3494.9271639988133,1492.5,1497.9787486644407,1350,1500.0
1.6403319835662842,145,43.1175,3526.9455242045815,1492.5,1500.993400425353,1350,1500.0
1.6629111766815186,145,44.1175,3526.9455242045815,1492.5,1505.9193019954712,1350,1500.0
1.6854920387268066,145,44.1175,3526.9455242045815,1492.5,1510.8452035655894,1350,1500.0
1.7080481052398682,145,44.1175,3526.9455242045815,1492.5,1514.4903707274768,1350,1500.0
1.7305841445922852,145,44.1175,3526.9455242045815,1492.5,1518.1355378893643,1350,1500.0
1.753127098083496,145,44.1175,3526.9455242045815,1492.5,1517.9385018265596,1350,1500.0
1.775644063949585,145,44.1175,3554.0379828402306,1492.5,1517.95820543284,1350,1500.0
1.798192024230957,145,43.1175,3586.0563430459988,1492.5,1519.2980506599122,1350,1500.0
1.8207261562347412,145,44.1175,3586.0563430459988,1492.5,1520.3817490053382,1350,1500.0
1.8433241844177246,145,44.1175,3586.0563430459988,1492.5,1521.465447350764,1350,1500.0
1.8658671379089355,145,44.1175,3554.0379828402306,1492.5,1522.2929988145438,1350,1500.0
1.8884000778198242,145,44.1175,3554.0379828402306,1492.5,1521.2093004691176,1350,1500.0
1.910938024520874,145,44.1175,3554.0379828402306,1492.5,1517.5641333072306,1350,1500.0
1.9342660903930664,145,44.1175,3554.0379828402306,1492.5,1513.9189661453429,1350,1500.0
1.9589390754699707,145,43.1175,3586.0563430459988,1492.5,1511.8106802733325,1350,1500.0
1.9836030006408691,145,44.1175,3586.0563430459988,1492.5,1512.007716336137,1350,1500.0
2.0082809925079346,145,43.1175,3618.074703251767,1492.5,1514.8253320342449,1350,1500.0
2.033025026321411,145,43.1175,3618.074703251767,1492.5,1518.6675352589371,1350,1500.0
2.05769419670105,145,43.1175,3650.0930634575352,1492.5,1524.0466197735061,1350,1500.0
2.082447052001953,145,43.1175,3682.111423663303,1492.5,1528.1449698798444,1350,1500.0
2.1069281101226807,145,43.1175,3714.1297838690712,1492.5,1532.2433199861828,1350,1500.0
2.131270170211792,145,43.1175,3746.1481440748394,1492.5,1535.0609356842904,1350,1500.0
2.155606985092163,145,43.1175,3778.1665042806076,1492.5,1539,1350,1500.0
2.1808509826660156,145,43.1175,3810.1848644863758,1492.5,1539,1350,1500.0
2.20609712600708,145,43.1175,3810.1848644863758,1492.5,1539,1350,1500.0
2.231295108795166,145,43.1175,3842.2032246921435,1492.5,1539,1350,1500.0
2.2567660808563232,145,43.1175,3842.2032246921435,1492.5,1539,1350,1500.0
2.2820169925689697,145,43.1175,3880.6252569390649,1492.5,1539,1350,1500.0
2.307457208633423,145,43.1175,3919.0472891859863,1492.5,1538.4933038983486,1350,1500.0
2.3330202102661133,145,42.1175,3919.0472891859863,1492.5,1537.7248632534101,1350,1500.0
2.358640193939209,145,42.1175,3919.0472891859863,1492.5,1535.675688200241,1350,1500.0
2.3839712142944336,145,42.1175,3919.0472891859863,1492.5,1534.9072475553025,1350,1500.0
2.409339189529419,145,42.1175,3919.0472891859863,1492.5,1532.3457787388409,1350,1500.0
2.4347081184387207,145,42.1175,3919.0472891859863,1492.5,1527.9912817508566,1350,1500.0
2.460482120513916,145,42.1175,3919.0472891859863,1492.5,1523.6367847628721,1350,1500.0
2.486488103866577,145,42.1175,3919.0472891859863,1492.5,1520.5630221831184,1350,1500.0
2.51187801361084,145,42.1175,3919.0472891859863,1492.5,1517.4892596033649,1350,1500.0
2.5373971462249756,145,42.1175,3880.6252569390649,1492.5,1514.1081207656357,1350,1500.0
2.5628111362457275,145,42.1175,3842.2032246921435,1492.5,1510.7269819279065,1350,1500.0
2.5882370471954346,145,42.1175,3842.2032246921435,1492.5,1507.6532193481528,1350,1500.0
2.6136350631713867,144,42.1175,3810.1848644863758,1490.0699999999999,1503.0425754785224,1350,1500.0
2.6390581130981445,145,42.1175,3778.1665042806076,1490.27,1497.151197200661,1350,1500.0
2.6644160747528076,145,42.1175,3746.1481440748394,1490.27,1493.0528470943227,1350,1500.0
2.689742088317871,145,42.1175,3714.1297838690712,1490.27,1490.7475251595074,1350,1500.0
2.7151200771331787,145,42.1175,3682.111423663303,1490.27,1487.1614688164614,1350,1500.0
2.7405011653900146,145,42.1175,3650.0930634575352,1494.6700000000001,1484.8561468816461,1350,1500.0
2.76582407951355,145,42.1175,3618.074703251767,1494.6700000000001,1483.8315593550612,1350,1500.0
2.7911460399627686,145,42.1175,3586.0563430459988,1494.6700000000001,1482.5508249468305,1350,1500.0
2.8169631958007812,145,42.1175,3554.0379828402306,1494.6700000000001,1481.0139436569536,1350,1500.0
2.8424110412597656,145,42.1175,3522.0196226344624,1494.6700000000001,1480.7577967753075,1350,1500.0
2.867814064025879,145,42.1175,3554.0379828402306,1492.5,1483.5754124734151,1350,1500.0
2.893226146697998,145,42.1175,3586.0563430459988,1492.5,1488.9544969879844,1350,1500.0
2.918654203414917,145,42.1175,3618.074703251767,1492.5,1496.8950503190147,1350,1500.0
2.9440650939941406,145,43.1175,3618.074703251767,1492.5,1505.8601911766298,1350,1500.0
2.9694621562957764,145,43.1175,3618.074703251767,1492.5,1516.1060664424756,1350,1500.0
2.99478816986084,145,43.1175,3650.0930634575352,1492.5,1524.0466197735063,1350,1500.0
3.020141124725342,145,43.1175,3650.0930634575352,1492.5,1527.8888229981985,1350,1500.0
3.045464038848877,146,43.1175,3650.0930634575352,1494.9300000000001,1527.8888229981985,1350,1500.0
3.0704569816589355,146,43.1175,3650.0930634575352,1497.1600000000001,1526.6080885899676,1350,1500.0
3.0953850746154785,147,43.1175,3650.0930634575352,1501.8199999999999,1524.0466197735061,1350,1500.0
3.1203081607818604,148,43.1175,3618.074703251767,1508.71,1518.6675352589371,1350,1500.0
3.1452431678771973,149,43.1175,3586.0563430459988,1517.8299999999999,1513.2884507443678,1350,1500.0
3.1701672077178955,152,43.1175,3554.0379828402306,1520,1507.9093662297989,1350,1500.0
3.1949892044067383,153,42.1175,3586.0563430459988,1520,1504.3233098867531,1350,1500.0
3.21980619430542,155,42.1175,3618.074703251767,1520,1502.0179879519376,1350,1500.0
3.2449240684509277,156,42.1175,3618.074703251767,1520,1503.2987223601683,1350,1500.0
3.269798994064331,158,42.1175,3650.0930634575352,1520,1508.6778068747374,1350,1500.0
3.2946090698242188,161,42.1175,3650.0930634575352,1520,1516.3622133241217,1350,1500.0
3.3194220066070557,162,42.1175,3650.0930634575352,1520,1521.4851509570447,1350,1500.0
3.34426212310791,164,42.1175,3650.0930634575352,1520,1524.0466197735061,1350,1500.0
3.3691070079803467,166,42.1175,3650.0930634575352,1520,1525.3273541817368,1350,1500.0
3.393975019454956,167,42.1175,3650.0930634575352,1520,1522.7658853652754,1350,1500.0
3.418790102005005,170,42.1175,3650.0930634575352,1520,1518.923682140583,1350,1500.0
3.4437851905822754,170,41.1175,3650.0930634575352,1520,1516.3622133241217,1350,1500.0
3.4688210487365723,172,41.1175,3650.0930634575352,1520,1515.081478915891,1350,1500.0
3.4937920570373535,172,41.1175,3650.0930634575352,1520,1513.8007445076605,1350,1500.0
3.5187900066375732,173,41.1175,3650.0930634575352,1520,1513.8007445076605,1350,1500.0
3.54377818107605,174,41.1175,3650.0930634575352,1520,1513.8007445076605,1350,1500.0
3.5687601566314697,175,41.1175,3650.0930634575352,1520,1513.8007445076601,1350,1500.0
3.593731164932251,176,41.1175,3650.0930634575352,1520,1513.8007445076601,1350,1500.0
3.6188230514526367,177,40.1175,3682.111423663303,1520,1515.3376257975372,1350,1500.0
3.643817186355591,179,41.1175,3682.111423663303,1520,1516.6183602057677,1350,1500.0
3.6688241958618164,179,41.1175,3682.111423663303,1520,1517.8990946139984,1350,1500.0
3.693804979324341,180,41.1175,3650.0930634575352,1520,1517.6429477323527,1350,1500.0
3.7188031673431396,180,41.1175,3618.074703251767,1520,1516.1060664424756,1350,1500.0
3.7437920570373535,181,41.1175,3618.074703251767,1520,1512.2638632177834,1350,1500.0
3.7688159942626953,182,41.1175,3618.074703251767,1520,1508.4216599930912,1350,1500.0
3.7937850952148438,182,41.1175,3650.0930634575352,1520,1506.1163380582759,1350,1500.0
3.818758010864258,182,41.1175,3682.111423663303,1520,1507.6532193481526,1350,1500.0
3.8437681198120117,183,41.1175,3714.1297838690712,1520,1513.0323038627218,1350,1500.0
3.8687870502471924,183,41.1175,3714.1297838690712,1520,1519.4359759038755,1350,1500.0
3.8937811851501465,184,41.1175,3746.1481440748394,1520,1527.376529234906,1350,1500.0
3.918814182281494,184,41.1175,3778.1665042806076,1520,1534.0363481577058,1350,1500.0
3.9438140392303467,184,41.1175,3810.1848644863758,1520,1538.1346982640441,1350,1500.0
3.968841075897217,185,41.1175,3842.2032246921435,1520,1539,1350,1500.0
3.9937210083007812,185,41.1175,3842.2032246921435,1520,1539,1350,1500.0
4.018576145172119,185,41.1175,3842.2032246921435,1520,1539,1350,1500.0
4.043410062789917,185,41.1175,3842.2032246921435,1520,1537.1101107374593,1350,1500.0
4.0683910846710205,185,41.1175,3842.2032246921435,1520,1533.2679075127671,1350,1500.0
4.0933849811553955,186,41.1175,3880.6252569390649,1520,1529.9892274276967,1350,1500.0
4.118046045303345,185,41.1175,3919.0472891859863,1520,1528.247428632503,1350,1500.0
4.142615079879761,186,40.1175,3919.0472891859863,1520,1527.4789879875646,1350,1500.0
4.167211055755615,185,40.1175,3919.0472891859863,1519.1300000000001,1527.9912817508568,1350,1500.0
4.1927690505981445,186,40.1175,3919.0472891859863,1519.3900000000001,1529.7843099223794,1350,1500.0
4.217947006225586,186,40.1175,3919.0472891859863,1517.22,1529.7843099223794,1350,1500.0
4.243077039718628,186,40.1175,3919.0472891859863,1519.45,1526.7105473426259,1350,1500.0
4.268232107162476,186,40.1175,3919.0472891859863,1517.28,1523.6367847628721,1350,1500.0
4.2933549880981445,186,40.1175,3887.0289289802181,1519.51,1519.0261408932417,1350,1500.0
4.318498134613037,186,40.1175,3925.4509612271395,1517.3399999999999,1516.5159014531093,1350,1500.0
4.343634128570557,186,40.1175,3925.4509612271395,1517.3399999999999,1515.2351670448786,1350,1500.0
4.368192195892334,186,39.1175,3887.0289289802181,1515.1700000000001,1513.6470563786727,1350,1500.0
4.39329719543457,186,39.1175,3887.0289289802181,1515.1700000000001,1512.3663219704417,1350,1500.0
4.418683052062988,186,39.1175,3887.0289289802181,1513.0,1513.6470563786725,1350,1500.0
4.44375205039978,186,39.1175,3887.0289289802181,1513.0,1511.8540282071497,1350,1500.0
4.468804121017456,186,39.1175,3887.0289289802181,1513.0,1510.0610000356264,1350,1500.0
4.493829011917114,186,39.1175,3925.4509612271395,1513.0,1513.1859919917094,1350,1500.0
4.5189220905303955,186,38.1175,3925.4509612271395,1513.0,1516.003607689817,1350,1500.0
4.54398512840271,186,38.1175,3957.4693214329077,1513.0,1519.0773702695706,1350,1500.0
4.569056034088135,186,37.1175,3919.0472891859863,1513.0,1521.5876097097032,1350,1500.0
4.59396505355835,186,37.1175,3848.6068967332967,1513.0,1521.0240865700816,1350,1500.0
4.6188600063323975,187,36.1175,3848.6068967332967,1515.4300000000001,1516.4134427004512,1350,1500.0
4.64392614364624,187,35.1175,3848.6068967332967,1517.6600000000001,1511.8027988308204,1350,1500.0
4.6690521240234375,187,34.1175,3887.0289289802181,1519.8900000000001,1506.4749436925806,1350,1500.0
4.69398307800293,187,33.1175,3925.4509612271395,1520,1505.7577324239712,1350,1500.0
4.718799114227295,187,32.1175,3963.8729934740609,1520,1512.2126338414541,1350,1500.0
4.7436912059783936,187,31.1175,3963.8729934740609,1520,1519.8970402908383,1350,1500.0
4.76864218711853,187,30.1175,4002.2950257209823,1520,1529.4257042880749,1350,1500.0
4.7935261726379395,187,28.1175,4002.2950257209823,1517.8399999999999,1536.8539638558129,1350,1500.0
4.818542003631592,187,27.1175,4002.2950257209823,1515.6700000000001,1539,1350,1500.0
4.843430995941162,187,26.1175,4034.31338592675,1513.5,1538.1346982640437,1350,1500.0
4.868457078933716,186,25.1175,4034.31338592675,1511.0699999999999,1536.3416700925209,1350,1500.0
4.893465995788574,186,25.1175,4002.2950257209823,1508.8399999999999,1529.9379980513672,1350,1500.0
4.918506145477295,186,23.1175,3931.8546332682927,1506.6099999999999,1521.9462153440077,1350,1500.0
4.943514108657837,186,22.1175,3893.4326010213713,1504.3800000000001,1514.2105795182943,1350,1500.0
4.968541145324707,185,21.1175,3855.0105687744499,1499.72,1503.9134748761192,1350,1500.0
4.99352502822876,186,21.1175,3816.588536527529,1502.0899999999999,1492.0794889440674,1350,1500.0
5.0185301303863525,185,19.1175,3778.1665042806076,1501.8299999999999,1482.8069718284771,1350,1500.0
5.043524980545044,186,19.1175,3778.1665042806076,1504.2,1479.477062367077,1350,1500.0
5.068536996841431,184,18.1175,3778.1665042806076,1501.51,1479.2209154854311,1350,1500.0
5.093501091003418,185,18.1175,3746.1481440748394,1506.05,1481.7823843018928,1350,1500.0
5.118523120880127,184,17.1175,3746.1481440748394,1501.3900000000001,1487.6737625797541,1350,1500.0
5.143505096435547,184,17.1175,3778.1665042806076,1501.3299999999999,1496.8950503190149,1350,1500.0
5.168533086776733,185,16.1175,3810.1848644863758,1499.3,1504.5794567683993,1350,1500.0
5.19351601600647,184,16.1175,3810.1848644863758,1503.4400000000001,1510.4708350462604,1350,1500.0
5.218548059463501,185,16.1175,3778.1665042806076,1503.6400000000001,1515.8499195608294,1350,1500.0
5.24357008934021,185,15.1175,3778.1665042806076,1510.21,1519.9482696671678,1350,1500.0
5.26862907409668,184,15.1175,3778.1665042806076,1512.1800000000001,1519.9482696671678,1350,1500.0
5.29360818862915,184,15.1175,3778.1665042806076,1512.1199999999999,1517.3868008507063,1350,1500.0
5.318558216094971,184,15.1175,3778.1665042806076,1512.1199999999999,1514.8253320342449,1350,1500.0
5.343515157699585,184,15.1175,3810.1848644863758,1509.8900000000001,1515.081478915891,1350,1500.0
5.368574142456055,183,15.1175,3848.6068967332967,1503.0599999999999,1516.9257364637433,1350,1500.0
5.393550157546997,184,14.1175,3848.6068967332967,1503.26,1519.7433521618509,1350,1500.0
5.418556213378906,184,14.1175,3848.6068967332967,1505.4300000000001,1523.8417022681892,1350,1500.0
5.443557024002075,184,14.1175,3848.6068967332967,1505.4300000000001,1527.9400523745271,1350,1500.0
5.468605995178223,184,14.1175,3880.6252569390649,1507.5999999999999,1529.7330805460504,1350,1500.0
5.493620157241821,184,14.1175,3880.6252569390649,1514.1700000000001,1528.1961992561733,1350,1500.0
5.525629997253418,184,14.1175,3848.6068967332967,1514.1700000000001,1525.1224366764197,1350,1500.0
5.550711154937744,184,13.1175,3848.6068967332967,1514.1700000000001,1522.3048209783121,1350,1500.0
5.575711011886597,183,13.1175,3848.6068967332967,1511.74,1519.4872052802048,1350,1500.0
5.600647211074829,183,13.1175,3848.6068967332967,1509.51,1515.3888551738664,1350,1500.0
5.625584125518799,183,13.1175,3778.1665042806076,1505.1099999999999,1509.4462475196758,1350,1500.0
5.650514125823975,183,12.1175,3778.1665042806076,1502.8800000000001,1506.6286318215684,1350,1500.0
5.675461053848267,183,12.1175,3778.1665042806076,1500.6500000000001,1503.8110161234608,1350,1500.0
5.700368165969849,182,12.1175,3816.588536527529,1500.3900000000001,1502.8376579732053,1350,1500.0
5.725281000137329,182,12.1175,3816.588536527529,1500.3299999999999,1502.8376579732055,1350,1500.0
5.750207185745239,182,12.1175,3816.588536527529,1500.27,1508.4728893694207,1350,1500.0
5.775144100189209,183,13.1175,3848.6068967332967,1502.6400000000001,1514.3642676472818,1350,1500.0
5.80004620552063,182,14.1175,3887.0289289802181,1502.3800000000001,1521.8437565913493,1350,1500.0
5.824977159500122,183,14.1175,3972.4112228622662,1506.98,1530.0404568040256,1350,1500.0
5.849868059158325,183,16.1175,4010.8332551091871,1511.3800000000001,1539,1350,1500.0
5.874679088592529,183,16.1175,4128.2339091970025,1515.78,1539,1350,1500.0
5.899487018585205,183,17.1175,4213.6162030790501,1515.78,1539,1350,1500.0
5.924300193786621,184,20.1175,4252.038235325972,1520,1539,1350,1500.0
5.949005126953125,184,21.1175,4252.038235325972,1520,1539,1350,1500.0
5.973764181137085,184,22.1175,4290.4602675728929,1520,1539,1350,1500.0
5.998522996902466,184,24.1175,4328.8822998198139,1520,1539,1350,1500.0
6.023276090621948,185,25.1175,4367.3043320667357,1520,1539,1350,1500.0
6.048069000244141,185,28.1175,4367.3043320667357,1520,1539,1350,1500.0
6.0728230476379395,185,29.1175,4320.344070431609,1520,1539,1350,1500.0
6.0975871086120605,185,31.1175,4320.344070431609,1520,1539,1350,1500.0
6.122282981872559,185,32.1175,4234.9617765495614,1520,1529.4086278292982,1350,1500.0
6.1472392082214355,185,34.1175,4188.0015149144356,1520,1515.7133078906179,1349.5719999999999,1500.0
6.171943187713623,185,37.1175,4149.5794826675137,1519.01,1502.0862937870434,1343.8919999999998,1500.0
6.196962118148804,185,38.1175,4111.1574504205928,1516.8399999999999,1490.6792193244019,1340.6120000000001,1500.0
6.221708059310913,185,40.1175,4072.7354181736714,1514.6700000000001,1479.2721448617604,1337.4920000000002,1500.0
6.246556043624878,185,42.1175,4034.31338592675,1512.5,1474.6956539096827,1331.5720000000001,1500.0
6.271282196044922,185,44.1175,3963.8729934740609,1512.5,1472.3391025985381,1327.0119999999999,1500.0
6.296008110046387,185,47.1175,3893.4326010213713,1512.5,1470.2386981690397,1321.252,1500.0
6.320734977722168,185,49.1175,3822.9922085686821,1512.5,1466.5160301557826,1315.2520000000002,1500.0
6.345458984375,184,50.1175,3752.5518161159926,1510.0699999999999,1463.0495090241714,1311.8920000000003,1500.0
6.370206117630005,184,52.1175,3720.5334559102243,1507.8399999999999,1459,1308.6920000000002,1500.0
6.394834041595459,184,54.1175,3650.0930634575352,1505.6099999999999,1459,1305.492,1500.0
6.419481039047241,183,57.1175,3618.074703251767,1500.95,1459,1301.0920000000001,1500.0
6.444097995758057,183,58.1175,3558.9638844103492,1496.49,1459,1301.8920000000001,1500.0
6.468743085861206,182,60.1175,3499.8530655689319,1494.0,1459,1298.692,1500.0
6.4934070110321045,182,62.1175,3440.7422467275146,1491.71,1459,1295.492,1500.0
6.518129110336304,182,64.1175,3440.7422467275146,1489.4200000000001,1460.8768580383112,1292.2919999999999,1500.0
6.542962074279785,181,68.1175,3440.7422467275146,1489.0999999999999,1464.7978756881253,1285.252,1500.0
6.567759990692139,180,70.1175,3440.7422467275146,1486.55,1470.6301431471447,1277.8119999999999,1500.0
6.592559099197388,180,70.1175,3413.6497880918641,1486.4300000000001,1477.0732224008593,1277.0119999999999,1500.0
6.617667198181152,180,72.1175,3413.6497880918641,1486.3099999999999,1487.1811724227416,1273.8119999999999,1500.0
6.64251708984375,179,74.1175,3386.5573294562141,1483.76,1493.1710687320053,1270.6119999999999,1500.0
6.6673431396484375,179,76.1175,3386.5573294562141,1483.6400000000001,1498.0969703021235,1271.6519999999998,1500.0
6.692103147506714,178,77.1175,3413.6497880918641,1485.49,1501.9588771330964,1276.692,1500.0
6.716958045959473,178,77.1175,3413.6497880918641,1485.3699999999999,1505.4070082321789,1280.212,1500.0
6.741720199584961,177,78.1175,3413.6497880918641,1482.8199999999999,1506.4907065776049,1283.972,1500.0
6.76670503616333,176,79.1175,3386.5573294562141,1482.4400000000001,1508.4413635993715,1289.172,1500.0
6.791417121887207,176,79.1175,3359.4648708205641,1480.0899999999999,1509.3083222757125,1295.732,1500.0
6.816126108169556,176,79.1175,3309.1503047829292,1480,1505.8095247604799,1302.3720000000001,1500.0
6.840792179107666,176,78.1175,3309.1503047829292,1480,1501.6295454281228,1311.652,1500.0
6.86548113822937,175,79.1175,3309.1503047829292,1481.7,1497.4495660957652,1317.172,1500.0
6.890228986740112,175,78.1175,3309.1503047829292,1485.98,1494.3532851088339,1326.6120000000001,1500.0
6.914957046508789,175,77.1175,3282.0578461472787,1490.26,1492.1239627982434,1334.7719999999999,1500.0
6.939714193344116,175,77.1175,3231.7432801096438,1492.3699999999999,1492.8051446153679,1340.3720000000001,1500.0
6.9644691944122314,175,76.1175,3208.5211727076585,1494.48,1492.7741818054988,1345.8119999999999,1500.0
6.989212989807129,175,75.1175,3208.5211727076585,1498.8199999999999,1492.9289958548454,1350,1500.0
7.0139501094818115,174,73.1175,3208.5211727076585,1498.5599999999999,1492.0001115587659,1350,1500.0
7.038642168045044,174,72.1175,3208.5211727076585,1498.5,1492.1549256081125,1350,1500.0
7.063350200653076,174,71.1175,3258.8357387452934,1498.4400000000001,1496.7374214687711,1350,1500.0
7.0880491733551025,174,70.1175,3258.8357387452934,1498.3800000000001,1502.7751693932873,1350,1500.0
7.112764120101929,173,69.1175,3231.7432801096438,1493.72,1507.5124793032924,1350,1500.0
7.137505054473877,172,67.1175,3231.7432801096438,1491.23,1512.4665288823826,1350,1500.0
7.162168979644775,173,66.1175,3231.7432801096438,1491.3699999999999,1516.3368801160468,1350,1500.0
7.186989068984985,172,66.1175,3282.0578461472787,1488.8800000000001,1516.5845825950014,1350,1500.0
7.2116920948028564,172,65.1175,3332.3724121849141,1486.5899999999999,1517.915983419382,1350,1500.0
7.23653507232666,171,63.1175,3391.4832310263314,1486.27,1523.8495837107014,1350,1500.0
7.261196136474609,170,61.1175,3450.5940498677492,1485.95,1532.1476167556775,1350,1500.0
7.285814046859741,167,60.1175,3509.7048687091665,1480,1539,1350,1500.0
7.310230016708374,169,59.1175,3541.7232289149347,1480,1539,1350,1500.0
7.33466911315918,168,58.1175,3600.834047756352,1480,1539,1350,1500.0
7.35910701751709,168,57.1175,3659.9448665977698,1480,1539,1350,1500.0
7.383581161499023,166,55.1175,3687.0373252334189,1480,1539,1350,1500.0
7.408069133758545,166,54.1175,3714.1297838690689,1480,1539,1350,1500.0
7.4326012134552,165,53.1175,3714.1297838690689,1480,1539,1350,1500.0
7.457149982452393,165,52.1175,3714.1297838690689,1480,1539,1350,1500.0
7.481584072113037,164,51.1175,3655.0189650276516,1480,1539,1350,1500.0
7.506005048751831,163,50.1175,3623.0006048218834,1480,1530.430588208379,1350,1500.0
7.530587196350098,162,49.1175,3563.8897859804661,1480,1515.7711051357076,1350,1500.0
7.55512809753418,161,49.1175,3504.7789671390483,1480,1500.0279237176101,1350,1500.0
7.579647064208984,161,49.1175,3472.7606069332805,1480,1485.5851803140235,1350,1500.0
7.604159116744995,161,48.1175,3413.6497880918628,1480,1475.6545627486655,1350,1500.0
7.628705978393555,159,48.1175,3413.6497880918628,1480,1469.8419988959263,1350,1500.0
7.65332818031311,160,47.1175,3386.5573294562128,1480,1468.5415608814149,1350,1500.0
7.677927017211914,159,47.1175,3359.4648708205627,1480,1470.8862900287911,1350,1500.0
7.702548027038574,158,47.1175,3359.4648708205627,1480,1476.0092276617138,1350,1500.0
7.727434158325195,159,47.1175,3336.2427634185769,1480,1482.3819368929981,1350,1500.0
7.752016067504883,157,46.1175,3309.1503047829274,1480,1486.3592505607562,1350,1500.0
7.776714086532593,158,46.1175,3285.928197380942,1480,1489.2416066794997,1350,1500.0
7.80125617980957,157,46.1175,3262.7060899789567,1480,1490.9980424393591,1350,1500.0
7.825783014297485,157,45.1175,3192.2656975262671,1480,1488.2783818124744,1350,1500.0
7.85035514831543,157,45.1175,3169.0435901242818,1480,1484.5009190084181,1350,1500.0
7.8746631145477295,157,44.1175,3098.6031976715922,1483.3699999999999,1479.6954909167007,1350,1500.0
7.899041175842285,156,43.1175,3055.2552638545526,1483.05,1474.1469553881195,1350,1500.0
7.923472166061401,156,43.1175,3011.907330037513,1485.1600000000001,1467.6385727535899,1350,1500.0
7.947923183441162,156,43.1175,2961.5927639998781,1485.0999999999999,1464.697105816005,1350,1500.0
7.9722981452941895,154,43.1175,2961.5927639998781,1482.3499999999999,1463.0870397028007,1350,1500.0
7.996822118759155,155,42.1175,2918.2448301828381,1480,1463.9478058171676,1350,1500.0
8.021108150482178,153,42.1175,2898.1190037677843,1480,1466.7282661434319,1350,1500.0
8.045358180999756,154,42.1175,2898.1190037677843,1480,1472.2086834903005,1350,1500.0
8.069607019424438,154,42.1175,2898.1190037677843,1480,1478.8966504220723,1350,1500.0
8.093865156173706,153,42.1175,2877.9931773527305,1480,1483.689693389842,1350,1500.0
8.118097066879272,153,42.1175,2898.1190037677843,1480,1490.2600016441104,1350,1500.0
8.142390012741089,152,42.1175,2898.1190037677843,1480,1496.5454520475812,1350,1500.0
8.166757106781006,151,42.1175,2918.2448301828381,1480,1502.063024766293,1350,1500.0
8.191018104553223,151,42.1175,2918.2448301828381,1480,1505.4070082321789,1350,1500.0
8.215291023254395,151,42.1175,2918.2448301828381,1480,1510.3610578112691,1350,1500.0
8.23954701423645,150,42.1175,2918.2448301828381,1480,1511.9711239244734,1350,1500.0
8.26387619972229,150,42.1175,2938.3706565978923,1480,1513.7421966489981,1350,1500.0
8.288241147994995,150,42.1175,2938.3706565978923,1480,1513.7421966489981,1350,1500.0
8.31257700920105,150,42.1175,2938.3706565978923,1480,1513.7421966489983,1350,1500.0
8.336939096450806,150,42.1175,2958.4964830129461,1480,1513.9032032603186,1350,1500.0
8.361225128173828,150,42.1175,2958.4964830129461,1484.1500000000001,1514.7082363169209,1350,1500.0
8.385594129562378,150,42.1175,2958.4964830129461,1488.49,1513.9032032603188,1350,1500.0
8.40993618965149,151,42.1175,2938.3706565978923,1493.0899999999999,1512.9371635923962,1350,1500.0
