time,x,y,size_inv,roll,pitch,thrust,yaw
0.0004210472106933594,134,60,0.008928571428571428,1480,1494.0,1330.0,1480
0.02212810516357422,134,60,0.008928571428571428,1480,1494.0,1330.0,1480
0.04361104965209961,134,60,0.008928571428571428,1480,1494.0,1330.0,1480
0.06497597694396973,134,60,0.008928571428571428,1480,1494.0,1330.0,1480
0.08635902404785156,135,60,0.0125,1480,1494.0,1330.0,1480
0.10767006874084473,134,60,0.008928571428571428,1480,1494.0,1330.0,1480
0.12899208068847656,134,60,0.008928571428571428,1480,1494.0,1330.0,1480
0.15037798881530762,134,60,0.008928571428571428,1480,1494.0,1330.0,1480
0.17183208465576172,134,60,0.008928571428571428,1480,1494.0,1330.0,1480
0.19326305389404297,135,60,0.0125,1480,1494.0,1330.0,1480
0.2148289680480957,134,60,0.008928571428571428,1480,1494.0,1330.0,1480
0.2365400791168213,134,60,0.008928571428571428,1480,1494.0,1330.0,1480
0.2583041191101074,134,60,0.008928571428571428,1480,1494.0,1330.0,1480
0.28015804290771484,135,60,0.008928571428571428,1480,1494.0,1330.0,1480
0.30191516876220703,135,60,0.007936507936507936,1480,1494.0,1330.0,1480
0.3237650394439697,137,60,0.008333333333333333,1480,1494.0,1330.0,1480
0.34554314613342285,140,61,0.011363636363636364,1480,1494.0,1328.7,1480.0
0.36737608909606934,142,63,0.009259259259259259,1480,1494.0,1325.8,1482.0
0.3891620635986328,143,63,0.008928571428571428,1480,1494.0,1324.9000000000001,1483.0
0.41095399856567383,147,64,0.010101010101010102,1480,1494.0,1322.7,1487.0
0.4327549934387207,150,64,0.011363636363636364,1480,1494.0,1321.5,1490.0
0.45452117919921875,153,65,0.009259259259259259,1480,1494.0,1319.5999999999999,1493.0
0.4763011932373047,155,65,0.011111111111111112,1480,1494.0,1319.9000000000001,1495.0
0.4980471134185791,158,65,0.010101010101010102,1480,1494.0,1320.2,1498.0
0.5197880268096924,161,65,0.010101010101010102,1480,1494.0,1321.0999999999999,1501.0
0.5416140556335449,163,65,0.010101010101010102,1480,1494.0,1322.0,1503.0
0.5633730888366699,167,65,0.011111111111111112,1480,1494.0,1323.2,1507.0
0.5851631164550781,170,66,0.009259259259259259,1487.0,1494.0,1322.5,1510.0
0.6069660186767578,171,66,0.010101010101010102,1517.0,1494.0,1322.8,1511.0
0.6287620067596436,171,67,0.006944444444444444,1520,1494.0,1321.5,1511.0
0.6505281925201416,171,67,0.007936507936507936,1520,1494.0,1321.2,1511.0
0.6723220348358154,173,67,0.011111111111111112,1520,1494.0,1320.5999999999999,1513.0
0.6941311359405518,172,67,0.008928571428571428,1520,1494.0,1320.5999999999999,1512.0
0.7159030437469482,174,68,0.009259259259259259,1520,1494.0,1319.3,1514.0
0.7376890182495117,173,68,0.011111111111111112,1520,1494.0,1319.5999999999999,1513.0
0.7594470977783203,171,68,0.007936507936507936,1520,1494.0,1319.9000000000001,1511.0
0.7812020778656006,172,68,0.0125,1520,1494.0,1320.2,1512.0
0.802947998046875,170,69,0.007936507936507936,1520,1494.0,1318.9000000000001,1510.0
0.8247101306915283,171,69,0.0125,1520,1494.0,1319.2,1511.0
0.8464550971984863,169,70,0.008928571428571428,1520,1494.0,1317.9000000000001,1509.0
0.8682520389556885,168,71,0.008928571428571428,1520,1494.0,1316.3,1508.0
0.890038013458252,169,72,0.0125,1520,1494.0,1314.4000000000001,1509.0
0.9118061065673828,168,74,0.0125,1520,1494.0,1311.5,1508.0
0.9335660934448242,167,76,0.0125,1520,1494.0,1307.7,1507.0
0.9553320407867432,166,77,0.0125,1520,1494.0,1305.2,1506.0
0.977074146270752,164,78,0.007936507936507936,1520,1494.0,1303.0,1504.0
0.998816967010498,163,78,0.008928571428571428,1520,1494.0,1302.4000000000001,1503.0
1.020578145980835,165,79,0.010101010101010102,1520,1494.0,1301.4000000000001,1505.0
1.0423681735992432,162,79,0.008928571428571428,1520,1494.0,1302.5999999999999,1502.0
1.0641710758209229,164,80,0.010101010101010102,1520,1494.0,1302.8,1504.0
1.0859510898590088,163,81,0.011111111111111112,1520,1494.0,1303.0,1503.0
1.1077029705047607,161,81,0.008928571428571428,1520,1494.0,1303.9000000000001,1501.0
1.129945993423462,162,82,0.011111111111111112,1520,1494.0,1303.5,1502.0
1.153203010559082,162,83,0.011111111111111112,1520,1494.0,1302.2,1502.0
1.1764180660247803,160,83,0.007936507936507936,1520,1494.0,1302.2,1500.0
1.1999430656433105,160,83,0.008928571428571428,1520,1494.0,1302.5,1500.0
1.2232539653778076,161,84,0.011111111111111112,1520,1494.0,1301.5,1501.0
1.2465910911560059,160,85,0.007936507936507936,1515.0,1494.0,1300.5,1500.0
1.2698760032653809,161,85,0.011111111111111112,1516.0,1494.0,1301.0999999999999,1501.0
1.2932710647583008,159,86,0.007936507936507936,1507.0,1494.0,1300.0999999999999,1499.0
1.3167080879211426,159,86,0.007936507936507936,1503.0,1494.0,1299.8,1499.0
1.3400490283966064,159,87,0.007936507936507936,1501.0,1494.0,1298.8,1499.0
1.3633480072021484,161,87,0.010101010101010102,1504.0,1494.0,1299.0999999999999,1501.0
1.3866431713104248,159,88,0.007936507936507936,1497.0,1494.0,1297.8,1499.0
1.409938097000122,161,88,0.010101010101010102,1502.0,1494.0,1298.0999999999999,1501.0
1.4332029819488525,159,88,0.008928571428571428,1497.0,1494.0,1298.4000000000001,1499.0
1.4564871788024902,160,89,0.011111111111111112,1498.0,1494.0,1297.7,1500.0
1.479762077331543,159,89,0.007936507936507936,1495.0,1494.0,1297.7,1499.0
1.503087043762207,159,89,0.007936507936507936,1493.0,1494.0,1298.3,1499.0
1.5264480113983154,161,89,0.010101010101010102,1499.0,1494.0,1298.5999999999999,1501.0
1.5497410297393799,158,90,0.007936507936507936,1492.0,1494.0,1297.5999999999999,1498.0
1.5730950832366943,160,90,0.010101010101010102,1497.0,1494.0,1297.9000000000001,1500.0
1.5964250564575195,159,90,0.0125,1493.0,1494.0,1298.2,1499.0
1.6196820735931396,157,91,0.007936507936507936,1487.0,1494.0,1296.9000000000001,1497.0
1.6430070400238037,157,91,0.007936507936507936,1483.0,1494.0,1296.5999999999999,1497.0
1.6663601398468018,157,91,0.007936507936507936,1481.0,1494.0,1296.9000000000001,1497.0
1.6896400451660156,157,91,0.007936507936507936,1480,1494.0,1296.9000000000001,1497.0
1.7129089832305908,157,91,0.007936507936507936,1480,1494.0,1296.9000000000001,1497.0
1.7362079620361328,157,91,0.007936507936507936,1480,1494.0,1297.5,1497.0
1.7594361305236816,157,91,0.007936507936507936,1480,1494.0,1298.0999999999999,1497.0
1.782684087753296,157,91,0.007936507936507936,1480,1494.0,1298.4000000000001,1497.0
1.8059711456298828,158,91,0.008928571428571428,1480,1494.0,1298.7,1498.0
1.829158067703247,160,92,0.010101010101010102,1480,1494.0,1297.7,1500.0
1.8524260520935059,159,92,0.011111111111111112,1480,1494.0,1297.4000000000001,1499.0
1.875709056854248,159,92,0.011111111111111112,1480,1494.0,1297.0999999999999,1499.0
1.8989181518554688,160,92,0.010101010101010102,1481.0,1494.0,1296.8,1500.0
1.922314167022705,159,91,0.0125,1481.0,1494.0,1297.8,1499.0
1.9457480907440186,158,91,0.007936507936507936,1480.0,1494.0,1298.4000000000001,1498.0
1.969053030014038,157,91,0.007936507936507936,1480,1494.0,1299.0,1497.0
1.992347002029419,157,91,0.007936507936507936,1480,1494.0,1299.5999999999999,1497.0
2.0156211853027344,158,90,0.006666666666666667,1481.0,1494.0,1301.5,1498.0
2.0388851165771484,157,90,0.007936507936507936,1480,1494.0,1301.8,1497.0
2.0621070861816406,158,90,0.00625,1480,1494.0,1301.8,1498.0
2.085442066192627,157,90,0.007936507936507936,1480,1494.0,1301.8,1497.0
2.1086699962615967,157,90,0.007936507936507936,1480,1494.0,1301.8,1497.0
2.1318650245666504,157,90,0.007936507936507936,1480,1494.0,1301.2,1497.0
2.1552441120147705,157,89,0.007142857142857143,1480,1494.0,1302.2,1497.0
2.1784720420837402,157,89,0.007936507936507936,1480,1494.0,1302.2,1497.0
2.2017080783843994,159,89,0.011111111111111112,1480,1494.0,1302.2,1499.0
2.2250540256500244,157,89,0.007936507936507936,1480,1494.0,1302.2,1497.0
2.2482659816741943,160,89,0.010101010101010102,1480,1494.0,1302.5,1500.0
2.27146315574646,159,88,0.011111111111111112,1480,1494.0,1303.5,1499.0
2.294654130935669,160,87,0.008333333333333333,1480.0,1494.0,1304.8,1500.0
2.317934036254883,159,87,0.011111111111111112,1480.0,1494.0,1305.0999999999999,1499.0
2.341269016265869,160,87,0.010101010101010102,1485.0,1494.0,1305.4000000000001,1500.0
2.3645410537719727,159,86,0.01,1485.0,1494.0,1307.0,1499.0
2.3877811431884766,159,86,0.010101010101010102,1487.0,1494.0,1307.3,1499.0
2.4113941192626953,158,85,0.006666666666666667,1486.0,1494.0,1308.3,1498.0
2.4347121715545654,159,85,0.011111111111111112,1488.0,1494.0,1308.3,1499.0
2.4580211639404297,157,84,0.007936507936507936,1484.0,1494.0,1309.5999999999999,1497.0
2.481304168701172,157,84,0.007936507936507936,1481.0,1494.0,1309.3,1497.0
2.504587173461914,160,83,0.008333333333333333,1488.0,1494.0,1310.5999999999999,1500.0
2.5278520584106445,159,83,0.011111111111111112,1485.0,1494.0,1310.5999999999999,1499.0
2.551133155822754,159,82,0.006666666666666667,1485.0,1494.0,1311.9000000000001,1499.0
2.5744240283966064,158,82,0.007936507936507936,1481.0,1494.0,1311.5999999999999,1498.0
2.597750186920166,159,81,0.00625,1483.0,1494.0,1312.9000000000001,1499.0
2.621062994003296,158,81,0.007936507936507936,1480.0,1494.0,1312.5999999999999,1498.0
2.6443920135498047,159,80,0.007936507936507936,1483.0,1494.0,1313.9000000000001,1499.0
2.6676790714263916,160,80,0.011111111111111112,1486.0,1494.0,1313.5999999999999,1500.0
2.690965175628662,160,79,0.006666666666666667,1489.0,1494.0,1314.9000000000001,1500.0
2.7142770290374756,159,78,0.007142857142857143,1489.0,1494.0,1315.9000000000001,1499.0
2.737591028213501,159,78,0.007936507936507936,1488.0,1494.0,1316.2,1499.0
2.7608871459960938,160,77,0.006666666666666667,1491.0,1494.0,1317.2,1500.0
2.7841689586639404,160,76,0.007936507936507936,1492.0,1494.0,1318.8,1500.0
2.8074610233306885,161,76,0.007407407407407408,1497.0,1494.0,1318.8,1501.0
2.8307371139526367,160,75,0.007936507936507936,1496.0,1494.0,1319.8,1500.0
2.854032039642334,163,74,0.007936507936507936,1507.0,1494.0,1321.0999999999999,1503.0
2.877312183380127,160,74,0.007936507936507936,1502.0,1494.0,1321.0999999999999,1500.0
2.900597095489502,162,73,0.006535947712418301,1508.0,1494.0,1321.8,1502.0
2.9238929748535156,163,72,0.007142857142857143,1513.0,1494.0,1323.0999999999999,1503.0
2.9472429752349854,162,72,0.010101010101010102,1514.0,1494.0,1323.0999999999999,1502.0
2.9705560207366943,160,71,0.007936507936507936,1511.0,1494.0,1323.8,1500.0
2.993847131729126,162,70,0.006535947712418301,1517.0,1494.0,1325.0999999999999,1502.0
3.0171000957489014,160,70,0.007936507936507936,1513.0,1494.0,1325.0999999999999,1500.0
3.0403990745544434,160,69,0.007142857142857143,1512.0,1494.0,1325.8,1500.0
3.0636980533599854,161,69,0.006666666666666667,1515.0,1494.0,1325.8,1501.0
3.0869791507720947,160,69,0.007142857142857143,1510.0,1494.0,1325.5,1500.0
3.110229969024658,160,69,0.007936507936507936,1510.0,1494.0,1324.5999999999999,1500.0
3.1335220336914062,161,69,0.006535947712418301,1511.0,1494.0,1324.0,1501.0
3.156830072402954,159,69,0.007936507936507936,1503.0,1494.0,1323.0999999999999,1499.0
3.1801211833953857,161,69,0.006535947712418301,1506.0,1494.0,1322.2,1501.0
3.2034151554107666,160,68,0.006666666666666667,1504.0,1494.0,1322.9000000000001,1500.0
3.226691961288452,161,68,0.011111111111111112,1505.0,1494.0,1322.9000000000001,1501.0
3.2499639987945557,160,68,0.007936507936507936,1503.0,1494.0,1322.9000000000001,1500.0
3.2732629776000977,162,68,0.010101010101010102,1509.0,1494.0,1323.2,1502.0
3.2965309619903564,162,69,0.006535947712418301,1510.0,1494.0,1322.2,1502.0
3.319833993911743,162,69,0.006535947712418301,1512.0,1494.0,1321.5999999999999,1502.0
3.343229055404663,162,69,0.006535947712418301,1514.0,1494.0,1321.0,1502.0
3.3665289878845215,161,69,0.011111111111111112,1512.0,1494.0,1320.4000000000001,1501.0
3.3898391723632812,161,69,0.011111111111111112,1514.0,1494.0,1319.8,1501.0
3.4131901264190674,161,68,0.011111111111111112,1514.0,1494.0,1321.0999999999999,1501.0
3.4365360736846924,161,67,0.011111111111111112,1515.0,1494.0,1323.0,1501.0
3.4597971439361572,161,66,0.011111111111111112,1515.0,1494.0,1325.2,1501.0
3.4831230640411377,161,65,0.006535947712418301,1516.0,1494.0,1327.7,1501.0
3.506472110748291,160,65,0.011111111111111112,1512.0,1494.0,1329.2,1500.0
3.5297491550445557,160,65,0.011111111111111112,1510.0,1494.0,1329.8,1500.0
3.5530760288238525,161,65,0.010101010101010102,1511.0,1494.0,1329.8,1501.0
3.5767951011657715,160,66,0.006535947712418301,1507.0,1494.0,1327.9000000000001,1500.0
3.60027813911438,160,66,0.006535947712418301,1506.0,1494.0,1326.4000000000001,1500.0
3.6236159801483154,160,66,0.006535947712418301,1505.0,1494.0,1324.9000000000001,1500.0
3.6469380855560303,160,66,0.011111111111111112,1504.0,1494.0,1323.7,1500.0
3.6702330112457275,159,66,0.007936507936507936,1500.0,1494.0,1322.8,1499.0
3.6935150623321533,161,65,0.006535947712418301,1504.0,1494.0,1324.0999999999999,1501.0
3.7168149948120117,161,65,0.006535947712418301,1504.0,1494.0,1324.7,1501.0
3.7401320934295654,161,65,0.006535947712418301,1505.0,1494.0,1325.3,1501.0
3.7634291648864746,161,65,0.006535947712418301,1506.0,1494.0,1325.9000000000001,1501.0
3.7867159843444824,161,66,0.006535947712418301,1506.0,1494.0,1325.2,1501.0
3.8099920749664307,161,66,0.006535947712418301,1507.0,1494.0,1324.5999999999999,1501.0
3.8332901000976562,160,67,0.011111111111111112,1505.0,1494.0,1322.7,1500.0
3.8565821647644043,160,67,0.011111111111111112,1505.0,1494.0,1321.8,1500.0
3.879883050918579,158,67,0.007936507936507936,1499.0,1494.0,1320.9000000000001,1498.0
3.903191089630127,160,68,0.006535947712418301,1504.0,1494.0,1319.3,1500.0
3.926522970199585,160,68,0.006535947712418301,1503.0,1494.0,1319.0,1500.0
3.9498250484466553,160,68,0.006535947712418301,1502.0,1494.0,1319.3,1500.0
3.9732260704040527,160,68,0.006535947712418301,1501.0,1494.0,1319.5999999999999,1500.0
3.9966251850128174,160,68,0.006535947712418301,1500.0,1494.0,1319.9000000000001,1500.0
4.019930124282837,160,68,0.006535947712418301,1499.0,1494.0,1320.5,1500.0
4.043199062347412,160,68,0.006535947712418301,1498.0,1494.0,1321.0999999999999,1500.0
4.066481113433838,160,68,0.006535947712418301,1498.0,1494.0,1321.4000000000001,1500.0
4.089756011962891,160,67,0.0058823529411764705,1498.0,1494.0,1323.0,1500.0
4.113080024719238,158,67,0.007142857142857143,1494.0,1494.0,1323.5999999999999,1498.0
4.136451959609985,157,68,0.007936507936507936,1489.0,1494.0,1322.5999999999999,1497.0
4.159780025482178,159,68,0.006535947712418301,1492.0,1494.0,1322.5999999999999,1499.0
4.183151006698608,160,68,0.007936507936507936,1494.0,1494.0,1322.5999999999999,1500.0
4.206540107727051,159,68,0.0058823529411764705,1491.0,1494.0,1322.0,1499.0
4.22979998588562,159,69,0.006535947712418301,1490.0,1494.0,1320.0999999999999,1499.0
4.253122091293335,159,69,0.006535947712418301,1489.0,1494.0,1319.8,1499.0
4.276571035385132,159,69,0.0058823529411764705,1488.0,1494.0,1319.5,1499.0
4.300091028213501,160,69,0.007142857142857143,1490.0,1494.0,1319.2,1500.0
4.323459148406982,160,70,0.007936507936507936,1490.0,1494.0,1317.9000000000001,1500.0
4.346827983856201,160,70,0.007936507936507936,1492.0,1494.0,1318.2,1500.0
4.370115041732788,160,70,0.007142857142857143,1495.0,1494.0,1318.2,1500.0
4.3933939933776855,158,71,0.006535947712418301,1490.0,1494.0,1316.9000000000001,1498.0
4.416701078414917,158,71,0.006535947712418301,1488.0,1494.0,1316.5999999999999,1498.0
4.439983129501343,158,71,0.0058823529411764705,1487.0,1494.0,1316.9000000000001,1498.0
4.463273048400879,158,72,0.006535947712418301,1486.0,1494.0,1315.5999999999999,1498.0
4.486529111862183,159,73,0.007936507936507936,1488.0,1494.0,1314.0,1499.0
4.509788990020752,158,73,0.0058823529411764705,1485.0,1494.0,1314.0,1498.0
4.5331130027771,158,75,0.006535947712418301,1483.0,1494.0,1311.4000000000001,1498.0
4.556488990783691,159,75,0.007142857142857143,1484.0,1494.0,1310.5,1499.0
4.5797340869903564,158,76,0.006535947712418301,1480.0,1494.0,1308.9000000000001,1498.0
4.60303807258606,158,76,0.0058823529411764705,1480,1494.0,1308.9000000000001,1498.0
4.626327991485596,159,76,0.007142857142857143,1481.0,1494.0,1308.5999999999999,1499.0
4.649623155593872,158,76,0.0058823529411764705,1480,1494.0,1309.5,1498.0
4.672885179519653,158,76,0.0058823529411764705,1480,1494.0,1310.4000000000001,1498.0
4.6961891651153564,159,77,0.007142857142857143,1482.0,1494.0,1310.3,1499.0
4.719479084014893,159,77,0.007142857142857143,1482.0,1494.0,1310.9000000000001,1499.0
4.74315619468689,157,77,0.005555555555555556,1480,1494.0,1311.5,1497.0
4.766448974609375,157,78,0.005555555555555556,1480,1494.0,1310.2,1497.0
4.789651155471802,157,78,0.005555555555555556,1480,1494.0,1309.9000000000001,1497.0
4.812910079956055,157,78,0.005555555555555556,1480,1494.0,1309.9000000000001,1497.0
4.836176156997681,159,78,0.007142857142857143,1480,1494.0,1309.9000000000001,1499.0
4.859402179718018,159,78,0.007142857142857143,1480,1494.0,1309.9000000000001,1499.0
4.882692098617554,158,79,0.005050505050505051,1480,1494.0,1309.2,1498.0
4.905954122543335,158,79,0.005050505050505051,1480,1494.0,1309.5,1498.0
4.929141044616699,158,79,0.005050505050505051,1480,1494.0,1309.5,1498.0
4.952388048171997,158,79,0.005050505050505051,1480,1494.0,1309.5,1498.0
4.975646018981934,158,79,0.005555555555555556,1480,1494.0,1309.5,1498.0
4.998840093612671,160,79,0.006666666666666667,1482.0,1494.0,1309.8,1500.0
5.022142171859741,158,79,0.005555555555555556,1480,1494.0,1310.0999999999999,1498.0
5.045613050460815,160,79,0.006493506493506494,1486.0,1494.0,1310.4000000000001,1500.0
5.068928003311157,160,79,0.006493506493506494,1487.0,1494.0,1310.7,1500.0
5.0922770500183105,160,79,0.006493506493506494,1488.0,1494.0,1311.0,1500.0
5.115646123886108,159,78,0.005555555555555556,1487.0,1494.0,1312.3,1499.0
5.1389851570129395,159,79,0.005050505050505051,1488.0,1494.0,1311.3,1499.0
5.162400960922241,159,78,0.005555555555555556,1489.0,1494.0,1312.5999999999999,1499.0
5.185801982879639,159,78,0.005555555555555556,1490.0,1494.0,1312.9000000000001,1499.0
5.2091381549835205,159,78,0.005555555555555556,1491.0,1494.0,1313.2,1499.0
5.232490062713623,159,78,0.0058823529411764705,1490.0,1494.0,1312.9000000000001,1499.0
5.25587010383606,160,78,0.007142857142857143,1494.0,1494.0,1313.2,1500.0
5.279134035110474,160,78,0.006493506493506494,1494.0,1494.0,1312.9000000000001,1500.0
5.302438020706177,159,78,0.005050505050505051,1491.0,1494.0,1312.5999999999999,1499.0
5.3257880210876465,159,77,0.005555555555555556,1490.0,1494.0,1313.5999999999999,1499.0
5.3491270542144775,159,77,0.005555555555555556,1490.0,1494.0,1313.9000000000001,1499.0
5.372488975524902,159,77,0.005050505050505051,1490.0,1494.0,1313.9000000000001,1499.0
5.395859003067017,159,76,0.005555555555555556,1490.0,1494.0,1315.5,1499.0
5.419100046157837,159,76,0.005555555555555556,1490.0,1494.0,1316.0999999999999,1499.0
5.442456007003784,159,76,0.005555555555555556,1490.0,1494.0,1316.0999999999999,1499.0
5.465821981430054,161,76,0.006493506493506494,1496.0,1494.0,1316.0999999999999,1501.0
5.489094018936157,161,76,0.006493506493506494,1497.0,1494.0,1316.0999999999999,1501.0
5.512444019317627,160,76,0.005050505050505051,1495.0,1494.0,1315.5,1500.0
5.535786151885986,160,75,0.005555555555555556,1496.0,1494.0,1316.2,1500.0
5.5590760707855225,160,75,0.005050505050505051,1497.0,1494.0,1316.2,1500.0
5.58241605758667,160,75,0.005050505050505051,1498.0,1494.0,1316.2,1500.0
5.605765104293823,160,75,0.005050505050505051,1499.0,1494.0,1316.2,1500.0
5.629031181335449,160,74,0.005555555555555556,1500.0,1494.0,1317.8,1500.0
5.652364015579224,162,74,0.006666666666666667,1507.0,1494.0,1317.8,1502.0
5.675709962844849,161,74,0.004784688995215311,1507.0,1494.0,1317.8,1501.0
5.698991060256958,162,74,0.006493506493506494,1510.0,1494.0,1317.8,1502.0
5.722381114959717,162,74,0.006493506493506494,1511.0,1494.0,1317.8,1502.0
5.7458531856536865,161,73,0.005050505050505051,1510.0,1494.0,1318.5,1501.0
5.7691051959991455,160,72,0.005555555555555556,1508.0,1494.0,1319.8,1500.0
5.792432069778442,160,72,0.005050505050505051,1508.0,1494.0,1320.0999999999999,1500.0
5.815773010253906,160,71,0.005555555555555556,1508.0,1494.0,1321.7,1500.0
5.839022159576416,160,71,0.005050505050505051,1508.0,1494.0,1322.3,1500.0
5.862356185913086,160,71,0.005050505050505051,1508.0,1494.0,1322.5999999999999,1500.0
5.885698080062866,160,70,0.005555555555555556,1506.0,1494.0,1323.5999999999999,1500.0
5.909002065658569,160,70,0.005555555555555556,1505.0,1494.0,1323.5999999999999,1500.0
5.932399034500122,161,70,0.004784688995215311,1506.0,1494.0,1323.0,1501.0
5.9560840129852295,160,69,0.005555555555555556,1502.0,1494.0,1323.7,1500.0
5.97939395904541,163,69,0.006666666666666667,1510.0,1494.0,1323.7,1503.0
6.002719163894653,162,68,0.007142857142857143,1510.0,1494.0,1324.7,1502.0
6.026080131530762,161,68,0.005555555555555556,1509.0,1494.0,1324.7,1501.0
6.049367189407349,161,68,0.005555555555555556,1510.0,1494.0,1325.0,1501.0
6.072689056396484,162,67,0.007142857142857143,1514.0,1494.0,1326.0,1502.0
6.09605598449707,162,67,0.006493506493506494,1516.0,1494.0,1326.0,1502.0
6.119301080703735,162,67,0.006493506493506494,1518.0,1494.0,1325.7,1502.0
6.142661094665527,162,66,0.007142857142857143,1520.0,1494.0,1326.7,1502.0
6.166027069091797,162,66,0.007142857142857143,1520,1494.0,1326.7,1502.0
6.1892430782318115,160,65,0.005555555555555556,1517.0,1494.0,1327.7,1500.0
6.2126359939575195,160,65,0.005555555555555556,1514.0,1494.0,1327.7,1500.0
6.235979080200195,161,65,0.007142857142857143,1515.0,1494.0,1328.0,1501.0
6.259248971939087,159,65,0.005050505050505051,1509.0,1494.0,1327.7,1499.0
6.282567024230957,159,65,0.005050505050505051,1507.0,1494.0,1327.4000000000001,1499.0
6.3059351444244385,159,65,0.005050505050505051,1504.0,1494.0,1326.8,1499.0
6.329259157180786,159,65,0.005050505050505051,1501.0,1494.0,1326.2,1499.0
6.3526201248168945,159,65,0.005050505050505051,1498.0,1494.0,1325.5999999999999,1499.0
6.37601113319397,159,65,0.005050505050505051,1495.0,1494.0,1325.3,1499.0
6.399302959442139,159,65,0.005050505050505051,1492.0,1494.0,1325.0,1499.0
6.422667026519775,161,65,0.006493506493506494,1497.0,1494.0,1325.0,1501.0
6.446086168289185,161,64,0.007142857142857143,1498.0,1494.0,1326.3,1501.0
6.4693779945373535,161,64,0.007142857142857143,1498.0,1494.0,1326.5999999999999,1501.0
6.492741107940674,160,64,0.005555555555555556,1497.0,1494.0,1326.9000000000001,1500.0
6.516088962554932,160,64,0.005555555555555556,1498.0,1494.0,1327.2,1500.0
6.539386034011841,161,65,0.006493506493506494,1502.0,1494.0,1326.2,1501.0
6.562741994857788,160,65,0.005050505050505051,1501.0,1494.0,1325.5999999999999,1500.0
6.586111068725586,160,65,0.005050505050505051,1502.0,1494.0,1325.0,1500.0
6.609382152557373,160,65,0.005555555555555556,1503.0,1494.0,1324.4000000000001,1500.0
6.632707118988037,160,65,0.005555555555555556,1504.0,1494.0,1323.8,1500.0
6.656076192855835,161,65,0.007142857142857143,1506.0,1494.0,1323.8,1501.0
6.6793529987335205,160,65,0.005555555555555556,1503.0,1494.0,1324.0999999999999,1500.0
6.702710151672363,161,65,0.007142857142857143,1505.0,1494.0,1324.4000000000001,1501.0
6.726083993911743,161,65,0.007142857142857143,1506.0,1494.0,1324.7,1501.0
6.749381065368652,161,65,0.007142857142857143,1507.0,1494.0,1325.0,1501.0
6.772703170776367,161,65,0.007142857142857143,1507.0,1494.0,1325.0,1501.0
6.796051025390625,159,65,0.005555555555555556,1502.0,1494.0,1325.0,1499.0
6.819293975830078,159,65,0.005050505050505051,1501.0,1494.0,1325.0,1499.0
6.842604160308838,160,65,0.006493506493506494,1503.0,1494.0,1325.0,1500.0
6.86595606803894,160,65,0.006493506493506494,1503.0,1494.0,1325.0,1500.0
6.889216184616089,158,65,0.005050505050505051,1496.0,1494.0,1325.0,1498.0
6.912557125091553,158,65,0.005050505050505051,1494.0,1494.0,1325.0,1498.0
6.935918092727661,158,65,0.005050505050505051,1491.0,1494.0,1325.0,1498.0
6.959187030792236,158,65,0.005050505050505051,1488.0,1494.0,1325.0,1498.0
6.982486009597778,158,65,0.005050505050505051,1485.0,1494.0,1325.0,1498.0
7.005802154541016,158,65,0.005555555555555556,1482.0,1494.0,1325.0,1498.0
7.029065132141113,159,66,0.004784688995215311,1484.0,1494.0,1323.7,1499.0
7.052386999130249,160,66,0.006493506493506494,1487.0,1494.0,1323.4000000000001,1500.0
7.07575798034668,160,66,0.006493506493506494,1487.0,1494.0,1323.0999999999999,1500.0
7.099069118499756,160,66,0.006493506493506494,1487.0,1494.0,1322.8,1500.0
7.122442960739136,159,66,0.005050505050505051,1486.0,1494.0,1322.5,1499.0
7.145862102508545,160,66,0.006493506493506494,1490.0,1494.0,1322.8,1500.0
7.16916298866272,160,66,0.006493506493506494,1492.0,1494.0,1323.0999999999999,1500.0
7.1928040981292725,160,66,0.005952380952380952,1494.0,1494.0,1323.4000000000001,1500.0
7.216222047805786,160,67,0.006493506493506494,1496.0,1494.0,1322.4000000000001,1500.0
7.239488124847412,158,67,0.004629629629629629,1492.0,1494.0,1322.4000000000001,1498.0
7.262860059738159,158,68,0.005050505050505051,1491.0,1494.0,1320.8,1498.0
7.2862160205841064,158,68,0.004629629629629629,1489.0,1494.0,1320.2,1498.0
7.309512138366699,157,68,0.004629629629629629,1484.0,1494.0,1319.5999999999999,1497.0
7.3328940868377686,157,68,0.004629629629629629,1481.0,1494.0,1319.5999999999999,1497.0
7.3562891483306885,158,68,0.004784688995215311,1482.0,1494.0,1319.5999999999999,1498.0
7.379575967788696,157,68,0.005050505050505051,1480,1494.0,1320.2,1497.0
7.402868986129761,158,68,0.005050505050505051,1480,1494.0,1320.8,1498.0
7.426187992095947,158,68,0.005050505050505051,1480,1494.0,1321.4000000000001,1498.0
7.449405193328857,160,68,0.004629629629629629,1480,1494.0,1321.7,1500.0
7.472675085067749,158,68,0.004629629629629629,1480,1494.0,1322.0,1498.0
7.4959611892700195,160,69,0.003968253968253968,1481.0,1494.0,1320.7,1500.0
7.519241094589233,160,69,0.003968253968253968,1483.0,1494.0,1320.4000000000001,1500.0
7.542633056640625,160,69,0.003968253968253968,1486.0,1494.0,1320.0999999999999,1500.0
7.566020965576172,160,69,0.003968253968253968,1489.0,1494.0,1319.8,1500.0
7.5892651081085205,161,69,0.004629629629629629,1494.0,1494.0,1319.5,1501.0
7.61257004737854,161,69,0.004629629629629629,1498.0,1494.0,1319.8,1501.0
7.635922193527222,159,69,0.003663003663003663,1495.0,1494.0,1320.0999999999999,1499.0
7.659265041351318,159,69,0.003663003663003663,1496.0,1494.0,1320.4000000000001,1499.0
7.6826491355896,158,69,0.003968253968253968,1492.0,1494.0,1320.7,1498.0
7.705981969833374,158,69,0.003968253968253968,1492.0,1494.0,1321.0,1498.0
7.729272127151489,158,69,0.003968253968253968,1490.0,1494.0,1321.0,1498.0
7.752619981765747,158,70,0.003663003663003663,1488.0,1494.0,1319.7,1498.0
7.775976181030273,158,70,0.003968253968253968,1486.0,1494.0,1319.4000000000001,1498.0
7.799252033233643,157,70,0.003787878787878788,1481.0,1494.0,1319.0999999999999,1497.0
7.822620153427124,158,70,0.003968253968253968,1480.0,1494.0,1318.8,1498.0
7.846050024032593,159,70,0.004629629629629629,1480.0,1494.0,1318.5,1499.0
7.869317054748535,159,70,0.004629629629629629,1480.0,1494.0,1318.8,1499.0
7.892644166946411,158,70,0.003968253968253968,1480,1494.0,1319.0999999999999,1498.0
7.915945053100586,158,70,0.003968253968253968,1480,1494.0,1319.4000000000001,1498.0
7.939179182052612,158,70,0.003787878787878788,1480,1494.0,1319.7,1498.0
7.962460994720459,158,71,0.0034965034965034965,1480,1494.0,1318.7,1498.0
7.985764026641846,159,70,0.003663003663003663,1480.0,1494.0,1319.7,1499.0
8.009037971496582,158,70,0.003787878787878788,1480,1494.0,1319.7,1498.0
8.032278060913086,158,70,0.003787878787878788,1480,1494.0,1319.7,1498.0
8.055545091629028,158,71,0.0034965034965034965,1480,1494.0,1318.4000000000001,1498.0
8.07876205444336,158,71,0.0034965034965034965,1480,1494.0,1318.7,1498.0
8.101968050003052,159,71,0.0034965034965034965,1480.0,1494.0,1318.4000000000001,1499.0
8.125418186187744,161,71,0.004048582995951417,1487.0,1494.0,1318.0999999999999,1501.0
8.148787021636963,159,71,0.0034965034965034965,1484.0,1494.0,1317.8,1499.0
8.172096967697144,159,71,0.0034965034965034965,1485.0,1494.0,1318.0999999999999,1499.0
8.195564031600952,160,71,0.0033444816053511705,1489.0,1494.0,1318.0999999999999,1500.0
8.218844175338745,160,71,0.0034965034965034965,1490.0,1494.0,1318.4000000000001,1500.0
8.242107152938843,160,70,0.0034965034965034965,1492.0,1494.0,1320.0,1500.0
8.26549506187439,160,70,0.0034965034965034965,1494.0,1494.0,1320.5999999999999,1500.0
8.28878903388977,160,70,0.0034965034965034965,1496.0,1494.0,1320.9000000000001,1500.0
8.312067985534668,160,70,0.0034965034965034965,1498.0,1494.0,1321.2,1500.0
8.335523128509521,160,70,0.0034965034965034965,1499.0,1494.0,1321.5,1500.0
8.35883617401123,160,70,0.0034965034965034965,1498.0,1494.0,1321.2,1500.0
8.382455110549927,160,70,0.0034965034965034965,1499.0,1494.0,1320.9000000000001,1500.0
8.405826091766357,160,69,0.003246753246753247,1500.0,1494.0,1321.9000000000001,1500.0
8.429121017456055,161,69,0.003105590062111801,1503.0,1494.0,1321.9000000000001,1501.0
8.452466011047363,160,69,0.0034965034965034965,1501.0,1494.0,1321.9000000000001,1500.0
8.47582197189331,160,69,0.0034965034965034965,1501.0,1494.0,1322.2,1500.0
8.499106168746948,161,68,0.0034965034965034965,1504.0,1494.0,1323.8,1501.0
8.522485971450806,161,68,0.0034965034965034965,1505.0,1494.0,1323.8,1501.0
8.545940160751343,161,67,0.003246753246753247,1506.0,1494.0,1325.0999999999999,1501.0
8.569236040115356,161,67,0.0034965034965034965,1507.0,1494.0,1325.4000000000001,1501.0
8.592596054077148,161,67,0.0034965034965034965,1508.0,1494.0,1325.7,1501.0
8.615957975387573,161,67,0.0034965034965034965,1509.0,1494.0,1325.4000000000001,1501.0
8.639260053634644,162,66,0.003105590062111801,1513.0,1494.0,1326.7,1502.0
8.662639141082764,161,66,0.0034965034965034965,1511.0,1494.0,1326.4000000000001,1501.0
8.686010122299194,161,66,0.0034965034965034965,1512.0,1494.0,1326.0999999999999,1501.0
8.709298133850098,161,66,0.0034965034965034965,1513.0,1494.0,1325.8,1501.0
8.732649087905884,163,66,0.004048582995951417,1519.0,1494.0,1325.8,1503.0
8.75602412223816,161,66,0.0034965034965034965,1515.0,1494.0,1325.2,1501.0
8.779313087463379,161,66,0.0034965034965034965,1515.0,1494.0,1324.9000000000001,1501.0
8.802651166915894,162,65,0.004273504273504274,1518.0,1494.0,1325.9000000000001,1502.0
8.826040983200073,161,65,0.0034965034965034965,1516.0,1494.0,1325.9000000000001,1501.0
8.84934115409851,162,64,0.004273504273504274,1519.0,1494.0,1327.2,1502.0
8.87265396118164,161,64,0.0033444816053511705,1516.0,1494.0,1327.8,1501.0
8.896018028259277,160,64,0.0034965034965034965,1513.0,1494.0,1328.4000000000001,1500.0
8.919322967529297,160,64,0.0034965034965034965,1512.0,1494.0,1328.4000000000001,1500.0
8.942735195159912,160,63,0.0034965034965034965,1511.0,1494.0,1329.7,1500.0
8.966127157211304,160,63,0.0034965034965034965,1508.0,1494.0,1329.4000000000001,1500.0
8.989413976669312,160,63,0.0034965034965034965,1507.0,1494.0,1329.0999999999999,1500.0
9.012757062911987,160,63,0.0034965034965034965,1506.0,1494.0,1328.8,1500.0
9.036125183105469,160,63,0.0034965034965034965,1504.0,1494.0,1328.8,1500.0
9.059422969818115,160,63,0.0034965034965034965,1503.0,1494.0,1328.2,1500.0
9.082754135131836,162,63,0.004273504273504274,1507.0,1494.0,1327.9000000000001,1502.0
9.106106042861938,161,62,0.003246753246753247,1505.0,1494.0,1328.9000000000001,1501.0
9.129410982131958,161,62,0.0034965034965034965,1506.0,1494.0,1328.9000000000001,1501.0
9.152865171432495,161,62,0.0034965034965034965,1507.0,1494.0,1328.9000000000001,1501.0
9.17627501487732,162,61,0.004273504273504274,1511.0,1494.0,1330.5,1502.0
9.199589014053345,161,60,0.003246753246753247,1510.0,1494.0,1332.4000000000001,1501.0
9.222974061965942,162,60,0.004273504273504274,1514.0,1494.0,1332.7,1502.0
9.24642300605774,161,59,0.003246753246753247,1513.0,1494.0,1334.3,1501.0
9.269714117050171,162,59,0.003968253968253968,1517.0,1494.0,1334.9000000000001,1502.0
9.293032169342041,160,59,0.0034965034965034965,1513.0,1494.0,1334.9000000000001,1500.0
9.316395998001099,160,59,0.0034965034965034965,1511.0,1494.0,1334.3,1500.0
9.33971118927002,161,58,0.003968253968253968,1513.0,1494.0,1335.3,1501.0
9.3630850315094,161,58,0.002857142857142857,1513.0,1494.0,1334.7,1501.0
9.386455059051514,159,58,0.003246753246753247,1507.0,1494.0,1334.0999999999999,1499.0
9.409795045852661,160,58,0.003968253968253968,1507.0,1494.0,1333.8,1500.0
9.43314504623413,160,58,0.003968253968253968,1506.0,1494.0,1333.8,1500.0
9.456485986709595,160,58,0.002857142857142857,1504.0,1494.0,1333.2,1500.0
9.47976016998291,160,58,0.002857142857142857,1503.0,1494.0,1332.9000000000001,1500.0
9.503087043762207,160,58,0.002857142857142857,1501.0,1494.0,1332.5999999999999,1500.0
9.526442050933838,160,57,0.002857142857142857,1501.0,1494.0,1333.5999999999999,1500.0
9.550039052963257,161,57,0.003246753246753247,1504.0,1494.0,1333.5999999999999,1501.0
9.573338985443115,159,57,0.003968253968253968,1498.0,1494.0,1333.9000000000001,1499.0
9.596630096435547,159,57,0.003968253968253968,1496.0,1494.0,1334.2,1499.0
9.619898080825806,159,58,0.0026666666666666666,1496.0,1494.0,1333.2,1499.0
9.643198013305664,160,58,0.0030303030303030303,1498.0,1494.0,1332.5999999999999,1500.0
9.666552066802979,159,58,0.002857142857142857,1495.0,1494.0,1332.0,1499.0
9.68979811668396,156,58,0.003246753246753247,1485.0,1494.0,1331.4000000000001,1496.0
9.71315312385559,158,59,0.0026666666666666666,1487.0,1494.0,1329.5,1498.0
9.736515998840332,158,59,0.002857142857142857,1485.0,1494.0,1329.2,1498.0
9.759793043136597,158,59,0.002857142857142857,1483.0,1494.0,1329.2,1498.0
9.783116102218628,158,59,0.0027472527472527475,1480.0,1494.0,1329.2,1498.0
9.806420087814331,158,60,0.002564102564102564,1480,1494.0,1327.9000000000001,1498.0
9.829622983932495,159,60,0.002857142857142857,1481.0,1494.0,1328.2,1499.0
9.852956056594849,159,60,0.002857142857142857,1481.0,1494.0,1328.2,1499.0
9.876298189163208,159,60,0.0027472527472527475,1480.0,1494.0,1328.2,1499.0
9.899594068527222,159,61,0.002564102564102564,1480.0,1494.0,1326.9000000000001,1499.0
9.92297101020813,159,61,0.002564102564102564,1483.0,1494.0,1327.2,1499.0
9.946416139602661,159,61,0.002564102564102564,1484.0,1494.0,1327.2,1499.0
9.96969199180603,159,61,0.002564102564102564,1485.0,1494.0,1327.2,1499.0
9.99300503730774,159,62,0.002564102564102564,1486.0,1494.0,1325.9000000000001,1499.0
10.016374111175537,159,62,0.002564102564102564,1487.0,1494.0,1326.2,1499.0
10.039648056030273,159,62,0.002564102564102564,1488.0,1494.0,1326.2,1499.0
10.063069105148315,159,63,0.0024691358024691358,1488.0,1494.0,1324.9000000000001,1499.0
10.086507081985474,158,63,0.002564102564102564,1485.0,1494.0,1324.5999999999999,1498.0
10.109939098358154,158,63,0.002564102564102564,1484.0,1494.0,1324.9000000000001,1498.0
10.133378982543945,158,63,0.002403846153846154,1483.0,1494.0,1324.9000000000001,1498.0
10.15676212310791,159,63,0.0023148148148148147,1485.0,1494.0,1324.9000000000001,1499.0
10.18011212348938,158,64,0.002564102564102564,1482.0,1494.0,1324.2,1498.0
10.203440189361572,159,64,0.0024691358024691358,1484.0,1494.0,1324.5,1499.0
10.226726055145264,159,64,0.002403846153846154,1484.0,1494.0,1324.5,1499.0
10.24999213218689,159,64,0.002403846153846154,1484.0,1494.0,1324.5,1499.0
10.273241996765137,159,64,0.002403846153846154,1484.0,1494.0,1324.5,1499.0
10.296497106552124,159,64,0.002403846153846154,1484.0,1494.0,1324.8,1499.0
10.319777965545654,159,65,0.002403846153846154,1485.0,1494.0,1323.8,1499.0
10.343178987503052,159,65,0.002403846153846154,1486.0,1494.0,1323.8,1499.0
10.366558074951172,159,65,0.002403846153846154,1487.0,1494.0,1323.8,1499.0
10.38983416557312,160,66,0.002178649237472767,1490.0,1494.0,1322.5,1500.0
10.413195133209229,160,66,0.002178649237472767,1492.0,1494.0,1321.9000000000001,1500.0
10.436525106430054,159,66,0.0022624434389140274,1490.0,1494.0,1321.9000000000001,1499.0
10.459820985794067,160,66,0.002178649237472767,1493.0,1494.0,1321.9000000000001,1500.0
10.483165979385376,160,66,0.002178649237472767,1494.0,1494.0,1321.9000000000001,1500.0
10.506489992141724,159,66,0.002403846153846154,1492.0,1494.0,1322.5,1499.0
10.529744148254395,160,67,0.002178649237472767,1495.0,1494.0,1321.8,1500.0
10.55309510231018,159,67,0.0022624434389140274,1493.0,1494.0,1321.8,1499.0
10.576436042785645,159,67,0.0022624434389140274,1493.0,1494.0,1321.8,1499.0
10.599722146987915,159,67,0.0022624434389140274,1493.0,1494.0,1321.8,1499.0
10.623103141784668,159,67,0.0022624434389140274,1492.0,1494.0,1321.5,1499.0
10.646501064300537,160,67,0.0021008403361344537,1494.0,1494.0,1321.8,1500.0
10.66977310180664,160,67,0.0022624434389140274,1495.0,1494.0,1322.0999999999999,1500.0
10.69308614730835,160,67,0.0022624434389140274,1495.0,1494.0,1322.4000000000001,1500.0
10.716449975967407,161,67,0.002178649237472767,1498.0,1494.0,1322.7,1501.0
10.740079164505005,161,68,0.0022624434389140274,1500.0,1494.0,1321.7,1501.0
10.763411045074463,162,68,0.002178649237472767,1504.0,1494.0,1321.4000000000001,1502.0
10.786728143692017,161,68,0.0022624434389140274,1504.0,1494.0,1321.0999999999999,1501.0
10.810014963150024,161,68,0.0022624434389140274,1506.0,1494.0,1320.8,1501.0
10.833307027816772,161,68,0.002178649237472767,1508.0,1494.0,1320.5,1501.0
10.856575012207031,162,68,0.002028397565922921,1513.0,1494.0,1320.8,1502.0
10.879899978637695,160,68,0.0022624434389140274,1509.0,1494.0,1321.0999999999999,1500.0
10.903252124786377,162,68,0.002028397565922921,1515.0,1494.0,1321.4000000000001,1502.0
10.926555156707764,162,68,0.002028397565922921,1517.0,1494.0,1321.7,1502.0
10.949869155883789,162,68,0.002028397565922921,1518.0,1494.0,1322.0,1502.0
10.973172187805176,162,68,0.002028397565922921,1519.0,1494.0,1322.0,1502.0
10.99648118019104,162,68,0.002028397565922921,1519.0,1494.0,1322.0,1502.0
11.019747972488403,162,68,0.002028397565922921,1520.0,1494.0,1322.0,1502.0
11.04305100440979,162,68,0.002028397565922921,1520,1494.0,1322.0,1502.0
11.0663321018219,161,68,0.00196078431372549,1519.0,1494.0,1322.0,1501.0
11.089627027511597,161,68,0.002028397565922921,1518.0,1494.0,1322.0,1501.0
11.112966060638428,161,68,0.00196078431372549,1519.0,1494.0,1322.0,1501.0
11.13633918762207,161,68,0.00196078431372549,1518.0,1494.0,1322.0,1501.0
11.159634113311768,161,68,0.002028397565922921,1517.0,1494.0,1322.0,1501.0
11.182984113693237,161,68,0.002028397565922921,1516.0,1494.0,1322.0,1501.0
11.206386089324951,162,68,0.0022624434389140274,1518.0,1494.0,1322.0,1502.0
11.2296781539917,162,68,0.0022624434389140274,1518.0,1494.0,1322.0,1502.0
11.253014087677002,160,67,0.001851851851851852,1512.0,1494.0,1323.3,1500.0
11.276360034942627,160,67,0.001851851851851852,1510.0,1494.0,1323.5999999999999,1500.0
11.299690008163452,161,67,0.002136752136752137,1512.0,1494.0,1323.9000000000001,1501.0
11.323137044906616,161,66,0.002136752136752137,1512.0,1494.0,1325.5,1501.0
11.346582174301147,161,66,0.002136752136752137,1512.0,1494.0,1326.0999999999999,1501.0
11.369874000549316,159,66,0.001851851851851852,1506.0,1494.0,1326.0999999999999,1499.0
11.39319896697998,159,66,0.001851851851851852,1504.0,1494.0,1326.0999999999999,1499.0
11.416582107543945,159,66,0.001851851851851852,1502.0,1494.0,1326.0999999999999,1499.0
11.439879179000854,159,66,0.001851851851851852,1499.0,1494.0,1325.5,1499.0
11.463234186172485,159,66,0.001851851851851852,1496.0,1494.0,1324.9000000000001,1499.0
11.48651909828186,159,66,0.0019157088122605363,1495.0,1494.0,1324.5999999999999,1499.0
11.509786128997803,159,66,0.001851851851851852,1494.0,1494.0,1324.3,1499.0
11.533143043518066,160,66,0.0017921146953405018,1495.0,1494.0,1324.0,1500.0
11.556490182876587,159,66,0.001851851851851852,1491.0,1494.0,1324.0,1499.0
11.579756021499634,159,66,0.001851851851851852,1489.0,1494.0,1324.0,1499.0
11.603082180023193,159,65,0.001851851851851852,1489.0,1494.0,1325.3,1499.0
11.626410961151123,160,65,0.002136752136752137,1492.0,1494.0,1325.5999999999999,1500.0
11.649712085723877,160,65,0.002136752136752137,1493.0,1494.0,1325.9000000000001,1500.0
11.673035144805908,158,64,0.001851851851851852,1488.0,1494.0,1327.5,1498.0
11.696365118026733,158,64,0.001851851851851852,1487.0,1494.0,1328.0999999999999,1498.0
11.719664096832275,158,64,0.001851851851851852,1486.0,1494.0,1328.0999999999999,1498.0
11.743031024932861,158,64,0.0017543859649122807,1485.0,1494.0,1328.0999999999999,1498.0
11.766404151916504,159,63,0.002136752136752137,1486.0,1494.0,1329.4000000000001,1499.0
11.789692163467407,157,63,0.001851851851851852,1480.0,1494.0,1329.0999999999999,1497.0
11.813040018081665,158,63,0.001644736842105263,1481.0,1494.0,1328.8,1498.0
11.836390018463135,157,63,0.0017543859649122807,1480,1494.0,1328.8,1497.0
11.859613180160522,157,63,0.0017543859649122807,1480,1494.0,1328.8,1497.0
11.882891178131104,157,62,0.001851851851851852,1480,1494.0,1329.5,1497.0
11.906170129776001,157,62,0.001851851851851852,1480,1494.0,1329.5,1497.0
11.929671049118042,157,62,0.001851851851851852,1480,1494.0,1329.5,1497.0
11.952965021133423,158,62,0.001697792869269949,1480,1494.0,1329.5,1498.0
11.976230144500732,158,62,0.001697792869269949,1480,1494.0,1329.5,1498.0
11.999433994293213,158,62,0.001697792869269949,1480,1494.0,1329.2,1498.0
12.022740125656128,158,62,0.001697792869269949,1480,1494.0,1328.9000000000001,1498.0
12.046087980270386,158,61,0.0016129032258064516,1480,1494.0,1329.9000000000001,1498.0
12.069326162338257,158,61,0.0015625,1480,1494.0,1329.9000000000001,1498.0
12.092571020126343,159,61,0.001594896331738437,1480,1494.0,1329.9000000000001,1499.0
12.115852117538452,159,61,0.0015479876160990713,1480,1494.0,1330.2,1499.0
12.139109134674072,159,60,0.0014705882352941176,1480.0,1494.0,1331.8,1499.0
12.162499189376831,159,60,0.0014705882352941176,1482.0,1494.0,1331.8,1499.0
12.185883045196533,159,60,0.0014705882352941176,1483.0,1494.0,1331.8,1499.0
12.209221124649048,160,59,0.0014705882352941176,1487.0,1494.0,1333.0999999999999,1500.0
12.232577085494995,160,59,0.0014705882352941176,1489.0,1494.0,1333.4000000000001,1500.0
12.25595211982727,160,59,0.0014705882352941176,1491.0,1494.0,1333.0999999999999,1500.0
12.279236078262329,160,59,0.0014705882352941176,1493.0,1494.0,1333.0999999999999,1500.0
12.302587985992432,160,58,0.0014705882352941176,1495.0,1494.0,1334.4000000000001,1500.0
12.32593297958374,160,58,0.0014705882352941176,1496.0,1494.0,1334.0999999999999,1500.0
12.349271059036255,160,58,0.0014005602240896359,1497.0,1494.0,1333.8,1500.0
12.372622966766357,160,57,0.0014705882352941176,1498.0,1494.0,1335.0999999999999,1500.0
12.396000146865845,160,57,0.0014705882352941176,1499.0,1494.0,1335.4000000000001,1500.0
12.419310092926025,160,57,0.0014285714285714286,1500.0,1494.0,1335.0999999999999,1500.0
12.442649126052856,160,57,0.0014285714285714286,1500.0,1494.0,1335.0999999999999,1500.0
12.466037034988403,159,57,0.0014705882352941176,1497.0,1494.0,1335.0999999999999,1499.0
12.489335060119629,159,57,0.0014285714285714286,1496.0,1494.0,1334.5,1499.0
12.512679100036621,159,57,0.0014285714285714286,1495.0,1494.0,1333.9000000000001,1499.0
