time,x,y,size_inv,roll,pitch,thrust,yaw
0.0007791519165039062,148,58,0.007936507936507936,1480,1494.0,1322.0,1488.0
0.02385711669921875,149,58,0.011111111111111112,1480,1494.0,1322.0,1489.0
0.04645800590515137,149,58,0.011111111111111112,1480,1494.0,1322.0,1489.0
0.06898307800292969,149,58,0.011111111111111112,1480,1494.0,1322.0,1489.0
0.0918421745300293,148,58,0.007936507936507936,1480,1494.0,1322.0,1488.0
0.11451101303100586,149,58,0.011111111111111112,1480,1494.0,1322.0,1489.0
0.1371140480041504,149,58,0.011111111111111112,1480,1494.0,1322.0,1489.0
0.15982913970947266,148,58,0.007936507936507936,1480,1494.0,1322.0,1488.0
0.18257713317871094,149,58,0.011111111111111112,1480,1494.0,1322.0,1489.0
0.20517516136169434,148,58,0.007936507936507936,1480,1494.0,1322.0,1488.0
0.22809219360351562,149,58,0.011111111111111112,1480,1494.0,1322.0,1489.0
0.25132107734680176,149,58,0.011111111111111112,1480,1494.0,1322.0,1489.0
0.27457118034362793,148,57,0.008928571428571428,1480,1494.0,1323.3,1488.0
0.29782915115356445,150,57,0.011111111111111112,1480,1494.0,1323.5999999999999,1490.0
0.3210611343383789,149,57,0.007936507936507936,1480,1494.0,1323.9000000000001,1489.0
0.34429502487182617,150,58,0.007936507936507936,1480,1494.0,1322.9000000000001,1490.0
0.36751604080200195,153,60,0.011111111111111112,1480,1494.0,1320.3,1493.0
0.3907620906829834,155,61,0.008333333333333333,1480,1494.0,1317.8,1495.0
0.41402101516723633,154,62,0.007936507936507936,1480,1494.0,1315.0,1494.0
0.43723511695861816,157,61,0.011111111111111112,1480,1494.0,1314.5,1497.0
0.4604799747467041,159,59,0.007936507936507936,1480,1494.0,1316.2,1499.0
0.4837310314178467,162,58,0.011111111111111112,1480,1494.0,1318.4000000000001,1502.0
0.5069952011108398,162,58,0.007936507936507936,1480,1494.0,1320.5,1502.0
0.5302670001983643,165,58,0.010101010101010102,1480,1494.0,1323.2,1505.0
0.5535180568695068,165,59,0.007407407407407408,1492.0,1494.0,1324.0,1505.0
0.5768091678619385,165,60,0.007936507936507936,1507.0,1494.0,1323.0,1505.0
0.6001741886138916,166,61,0.007936507936507936,1520,1494.0,1320.5,1506.0
0.623466968536377,169,62,0.011111111111111112,1520,1494.0,1317.4000000000001,1509.0
0.646726131439209,168,63,0.007936507936507936,1520,1494.0,1313.7,1508.0
0.6699709892272949,170,63,0.011111111111111112,1520,1494.0,1311.9000000000001,1510.0
0.693303108215332,168,64,0.007936507936507936,1520,1494.0,1310.0,1508.0
0.7165570259094238,168,64,0.007936507936507936,1520,1494.0,1310.0,1508.0
0.7398440837860107,169,64,0.011111111111111112,1520,1494.0,1310.5999999999999,1509.0
0.7631480693817139,167,64,0.007936507936507936,1520,1494.0,1311.8,1507.0
0.786372184753418,168,64,0.0125,1520,1494.0,1312.7,1508.0
0.8096671104431152,167,66,0.011111111111111112,1520,1494.0,1311.3,1507.0
0.8329980373382568,165,67,0.008928571428571428,1520,1494.0,1310.3,1505.0
0.8562290668487549,167,69,0.010101010101010102,1520,1494.0,1307.4000000000001,1507.0
0.8795251846313477,164,70,0.007936507936507936,1520,1494.0,1304.9000000000001,1504.0
0.9028110504150391,164,71,0.007936507936507936,1520,1494.0,1302.0999999999999,1504.0
0.9260561466217041,163,72,0.007936507936507936,1520,1494.0,1299.9000000000001,1503.0
0.9493701457977295,162,73,0.007936507936507936,1520,1494.0,1298.0,1502.0
0.9726600646972656,162,73,0.007936507936507936,1520,1494.0,1298.3,1502.0
0.9959101676940918,163,73,0.011111111111111112,1520,1494.0,1299.2,1503.0
1.019118070602417,162,73,0.007142857142857143,1520,1494.0,1300.7,1502.0
1.0424830913543701,163,74,0.006535947712418301,1520,1494.0,1300.9000000000001,1503.0
1.0657451152801514,161,74,0.007936507936507936,1520,1494.0,1302.4000000000001,1501.0
1.0889999866485596,162,75,0.011111111111111112,1520,1494.0,1302.0,1502.0
1.1123809814453125,162,75,0.0058823529411764705,1520,1494.0,1302.3,1502.0
1.1356220245361328,160,76,0.007936507936507936,1520.0,1494.0,1301.0,1500.0
1.1589231491088867,161,77,0.011111111111111112,1520.0,1494.0,1299.7,1501.0
1.1825289726257324,159,78,0.007936507936507936,1513.0,1494.0,1297.8,1499.0
1.205876111984253,161,78,0.006535947712418301,1516.0,1494.0,1297.5,1501.0
1.229552984237671,161,78,0.006535947712418301,1514.0,1494.0,1297.2,1501.0
1.2529561519622803,161,78,0.0058823529411764705,1513.0,1494.0,1297.5,1501.0
1.2762911319732666,161,78,0.0058823529411764705,1511.0,1494.0,1298.0999999999999,1501.0
1.2997291088104248,161,78,0.00909090909090909,1511.0,1494.0,1299.3,1501.0
1.3231480121612549,158,79,0.007936507936507936,1501.0,1494.0,1298.9000000000001,1498.0
1.3464701175689697,158,79,0.007142857142857143,1497.0,1494.0,1299.5,1498.0
1.369866132736206,160,80,0.006535947712418301,1501.0,1494.0,1298.5,1500.0
1.3933219909667969,160,80,0.006535947712418301,1500.0,1494.0,1298.2,1500.0
1.416619062423706,160,80,0.0058823529411764705,1501.0,1494.0,1297.5999999999999,1500.0
1.439985990524292,160,81,0.006535947712418301,1500.0,1494.0,1296.3,1500.0
1.463365077972412,160,81,0.006535947712418301,1499.0,1494.0,1296.0,1500.0
1.4866621494293213,161,81,0.007142857142857143,1501.0,1494.0,1296.3,1501.0
1.5100350379943848,159,82,0.011111111111111112,1495.0,1494.0,1295.3,1499.0
1.533431053161621,157,82,0.007936507936507936,1487.0,1494.0,1295.3,1497.0
1.5567400455474854,159,82,0.006535947712418301,1492.0,1494.0,1295.5999999999999,1499.0
1.5800940990447998,159,82,0.006535947712418301,1493.0,1494.0,1295.9000000000001,1499.0
1.603459119796753,158,82,0.011111111111111112,1489.0,1494.0,1295.9000000000001,1498.0
1.6268000602722168,160,82,0.007936507936507936,1493.0,1494.0,1296.5,1500.0
1.6501641273498535,160,82,0.007936507936507936,1493.0,1494.0,1297.0999999999999,1500.0
1.6735820770263672,158,82,0.011111111111111112,1487.0,1494.0,1297.4000000000001,1498.0
1.6969029903411865,157,82,0.007936507936507936,1482.0,1494.0,1297.7,1497.0
1.7202210426330566,156,82,0.007142857142857143,1480,1494.0,1298.0,1496.0
1.7434971332550049,158,82,0.0058823529411764705,1480,1494.0,1298.0,1498.0
1.7667100429534912,158,82,0.0058823529411764705,1480,1494.0,1298.0,1498.0
1.7899830341339111,158,82,0.0058823529411764705,1480,1494.0,1298.0,1498.0
1.8132991790771484,158,82,0.0058823529411764705,1480,1494.0,1298.0,1498.0
1.8365070819854736,158,82,0.006535947712418301,1480,1494.0,1298.0,1498.0
1.8598411083221436,156,81,0.007142857142857143,1480,1494.0,1299.3,1496.0
1.8832380771636963,157,81,0.007407407407407408,1480,1494.0,1299.5999999999999,1497.0
1.9064991474151611,157,81,0.007407407407407408,1480,1494.0,1299.9000000000001,1497.0
1.9297890663146973,156,80,0.007142857142857143,1480,1494.0,1301.5,1496.0
1.953064203262329,160,80,0.007142857142857143,1480,1494.0,1302.0999999999999,1500.0
1.9763071537017822,160,80,0.007142857142857143,1480,1494.0,1302.0999999999999,1500.0
1.9996140003204346,158,80,0.005555555555555556,1480,1494.0,1302.0999999999999,1498.0
2.022930145263672,158,79,0.005555555555555556,1480,1494.0,1303.4000000000001,1498.0
2.0461599826812744,158,78,0.0058823529411764705,1480,1494.0,1304.4000000000001,1498.0
2.0694351196289062,158,78,0.0058823529411764705,1480,1494.0,1304.4000000000001,1498.0
2.092773199081421,158,77,0.0058823529411764705,1480,1494.0,1306.0,1498.0
2.1159980297088623,158,77,0.0058823529411764705,1480,1494.0,1306.5999999999999,1498.0
2.1392359733581543,158,77,0.0058823529411764705,1480,1494.0,1306.5999999999999,1498.0
2.1626181602478027,158,77,0.0058823529411764705,1480.0,1494.0,1306.3,1498.0
2.1859359741210938,159,77,0.007142857142857143,1481.0,1494.0,1306.0,1499.0
2.209228992462158,158,77,0.0053475935828877,1480,1494.0,1305.0999999999999,1498.0
2.2326080799102783,159,76,0.007142857142857143,1480.0,1494.0,1305.5,1499.0
2.255904197692871,159,75,0.007142857142857143,1481.0,1494.0,1306.5,1499.0
2.279201030731201,158,75,0.0058823529411764705,1480,1494.0,1306.8,1498.0
2.302539110183716,159,75,0.006493506493506494,1482.0,1494.0,1307.0999999999999,1499.0
2.32584810256958,157,74,0.005555555555555556,1480,1494.0,1309.0,1497.0
2.349066972732544,158,74,0.0058823529411764705,1480,1494.0,1309.3,1498.0
2.372431993484497,158,73,0.0058823529411764705,1480,1494.0,1310.3,1498.0
2.395717144012451,158,73,0.0053475935828877,1480,1494.0,1310.3,1498.0
2.4189541339874268,158,72,0.0058823529411764705,1480,1494.0,1311.5999999999999,1498.0
2.442599058151245,158,72,0.005050505050505051,1480,1494.0,1311.3,1498.0
2.465867042541504,158,71,0.005555555555555556,1480,1494.0,1312.5999999999999,1498.0
2.4891130924224854,158,71,0.005050505050505051,1480,1494.0,1312.5999999999999,1498.0
2.512505054473877,159,70,0.0058823529411764705,1480,1494.0,1313.9000000000001,1499.0
2.5358211994171143,159,69,0.005050505050505051,1480,1494.0,1314.9000000000001,1499.0
2.5591330528259277,159,68,0.005050505050505051,1481.0,1494.0,1316.5,1499.0
2.582834005355835,159,68,0.005050505050505051,1482.0,1494.0,1316.5,1499.0
2.6061880588531494,159,67,0.005050505050505051,1483.0,1494.0,1318.0999999999999,1499.0
2.6295931339263916,160,66,0.005555555555555556,1487.0,1494.0,1319.4000000000001,1500.0
2.6529860496520996,160,66,0.005555555555555556,1489.0,1494.0,1319.4000000000001,1500.0
2.6763391494750977,160,66,0.005050505050505051,1491.0,1494.0,1318.8,1500.0
2.699728012084961,160,65,0.005555555555555556,1493.0,1494.0,1319.8,1500.0
2.723184108734131,160,65,0.005050505050505051,1495.0,1494.0,1319.2,1500.0
2.746502161026001,160,65,0.005050505050505051,1496.0,1494.0,1318.3,1500.0
2.7698349952697754,161,64,0.005555555555555556,1500.0,1494.0,1319.0,1501.0
2.7932190895080566,161,64,0.005050505050505051,1502.0,1494.0,1319.0,1501.0
2.8165221214294434,161,63,0.0058823529411764705,1504.0,1494.0,1319.7,1501.0
2.839900016784668,161,63,0.005050505050505051,1506.0,1494.0,1319.7,1501.0
2.863306999206543,161,62,0.005555555555555556,1507.0,1494.0,1321.3,1501.0
2.886629104614258,160,61,0.005555555555555556,1505.0,1494.0,1322.5999999999999,1500.0
2.910003185272217,161,61,0.0053475935828877,1508.0,1494.0,1322.9000000000001,1501.0
2.9333910942077637,162,60,0.007142857142857143,1512.0,1494.0,1324.2,1502.0
2.956696033477783,160,59,0.005555555555555556,1508.0,1494.0,1325.8,1500.0
2.9800660610198975,160,59,0.005555555555555556,1508.0,1494.0,1325.8,1500.0
3.003446102142334,160,59,0.005555555555555556,1507.0,1494.0,1325.5,1500.0
3.0267481803894043,160,59,0.005555555555555556,1506.0,1494.0,1325.2,1500.0
3.0501019954681396,160,60,0.005555555555555556,1505.0,1494.0,1323.3,1500.0
3.0734951496124268,160,60,0.0058823529411764705,1504.0,1494.0,1321.8,1500.0
3.096825122833252,160,61,0.005050505050505051,1503.0,1494.0,1319.3,1500.0
3.120192050933838,160,61,0.005050505050505051,1503.0,1494.0,1318.0999999999999,1500.0
3.1435940265655518,161,61,0.004784688995215311,1505.0,1494.0,1316.9000000000001,1501.0
3.166917085647583,162,60,0.007142857142857143,1507.0,1494.0,1317.9000000000001,1502.0
3.190260171890259,162,60,0.007142857142857143,1509.0,1494.0,1318.2,1502.0
3.213576078414917,161,59,0.005555555555555556,1508.0,1494.0,1320.4000000000001,1501.0
3.2368831634521484,161,59,0.005555555555555556,1509.0,1494.0,1321.5999999999999,1501.0
3.2603020668029785,161,60,0.005050505050505051,1510.0,1494.0,1321.5,1501.0
3.283738136291504,161,60,0.005555555555555556,1511.0,1494.0,1321.5,1501.0
3.3070321083068848,161,61,0.005555555555555556,1512.0,1494.0,1320.2,1501.0
3.3303370475769043,162,62,0.004784688995215311,1516.0,1494.0,1317.7,1502.0
3.3536131381988525,161,62,0.005555555555555556,1515.0,1494.0,1316.2,1501.0
3.376904010772705,161,62,0.005555555555555556,1515.0,1494.0,1315.3,1501.0
3.4002480506896973,161,63,0.005050505050505051,1514.0,1494.0,1313.4000000000001,1501.0
3.4235591888427734,161,62,0.005555555555555556,1513.0,1494.0,1314.4000000000001,1501.0
3.446969985961914,161,62,0.005555555555555556,1513.0,1494.0,1315.3,1501.0
3.470456123352051,161,61,0.005555555555555556,1513.0,1494.0,1317.5,1501.0
3.493821144104004,161,61,0.005555555555555556,1513.0,1494.0,1318.4000000000001,1501.0
3.5171470642089844,161,60,0.005555555555555556,1513.0,1494.0,1321.2,1501.0
3.5404930114746094,161,60,0.005555555555555556,1513.0,1494.0,1322.0999999999999,1501.0
3.563836097717285,161,60,0.005050505050505051,1512.0,1494.0,1322.7,1501.0
3.5871341228485107,162,60,0.007142857142857143,1515.0,1494.0,1322.7,1502.0
3.610474109649658,162,60,0.007142857142857143,1516.0,1494.0,1322.7,1502.0
3.6341559886932373,162,60,0.007142857142857143,1517.0,1494.0,1321.8,1502.0
3.6575801372528076,160,61,0.005050505050505051,1512.0,1494.0,1319.9000000000001,1500.0
3.680925130844116,160,61,0.005555555555555556,1511.0,1494.0,1319.0,1500.0
3.704207181930542,160,62,0.005050505050505051,1510.0,1494.0,1317.0999999999999,1500.0
3.727550983428955,161,62,0.006493506493506494,1512.0,1494.0,1316.2,1501.0
3.7508671283721924,160,62,0.005050505050505051,1509.0,1494.0,1315.5999999999999,1500.0
3.774186134338379,161,62,0.006493506493506494,1511.0,1494.0,1315.5999999999999,1501.0
3.7975120544433594,161,61,0.007142857142857143,1511.0,1494.0,1316.9000000000001,1501.0
3.8208131790161133,161,61,0.007142857142857143,1510.0,1494.0,1317.8,1501.0
3.8441240787506104,161,61,0.007142857142857143,1509.0,1494.0,1318.7,1501.0
3.867441177368164,161,61,0.007142857142857143,1508.0,1494.0,1319.5999999999999,1501.0
3.890782117843628,161,62,0.006493506493506494,1509.0,1494.0,1318.9000000000001,1501.0
3.9140989780426025,159,62,0.005555555555555556,1504.0,1494.0,1318.5999999999999,1499.0
3.937390089035034,159,63,0.005050505050505051,1503.0,1494.0,1316.7,1499.0
3.9607021808624268,161,63,0.006060606060606061,1507.0,1494.0,1315.8,1501.0
3.9840211868286133,160,63,0.007142857142857143,1505.0,1494.0,1314.9000000000001,1500.0
4.007320165634155,158,64,0.005050505050505051,1498.0,1494.0,1313.3,1498.0
4.030634164810181,159,64,0.004784688995215311,1498.0,1494.0,1313.0,1499.0
4.0539209842681885,158,64,0.005050505050505051,1493.0,1494.0,1313.3,1498.0
4.077252149581909,158,64,0.005050505050505051,1490.0,1494.0,1313.5999999999999,1498.0
4.100569009780884,158,64,0.005555555555555556,1487.0,1494.0,1313.9000000000001,1498.0
4.123861074447632,158,65,0.005050505050505051,1484.0,1494.0,1313.2,1498.0
4.1471641063690186,158,65,0.005050505050505051,1483.0,1494.0,1313.5,1498.0
4.170446157455444,160,65,0.006493506493506494,1488.0,1494.0,1313.5,1500.0
4.193754196166992,160,65,0.006493506493506494,1487.0,1494.0,1313.5,1500.0
4.217039108276367,160,65,0.006493506493506494,1487.0,1494.0,1313.5,1500.0
4.240318059921265,159,65,0.005050505050505051,1486.0,1494.0,1313.8,1499.0
4.263641119003296,160,64,0.006493506493506494,1489.0,1494.0,1315.4000000000001,1500.0
4.286962985992432,159,64,0.005050505050505051,1488.0,1494.0,1316.0,1499.0
4.310265064239502,159,64,0.005050505050505051,1489.0,1494.0,1316.5999999999999,1499.0
4.333585023880005,160,64,0.006493506493506494,1493.0,1494.0,1317.2,1500.0
4.356868028640747,158,64,0.005050505050505051,1489.0,1494.0,1317.5,1498.0
4.3802220821380615,158,64,0.005050505050505051,1489.0,1494.0,1317.2,1498.0
4.403627157211304,159,64,0.0043859649122807015,1490.0,1494.0,1316.9000000000001,1499.0
4.426977157592773,158,64,0.004629629629629629,1486.0,1494.0,1316.5999999999999,1498.0
4.4502949714660645,158,64,0.004629629629629629,1484.0,1494.0,1316.3,1498.0
4.473613023757935,159,65,0.0043859649122807015,1486.0,1494.0,1314.7,1499.0
4.4969470500946045,160,65,0.003968253968253968,1488.0,1494.0,1314.4000000000001,1500.0
4.520301103591919,160,65,0.003968253968253968,1489.0,1494.0,1314.0999999999999,1500.0
4.5436601638793945,160,65,0.003968253968253968,1490.0,1494.0,1313.8,1500.0
4.566991090774536,160,65,0.003968253968253968,1490.0,1494.0,1313.5,1500.0
4.590280055999756,160,65,0.003968253968253968,1492.0,1494.0,1313.8,1500.0
4.613615036010742,160,65,0.003968253968253968,1494.0,1494.0,1314.0999999999999,1500.0
4.636989116668701,159,65,0.003787878787878788,1492.0,1494.0,1314.4000000000001,1499.0
4.66032600402832,159,65,0.003968253968253968,1493.0,1494.0,1314.7,1499.0
4.683642148971558,159,65,0.003968253968253968,1494.0,1494.0,1315.0,1499.0
4.706911087036133,159,65,0.003968253968253968,1494.0,1494.0,1315.0,1499.0
4.7302680015563965,159,65,0.003968253968253968,1493.0,1494.0,1315.0,1499.0
4.753641128540039,159,65,0.003968253968253968,1492.0,1494.0,1315.0,1499.0
4.776944160461426,160,65,0.004629629629629629,1494.0,1494.0,1315.0,1500.0
4.800242185592651,159,65,0.003968253968253968,1491.0,1494.0,1315.0,1499.0
4.82381010055542,158,66,0.0034965034965034965,1487.0,1494.0,1313.7,1498.0
4.847131013870239,158,66,0.0034965034965034965,1485.0,1494.0,1313.4000000000001,1498.0
4.870450019836426,158,66,0.0034965034965034965,1484.0,1494.0,1313.0999999999999,1498.0
4.893783092498779,158,66,0.0034965034965034965,1483.0,1494.0,1312.8,1498.0
4.917131185531616,158,66,0.0034965034965034965,1482.0,1494.0,1312.5,1498.0
4.940415143966675,158,66,0.0034965034965034965,1481.0,1494.0,1312.8,1498.0
4.963746070861816,158,66,0.0034965034965034965,1480.0,1494.0,1313.0999999999999,1498.0
4.987074136734009,158,65,0.003787878787878788,1480,1494.0,1314.7,1498.0
5.010303974151611,158,66,0.0034965034965034965,1480,1494.0,1314.0,1498.0
5.033508062362671,158,66,0.0034965034965034965,1480,1494.0,1314.3,1498.0
5.056727170944214,158,66,0.0034965034965034965,1480,1494.0,1314.3,1498.0
5.080054998397827,159,66,0.003663003663003663,1480,1494.0,1314.3,1499.0
5.103410005569458,159,66,0.0034965034965034965,1480.0,1494.0,1313.7,1499.0
5.126742124557495,159,66,0.0034965034965034965,1481.0,1494.0,1313.7,1499.0
5.150112152099609,159,65,0.003246753246753247,1482.0,1494.0,1315.0,1499.0
5.173444986343384,159,65,0.003246753246753247,1483.0,1494.0,1315.3,1499.0
5.196767091751099,160,65,0.003105590062111801,1487.0,1494.0,1315.5999999999999,1500.0
5.220134973526001,160,65,0.003105590062111801,1489.0,1494.0,1316.2,1500.0
5.24350118637085,160,65,0.0034965034965034965,1491.0,1494.0,1316.5,1500.0
5.26681113243103,160,64,0.003246753246753247,1493.0,1494.0,1317.5,1500.0
5.2901811599731445,160,64,0.003246753246753247,1495.0,1494.0,1317.5,1500.0
5.31358003616333,160,64,0.003246753246753247,1496.0,1494.0,1317.5,1500.0
5.336886167526245,160,64,0.003246753246753247,1497.0,1494.0,1317.5,1500.0
5.360258102416992,160,64,0.003246753246753247,1498.0,1494.0,1317.5,1500.0
5.383563041687012,160,64,0.003246753246753247,1499.0,1494.0,1317.2,1500.0
5.406881093978882,161,64,0.003105590062111801,1503.0,1494.0,1316.9000000000001,1501.0
5.430248022079468,160,64,0.003246753246753247,1501.0,1494.0,1316.5999999999999,1500.0
5.453608989715576,161,64,0.002898550724637681,1504.0,1494.0,1316.3,1501.0
5.476958990097046,161,64,0.002898550724637681,1505.0,1494.0,1316.0,1501.0
5.5002641677856445,160,63,0.003246753246753247,1503.0,1494.0,1317.3,1500.0
5.523576021194458,160,63,0.003246753246753247,1503.0,1494.0,1317.5999999999999,1500.0
5.546919107437134,160,63,0.003246753246753247,1503.0,1494.0,1317.9000000000001,1500.0
5.570288181304932,160,63,0.003246753246753247,1503.0,1494.0,1318.2,1500.0
5.593630075454712,160,62,0.003246753246753247,1503.0,1494.0,1319.8,1500.0
5.616959095001221,160,62,0.003246753246753247,1503.0,1494.0,1319.8,1500.0
5.640287160873413,160,62,0.0030303030303030303,1502.0,1494.0,1319.8,1500.0
5.6636061668396,161,62,0.002777777777777778,1505.0,1494.0,1319.8,1501.0
5.686928033828735,160,61,0.003246753246753247,1502.0,1494.0,1321.0999999999999,1500.0
5.710252046585083,161,61,0.003246753246753247,1504.0,1494.0,1320.8,1501.0
5.733596086502075,162,61,0.002898550724637681,1508.0,1494.0,1320.8,1502.0
5.756893157958984,161,60,0.003246753246753247,1507.0,1494.0,1322.0999999999999,1501.0
5.780270099639893,161,59,0.003246753246753247,1508.0,1494.0,1323.7,1501.0
5.803635120391846,163,58,0.002857142857142857,1515.0,1494.0,1325.0,1503.0
5.826946973800659,163,58,0.002857142857142857,1518.0,1494.0,1325.5999999999999,1503.0
5.850273132324219,163,58,0.0026666666666666666,1520,1494.0,1326.2,1503.0
5.87349009513855,164,57,0.003246753246753247,1520,1494.0,1327.5,1504.0
5.896691083908081,162,57,0.0027472527472527475,1520,1494.0,1327.2,1502.0
5.920094966888428,162,57,0.0027472527472527475,1520,1494.0,1326.5999999999999,1502.0
