time,x,y,size_inv,roll,pitch,thrust,yaw
0.0007698535919189453,156,57.0,4696.0261635126217,1499.0799999999999,1519.7682093081009,1350,1499.992
0.023100852966308594,157,56.812,4696.0261635126217,1499.1900000000001,1519.7682093081009,1350,1499.9939999999999
0.04511690139770508,156,56.812,4696.0261635126217,1498.8699999999999,1519.7682093081009,1350,1499.992
0.06707286834716797,156,56.812,4696.0261635126217,1498.75,1519.7682093081009,1350,1499.992
0.08902692794799805,156,56.812,4696.0261635126217,1498.6300000000001,1519.7682093081009,1350,1499.992
0.11103701591491699,156,56.812,4696.0261635126217,1498.51,1519.7682093081009,1350,1499.992
0.13312292098999023,156,56.812,4696.0261635126217,1498.3900000000001,1519.7682093081009,1350,1499.992
0.15513992309570312,156,56.812,4696.0261635126217,1498.27,1519.7682093081009,1350,1499.992
0.17714905738830566,156,56.812,4696.0261635126217,1498.1500000000001,1519.7682093081009,1350,1499.992
0.19915986061096191,155,56.812,4696.0261635126217,1497.8,1519.7682093081009,1350,1499.99
0.22139191627502441,156,56.812,4696.0261635126217,1493.5999999999999,1519.7682093081012,1350,1499.992
0.24375605583190918,156,56.8355,4696.0261635126217,1495.77,1519.7682093081012,1350,1499.992
0.2660858631134033,156,57.859,4696.0261635126217,1495.77,1519.7682093081012,1350,1499.992
0.28842687606811523,154,56.812,4696.0261635126217,1490.9100000000001,1519.7682093081012,1350,1499.9880000000001
0.3107950687408447,155,56.765,4649.065901877495,1493.28,1517.5141167496149,1350,1499.99
0.333158016204834,154,55.718,4649.065901877495,1488.6199999999999,1515.6357062842098,1350,1499.9880000000001
0.35620808601379395,156,54.6475,4649.065901877495,1489.02,1513.7572958188046,1350,1499.992
0.3805060386657715,157,53.624,4649.065901877495,1491.45,1511.8788853533995,1350,1499.9939999999999
0.4049100875854492,158,53.624,4649.065901877495,1504.9100000000001,1510.0004748879944,1350,1499.9960000000001
0.4291830062866211,158,54.6005,4602.1056402423692,1511.5999999999999,1509.6247927949134,1350,1499.9960000000001
0.4534740447998047,159,54.5535,4555.1453786072434,1520,1507.3707002364279,1350,1499.998
0.4776298999786377,158,53.4595,4555.1453786072434,1520,1505.4922897710228,1350,1499.9960000000001
0.5018410682678223,160,52.389,4555.1453786072434,1520,1503.6138793056177,1350,1500.0
0.5260848999023438,160,52.3655,4555.1453786072434,1520,1501.7354688402129,1350,1500.0
0.5501890182495117,159,53.342,4602.1056402423692,1520,1503.9895613986989,1350,1499.998
0.5744509696960449,160,55.342,4602.1056402423692,1519.3499999999999,1509.6247927949137,1350,1500.0
0.5986049175262451,160,57.342,4602.1056402423692,1519.47,1515.2600241911287,1350,1500.0
0.6228079795837402,160,59.483,4555.1453786072434,1512.96,1518.6411630288578,1350,1500.0
0.6470639705657959,160,61.5535,4555.1453786072434,1508.6199999999999,1522.397983959668,1336.3862799999999,1500.0
0.6714868545532227,160,63.5535,4555.1453786072434,1508.6800000000001,1520.5195734942629,1317.57016,1500.0
0.6958968639373779,160,64.53,4555.1453786072434,1506.51,1516.762752563453,1304.24,1500.0
0.7202320098876953,160,64.436,4508.1851169721176,1502.1700000000001,1510.751839074157,1299.4176399999999,1500.0
0.7447109222412109,160,64.295,4461.2248553369918,1502.1700000000001,1506.6193360502659,1302.3054000000002,1500.0
0.7690539360046387,159,63.201,4414.264593701866,1499.74,1500.6084225609698,1313.7414800000001,1499.998
0.7933709621429443,160,63.1305,4367.3043320667402,1497.77,1494.5975090716736,1328.32284,1500.0
0.8178179264068604,160,63.1305,4320.3440704316145,1497.77,1486.7081851169723,1342.8338000000001,1500.0
0.8423528671264648,160,66.154,4273.3838087964887,1497.77,1480.6972716276762,1346.37952,1500.0
0.8667280673980713,160,68.201,4273.3838087964887,1497.77,1476.940450696866,1344.8427999999999,1500.0
0.8911430835723877,160,71.295,4226.4235471613629,1502.1700000000001,1474.68635813838,1331.71524,1500.0
0.9155459403991699,160,73.389,4226.4235471613629,1502.1700000000001,1476.5647686037851,1313.85492,1500.0
0.939877986907959,160,76.483,4226.4235471613629,1502.1700000000001,1482.2000000000005,1289.0111999999999,1500.0
0.9648230075836182,159,82.6475,4226.4235471613629,1499.74,1489.7136418616205,1260.19964,1499.998
0.9891679286956787,158,85.7415,4188.0015149144419,1495.0799999999999,1493.5046157099837,1250,1499.9960000000001
1.0134079456329346,158,88.812,4188.0015149144419,1488.45,1499.4813762817266,1250,1499.9960000000001
1.0376338958740234,158,91.8825,4188.0015149144419,1483.99,1503.579726388065,1250,1499.9960000000001
1.0618810653686523,157,93.953,4188.0015149144419,1480,1505.799666028998,1250,1499.9939999999999
1.0860979557037354,157,94.953,4149.579482667521,1480,1504.2969376566741,1250,1499.9939999999999
1.1102559566497803,156,96.9295,4149.579482667521,1480,1506.175348122079,1250,1499.992
1.1345279216766357,156,97.8825,4149.579482667521,1480,1506.1753481220792,1250,1499.992
1.158674955368042,156,97.859,4149.579482667521,1480,1506.1753481220792,1250,1499.992
1.1827800273895264,155,98.8355,4149.579482667521,1480,1506.1753481220792,1250,1499.99
1.2069120407104492,155,98.812,4111.1574504205992,1480,1507.4048531539806,1254.6320800000001,1499.99
1.2312278747558594,155,99.812,4111.1574504205992,1480,1507.4048531539804,1264.4969599999999,1499.99
1.2556018829345703,154,101.812,4111.1574504205992,1480,1507.4048531539806,1268.7743600000001,1499.9880000000001
1.279876947402954,154,101.812,4072.7354181736782,1480,1505.5605956061283,1271.2100800000001,1499.9880000000001
1.3041510581970215,153,102.812,4072.7354181736782,1480,1504.0237143162515,1270.9241199999999,1499.9860000000001
1.3284239768981934,153,102.812,4072.7354181736782,1480,1504.0237143162515,1270.41236,1499.9860000000001
1.3526690006256104,153,103.812,4034.3133859267568,1480,1502.1794567683994,1267.37256,1499.9860000000001
1.3769340515136719,152,104.812,3995.8913536798354,1480,1498.7983179306702,1267.19668,1499.9839999999999
1.4012279510498047,152,104.812,3957.4693214329141,1480,1496.9540603828179,1268.2527600000001,1499.9839999999999
1.4255609512329102,152,105.8355,3919.0472891859927,1480,1493.5729215450888,1268.0787600000001,1499.9839999999999
1.4497928619384766,152,106.859,3919.0472891859927,1480,1488.9622776754582,1266.46288,1499.9839999999999
1.4740760326385498,152,107.859,3919.0472891859927,1480.8099999999999,1487.4253963855813,1264.8751999999999,1499.9839999999999
1.4984350204467773,152,108.906,3919.0472891859927,1485.1500000000001,1488.9622776754579,1261.8034399999999,1499.9839999999999
1.522779941558838,151,109.9295,3919.0472891859927,1487.0599999999999,1492.0360402552117,1257.28604,1499.982
1.5471000671386719,151,110.953,3880.6252569390717,1487.0,1496.3393078668671,1252.8006,1499.982
1.5714728832244873,151,112.0235,3880.6252569390717,1486.9400000000001,1500.949951736498,1250,1499.982
1.5957920551300049,150,113.0705,3880.6252569390717,1484.45,1504.0237143162515,1250,1499.98
1.6200270652770996,149,114.1175,3880.6252569390717,1480,1505.5605956061286,1250,1499.9780000000001
1.6441669464111328,148,115.141,3880.6252569390717,1480,1505.5605956061286,1250,1499.9760000000001
1.6682839393615723,148,116.141,3848.6068967333035,1480,1505.5605956061283,1250,1499.9760000000001
1.6924099922180176,148,115.141,3848.6068967333035,1480,1505.8167424877743,1250,1499.9760000000001
1.716515064239502,148,115.094,3816.5885365275353,1480,1504.5360080795435,1250,1499.9760000000001
1.7407770156860352,147,114.0705,3746.1481440748457,1480,1500.1302817152298,1255.9972399999999,1499.9739999999999
1.7652490139007568,146,113.047,3746.1481440748457,1480,1496.2880784905376,1267.32844,1499.972
1.7895159721374512,146,112.0235,3746.1481440748457,1480,1493.4704627924302,1281.54152,1499.972
1.8137428760528564,145,112.047,3746.1481440748457,1480,1490.6528470943226,1290.20848,1499.97
1.8379759788513184,145,112.0705,3714.129783869078,1480,1488.8598189227996,1297.2860800000001,1499.97
1.8622140884399414,144,112.1175,3714.129783869078,1480,1492.9581690291379,1299.9780800000001,1499.9680000000001
1.886451005935669,144,113.1645,3682.1114236633098,1480,1495.5196378455994,1295.7046399999999,1499.9680000000001
1.9107470512390137,143,114.2115,3682.1114236633098,1480,1497.0565191354763,1285.6977199999999,1499.9659999999999
1.935370922088623,142,115.282,3650.0930634575416,1480,1497.0565191354763,1275.5468799999999,1499.9639999999999
1.959625005722046,142,115.3525,3650.0930634575416,1480,1498.5934004253531,1266.6242399999999,1499.9639999999999
1.9838569164276123,142,115.376,3650.0930634575416,1480,1497.3126660171224,1259.2477200000001,1499.9639999999999
2.008120059967041,141,115.3995,3618.0747032517734,1480,1497.0565191354763,1256.16092,1499.962
2.0323948860168457,142,114.376,3586.0563430460052,1480,1495.5196378455994,1260.1279199999999,1499.9639999999999
2.0566658973693848,141,112.329,3554.0379828402374,1480,1495.2634909639532,1271.23624,1499.962
2.0809760093688965,141,110.3055,3526.9455242045879,1480,1492.6823185412113,1285.39564,1499.962
2.1053199768066406,141,109.2585,3467.8347053631705,1480,1487.4805664831667,1299.8928000000001,1499.962
2.1295769214630127,140,108.235,3440.7422467275201,1480,1482.7319973695726,1314.47748,1499.96
2.1538078784942627,140,107.2585,3413.6497880918701,1480,1479.4611987270143,1326.1222,1499.96
2.1780309677124023,139,107.2585,3413.6497880918701,1480,1477.6878741617718,1329.4076400000001,1499.9580000000001
2.2022640705108643,139,106.3055,3386.55732945622,1480,1476.78150827287,1329.44732,1499.9580000000001
2.2265210151672363,139,107.423,3359.46487082057,1480,1479.5203095458555,1322.4296400000001,1499.9580000000001
2.2507879734039307,138,108.4935,3309.1503047829347,1480,1480.9474136007411,1311.02908,1499.9559999999999
2.275132894515991,139,109.611,3282.0578461472846,1480,1482.3632584520381,1296.62068,1499.9580000000001
2.2993929386138916,139,110.6815,3231.7432801096497,1480,1480.3000093943829,1283.51108,1499.9580000000001
2.323652982711792,139,110.7755,3231.7432801096497,1480,1479.7229752104547,1271.5214799999999,1499.9580000000001
2.347912073135376,139,110.7755,3231.7432801096497,1482.9300000000001,1478.948904963722,1264.1976,1499.9580000000001
2.3722710609436035,139,110.7755,3208.5211727076644,1489.5,1480.0016404992787,1261.2630799999999,1499.9580000000001
2.3966000080108643,139,109.752,3185.2990653056791,1491.6700000000001,1481.209190084182,1265.4876400000001,1499.9580000000001
2.420988082885742,139,108.7285,3134.9844992680437,1491.6700000000001,1484.2125826415054,1274.18344,1499.9580000000001
2.44541597366333,140,107.752,3111.7623918660584,1494.0999999999999,1485.4201322264087,1285.78828,1499.96
2.4697530269622803,141,107.7755,3088.540284464073,1498.76,1484.6150991698064,1294.63948,1499.962
2.4940760135650635,141,107.8225,3088.540284464073,1501.05,1483.8410289230737,1301.9389200000001,1499.962
2.518389940261841,141,107.8695,3065.3181770620877,1505.51,1482.7263677677786,1304.7850799999999,1499.962
2.5427298545837402,142,107.893,3065.3181770620877,1512.4000000000001,1483.8100661132044,1303.3039200000001,1499.9639999999999
2.567110061645508,142,106.9165,3065.3181770620877,1514.6900000000001,1486.7515330507892,1301.5668799999999,1499.9639999999999
2.5915279388427734,143,105.9165,3042.0960696601023,1515.01,1490.4361074252377,1301.36384,1499.9659999999999
2.6159629821777344,143,104.94,3065.3181770620877,1515.1300000000001,1494.4922355181177,1302.6703600000001,1499.9659999999999
2.6403069496154785,144,104.94,3065.3181770620877,1517.6800000000001,1499.2914710478613,1304.32864,1499.9680000000001
2.664918899536133,145,103.9635,3065.3181770620877,1518.0599999999999,1502.0781239360997,1310.0226399999999,1499.97
2.6892600059509277,145,103.9635,3065.3181770620877,1520,1503.9358925282584,1313.13868,1499.97
2.713495969772339,147,100.9165,3088.540284464073,1520,1507.837206571792,1321.46684,1499.9739999999999
2.7376489639282227,147,99.9165,3088.540284464073,1520,1509.6949751639509,1325.9804799999999,1499.9739999999999
2.761904001235962,148,96.7755,3088.540284464073,1520,1510.6238594600304,1337.52244,1499.9760000000001
2.7862038612365723,148,94.6815,3088.540284464073,1520,1511.5527437561097,1348.0572,1499.9760000000001
2.8104360103607178,149,92.611,3065.3181770620877,1520,1511.3669668968937,1350,1499.9780000000001
2.8347480297088623,150,90.564,3065.3181770620877,1520,1508.5803140086557,1350,1499.98
2.8592329025268555,151,86.4935,3065.3181770620877,1520,1506.7225454164968,1350,1499.982
2.8834149837493896,152,85.47,3065.3181770620877,1520,1504.8647768243377,1350,1499.9839999999999
2.90755295753479,152,83.4465,3088.540284464073,1520,1504.1216693874744,1350,1499.9839999999999
2.931752920150757,153,82.376,3111.7623918660584,1520,1506.1652148388491,1350,1499.9860000000001
2.9559779167175293,153,80.329,3111.7623918660584,1520,1508.9518677270871,1350,1499.9860000000001
2.9801409244537354,154,77.3055,3134.9844992680437,1520,1512.8531817706207,1350,1499.9880000000001
3.004384994506836,154,76.282,3158.206606670029,1520,1517.6833801102339,1350,1499.9880000000001
3.028512954711914,154,75.2585,3181.4287140720144,1520,1521.5846941537673,1350,1499.9880000000001
3.052617073059082,155,75.2585,3231.7432801096497,1520,1524.9286776196532,1350,1499.99
3.0767440795898438,155,74.2115,3254.9653875116351,1520,1528.9848057125334,1350,1499.99
3.100965976715088,155,73.1645,3254.9653875116351,1516.9100000000001,1530.9973883540388,1350,1499.99
3.125325918197632,156,70.094,3278.1874949136204,1517.23,1532.2668635586806,1350,1499.992
3.149590015411377,156,67.9765,3278.1874949136204,1517.3499999999999,1532.4216776080273,1350,1499.992
3.173825979232788,157,64.859,3278.1874949136204,1517.6700000000001,1529.4802106704424,1350,1499.9939999999999
3.19807505607605,157,62.7415,3278.1874949136204,1517.79,1524.6809751406988,1350,1499.9939999999999
3.222334861755371,157,60.577,3278.1874949136204,1520,1520.8106239070344,1350,1499.9939999999999
3.2464709281921387,158,56.483,3278.1874949136204,1520,1516.0113883772908,1350,1499.9960000000001
3.2706000804901123,159,54.4125,3278.1874949136204,1520,1512.1410371436266,1350,1499.998
3.2948849201202393,159,53.342,3251.0950362779704,1520,1508.9828305369567,1350,1499.998
3.3190078735351562,159,53.342,3227.8729288759851,1520,1505.855586740156,1350,1499.998
3.343158006668091,160,53.3185,3204.6508214739997,1520,1501.7994586472757,1350,1500.0
3.367318868637085,160,53.342,3181.4287140720144,1520,1497.7433305543955,1350,1500.0
3.391510009765625,161,54.389,3158.206606670029,1520,1492.7583181654361,1350,1500.002
3.4157679080963135,160,55.4125,3134.9844992680437,1520,1489.0118181712492,1350,1500.0
3.439924955368042,160,56.483,3111.7623918660584,1519.5899999999999,1486.1942024731416,1350,1500.0
3.4641799926757812,161,56.5065,3068.4144580490188,1515.51,1483.3394314031909,1350,1500.002
3.488435983657837,161,57.5535,3045.1923506470334,1513.4000000000001,1481.5745512406399,1350,1500.002
3.5126800537109375,161,58.6005,3021.9702432450481,1509.0599999999999,1480.7385553741685,1344.0363199999999,1500.002
3.53700590133667,160,60.6475,2998.7481358430628,1506.6900000000001,1479.7477454583504,1336.8573999999999,1500.0
3.5613958835601807,161,61.718,2978.622309428009,1506.95,1478.9055570299049,1332.3061600000001,1500.002
3.585805892944336,160,63.812,2958.4964830129547,1502.3499999999999,1479.7972859541412,1323.6091200000001,1500.0
3.6101369857788086,159,66.953,2938.370656597901,1495.52,1480.812866117855,1312.0322799999999,1499.998
3.6346678733825684,160,69.0235,2918.2448301828472,1493.49,1481.9522975210457,1300.2661999999998,1500.0
3.6589980125427246,160,73.141,2898.1190037677929,1493.49,1483.2155801637136,1284.45416,1500.0
3.68333101272583,160,74.2115,2877.9931773527392,1489.0899999999999,1484.3550115669045,1272.2985200000001,1500.0
3.7076430320739746,160,76.282,2877.9931773527392,1491.26,1485.5315983419382,1261.7926,1500.0
3.732011079788208,160,77.3055,2857.8673509376849,1497.8299999999999,1486.4233272661745,1258.44012,1500.0
3.7564449310302734,160,79.329,2857.8673509376849,1500.0,1488.1572446188561,1255.34728,1500.0
3.780837059020996,160,80.329,2837.7415245226312,1500.0,1489.6063041207401,1260.78772,1500.0
3.8052279949188232,160,81.3525,2837.7415245226312,1502.1700000000001,1492.0214032905465,1266.26764,1500.0
3.8295769691467285,160,82.3525,2820.131426409459,1502.1700000000001,1492.7861846943185,1273.28532,1500.0
3.8538830280303955,160,82.376,2820.131426409459,1500.0,1494.4968799395981,1280.0349999999999,1500.0
3.8786659240722656,159,83.376,2820.131426409459,1497.5699999999999,1495.4025421282756,1287.0228,1499.998
3.9031219482421875,159,83.3995,2820.131426409459,1495.3399999999999,1497.1132373735552,1292.3487599999999,1499.998
3.92761492729187,158,84.3995,2820.131426409459,1490.6800000000001,1498.0188995622327,1296.4728399999999,1499.9960000000001
3.9520559310913086,158,84.3995,2820.131426409459,1486.22,1500.3333695999638,1301.7810399999998,1499.9960000000001
3.9764649868011475,157,85.3995,2802.5213282962864,1480,1500.9975218716606,1303.1230800000001,1499.9939999999999
4.000762939453125,157,85.3995,2764.78540376806,1480,1499.9912305509079,1305.71316,1499.9939999999999
4.025106906890869,156,85.3995,2747.1753056548878,1480,1497.6365088603466,1307.0090399999999,1499.992
4.049350023269653,155,85.3995,2729.5652075417156,1480,1494.5773832452583,1309.7129600000001,1499.99
4.073612928390503,155,84.3995,2747.1753056548878,1480,1491.8000191999809,1313.69688,1499.99
4.097836971282959,155,84.3995,2729.5652075417156,1480,1489.4452975094196,1319.24884,1499.99
4.122113943099976,154,84.423,2696.4167875639791,1480,1488.6592064070903,1323.3787600000001,1499.9880000000001
4.146411895751953,154,85.4465,2678.806689450807,1480,1488.7018258042046,1324.80288,1499.9880000000001
4.170721054077148,153,85.4935,2645.6582694730705,1480,1488.7030096763467,1325.9711199999999,1499.9860000000001
4.195090055465698,152,86.5405,2612.5098494953345,1480,1485.9694489003255,1321.63168,1499.9839999999999
4.219325065612793,152,87.5405,2612.5098494953345,1480,1484.205479408653,1314.54864,1499.9839999999999
4.2435760498046875,151,86.5405,2596.9715276307707,1480,1482.8381070845714,1311.3714,1499.982
4.267833948135376,151,86.5405,2581.4332057662068,1480,1481.5536058104342,1309.85996,1499.982
4.292129039764404,151,86.5405,2565.894883901643,1480,1481.5950413354062,1308.4801199999999,1499.982
4.3164520263671875,151,87.5405,2518.9346222665167,1480,1482.8629683995548,1308.75188,1499.982
4.340847015380859,151,87.564,2503.3963004019529,1480,1483.0563341827583,1312.9616000000001,1499.982
4.365293025970459,151,88.5875,2489.5844587445631,1480.3099999999999,1482.6281670913791,1311.66552,1499.982
4.38962197303772,151,88.6345,2474.0461368799993,1486.8199999999999,1482.1033171083984,1310.0816,1499.982
4.413955926895142,151,89.6345,2460.234295222609,1491.1600000000001,1480.956934250835,1305.85016,1499.982
4.43829607963562,151,89.6345,2446.4224535652193,1493.3299999999999,1481.6889618586765,1304.1948,1499.982
4.462651968002319,151,89.6345,2417.0722900432656,1495.5,1482.3657420998888,1301.24524,1499.982
4.486978054046631,151,89.611,2403.2604483858754,1495.5,1483.0977697077305,1302.5835199999999,1499.982
4.5113749504089355,151,89.6345,2389.4486067284856,1495.5,1483.8988565238592,1303.96316,1499.982
4.535780906677246,151,90.658,2375.6367650710954,1495.5,1484.6308841317007,1305.4689599999999,1499.982
4.560119867324829,151,90.705,2375.6367650710954,1495.5,1484.6999433399876,1306.7188799999999,1499.982
4.584626913070679,151,91.7285,2349.4669598255141,1495.5,1485.2393321036604,1305.2912000000001,1499.982
4.608964920043945,150,92.752,2349.4669598255141,1493.0699999999999,1486.5405529755935,1300.93192,1499.98
4.633303880691528,150,92.752,2335.6551181681243,1490.8399999999999,1487.6622199059805,1297.8027200000001,1499.98
4.657630920410156,150,91.752,2323.2971545799332,1488.6099999999999,1488.853672983689,1298.8193200000001,1499.98
4.682023048400879,150,91.7285,2310.9391909917422,1486.3800000000001,1488.9983338515744,1298.8295600000001,1499.98
4.706395864486694,149,91.7285,2310.9391909917422,1481.72,1490.1614363069336,1301.6774,1499.9780000000001
4.730756044387817,150,91.752,2310.9391909917422,1484.0899999999999,1490.772065095997,1307.36096,1499.98
4.755162954330444,149,91.7755,2298.5812274035516,1483.8299999999999,1491.3419852991231,1312.9787200000001,1499.9780000000001
4.779531955718994,149,91.7755,2286.2232638153605,1483.77,1491.8537503794812,1314.43272,1499.9780000000001
4.804183006286621,149,91.799,2273.8653002271694,1483.71,1492.8598340033668,1315.69496,1499.9780000000001
4.828556060791016,149,91.799,2273.8653002271694,1488.05,1492.9179891261349,1315.5934399999999,1499.9780000000001
4.852913856506348,149,90.7755,2261.5073366389784,1485.8199999999999,1492.3829619966696,1316.8678,1499.9780000000001
4.877264976501465,149,89.752,2249.1493730507873,1487.99,1491.7897797444364,1319.6818000000001,1499.9780000000001
4.901638031005859,149,89.7285,2238.0272058214155,1490.1600000000001,1491.2559157174267,1322.6896400000001,1499.9780000000001
4.926055908203125,149,88.705,2238.0272058214155,1492.3299999999999,1491.3053475717793,1328.4690800000001,1499.9780000000001
4.950433969497681,149,87.6815,2225.6692422332244,1492.3299999999999,1490.761597173899,1335.72236,1499.9780000000001
4.974969863891602,149,86.6815,2213.3112786450338,1494.5,1490.7121653195461,1341.4896799999999,1499.9780000000001
4.999302864074707,148,86.6815,2202.1891114156615,1492.0699999999999,1490.7220516904167,1343.15924,1499.9760000000001
5.023653030395508,149,86.658,2191.0669441862897,1492.27,1490.6825062069345,1344.8250399999999,1499.9780000000001
5.047991037368774,148,85.658,2191.0669441862897,1489.8399999999999,1490.2376195177596,1346.20488,1499.9760000000001
5.072321891784668,148,85.6815,2191.0669441862897,1487.6099999999999,1490.78136991564,1343.45688,1499.9760000000001
5.09666895866394,148,85.6815,2191.0669441862897,1485.3800000000001,1491.819438857048,1339.3290400000001,1499.9760000000001
5.121058940887451,148,85.6815,2191.0669441862897,1487.55,1493.2529626332782,1336.5931599999999,1499.9760000000001
5.145488023757935,148,85.705,2202.1891114156615,1485.3199999999999,1495.665237125693,1333.7614000000001,1499.9760000000001
5.169817924499512,148,85.705,2191.0669441862897,1487.49,1497.4546702532632,1329.5498,1499.9760000000001
5.1941399574279785,148,85.6815,2179.9447769569178,1489.6600000000001,1498.3048981481306,1326.8579999999999,1499.9760000000001
5.2185139656066895,148,85.6815,2168.822609727546,1491.8299999999999,1498.2159208102958,1325.498,1499.9760000000001
5.242892026901245,149,84.658,2158.7596965200187,1494.26,1497.2880142871595,1326.84004,1499.9780000000001
5.267236948013306,149,84.6345,2148.6967833124918,1498.6600000000001,1494.6229311681977,1327.1136799999999,1499.9780000000001
5.291651964187622,149,84.6345,2127.5117028755926,1500.8900000000001,1491.9112408722747,1328.71912,1499.9780000000001
5.316076993942261,148,84.611,2106.3266224386934,1500.6900000000001,1489.2419207372254,1330.2888399999999,1499.9760000000001
5.340411901473999,148,84.5875,2085.1415420017943,1500.6900000000001,1486.6149707630498,1331.8924,1499.9760000000001
5.365071058273315,148,84.564,2074.0193747724225,1496.29,1484.4286704619617,1330.664,1499.9760000000001
5.389414072036743,148,84.5405,2062.8972075430506,1491.8900000000001,1483.0474032174759,1329.37168,1499.9760000000001
5.4137420654296875,148,84.564,2052.8342943355233,1487.49,1482.5220132226409,1327.98912,1499.9760000000001
5.43808388710022,148,85.5875,2042.7713811279962,1487.49,1482.8440264452818,1323.89888,1499.9760000000001
5.46243691444397,149,86.6345,2032.708467920469,1489.9200000000001,1484.0134428853985,1318.20696,1499.9780000000001
5.486783981323242,149,88.6815,2032.708467920469,1494.3199999999999,1485.7506194812242,1309.69352,1499.9780000000001
5.511184930801392,149,90.752,2042.7713811279962,1498.72,1488.4580727610601,1298.13652,1499.9780000000001
5.535592079162598,149,90.7755,2042.7713811279962,1503.1199999999999,1491.0426525743617,1289.0678800000001,1499.9780000000001
5.559931993484497,150,91.799,2042.7713811279962,1507.78,1493.5848622267895,1280.22316,1499.98
5.584272861480713,150,92.799,2042.7713811279962,1507.8399999999999,1496.0847017183437,1272.9302,1499.98
5.608636856079102,151,92.799,2032.708467920469,1510.3299999999999,1497.6566346867617,1272.6007999999999,1499.982
5.633014917373657,152,93.7755,2022.6455547129419,1515.05,1497.5761313811013,1275.5228,1499.9839999999999
5.6573450565338135,153,93.7285,2013.4974517970084,1520,1496.7345059128354,1279.7745199999999,1499.9860000000001
5.681999921798706,154,92.6815,2013.4974517970084,1520,1495.5635487395959,1288.20776,1499.9880000000001
5.706286907196045,155,92.6345,2013.4974517970084,1520,1493.9900750380555,1296.8847599999999,1499.99
5.730514049530029,155,91.5875,2013.4974517970084,1520,1493.221634393117,1305.48552,1499.99
5.75492787361145,157,90.564,2003.4345385894812,1520,1493.1777234991205,1315.4502400000001,1499.9939999999999
5.7792229652404785,158,90.564,2003.4345385894812,1520,1493.9461641440589,1324.0232000000001,1499.9960000000001
5.803464889526367,158,90.564,2003.4345385894812,1520,1494.7146047889973,1328.2726,1499.9960000000001
5.8277058601379395,159,90.5875,2003.4345385894812,1520,1495.4830454339358,1330.9683600000001,1499.998
5.85199499130249,160,91.611,2013.4974517970084,1520,1496.3319893845344,1328.0586800000001,1500.0
5.876302003860474,161,91.6345,2013.4974517970084,1520,1497.5029465577738,1322.12132,1500.002
5.900531053543091,162,92.658,2032.708467920469,1520,1499.2301083883021,1313.57404,1500.0039999999999
5.924889087677002,163,92.658,2042.7713811279962,1520,1501.286601923804,1307.6788799999999,1500.0060000000001
5.9491050243377686,164,92.658,2052.8342943355233,1520,1503.7456119876072,1301.91344,1500.008
5.973301887512207,165,91.658,2052.8342943355233,1520,1505.3190856891476,1303.07772,1500.01
5.997536897659302,165,91.6345,2052.8342943355233,1520,1506.4900428623871,1304.5617999999999,1500.01
6.021836042404175,166,89.611,2052.8342943355233,1520,1506.1241187457499,1314.22552,1500.0119999999999
6.046175956726074,166,88.517,2052.8342943355233,1520,1504.9531615725102,1324.3492000000001,1500.0119999999999
6.070405960083008,167,88.47,2062.8972075430506,1520,1503.4601911766299,1333.2521999999999,1500.0139999999999
6.09480094909668,167,87.3995,2043.6861914195899,1520,1501.3671052294644,1340.73296,1500.0139999999999
6.119062900543213,168,86.329,2053.749104627117,1520,1499.9107272452477,1349.6574800000001,1500.0160000000001
6.143229007720947,168,85.329,2053.749104627117,1520,1499.1422866003093,1350,1500.0160000000001
6.16725492477417,169,84.329,2053.749104627117,1520,1498.7763624836718,1350,1500.018
6.191341876983643,169,83.329,2043.6861914195899,1520,1497.5249020047722,1350,1500.018
6.215559005737305,169,84.282,2053.749104627117,1520,1498.3738459553708,1350,1500.018
6.23971700668335,169,84.3055,2053.749104627117,1520,1498.337253543707,1350,1500.018
6.263911962509155,169,84.329,2053.749104627117,1520,1498.3006611320434,1346.1984400000001,1500.018
6.288183927536011,169,85.329,2053.749104627117,1517.52,1498.2640687203796,1337.86276,1500.018
6.3125529289245605,169,85.3055,2043.6861914195899,1513.1800000000001,1498.9520060596578,1328.05304,1500.018
6.336879014968872,168,85.282,2052.8342943355237,1506.4100000000001,1498.5860819430204,1322.4014400000001,1500.0160000000001
6.36128306388855,168,85.282,2042.7713811279966,1502.01,1498.0664696973954,1318.24332,1500.0160000000001
6.385745048522949,168,85.2585,2032.7084679204695,1497.6099999999999,1497.1443409234694,1315.57304,1500.0160000000001
6.410115003585815,168,86.2585,2013.4974517970088,1495.3800000000001,1495.3805866812772,1314.39456,1500.0160000000001
6.4346630573272705,167,87.282,2013.4974517970088,1490.72,1494.1730370963739,1313.0082400000001,1500.0139999999999
6.459043979644775,167,88.282,1994.2864356735481,1490.6600000000001,1491.714027032571,1308.84824,1500.0139999999999
6.483368873596191,167,88.2585,1985.1383327576143,1490.5999999999999,1489.7746292143931,1305.91832,1500.0139999999999
6.507674932479858,167,88.235,1985.1383327576143,1490.54,1488.7134492761447,1302.9244799999999,1500.0139999999999
6.532059907913208,167,88.2115,1985.1383327576143,1490.48,1489.1891506277734,1301.4044799999999,1500.0139999999999
6.556437969207764,166,89.2115,1985.1383327576143,1492.3900000000001,1489.2623354511009,1300.1140399999999,1500.0119999999999
6.580822944641113,166,90.2115,1985.1383327576143,1492.3299999999999,1491.2383256809426,1300.2155599999999,1500.0119999999999
6.605252027511597,166,91.2585,1985.1383327576143,1492.27,1493.5436476157579,1298.6872000000001,1500.0119999999999
6.62992000579834,166,92.282,1985.1383327576143,1492.21,1495.446453022272,1295.6793600000001,1500.0119999999999
6.654288053512573,166,93.3525,1994.2864356735481,1492.1500000000001,1497.0199267238127,1289.6478,1500.0119999999999
6.678650856018066,165,94.376,1994.2864356735481,1491.8900000000001,1498.5202156020257,1283.6068399999999,1500.01
6.702991962432861,164,95.3995,2003.4345385894819,1489.4000000000001,1499.6911727752652,1277.5320400000001,1500.008
6.727305889129639,163,95.3995,2012.5826415054157,1484.6800000000001,1500.8621299485048,1275.6489999999999,1500.0060000000001
6.751695871353149,163,95.3525,2012.5826415054157,1480.1600000000001,1501.9599022984169,1276.7878000000001,1500.0060000000001
6.776118993759155,162,94.3055,2012.5826415054157,1480,1502.3258264150543,1283.66364,1500.0039999999999
6.800351858139038,162,93.2115,2012.5826415054157,1480,1502.6917505316915,1293.67704,1500.0039999999999
6.8247809410095215,160,91.1645,2012.5826415054157,1480,1502.3258264150543,1309.2875200000001,1500.0
6.8490519523620605,160,91.1175,2022.6455547129431,1480,1501.7110738991034,1321.14176,1500.0
6.873267889022827,159,90.0705,2032.7084679204702,1480,1501.4988379114538,1334.18012,1499.998
6.897490978240967,158,90.0705,2042.7713811279973,1480,1502.0550425687425,1341.5745999999999,1499.9960000000001
6.921777009963989,158,89.094,2052.8342943355246,1480,1503.0137637543323,1347.0918799999999,1499.9960000000001
6.946115970611572,157,90.141,2062.8972075430515,1480,1504.7409255848606,1341.54972,1499.9939999999999
6.970360994338989,156,91.188,2072.9601207505789,1480,1506.4314950037253,1334.3682800000001,1499.992
6.9947450160980225,155,91.235,2083.0230339581058,1480,1507.7195478942888,1325.4514799999999,1499.99
7.018996000289917,155,92.282,2093.0859471656331,1480,1508.6050842565512,1315.25092,1499.99
7.0432288646698,154,92.282,2103.1488603731605,1480,1509.0881040905124,1305.0604000000001,1499.9880000000001
7.067466974258423,153,91.2585,2103.1488603731605,1480,1508.6855875622114,1303.2874400000001,1499.9860000000001
7.091765880584717,152,89.2115,2093.0859471656331,1480,1507.3975346716479,1308.68588,1499.9839999999999
7.116100072860718,151,88.141,2093.0859471656331,1480,1505.7874685584436,1316.00956,1499.982
7.1403210163116455,150,87.0705,2093.0859471656331,1480,1503.774885916938,1327.80636,1499.98
7.164852857589722,149,86.0235,2093.0859471656331,1480,1501.3597867471317,1342.41068,1499.9780000000001
7.189100027084351,149,85.0,2083.0230339581058,1480,1498.8641842716647,1350,1499.9780000000001
7.213253021240234,146,85.0235,2083.0230339581058,1480,1497.6566346867617,1350,1499.972
7.237429857254028,145,85.047,2072.9601207505789,1480,1496.368581796198,1350,1499.97
7.261648893356323,144,86.0705,2072.9601207505789,1480,1495.5635487395959,1350,1499.9680000000001
7.28590989112854,143,86.1175,2062.8972075430515,1480,1494.6780123773335,1342.12556,1499.9659999999999
7.310180902481079,142,87.141,2062.8972075430515,1480,1494.6780123773335,1329.30276,1499.9639999999999
7.33455491065979,140,88.1645,2072.9601207505789,1480,1494.7585156829937,1317.8558399999999,1499.96
7.358809947967529,137,89.2115,2062.8972075430515,1480,1495.0805289056345,1306.39472,1499.954
7.383074045181274,136,89.2115,2052.8342943355246,1480,1495.0000255999744,1300.5116800000001,1499.952
7.407317876815796,134,90.235,2042.7713811279973,1480,1495.3220388226152,1293.4821199999999,1499.9480000000001
7.4316489696502686,133,90.2115,2042.7713811279973,1480,1495.3220388226152,1292.00056,1499.9459999999999
7.45599889755249,132,90.188,2023.5603650045366,1480,1493.5948769920869,1293.3866800000001,1499.944
7.480265855789185,131,90.188,2014.4122620886033,1480,1491.9848108788826,1297.6442400000001,1499.942
7.504687070846558,128,90.1645,1995.2012459651426,1480,1490.330833871682,1300.57188,1499.9359999999999
7.528928995132446,127,90.1645,1986.053143049209,1480,1488.7939525818051,1306.2732000000001,1499.934
7.553156852722168,127,90.188,1968.5524244274227,1480,1486.49022162141,1310.45472,1499.934
7.577409982681274,126,91.235,1949.341408303962,1480,1485.3437654542411,1310.4426000000001,1499.932
7.602033853530884,125,92.282,1940.1933053880282,1480,1484.2412201810685,1307.4988800000001,1499.9300000000001
7.626394987106323,123,93.329,1922.6925867662419,1480,1483.5061899989535,1302.9816800000001,1499.9259999999999
7.650719881057739,122,94.3995,1905.1918681444556,1480,1482.4004627769405,1295.5028,1499.924
7.675049066543579,122,96.47,1896.0437652285218,1480,1482.3956898536801,1283.9401600000001,1499.924
7.699293851852417,121,96.4935,1887.6911495226693,1480,1482.8316168448046,1277.7636400000001,1499.922
7.723522901535034,121,97.5405,1887.6911495226693,1480,1483.7002888782131,1271.7828400000001,1499.922
7.7478110790252686,121,97.564,1887.6911495226693,1480,1485.2005777564261,1269.9599600000001,1499.922
7.772155046463013,120,97.564,1879.3385338168168,1480,1487.3340744538639,1271.1626800000001,1499.9200000000001
7.796478986740112,121,97.5875,1879.3385338168168,1480,1489.5662115653518,1278.0688,1499.922
7.820781946182251,121,98.611,1879.3385338168168,1480,1491.6981172883695,1280.9429600000001,1499.922
7.845151901245117,121,98.6345,1879.3385338168168,1480,1493.4640988947497,1286.4909600000001,1499.922
7.869412899017334,121,98.6345,1887.6911495226693,1480,1494.9309773101395,1290.70904,1499.922
7.893666982650757,121,97.658,1896.0437652285218,1480.5,1496.70014086536,1296.0491999999999,1499.922
7.917980909347534,121,97.6345,1896.0437652285218,1482.6700000000001,1498.0365593782963,1297.52952,1499.922
7.942280054092407,121,96.6345,1904.3963809343743,1482.6700000000001,1499.4397988168796,1304.4554800000001,1499.922
7.966593980789185,121,95.611,1904.3963809343743,1482.6700000000001,1500.7762173298161,1311.5253599999999,1499.922
7.990979909896851,121,94.5875,1904.3963809343743,1482.6700000000001,1501.4444265862842,1320.03712,1499.922
8.015446901321411,122,93.5875,1912.7489966402268,1482.9300000000001,1501.5112475119311,1327.22648,1499.924
8.039797067642212,122,92.5875,1930.2497152620131,1485.1600000000001,1502.3512820057767,1335.7580800000001,1499.924
8.06413197517395,122,92.5875,1930.2497152620131,1487.3900000000001,1502.38310149418,1338.8977199999999,1499.924
8.088469982147217,123,91.5875,1939.3978181779464,1492.05,1502.8540299225481,1341.7796000000001,1499.9259999999999
8.112799882888794,124,91.5875,1939.3978181779464,1498.9400000000001,1503.5858781558227,1340.5956799999999,1499.9280000000001
8.137187957763672,125,90.564,1939.3978181779464,1503.6600000000001,1503.9836217608633,1340.64184,1499.9300000000001
8.161584854125977,127,88.5405,1948.5459210938802,1513.04,1503.4204168161259,1342.0337999999999,1499.934
8.185975074768066,128,87.5405,1957.6940240098143,1520,1503.5572406162598,1344.99756,1499.9359999999999
8.210201978683472,128,87.517,1966.8421269257481,1520,1503.3281402997563,1345.4153200000001,1499.9359999999999
8.234587907791138,129,86.4935,1975.9902298416819,1520,1503.4649640998905,1349.8988800000002,1499.9380000000001
8.258780002593994,129,86.4935,1985.1383327576157,1520,1504.301816644896,1350,1499.9380000000001
8.282922983169556,131,86.4935,1985.1383327576157,1520,1505.0336648781706,1349.0922,1499.942
8.30713701248169,132,86.4935,1994.2864356735495,1520,1505.4727738181355,1343.73596,1499.944
8.331400871276855,133,86.47,2004.3493488810768,1520,1505.9557936520969,1339.73596,1499.9459999999999
8.355731010437012,133,85.47,2013.4974517970106,1520,1506.0655708870879,1335.4819600000001,1499.9459999999999
8.38000202178955,134,85.423,2032.7084679204713,1520,1506.2924438394032,1331.5439999999999,1499.9480000000001
8.404268026351929,135,84.3995,2032.7084679204713,1520,1506.731552779368,1333.0036399999999,1499.95
8.428541898727417,136,84.376,2042.7713811279984,1520,1507.2877574366566,1334.6571200000001,1499.952
8.452800989151001,137,83.329,2042.7713811279984,1520,1507.3243498483205,1339.0126399999999,1499.954
8.47702693939209,137,83.3055,2052.8342943355256,1520,1507.4780379773081,1340.76576,1499.954
8.501296043395996,138,83.282,2062.8972075430529,1520,1506.8632854613572,1342.42112,1499.9559999999999
8.525606870651245,139,83.2585,2072.9601207505798,1520,1506.6510494737076,1341.24452,1499.9580000000001
8.550149917602539,140,83.235,2083.0230339581071,1520,1506.4022210743942,1340.0359599999999,1499.96
8.574549913406372,140,82.235,2072.9601207505798,1520,1505.9923860637605,1338.5395599999999,1499.96
8.59879207611084,141,82.2115,2072.9601207505798,1520,1505.223945418822,1337.1994,1499.962
8.623023986816406,141,83.188,2072.9601207505798,1520,1504.4189123622198,1333.2511999999999,1499.962
8.647286891937256,143,83.188,2083.0230339581071,1520,1503.2918660829769,1331.80096,1499.9659999999999
8.671591997146606,143,83.1645,2083.0230339581071,1520,1501.6817999697726,1330.3789199999999,1499.9659999999999
8.695937871932983,144,83.141,2083.0230339581071,1520,1500.8767669131703,1327.61464,1499.9680000000001
8.720156908035278,144,83.1175,2072.9601207505798,1520,1499.9912305509079,1324.8503599999999,1499.9680000000001
8.74451994895935,145,83.094,2062.8972075430529,1520,1499.1056941886454,1324.88608,1499.97
8.768755912780762,146,83.0705,2052.8342943355256,1520,1497.415124769781,1324.9875999999999,1499.972
8.79297399520874,146,84.0705,2033.6232782120649,1520,1495.2854464109516,1322.38708,1499.972
8.817206859588623,147,85.0705,2024.4751752961311,1520,1492.467830712844,1319.64076,1499.9739999999999
8.841523885726929,148,85.0705,2024.4751752961311,1520,1490.5284328946659,1318.0606,1499.9760000000001
8.86591386795044,148,86.0705,2005.2641591726704,1520,1488.471939359164,1312.4466,1499.9760000000001
8.890142917633057,149,87.0705,1986.0531430492097,1520,1486.854554763627,1305.3268,1499.9780000000001
8.914489984512329,150,87.0705,1966.8421269257492,1520,1486.0056108130284,1302.2389600000001,1499.98
8.93869686126709,150,88.0705,1957.6940240098156,1520,1485.6030942847274,1299.3430800000001,1499.98
8.962915897369385,151,90.094,1948.5459210938818,1520,1484.4321371114879,1292.3371199999999,1499.982
8.98714303970337,151,91.141,1939.397818177948,1520,1484.0296205831869,1287.8272400000001,1499.982
9.011429071426392,152,92.1645,1930.249715262014,1520,1484.3955446998241,1284.7036800000001,1499.9839999999999
9.035757064819336,152,93.2115,1921.8970995561617,1520,1485.2021687308466,1278.68424,1499.9839999999999
9.059988975524902,152,94.235,1913.5444838503092,1520,1486.040612250272,1272.6591599999999,1499.9839999999999
9.084250926971436,152,97.3055,1896.0437652285229,1519.8099999999999,1486.8376904347733,1265.4219599999999,1499.9839999999999
9.108589887619019,153,98.329,1887.6911495226705,1517.96,1487.3372564027043,1260.73892,1499.9860000000001
9.132912874221802,153,99.3525,1879.338533816818,1513.6800000000001,1487.4661253307374,1256.0878399999999,1499.9860000000001
9.157264947891235,153,100.376,1870.9859181109655,1511.5699999999999,1487.1606582420663,1252.8945200000001,1499.9860000000001
9.181670904159546,153,101.376,1854.9767380080816,1509.46,1486.4558565739344,1250,1499.9860000000001
9.206023931503296,153,101.3995,1846.6241223022291,1509.52,1486.5123361658502,1253.6792800000001,1499.9860000000001
9.230427980422974,154,102.423,1838.2715065963766,1507.6099999999999,1486.5369962693628,1256.3314,1499.9880000000001
9.254939079284668,154,102.423,1829.9188908905242,1507.6700000000001,1486.5298368844719,1261.6855599999999,1499.9880000000001
9.279491901397705,154,102.4465,1829.9188908905242,1507.73,1486.9236030534621,1268.41956,1499.9880000000001
9.304081916809082,154,102.47,1829.9188908905242,1507.79,1488.2639990024491,1276.5277599999999,1499.9880000000001
9.32848596572876,154,103.517,1822.2623264934925,1507.8499999999999,1489.2050603719749,1277.79,1499.9880000000001
9.352849006652832,153,103.5405,1822.2623264934925,1503.25,1490.5414788849114,1281.7204400000001,1499.9860000000001
9.377186059951782,153,103.564,1822.2623264934925,1498.8499999999999,1492.2120020260818,1284.2250800000002,1499.9860000000001
9.40159296989441,154,102.5875,1822.2623264934925,1496.8800000000001,1493.5484205390183,1288.00972,1499.9880000000001
9.42601203918457,153,102.611,1829.9188908905242,1492.28,1494.6119869388967,1289.26632,1499.9860000000001
9.450378894805908,153,102.5875,1829.9188908905242,1487.8800000000001,1495.8927213471275,1293.5128,1499.9860000000001
9.475194931030273,153,100.5875,1829.9188908905242,1490.05,1496.8393511271242,1301.6849199999999,1499.9860000000001
9.499579906463623,154,99.5875,1829.9188908905242,1494.6500000000001,1497.4518762788866,1310.16284,1499.9880000000001
9.52391505241394,154,98.564,1829.9188908905242,1494.6500000000001,1498.0644014306492,1317.37664,1499.9880000000001
9.548279047012329,154,97.5405,1838.2715065963766,1499.05,1498.4653269845303,1326.0981199999999,1499.9880000000001
9.572619915008545,154,96.517,1854.2806866992607,1503.45,1499.2616096818215,1334.8037200000001,1499.9880000000001
9.596962928771973,154,95.4935,1862.6333024051132,1505.6800000000001,1500.3307444921707,1339.3512000000001,1499.9880000000001
9.621397972106934,154,93.4935,1870.9859181109655,1503.51,1501.7339839307538,1345.11852,1499.9880000000001
9.645861864089966,154,92.4935,1879.338533816818,1503.51,1503.4713279975711,1349.58808,1499.9880000000001
9.670192003250122,154,91.4935,1887.6911495226705,1501.3399999999999,1505.1808300120356,1350,1499.9880000000001
9.694581985473633,154,90.4935,1896.0437652285229,1499.1700000000001,1505.9437022465033,1350,1499.9880000000001
9.718847036361694,154,89.4935,1913.5444838503092,1497.0,1506.811578792702,1350,1499.9880000000001
9.743104934692383,154,88.4935,1921.8970995561617,1497.0,1507.272165887339,1350,1499.9880000000001
9.767400026321411,154,87.4935,1930.249715262014,1497.0,1507.3986483537419,1350,1499.9880000000001
9.791697978973389,154,86.47,1930.249715262014,1497.0,1507.124205266264,1350,1499.9880000000001
9.816022872924805,154,84.4465,1939.397818177948,1497.0,1507.2610290663979,1350,1499.9880000000001
9.840280055999756,153,83.376,1948.5459210938818,1494.5699999999999,1506.6978241216605,1350,1499.9860000000001
9.864841938018799,153,81.3525,1948.5459210938818,1492.3399999999999,1505.7273297253614,1350,1499.9860000000001
9.889137983322144,153,80.282,1948.5459210938818,1490.1099999999999,1504.4227307008282,1350,1499.9860000000001
9.913388967514038,152,78.235,1957.6940240098156,1485.45,1503.891345244494,1350,1499.9839999999999
9.937615871429443,152,77.2115,1966.8421269257494,1480.99,1503.3281402997566,1350,1499.9839999999999
9.961909055709839,152,77.188,1957.6940240098156,1480.9300000000001,1502.2208221033236,1350,1499.9839999999999
9.986268043518066,152,76.141,1966.8421269257494,1480.8699999999999,1501.9599022984169,1350,1499.9839999999999
10.010531902313232,151,75.141,1975.9902298416832,1480,1502.3990112383817,1350,1499.982
10.034842014312744,150,75.1175,1985.1383327576173,1480,1502.4721960617092,1350,1499.98
10.058986902236938,150,75.1175,1995.2012459651444,1480,1502.5892917790331,1350,1499.98
10.083133935928345,150,75.1175,2005.2641591726715,1480,1504.2066763745702,1350,1499.98
10.107285976409912,149,75.141,2014.4122620886053,1480,1505.4508183711373,1350,1499.9780000000001
10.131505012512207,149,75.141,2023.5603650045391,1480,1506.3290362510668,1350,1499.9780000000001
10.15576696395874,148,76.141,2023.5603650045391,1480,1506.7681451910316,1344.1299200000001,1499.9760000000001
10.180001974105835,147,77.1645,2023.5603650045391,1480,1506.7681451910316,1337.1061999999999,1499.9739999999999
10.204240083694458,147,78.188,2042.7713811279998,1480,1506.5193167917182,1328.6405999999999,1499.9739999999999
10.22848105430603,146,78.188,2042.7713811279998,1480,1505.7508761467798,1322.89292,1499.972
10.252722024917603,146,79.1645,2052.8342943355269,1480,1505.0995312191653,1315.9272799999999,1499.972
10.276952981948853,145,79.1645,2052.8342943355269,1480,1504.7336071025279,1312.9654,1499.97
10.301276922225952,145,80.141,2052.8342943355269,1480,1504.7701995141917,1310.2913600000002,1499.97
10.325849056243896,144,80.1175,2052.8342943355269,1480,1503.6724271642797,1311.71696,1499.9680000000001
10.350364923477173,143,80.0705,2062.8972075430543,1480,1503.4235987649663,1313.2064800000001,1499.9659999999999
10.374855041503906,143,80.047,2062.8972075430543,1480,1502.6551581200279,1317.4358400000001,1499.9659999999999
10.399138927459717,142,80.0235,2072.9601207505812,1480,1502.3697373090506,1320.3390400000001,1499.9639999999999
10.4237539768219,141,80.9765,2083.0230339581085,1480,1502.4868330263746,1322.04036,1499.962
10.448050022125244,141,80.9765,2072.9601207505812,1480,1502.8088462490155,1323.42752,1499.962
10.47231388092041,140,81.9765,2083.0230339581085,1480,1502.8893495546758,1322.0430799999999,1499.96
10.496540069580078,140,83.0,2083.0230339581085,1480,1503.2918660829769,1317.7627600000001,1499.96
10.5208420753479,139,84.0235,2093.0859471656358,1480,1503.372369388637,1311.9428,1499.9580000000001
10.545163869857788,139,86.047,2093.0859471656358,1480,1502.567336332035,1303.3493599999999,1499.9580000000001
10.569416046142578,139,86.047,2083.0230339581085,1480,1502.0843164980736,1297.2160799999999,1499.9580000000001
10.593636989593506,138,87.0705,2072.9601207505812,1480,1500.7962636075101,1291.24468,1499.9559999999999
10.6179039478302,138,88.0705,2072.9601207505812,1480,1499.5887140226068,1286.7592400000001,1499.9559999999999
10.642215967178345,138,89.047,2072.9601207505812,1480,1497.9786479094025,1283.7936,1499.9559999999999
10.66651701927185,137,89.047,2062.8972075430543,1480,1496.2880784905378,1286.3694800000001,1499.954
10.69084906578064,137,89.0235,2062.8972075430543,1480,1495.0805289056345,1289.0074,1499.954
10.715188026428223,137,89.0,2052.8342943355269,1480,1494.5975090716734,1293.18496,1499.954
10.739419937133789,137,90.0,2052.8342943355269,1480,1494.1949925433723,1296.1023600000001,1499.954
10.763664960861206,137,90.0,2052.8342943355269,1480,1494.1949925433723,1301.5619999999999,1499.954
10.788066864013672,137,90.0235,2042.7713811279998,1480,1494.5170057660132,1304.2076400000001,1499.954
10.812546014785767,137,91.0235,2042.7713811279998,1481.99,1494.5170057660132,1304.1756800000001,1499.954
10.836960077285767,137,92.047,2042.7713811279998,1484.1600000000001,1494.9195222943142,1301.1839199999999,1499.954
10.86138105392456,137,92.094,2042.7713811279998,1486.3299999999999,1495.3220388226152,1300.7362800000001,1499.954
10.885787963867188,137,93.094,2032.7084679204727,1488.5,1495.2415355169551,1296.377,1499.954
10.910011053085327,137,93.094,2032.7084679204727,1488.5,1495.6440520452561,1293.28352,1499.954
10.934417963027954,138,94.1645,2032.7084679204727,1490.9300000000001,1496.0465685735574,1290.19588,1499.9559999999999
10.958775043487549,138,94.188,2032.7084679204727,1493.1600000000001,1496.0465685735574,1291.22856,1499.9559999999999
10.983142852783203,138,95.2115,2022.6455547129456,1495.3900000000001,1495.5635487395959,1288.3589999999999,1499.9559999999999
11.00748896598816,138,95.2115,2012.5826415054185,1497.6199999999999,1495.4830454339358,1289.51764,1499.9559999999999
11.03189992904663,139,95.2115,2012.5826415054185,1502.28,1495.0805289056348,1290.6443199999999,1499.9580000000001
11.05634093284607,140,95.188,2012.5826415054185,1504.77,1494.6780123773335,1293.4704400000001,1499.96
11.080769062042236,141,94.1645,2012.5826415054185,1509.49,1494.2754958490325,1297.6442399999999,1499.962
11.105217933654785,141,94.141,2012.5826415054185,1514.01,1494.6780123773335,1303.4537599999999,1499.962
11.129540920257568,142,94.141,2012.5826415054185,1520,1495.4830454339358,1307.87508,1499.9639999999999
11.153754949569702,142,94.141,2012.5826415054185,1520,1496.2880784905378,1312.2963999999999,1499.9639999999999
11.177993059158325,143,94.188,2012.5826415054185,1520,1497.0931115471401,1315.07196,1499.9659999999999
11.202229022979736,144,95.235,2012.5826415054185,1520,1497.8981446037424,1312.24208,1499.9680000000001
11.226444959640503,144,96.2585,2012.5826415054185,1520,1498.3006611320434,1306.5088000000001,1499.9680000000001
11.250715970993042,146,96.3055,2012.5826415054185,1520,1498.3006611320434,1301.8796400000001,1499.972
11.275048017501831,146,96.3055,2012.5826415054185,1520,1498.3006611320434,1297.3068800000001,1499.972
11.299278974533081,147,96.282,2012.5826415054185,1520,1498.3006611320434,1292.9597200000001,1499.9739999999999
11.323514938354492,147,96.2585,2022.6455547129456,1520,1498.7836809660046,1292.9699600000001,1499.9739999999999
11.34807300567627,149,95.2585,2032.7084679204727,1520,1499.669217328267,1298.4897599999999,1499.9780000000001
11.372346878051758,150,94.235,2032.7084679204727,1520,1500.4742503848693,1305.6432,1499.98
11.396563053131104,150,94.2115,2023.5603650045391,1520,1500.8401745015065,1311.63048,1499.98
11.420819997787476,151,93.188,2023.5603650045391,1520,1501.2792834414713,1320.1618799999999,1499.982
11.445162057876587,151,93.1645,2014.4122620886053,1520,1500.4742503848693,1326.0373999999999,1499.982
11.469441890716553,153,92.1645,2014.4122620886053,1520,1498.9373690949924,1330.33276,1499.9860000000001
11.493661880493164,153,92.1645,2005.2641591726715,1520,1496.9613788651507,1330.4983999999999,1499.9860000000001
11.517891883850098,154,91.141,2005.2641591726715,1520,1495.7904216919112,1333.3002799999999,1499.9880000000001
11.542219877243042,154,91.141,1996.1160562567377,1520,1494.1803555787069,1332.0401199999999,1499.9880000000001
11.566479921340942,155,91.1645,1976.905040133277,1520,1492.8557102764796,1330.68408,1499.99
11.590781927108765,155,91.188,1957.6940240098163,1520,1491.1651408576151,1327.8542,1499.99
11.615141868591309,156,91.2115,1948.5459210938825,1520,1489.920998861048,1326.3824400000001,1499.992
11.639380931854248,156,91.235,1948.5459210938825,1520,1488.3841175711711,1322.0430000000001,1499.992
11.663579940795898,157,91.235,1939.3978181779487,1520,1487.1399755746043,1319.12372,1499.9939999999999
11.687788963317871,157,91.2585,1939.3978181779487,1520,1487.1399755746043,1316.2401600000001,1499.9939999999999
11.712054967880249,158,91.282,1930.2497152620149,1520,1488.2377479245163,1314.74856,1499.9960000000001
11.736346006393433,159,91.3055,1930.2497152620149,1520,1489.7746292143931,1313.28892,1499.998
11.760578870773315,159,91.329,1921.1016123460809,1520,1490.8724015643052,1313.2532000000001,1499.998
11.78494906425476,159,91.329,1912.7489966402286,1520,1492.008357300301,1313.24568,1499.998
11.809170007705688,159,91.376,1904.3963809343761,1520,1492.0417677631244,1313.1479200000001,1499.998
11.833427906036377,159,91.376,1896.0437652285236,1520,1491.7044811860501,1313.1404,1499.998
11.857697010040283,160,90.376,1887.6911495226711,1519.29,1490.6671658641042,1315.80672,1500.0
11.882086038589478,160,90.376,1879.3385338168187,1515.01,1490.0275941471989,1317.3068799999999,1500.0
11.90645694732666,160,90.376,1863.3293537139348,1512.9000000000001,1488.988687850833,1318.8070399999999,1500.0
11.930814981460571,160,90.376,1847.3201736110507,1510.79,1487.9776236068196,1320.4068399999999,1500.0
11.955211877822876,160,89.3995,1838.9675579051982,1510.8499999999999,1486.9959923895797,1324.5526399999999,1500.0
11.979526042938232,160,89.423,1822.9583778023141,1508.6800000000001,1485.980950709516,1324.63264,1500.0
12.003830909729004,160,90.47,1806.94919769943,1506.51,1484.6278269651677,1321.9448,1500.0
12.028151035308838,159,90.517,1799.2926333023984,1501.9100000000001,1483.9818913505819,1320.3892800000001,1499.998
12.052464962005615,159,90.564,1784.592029660098,1497.51,1483.6382090563384,1318.70216,1499.998
12.076786994934082,158,91.5875,1776.9354652630664,1490.6800000000001,1483.3787211284098,1311.6351999999999,1499.9960000000001
12.101202964782715,158,91.658,1762.234861620766,1486.22,1483.4214865208239,1307.03612,1499.9960000000001
12.125632047653198,157,92.6815,1754.5782972237344,1480,1484.1609714313154,1302.7511999999999,1499.9939999999999
12.149908065795898,156,92.705,1747.5342579784653,1480,1484.5957529208572,1299.76404,1499.992
12.174174070358276,155,92.7285,1740.4902187331966,1480,1485.2844539278572,1296.87464,1499.99
12.198390007019043,154,92.7285,1725.7896150908959,1480,1485.6022987975173,1298.2072800000001,1499.9880000000001
12.222609996795654,154,91.752,1718.7455758456272,1480,1486.2353156998115,1302.28332,1499.9880000000001
12.24699091911316,154,91.7285,1711.7015366003584,1480,1486.5587289799421,1306.69148,1499.9880000000001
12.271477937698364,153,90.7285,1704.6574973550894,1480,1486.8576412540021,1313.7133200000001,1499.9860000000001
12.29576301574707,152,89.7285,1704.6574973550894,1480,1487.1884048359541,1322.17704,1499.9839999999999
12.320317029953003,151,89.705,1704.6574973550894,1480,1488.3889541334086,1328.1108400000001,1499.982
12.34476089477539,151,88.705,1704.6574973550894,1480,1489.5650024247925,1333.82636,1499.982
12.36904788017273,150,87.705,1697.6134581098206,1480,1490.660197396144,1339.52412,1499.98
12.39328908920288,149,87.7285,1697.6134581098206,1480,1492.0935062512683,1341.12788,1499.9780000000001
12.41754698753357,148,87.752,1704.6574973550894,1480,1493.5831674203548,1339.8658399999999,1499.9760000000001
12.441942930221558,148,86.7755,1704.6574973550894,1480,1494.428452129787,1341.1441600000001,1499.9760000000001
12.46637487411499,147,86.7755,1704.6574973550894,1480,1494.9919752694084,1339.77872,1499.9739999999999
12.490625858306885,147,85.7755,1704.6574973550894,1480,1495.8372599788406,1338.2852399999999,1499.9739999999999
12.515038013458252,146,85.7285,1711.7015366003584,1480,1496.738897002235,1337.1416400000001,1499.972
12.539305925369263,146,83.705,1711.7015366003584,1480,1497.0206585720459,1342.70948,1499.972
12.563539028167725,145,82.6815,1704.6574973550894,1480,1496.9643062580838,1345.8489199999999,1499.97
12.587756872177124,145,81.658,1704.6574973550894,1480,1496.9643062580838,1350,1499.97
12.611950874328613,144,81.6345,1711.7015366003584,1480,1497.0206585720459,1350,1499.9680000000001
12.636205911636353,144,80.611,1711.7015366003584,1480,1496.4571354324244,1350,1499.9680000000001
12.660372018814087,143,79.5875,1704.6574973550894,1480,1495.8372599788406,1350,1499.9659999999999
12.684721946716309,143,78.564,1704.6574973550894,1480,1495.8372599788406,1350,1499.9659999999999
12.708888053894043,143,78.5405,1704.6574973550894,1480,1495.8372599788406,1350,1499.9659999999999
12.733036041259766,143,77.5405,1704.6574973550894,1480,1495.2737368392193,1350,1499.9659999999999
12.75720500946045,143,77.5405,1697.6134581098206,1480,1494.6538613856355,1350,1499.9659999999999
12.781455993652344,143,77.517,1697.6134581098206,1480,1494.6538613856355,1350,1499.9659999999999
12.80571985244751,142,77.517,1697.6134581098206,1480.3900000000001,1494.3720998158249,1350,1499.9639999999999
12.829959869384766,142,77.4935,1697.6134581098206,1482.5,1494.090338246014,1350,1499.9639999999999
12.854212045669556,142,77.47,1690.5694188645516,1482.4400000000001,1493.7522243622411,1345.9684400000001,1499.9639999999999
12.878551959991455,141,77.4465,1690.5694188645516,1480,1494.0339859320518,1341.9561200000001,1499.962
12.902801036834717,141,77.4465,1690.5694188645516,1480,1494.0339859320518,1339.2417599999999,1499.962
12.927078008651733,141,77.423,1690.5694188645516,1480,1494.0339859320518,1337.9814000000001,1499.962
12.951417922973633,141,78.423,1684.0672287919958,1480,1493.7218808085693,1334.019,1499.962
12.975775003433228,140,79.423,1677.5650387194401,1480,1493.7132112218058,1329.9107999999999,1499.96
13.000004053115845,140,79.423,1677.5650387194401,1480,1493.4747975858122,1326.9367999999999,1499.96
13.02423906326294,140,80.423,1671.0628486468843,1480,1492.9242788263357,1321.3547599999999,1499.96
13.048516035079956,140,81.3995,1664.5606585743285,1480,1492.1136724639571,1314.3289599999998,1499.96
13.072763919830322,140,82.423,1652.0379221382948,1480,1491.2741674790338,1308.6048799999999,1499.96
13.096987009048462,140,83.423,1639.5151857022611,1481.3199999999999,1490.1721666726628,1304.30096,1499.96
13.121371984481812,140,84.4465,1626.9924492662274,1483.49,1488.5692564088504,1298.5269599999999,1499.96
13.14576506614685,140,85.4465,1614.4697128301937,1485.6600000000001,1486.9856118934013,1294.1411599999999,1499.96
13.17008900642395,140,86.4465,1601.9469763941602,1487.8299999999999,1485.4212331263152,1291.08152,1499.96
13.19455099105835,140,87.47,1595.9264300306825,1490.0,1484.4097813372509,1288.0256400000001,1499.96
13.218882083892822,140,89.47,1589.9058836672048,1490.0,1483.899239005628,1282.35796,1499.96
13.243236064910889,140,91.517,1577.3831472311711,1490.0,1483.8375886108661,1276.5520000000001,1499.96
13.267560005187988,140,92.517,1571.3626008676933,1490.0,1484.3288651941259,1272.00244,1499.96
13.292202949523926,141,93.5405,1565.3420545042159,1492.4300000000001,1485.3210512348269,1267.4228000000001,1499.962
13.316602945327759,141,94.5405,1565.3420545042159,1494.6600000000001,1486.3421358980727,1262.9052000000001,1499.962
13.341081857681274,142,95.564,1565.3420545042159,1499.3199999999999,1487.3439548129554,1261.12556,1499.9639999999999
13.365628004074097,142,96.564,1565.3420545042159,1503.78,1488.8466831852795,1262.27376,1499.9639999999999
13.389976978302002,142,97.5875,1559.7515471667007,1508.24,1490.0618014570396,1263.3599200000001,1499.9639999999999
13.414293050765991,143,97.611,1559.7515471667007,1510.73,1491.3023780391368,1267.1180400000001,1499.9659999999999
13.438673973083496,143,98.6345,1554.1610398291857,1513.02,1492.0337884144942,1269.6103599999999,1499.9659999999999
13.463036060333252,143,99.658,1543.3655773843291,1510.9100000000001,1492.0509187966595,1270.7746399999999,1499.9659999999999
13.487382888793945,144,99.6815,1532.5701149394724,1511.23,1491.135321223589,1273.1211599999999,1499.9680000000001
13.511759996414185,144,99.705,1521.7746524946158,1511.3499999999999,1489.9943238851865,1276.9396400000001,1499.9680000000001
13.5361909866333,144,99.705,1510.9791900497592,1509.24,1488.1806861944506,1279.4601600000001,1499.9680000000001
13.560512065887451,145,99.7285,1500.1837276049025,1509.5599999999999,1486.3824705929217,1283.42444,1499.97
13.585071086883545,145,99.7285,1484.5303070598607,1511.8499999999999,1484.7828915003781,1288.89076,1499.97
13.609479904174805,146,98.7285,1468.8768865148184,1512.1700000000001,1483.4208125816212,1295.7028800000001,1499.972
13.633854866027832,146,98.7285,1458.8139733072915,1512.29,1482.3409578953515,1299.98884,1499.972
13.65819501876831,147,97.752,1443.1605527622494,1517.01,1481.4538793241684,1306.8208,1499.9739999999999
13.682537078857422,147,96.7755,1428.5530981061618,1517.1300000000001,1480.6308869959414,1313.7327600000001,1499.9739999999999
13.706888914108276,148,96.799,1419.1505985574156,1519.6800000000001,1480.2938894724323,1318.01892,1499.9760000000001
13.73127293586731,149,95.846,1409.7480990086697,1520,1480.4012471127826,1322.0172399999999,1499.9780000000001
13.755610942840576,150,95.893,1400.3455994599237,1520,1480.5057193299908,1324.7159199999999,1499.98
13.779852867126465,151,95.9635,1390.9430999111778,1520,1481.0545467110585,1324.5506800000001,1499.982
13.804095029830933,153,96.0105,1377.280092754406,1520,1481.7595476196836,1321.5798,1499.9860000000001
