time,x,y,size_inv,roll,pitch,thrust,yaw
0.0046498775482177734,114,16.9765,8452.8470943227167,1489.4200000000001,1502.0,1350,1500.0
0.03093886375427246,115,16.9765,8311.9663094173375,1488.27,1502.0,1350,1500.0
0.05305886268615723,116,15.9765,7994.9845433802357,1487.1500000000001,1502.0,1350,1500.0
0.07506489753723145,114,16.9765,7994.9845433802357,1485.3699999999999,1502.0,1350,1500.0
0.0969090461730957,,,7994.9845433802357,1494.5699999999999,1502.0,1313.32376,1500.0
0.11886191368103027,114,16.9765,8558.5076830017497,1483.99,1502.0,1350,1500.0
0.14106106758117676,115,16.9765,8417.6268980963705,1482.8399999999999,1502.0,1350,1500.0
0.16322994232177734,114,17.9765,8981.1500377178854,1481.26,1502.0,1350,1500.0
0.18533992767333984,,,8981.1500377178854,1490.46,1502.0,1323.24658,1500.0
0.2073509693145752,115,16.9765,9544.6731773393985,1480.1099999999999,1502.0,1350,1500.0
0.2296760082244873,115,16.9765,9403.7923924340193,1480.1400000000001,1502.0,1350,1500.0
0.2521629333496094,116,15.9765,9086.8106263969185,1482.5699999999999,1502.0,1350,1500.0
0.27449703216552734,,,9086.8106263969185,1520,1502.0,1250,1500.0
0.29671287536621094,116,14.9765,8845.3007094162695,1480,1502.0,1350,1500.0
0.3191368579864502,114,16.9765,8986.1814943216486,1486.5699999999999,1502.0,1350,1500.0
0.34162402153015137,115,15.9765,9866.6863999802645,1484.5999999999999,1502.0,1350,1500.0
0.36421704292297363,115,16.9765,9725.8056150748853,1480.2,1502.0,1350,1500.0
0.386807918548584,117,13.9765,9373.6036528114382,1480,1502.0,1350,1500.0
0.409268856048584,115,15.9765,9272.9745207361684,1480,1502.0,1350,1500.0
0.4317128658294678,115,14.9765,9272.9745207361684,1480,1502.0,1350,1500.0
0.4542219638824463,115,16.9765,8568.5705962092761,1480,1502.0,1350,1500.0
0.4766099452972412,,,8568.5705962092761,1493.6600000000001,1502.0,1331.12752,1500.0
0.49894094467163086,114,17.9765,8920.7725584727232,1520,1502.0,1306.80376,1500.0
0.5214090347290039,114,16.9765,9237.7543245098241,1520,1502.0,1307.9237599999999,1500.0
0.5439729690551758,116,14.9765,10042.787381111988,1520,1502.0,1307.60376,1500.0
0.5665569305419922,113,17.9765,10606.310520733501,1520,1502.0,1303.9237599999999,1500.0
0.5890429019927979,116,14.9765,9667.1052880309762,1480,1502.0,1350,1500.0
0.611487865447998,114,17.9765,10371.50921255787,1480,1502.0,1350,1500.0
0.6349279880523682,115,16.9765,10160.188035199801,1480,1502.0,1350,1500.0
0.6596908569335938,115,15.9765,10160.188035199801,1480,1502.0,1350,1500.0
0.6844029426574707,114,17.9765,9807.9860729363536,1480,1502.0,1350,1500.0
0.708745002746582,,,9807.9860729363536,1520,1502.0,1250,1500.0
0.7328670024871826,115,15.9765,9807.9860729363536,1520,1502.0,1313.2037599999999,1500.0
0.757544994354248,,,9807.9860729363536,1520,1502.0,1250,1500.0
0.7813379764556885,,,9807.9860729363536,1520,1502.0,1250,1500.0
0.8053600788116455,114,17.9765,9807.9860729363536,1520,1502.0,1250,1500.0
0.8297569751739502,116,13.9765,9807.9860729363536,1520,1502.0,1315.9218799999999,1500.0
0.8545260429382324,115,15.9765,9002.9530163341897,1520,1502.0,1310.80188,1500.0
0.8791120052337646,115,15.9765,8122.4481106755729,1480,1502.0,1350,1500.0
0.9036049842834473,117,12.9765,8709.4513811146498,1480,1502.0,1350,1500.0
0.9279000759124756,,,8709.4513811146498,1480,1502.0,1350,1500.0
0.951988935470581,114,16.9765,8145.9282414931367,1480,1502.0,1350,1500.0
0.9764769077301025,,,8145.9282414931367,1494.1300000000001,1502.0,1323.04564,1500.0
1.0007328987121582,114,17.9765,8357.2494188512046,1520,1502.0,1304.32188,1500.0
1.0252320766448975,115,16.9765,8598.7593358318536,1520,1502.0,1250,1500.0
1.0496530532836914,115,16.9765,8387.4381584737857,1480,1502.0,1350,1500.0
1.0741839408874512,116,13.9765,8528.3189433791649,1480,1502.0,1350,1500.0
1.0988399982452393,,,8528.3189433791649,1480,1502.0,1350,1500.0
1.122959852218628,116,14.9765,8528.3189433791649,1480,1502.0,1350,1500.0
1.1475279331207275,116,13.9765,9091.842083000678,1480,1502.0,1350,1500.0
1.171949863433838,114,16.9765,9333.351999981327,1488.8,1502.0,1350,1500.0
1.1961569786071777,,,9333.351999981327,1520,1502.0,1250,1500.0
1.2206408977508545,115,15.9765,9333.351999981327,1482.4300000000001,1502.0,1350,1500.0
1.2448930740356445,,,9333.351999981327,1520,1502.0,1250,1500.0
1.268960952758789,113,17.9765,9685.5539622447741,1520,1502.0,1294.56188,1500.0
1.293510913848877,115,15.9765,9368.5721962076732,1520,1502.0,1298.4018799999999,1500.0
1.3181400299072266,114,16.9765,9157.2510188496053,1480,1502.0,1350,1500.0
1.3425850868225098,114,16.9765,9016.3702339442261,1480,1502.0,1350,1500.0
1.3669710159301758,115,15.9765,8699.3884679071234,1480,1502.0,1350,1500.0
1.3911290168762207,,,8699.3884679071234,1480,1502.0,1350,1500.0
1.415235996246338,114,17.9765,8910.7096452651931,1480,1502.0,1350,1500.0
1.4396700859069824,117,13.9765,8382.4067018700225,1487.1099999999999,1502.0,1350,1500.0
1.464590072631836,115,16.9765,7818.8835622485085,1491.1099999999999,1502.0,1350,1500.0
1.4891688823699951,115,15.9765,7577.3736452678595,1520,1502.0,1317.4437599999999,1500.0
1.5138368606567383,114,17.9765,8105.6765886630292,1480,1502.0,1350,1500.0
1.5384619235992432,113,17.9765,8105.6765886630292,1480,1502.0,1350,1500.0
1.562880039215088,114,16.9765,8422.6583547001319,1480,1502.0,1350,1500.0
1.5874419212341309,114,17.9765,8633.9795320581998,1480,1502.0,1350,1500.0
1.6120078563690186,114,16.9765,8774.860316963579,1480,1502.0,1350,1500.0
1.6366090774536133,115,15.9765,8850.3321660200309,1480,1502.0,1350,1500.0
1.661078929901123,114,16.9765,8498.1302037565838,1480,1502.0,1350,1500.0
1.6854798793792725,114,17.9765,9026.4331471517544,1480,1502.0,1350,1500.0
1.7098910808563232,112,18.9765,9589.9562867732675,1480,1502.0,1350,1500.0
1.7345099449157715,118,11.9765,9831.4662037539165,1486.6600000000001,1502.0,1350,1500.0
1.759247064590454,114,16.9765,9620.1450263958486,1481.46,1502.0,1350,1500.0
1.7838339805603027,117,12.9765,8915.7411018689563,1486.5799999999999,1502.0,1350,1500.0
1.808527946472168,113,17.9765,9127.0622792270242,1483.55,1502.0,1350,1500.0
1.8330399990081787,114,17.9765,9479.2642414904712,1492.55,1502.0,1350,1500.0
1.8577320575714111,114,17.9765,9690.5854188485391,1480,1502.0,1350,1500.0
1.8821258544921875,114,16.9765,9791.2145509238089,1480,1502.0,1350,1500.0
1.9065380096435547,114,15.9765,9690.5854188485391,1480,1502.0,1350,1500.0
1.9309580326080322,114,16.9765,9479.2642414904712,1480,1502.0,1350,1500.0
1.9553930759429932,113,17.9765,9127.0622792270242,1480,1502.0,1350,1500.0
1.9798390865325928,114,16.9765,8986.181494321645,1480,1502.0,1350,1500.0
2.004415988922119,112,15.9765,8986.181494321645,1480,1502.0,1350,1500.0
2.0290160179138184,115,14.9765,8885.5523622463752,1480,1502.0,1350,1500.0
2.05351185798645,115,16.9765,8533.3503999829281,1480,1502.0,1350,1500.0
2.0780370235443115,114,17.9765,8181.1484377194811,1480,1502.0,1350,1500.0
2.1024608612060547,112,17.9765,8181.1484377194811,1480,1502.0,1350,1500.0
2.1272060871124268,114,16.9765,8322.0292226248603,1483.51,1502.0,1350,1500.0
2.151740074157715,114,17.9765,8774.8603169635771,1480,1502.0,1350,1500.0
2.1758790016174316,,,8774.8603169635771,1520,1502.0,1250,1500.0
2.199960947036743,114,17.9765,8986.181494321645,1520,1502.0,1305.04376,1500.0
2.224587917327881,113,17.9765,8986.181494321645,1520,1502.0,1306.4037599999999,1500.0
2.249295949935913,114,15.9765,8986.181494321645,1520,1502.0,1311.60376,1500.0
2.2738640308380127,113,17.9765,9549.7046339431581,1520,1502.0,1313.28376,1500.0
2.298482894897461,112,16.9765,9791.2145509238071,1480,1502.0,1350,1500.0
2.3229219913482666,112,17.9765,10143.416513187254,1480,1502.0,1350,1500.0
2.347545862197876,114,16.9765,9932.0953358291863,1480,1502.0,1350,1500.0
2.3719630241394043,115,16.9765,9579.8933735657392,1480,1502.0,1350,1500.0
2.396127939224243,,,9579.8933735657392,1486.6099999999999,1502.0,1327.84752,1500.0
2.4203999042510986,114,14.9765,10143.416513187254,1520,1502.0,1319.84376,1500.0
2.4449589252471924,115,15.9765,9690.5854188485355,1520,1502.0,1321.52376,1500.0
2.4695839881896973,115,15.9765,9479.2642414904676,1520,1502.0,1321.60376,1500.0
2.4942240715026855,115,16.9765,9267.9430641323997,1520,1502.0,1321.76376,1500.0
2.519547939300537,113,17.9765,9972.346988659292,1480,1502.0,1350,1500.0
2.543907880783081,,,9972.346988659292,1495.5899999999999,1502.0,1326.64752,1500.0
2.5683860778808594,114,16.9765,9408.8238490377789,1480,1502.0,1350,1500.0
2.592805862426758,115,14.9765,9167.3139320571299,1480,1502.0,1350,1500.0
2.617279052734375,117,12.9765,8955.9927546990621,1480.54,1502.0,1350,1500.0
2.64182186126709,114,16.9765,8955.9927546990621,1520,1502.0,1317.84376,1500.0
2.6663169860839844,115,15.9765,8779.8917735673385,1480,1502.0,1350,1500.0
2.6907248497009277,114,17.9765,8427.6898113038915,1480,1502.0,1350,1500.0
2.714935064315796,,,8427.6898113038915,1495.71,1502.0,1330.9675199999999,1500.0
2.7392659187316895,115,16.9765,8880.5209056426083,1480,1502.0,1350,1500.0
2.7637150287628174,114,17.9765,9091.8420830006762,1480,1502.0,1350,1500.0
2.7882089614868164,114,16.9765,9303.1632603587459,1520,1502.0,1300.8837599999999,1500.0
2.8127200603485107,114,16.9765,8739.640120737231,1520,1502.0,1303.6837599999999,1500.0
2.837256908416748,116,14.9765,8363.9580276562228,1480,1502.0,1350,1500.0
2.8616678714752197,114,17.9765,8816.7891219949397,1480,1502.0,1350,1500.0
2.886080026626587,114,15.9765,9380.3122616164528,1480,1502.0,1350,1500.0
2.9104628562927246,116,14.9765,9591.6334389745207,1480,1502.0,1350,1500.0
2.9347829818725586,,,9591.6334389745207,1495.71,1502.0,1333.6875199999999,1500.0
2.9592270851135254,118,11.9765,10119.936382369691,1520,1502.0,1328.0037600000001,1500.0
2.9837679862976074,115,15.9765,9667.1052880309744,1520,1502.0,1327.4437600000001,1500.0
3.008358955383301,115,16.9765,9314.9033257675273,1520,1502.0,1322.08376,1500.0
3.0328240394592285,116,15.9765,9103.5821484094595,1520,1502.0,1319.1237599999999,1500.0
3.0578038692474365,116,14.9765,8516.5788779703817,1480,1502.0,1350,1500.0
3.082244873046875,114,16.9765,8516.5788779703817,1480,1502.0,1350,1500.0
3.10667085647583,115,15.9765,8892.2609710513898,1480,1502.0,1350,1500.0
3.130825996398926,,,8892.2609710513898,1482.75,1502.0,1321.4475199999999,1500.0
3.155113935470581,114,17.9765,8892.2609710513898,1480,1502.0,1350,1500.0
3.1794910430908203,116,13.9765,7867.6734444668182,1520,1502.0,1308.9637600000001,1500.0
3.204087018966675,113,17.9765,8219.8754067302652,1520,1502.0,1309.52376,1500.0
3.2287020683288574,115,15.9765,7691.5724633350956,1520,1502.0,1311.9237599999999,1500.0
3.2529730796813965,,,7691.5724633350956,1482.5699999999999,1502.0,1324.0075200000001,1500.0
3.2775189876556396,114,17.9765,8144.4035576738124,1480,1502.0,1350,1500.0
3.3020780086517334,115,14.9765,8496.6055199372604,1480,1502.0,1350,1500.0
3.326274871826172,,,8496.6055199372604,1520,1502.0,1250,1500.0
3.350377082824707,115,14.9765,8120.9234268562504,1520,1502.0,1310.6418799999999,1500.0
3.374974012374878,114,16.9765,8496.6055199372604,1480,1502.0,1350,1500.0
3.399517059326172,114,16.9765,8496.6055199372604,1480,1502.0,1350,1500.0
3.424264907836914,114,16.9765,8707.9266972953283,1480,1502.0,1350,1500.0
3.449444055557251,114,16.9765,9060.1286595587753,1480,1502.0,1350,1500.0
3.4739580154418945,114,17.9765,9732.5142238798999,1480,1502.0,1350,1500.0
3.4985129833221436,116,13.9765,8852.009318221284,1480,1502.0,1350,1500.0
3.522899866104126,114,17.9765,9380.3122616164528,1480,1502.0,1350,1500.0
3.5478110313415527,114,16.9765,9380.3122616164528,1480,1502.0,1350,1500.0
3.572242021560669,116,12.9765,9028.1102993530058,1484.1500000000001,1502.0,1350,1500.0
3.596773862838745,116,12.9765,9967.3155320555306,1490.78,1502.0,1350,1500.0
3.6210429668426514,,,9967.3155320555306,1520,1502.0,1250,1500.0
3.6448569297790527,,,9967.3155320555306,1520,1502.0,1250,1500.0
3.6685879230499268,,,9967.3155320555306,1520,1502.0,1250,1500.0
3.692349910736084,,,9967.3155320555306,1520,1502.0,1250,1500.0
3.716156005859375,,,9967.3155320555306,1520,1502.0,1250,1500.0
3.739928960800171,,,9967.3155320555306,1520,1502.0,1250,1500.0
3.763737916946411,,,9967.3155320555306,1520,1502.0,1250,1500.0
3.787571907043457,,,9967.3155320555306,1520,1502.0,1250,1500.0
3.8113229274749756,,,9967.3155320555306,1520,1502.0,1250,1500.0
3.8354110717773438,,,9967.3155320555306,1500.0,1502.0,1300.0,1500.0
3.859365940093994,,,9967.3155320555306,1500.0,1502.0,1300.0,1500.0
3.88326096534729,,,9967.3155320555306,1500.0,1502.0,1300.0,1500.0
3.9074389934539795,,,9967.3155320555306,1500.0,1502.0,1300.0,1500.0
3.931612968444824,,,9967.3155320555306,1500.0,1502.0,1300.0,1500.0
3.955573081970215,,,9967.3155320555306,1500.0,1502.0,1300.0,1500.0
3.9794859886169434,,,9967.3155320555306,1500.0,1502.0,1300.0,1500.0
4.003448009490967,,,9967.3155320555306,1500.0,1502.0,1300.0,1500.0
4.0274598598480225,,,9967.3155320555306,1500.0,1502.0,1300.0,1500.0
4.051395893096924,,,9967.3155320555306,1500.0,1502.0,1300.0,1500.0
4.075588941574097,116,10.9765,9506.251145092474,1480,1502.0,1350,1500.0
4.099740028381348,117,10.9765,,1480,1487,1350,1500.0
4.123707056045532,117,8.9765,,1480,1487,1350,1500.0
4.147692918777466,117,9.9765,,1480,1487,1350,1500.0
4.17153787612915,118,9.9765,,1480,1487,1350,1500.0
4.195440053939819,118,9.9765,,1480,1487,1350,1500.0
4.219460964202881,120,10.9765,,1480,1487,1350,1500.0
4.24354100227356,121,11.9765,,1480,1487,1350,1500.0
4.267512083053589,121,11.9765,,1480,1487,1350,1500.0
4.291393995285034,122,12.9765,,1517.4100000000001,1487,1350,1500.0
4.315345048904419,123,13.9765,,1520,1487,1350,1500.0
4.33923602104187,124,14.9765,,1520,1487,1350,1500.0
4.363343000411987,128,17.9765,8785.2730105767132,1520,1502.0,1350,1500.0
4.387875080108643,128,18.9765,7849.4220822766974,1520,1502.0,1350,1500.0
4.412230968475342,129,20.9765,6558.0148873107273,1520,1502.0,1350,1500.0
4.43662691116333,130,21.9765,5615.6366639571806,1520,1502.0,1350,1500.0
4.461040019989014,131,23.9765,5201.5613839988046,1520,1502.0,1350,1500.0
4.485581874847412,133,25.9765,4253.3253317510635,1520,1502.0,1350,1500.0
4.51052188873291,134,27.9765,3302.380033639758,1520,1502.0,1350,1500.0
4.53501296043396,134,28.9765,2703.6366977918988,1520,1502.0,1350,1500.0
4.559520959854126,135,29.9765,1400.4894374171465,1520,1502.0,1350,1500.0
4.583986043930054,135,30.9765,1121.9297036269659,1520,1502.0,1350,1500.0
4.608479976654053,135,31.9765,1103.2837173894893,1520,1502.0,1350,1500.0
4.632866859436035,136,32.9765,1090.8985934417638,1520,1502.0,1350,1500.0
4.657429933547974,136,33.9765,1079.1585280329823,1520,1502.0,1350,1500.0
4.681833028793335,136,33.9765,1073.3006991387876,1511.75,1502.0,1350,1500.0
4.706328868865967,136,34.9765,1064.7336243810282,1505.3,1502.0,1350,1500.0
4.730851888656616,136,35.9765,1062.024378517463,1503.1900000000001,1502.0,1350,1500.0
4.755370855331421,135,35.9765,1064.7336243810282,1496.4200000000001,1502.0,1350,1500.0
4.78008508682251,136,36.9765,1070.2947079957141,1492.28,1502.0,1350,1500.0
4.805830955505371,135,36.9765,1075.8557916104,1487.6800000000001,1502.0,1350,1500.0
4.830404043197632,135,37.9765,1081.416875225086,1483.28,1502.0,1350,1500.0
4.855000019073486,135,38.9765,1086.9779588397719,1480,1502.0,1350,1500.0
4.87945294380188,133,38.9765,1092.8357877339665,1480,1502.0,1350,1500.0
4.903907060623169,133,38.9765,1104.575853142748,1480,1502.0,1350,1500.0
4.928658962249756,133,39.9765,1113.6066726879646,1480,1502.0,1350,1500.0
4.953322887420654,132,39.9765,1128.7010424992552,1480,1502.0,1350,1500.0
4.9778969287872314,132,41.9765,1147.3470287367318,1480,1502.0,1350,1500.0
5.002285003662109,132,42.9765,1163.2837691106433,1480,1502.0,1350,1500.0
5.026705026626587,132,42.9765,1176.368671733434,1480,1502.0,1350,1500.0
5.051114082336426,134,42.9765,1193.2204402627854,1480,1502.0,1350,1500.0
5.075824975967407,133,43.9765,1210.072208792137,1480,1502.0,1350,1500.0
5.100326061248779,134,44.9765,1230.9262723472093,1491.04,1502.0,1350,1500.0
5.124971866607666,136,45.9765,1253.034852367234,1502.53,1502.0,1350,1500.0
5.149539947509766,137,46.9765,1276.5149831847971,1516.05,1502.0,1350,1500.0
5.174079895019531,138,46.9765,1310.0580272098873,1520,1502.0,1350,1500.0
5.198592901229858,139,46.9765,1340.2467668324684,1520,1502.0,1350,1500.0
5.222998857498169,140,46.9765,1372.4743973663785,1520,1502.0,1350,1500.0
5.248198986053467,143,48.9765,1410.7225742637663,1520,1502.0,1350,1500.0
5.272652864456177,145,48.9765,1448.9707511611541,1520,1502.0,1350,1500.0
5.2971179485321045,147,49.9765,1483.452062151981,1520,1502.0,1350,1500.0
5.321537017822266,148,50.9765,1511.9128267793303,1520,1502.0,1350,1500.0
5.34595799446106,150,51.9765,1536.3712963809585,1520,1502.0,1350,1500.0
5.370390892028809,153,52.9765,1556.5692583745611,1520,1502.0,1350,1500.0
5.3948729038238525,155,53.9765,1572.2226789196034,1520,1502.0,1345.8776,1500.0
5.419450044631958,156,54.9765,1583.833732620596,1520,1502.0,1341.5576000000001,1500.0
5.444161891937256,158,54.9765,1589.424239958111,1520,1502.0,1341.2375999999999,1500.0
5.468937873840332,160,55.9765,1589.424239958111,1520,1502.0,1341.0775999999998,1500.0
5.493566989898682,164,56.9765,1583.4036935946333,1520,1502.0,1339.5575999999999,1500.0
5.518172025680542,165,56.9765,1577.3831472311556,1520,1502.0,1342.0375999999999,1500.0
5.5426719188690186,168,57.9765,1565.7720935301629,1520,1502.0,1343.3175999999999,1500.0
5.567193984985352,170,57.9765,1560.181586192648,1520,1502.0,1344.4376,1500.0
5.592246055603027,172,57.9765,1554.591078855133,1520,1502.0,1346.9976000000001,1500.0
5.6177520751953125,175,57.9765,1549.000571517618,1520,1502.0,1350,1500.0
5.642206907272339,177,57.9765,1543.4100641801028,1520,1502.0,1350,1500.0
5.666626930236816,179,57.9765,1531.7990104791102,1520,1502.0,1350,1500.0
5.691061019897461,181,57.9765,1526.2085031415952,1520,1502.0,1350,1500.0
5.715508937835693,182,57.9765,1520.6179958040802,1520,1502.0,1350,1500.0
5.73995304107666,186,56.9765,1515.0274884665653,1520,1502.0,1350,1500.0
5.764791011810303,187,56.9765,1509.4369811290503,1520,1502.0,1350,1500.0
5.789277076721191,187,56.9765,1509.4369811290503,1520,1502.0,1350,1500.0
5.813837051391602,190,56.9765,1509.4369811290503,1520,1502.0,1350,1500.0
5.838552951812744,190,55.9765,1504.2320260217086,1520,1502.0,1350,1500.0
5.863138914108276,193,55.9765,1499.027070914367,1520,1502.0,1350,1500.0
5.887727975845337,194,55.9765,1499.027070914367,1520,1502.0,1350,1500.0
5.912142992019653,195,55.9765,1499.027070914367,1520,1502.0,1350,1500.0
5.936935901641846,196,54.9765,1493.8221158070253,1520,1502.0,1350,1500.0
5.961349964141846,197,54.9765,1488.6171606996836,1520,1502.0,1350,1500.0
5.985750913619995,197,54.9765,1483.4122055923422,1520,1502.0,1350,1500.0
6.010123014450073,197,54.9765,1473.349292384815,1520,1502.0,1350,1500.0
6.03496789932251,197,54.9765,1468.1443372774734,1520,1502.0,1350,1500.0
6.060251951217651,197,54.9765,1462.9393821701319,1520,1502.0,1350,1500.0
6.084728002548218,196,54.9765,1462.9393821701319,1520,1502.0,1350,1500.0
6.109349966049194,194,54.9765,1468.1443372774734,1520,1502.0,1350,1500.0
6.134271860122681,192,54.9765,1468.1443372774734,1503.9400000000001,1502.0,1350,1500.0
6.158874988555908,191,54.9765,1462.9393821701319,1486.02,1502.0,1350,1500.0
6.183367967605591,189,54.9765,1468.1443372774734,1480,1502.0,1350,1500.0
6.2079479694366455,188,54.9765,1468.1443372774734,1480,1502.0,1350,1500.0
6.2323479652404785,183,55.9765,1473.349292384815,1480,1502.0,1350,1500.0
6.256782054901123,181,55.9765,1483.4122055923422,1480,1502.0,1350,1500.0
6.2811689376831055,179,55.9765,1488.6171606996836,1480,1502.0,1350,1500.0
6.305536985397339,178,54.9765,1493.8221158070253,1480,1502.0,1350,1500.0
6.329905986785889,176,53.9765,1499.027070914367,1480,1502.0,1350,1500.0
6.354413986206055,174,52.9765,1504.6175782518819,1480,1502.0,1350,1500.0
6.379252910614014,171,49.9765,1510.2080855893969,1480,1502.0,1350,1500.0
6.403734922409058,170,48.9765,1521.0035480342535,1480,1502.0,1350,1500.0
6.428612947463989,169,46.9765,1526.5940553717687,1480,1502.0,1350,1500.0
6.453031063079834,167,44.9765,1537.3895178166254,1480,1502.0,1350,1500.0
6.477601051330566,166,41.9765,1542.9800251541403,1480,1502.0,1350,1500.0
6.502029895782471,163,38.9765,1548.5705324916553,1480,1502.0,1350,1500.0
6.526439905166626,163,36.9765,1554.1610398291702,1480,1502.0,1350,1500.0
6.5508458614349365,161,34.9765,1565.7720935301629,1480,1502.0,1350,1500.0
6.575744867324829,160,32.9765,1577.3831472311556,1480,1502.0,1350,1500.0
6.600308895111084,159,29.9765,1583.4036935946333,1480,1502.0,1350,1500.0
6.624830961227417,157,25.9765,1589.424239958111,1480,1502.0,1350,1500.0
6.649306058883667,156,22.9765,1601.9469763941447,1480,1502.0,1350,1500.0
6.67380690574646,156,20.9765,1614.4697128301782,1480,1502.0,1350,1500.0
6.698348045349121,156,18.9765,1626.9924492662119,1480,1502.0,1350,1500.0
6.722996950149536,155,16.9765,,1480,1487,1350,1500.0
6.747022867202759,154,12.9765,,1480,1487,1350,1500.0
6.770875930786133,154,10.9765,,1480,1487,1350,1500.0
6.794796943664551,153,9.9765,,1480,1487,1350,1500.0
6.818706035614014,153,8.9765,,1480,1487,1350,1500.0
6.842541933059692,153,7.9765,,1480,1487,1350,1500.0
6.866386890411377,153,6.9765,,1480,1487,1350,1500.0
6.890269994735718,152,4.9765,,1480,1487,1350,1500.0
6.91429591178894,152,3.9765,,1480,1487,1350,1500.0
6.938420057296753,151,2.9765,,1480,1487,1350,1500.0
6.962441921234131,153,1.9765,,1483.24,1487,1350,1500.0
6.986527919769287,158,0.9765,,1497.5599999999999,1487,1350,1500.0
7.01046895980835,,,,1520,1502.0,1250,1500.0
7.034317970275879,,,,1520,1502.0,1250,1500.0
7.058103084564209,,,,1520,1502.0,1250,1500.0
7.0817248821258545,,,,1520,1502.0,1250,1500.0
7.105436086654663,,,,1520,1502.0,1250,1500.0
7.129163980484009,,,,1520,1502.0,1250,1500.0
7.15291690826416,,,,1520,1502.0,1250,1500.0
7.176771879196167,,,,1519.53,1502.0,1250,1500.0
7.2005720138549805,,,,1504.3399999999999,1502.0,1250,1500.0
7.224413871765137,,,,1500.0,1502.0,1300.0,1500.0
7.248389005661011,,,,1500.0,1502.0,1300.0,1500.0
7.27226996421814,,,,1500.0,1502.0,1300.0,1500.0
7.296143054962158,,,,1500.0,1502.0,1300.0,1500.0
7.320061922073364,,,,1500.0,1502.0,1300.0,1500.0
7.344063997268677,,,,1500.0,1502.0,1300.0,1500.0
7.368046998977661,,,,1500.0,1502.0,1300.0,1500.0
7.39192795753479,,,,1500.0,1502.0,1300.0,1500.0
7.415804862976074,,,,1500.0,1502.0,1300.0,1500.0
7.439717054367065,,,,1500.0,1502.0,1300.0,1500.0
7.463897943496704,,,,1500.0,1502.0,1300.0,1500.0
7.488262891769409,,,,1500.0,1502.0,1300.0,1500.0
7.512348890304565,,,,1500.0,1502.0,1300.0,1500.0
7.536288022994995,,,,1500.0,1502.0,1300.0,1500.0
7.560210943222046,,,,1500.0,1502.0,1300.0,1500.0
7.584233999252319,,,,1500.0,1502.0,1300.0,1500.0
7.608258008956909,,,,1500.0,1502.0,1300.0,1500.0
7.632176876068115,,,,1500.0,1502.0,1300.0,1500.0
7.656090021133423,,,,1500.0,1502.0,1300.0,1500.0
7.679991006851196,,,,1500.0,1502.0,1300.0,1500.0
7.703950881958008,,,,1500.0,1502.0,1300.0,1500.0
7.727962017059326,,,,1500.0,1502.0,1300.0,1500.0
7.7518699169158936,,,,1500.0,1502.0,1300.0,1500.0
7.775845050811768,,,,1500.0,1502.0,1300.0,1500.0
7.79974102973938,,,,1500.0,1502.0,1300.0,1500.0
7.823728084564209,,,,1500.0,1502.0,1300.0,1500.0
7.8477208614349365,,,,1500.0,1502.0,1300.0,1500.0
7.871634006500244,,,,1500.0,1502.0,1300.0,1500.0
7.895554065704346,,,,1500.0,1502.0,1300.0,1500.0
7.919467926025391,,,,1500.0,1502.0,1300.0,1500.0
7.9433698654174805,,,,1500.0,1502.0,1300.0,1500.0
7.967402935028076,,,,1500.0,1502.0,1300.0,1500.0
7.991289854049683,,,,1500.0,1502.0,1300.0,1500.0
8.015192031860352,,,,1500.0,1502.0,1300.0,1500.0
8.039093971252441,,,,1500.0,1502.0,1300.0,1500.0
8.062996864318848,,,,1500.0,1502.0,1300.0,1500.0
8.087056875228882,,,,1500.0,1502.0,1300.0,1500.0
8.110955953598022,,,,1500.0,1502.0,1300.0,1500.0
8.13484501838684,,,,1500.0,1502.0,1300.0,1500.0
8.158743858337402,,,,1500.0,1502.0,1300.0,1500.0
8.182914972305298,,,,1500.0,1502.0,1300.0,1500.0
8.207364082336426,,,,1500.0,1502.0,1300.0,1500.0
8.231315851211548,,,,1500.0,1502.0,1300.0,1500.0
8.25525689125061,,,,1500.0,1502.0,1300.0,1500.0
8.279325008392334,,,,1500.0,1502.0,1300.0,1500.0
8.3037850856781,,,,1500.0,1502.0,1300.0,1500.0
8.327801942825317,,,,1500.0,1502.0,1300.0,1500.0
8.351726055145264,,,,1500.0,1502.0,1300.0,1500.0
8.375732898712158,,,,1500.0,1502.0,1300.0,1500.0
8.399707078933716,,,,1500.0,1502.0,1300.0,1500.0
8.423661947250366,,,,1500.0,1502.0,1300.0,1500.0
8.447967052459717,,,,1500.0,1502.0,1300.0,1500.0
8.47189998626709,,,,1500.0,1502.0,1300.0,1500.0
8.495773077011108,,,,1500.0,1502.0,1300.0,1500.0
8.519659996032715,,,,1500.0,1502.0,1300.0,1500.0
8.543638944625854,,,,1500.0,1502.0,1300.0,1500.0
8.567641019821167,,,,1500.0,1502.0,1300.0,1500.0
8.591567993164062,,,,1500.0,1502.0,1300.0,1500.0
8.615460872650146,,,,1500.0,1502.0,1300.0,1500.0
8.639364004135132,,,,1500.0,1502.0,1300.0,1500.0
8.663569927215576,,,,1500.0,1502.0,1300.0,1500.0
8.687859058380127,,,,1500.0,1502.0,1300.0,1500.0
8.711750984191895,,,,1500.0,1502.0,1300.0,1500.0
8.735692977905273,,,,1500.0,1502.0,1300.0,1500.0
8.759592056274414,,,,1500.0,1502.0,1300.0,1500.0
8.78354287147522,,,,1500.0,1502.0,1300.0,1500.0
8.807533025741577,,,,1500.0,1502.0,1300.0,1500.0
8.831445932388306,,,,1500.0,1502.0,1300.0,1500.0
8.855361938476562,,,,1500.0,1502.0,1300.0,1500.0
8.879260063171387,,,,1500.0,1502.0,1300.0,1500.0
8.903153896331787,,,,1500.0,1502.0,1300.0,1500.0
8.927227973937988,,,,1500.0,1502.0,1300.0,1500.0
8.951133012771606,,,,1500.0,1502.0,1300.0,1500.0
8.975012063980103,,,,1500.0,1502.0,1300.0,1500.0
8.99888801574707,,,,1500.0,1502.0,1300.0,1500.0
9.02278184890747,,,,1500.0,1502.0,1300.0,1500.0
9.046697854995728,,,,1500.0,1502.0,1300.0,1500.0
9.070604085922241,,,,1500.0,1502.0,1300.0,1500.0
9.094541072845459,,,,1500.0,1502.0,1300.0,1500.0
9.118494033813477,,,,1500.0,1502.0,1300.0,1500.0
9.142377853393555,,,,1500.0,1502.0,1300.0,1500.0
9.166240930557251,,,,1500.0,1502.0,1300.0,1500.0
9.190114974975586,,,,1500.0,1502.0,1300.0,1500.0
9.214097023010254,,,,1500.0,1502.0,1300.0,1500.0
9.23811388015747,,,,1500.0,1502.0,1300.0,1500.0
9.261996984481812,,,,1500.0,1502.0,1300.0,1500.0
9.285898923873901,,,,1500.0,1502.0,1300.0,1500.0
9.309778928756714,,,,1500.0,1502.0,1300.0,1500.0
9.333744049072266,,,,1500.0,1502.0,1300.0,1500.0
9.357744932174683,,,,1500.0,1502.0,1300.0,1500.0
9.381654977798462,,,,1500.0,1502.0,1300.0,1500.0
9.405547857284546,,,,1500.0,1502.0,1300.0,1500.0
9.429447889328003,,,,1500.0,1502.0,1300.0,1500.0
9.45334005355835,,,,1500.0,1502.0,1300.0,1500.0
9.477382898330688,,,,1500.0,1502.0,1300.0,1500.0
9.501277923583984,,,,1500.0,1502.0,1300.0,1500.0
9.525156021118164,,,,1500.0,1502.0,1300.0,1500.0
9.549041032791138,,,,1500.0,1502.0,1300.0,1500.0
9.572922945022583,,,,1500.0,1502.0,1300.0,1500.0
9.596950054168701,,,,1500.0,1502.0,1300.0,1500.0
9.62087106704712,,,,1500.0,1502.0,1300.0,1500.0
9.644815921783447,,,,1500.0,1502.0,1300.0,1500.0
9.668691873550415,,,,1500.0,1502.0,1300.0,1500.0
9.692606925964355,,,,1500.0,1502.0,1300.0,1500.0
9.716585874557495,,,,1500.0,1502.0,1300.0,1500.0
9.74048900604248,,,,1500.0,1502.0,1300.0,1500.0
9.764456987380981,,,,1500.0,1502.0,1300.0,1500.0
9.788445949554443,,,,1500.0,1502.0,1300.0,1500.0
9.812516927719116,,,,1500.0,1502.0,1300.0,1500.0
9.836651086807251,,,,1500.0,1502.0,1300.0,1500.0
9.860610961914062,,,,1500.0,1502.0,1300.0,1500.0
9.884572982788086,,,,1500.0,1502.0,1300.0,1500.0
9.908910036087036,,,,1500.0,1502.0,1300.0,1500.0
9.933253049850464,,,,1500.0,1502.0,1300.0,1500.0
9.957277059555054,,,,1500.0,1502.0,1300.0,1500.0
9.981165885925293,,,,1500.0,1502.0,1300.0,1500.0
10.005053043365479,,,,1500.0,1502.0,1300.0,1500.0
10.028965950012207,,,,1500.0,1502.0,1300.0,1500.0
10.05288290977478,,,,1500.0,1502.0,1300.0,1500.0
10.07691502571106,,,,1500.0,1502.0,1300.0,1500.0
10.100815057754517,,,,1500.0,1502.0,1300.0,1500.0
10.124813079833984,,,,1500.0,1502.0,1300.0,1500.0
10.148752927780151,,,,1500.0,1502.0,1300.0,1500.0
10.172664880752563,,,,1500.0,1502.0,1300.0,1500.0
10.196598052978516,,,,1500.0,1502.0,1300.0,1500.0
10.220530033111572,,,,1500.0,1502.0,1300.0,1500.0
10.244505882263184,,,,1500.0,1502.0,1300.0,1500.0
10.268468856811523,,,,1500.0,1502.0,1300.0,1500.0
10.292382001876831,,,,1500.0,1502.0,1300.0,1500.0
10.31629490852356,,,,1500.0,1502.0,1300.0,1500.0
10.340188026428223,,,,1500.0,1502.0,1300.0,1500.0
10.364152908325195,,,,1500.0,1502.0,1300.0,1500.0
10.388130903244019,,,,1500.0,1502.0,1300.0,1500.0
10.41231894493103,,,,1500.0,1502.0,1300.0,1500.0
10.43622899055481,,,,1500.0,1502.0,1300.0,1500.0
10.460113048553467,,,,1500.0,1502.0,1300.0,1500.0
10.484058856964111,,,,1500.0,1502.0,1300.0,1500.0
10.50805401802063,,,,1500.0,1502.0,1300.0,1500.0
10.531954050064087,,,,1500.0,1502.0,1300.0,1500.0
10.555865049362183,,,,1500.0,1502.0,1300.0,1500.0
10.579782009124756,,,,1500.0,1502.0,1300.0,1500.0
10.603784084320068,153,0.9765,,1482.99,1487,1350,1500.0
10.627858877182007,153,0.9765,,1480,1487,1350,1500.0
10.651756048202515,152,2.9765,,1480,1487,1350,1500.0
10.675637006759644,151,3.9765,,1480,1487,1350,1500.0
10.699514865875244,151,3.9765,,1480,1487,1350,1500.0
10.723458051681519,151,4.9765,,1480,1487,1350,1500.0
10.747426986694336,151,5.9765,,1480,1487,1350,1500.0
10.771291017532349,151,6.9765,,1480,1487,1350,1500.0
10.795158863067627,151,7.9765,,1480,1487,1350,1500.0
10.819037914276123,151,8.9765,,1484.6500000000001,1487,1350,1500.0
10.84299087524414,151,9.9765,,1488.99,1487,1350,1500.0
10.86710786819458,151,9.9765,,1493.3299999999999,1487,1350,1500.0
10.891080856323242,151,10.9765,,1495.5,1487,1350,1500.0
10.915054082870483,151,12.9765,,1495.5,1487,1350,1500.0
10.939038038253784,150,15.9765,,1493.0699999999999,1487,1350,1500.0
10.963693857192993,150,17.9765,1646.5592249475146,1490.8399999999999,1502.0,1350,1500.0
10.988805055618286,150,19.9765,1666.1260006288171,1488.6099999999999,1502.0,1350,1500.0
11.013328075408936,150,20.9765,1678.6487370648508,1486.3800000000001,1502.0,1350,1500.0
11.038120031356812,150,22.9765,1685.1509271374066,1484.1500000000001,1502.0,1350,1500.0
11.062654972076416,149,26.9765,1685.1509271374066,1483.8900000000001,1502.0,1350,1500.0
11.087171077728271,149,28.9765,1673.5398734364139,1483.8299999999999,1502.0,1344.9176,1500.0
11.111784934997559,149,29.9765,1661.928819735421,1483.77,1502.0,1342.9176,1500.0
11.136393070220947,149,31.9765,1643.8155759618724,1483.71,1502.0,1338.2775999999999,1500.0
11.16100287437439,149,32.9765,1625.7023321883237,1483.6500000000001,1502.0,1336.2775999999999,1500.0
11.18596887588501,149,34.9765,1602.3841333074333,1485.8199999999999,1502.0,1337.3176000000001,1500.0
11.210594892501831,149,36.9765,1572.0218951812742,1487.99,1502.0,1338.3576,1500.0
11.235202074050903,149,37.9765,1541.6596570551151,1490.1600000000001,1502.0,1339.2375999999999,1500.0
11.259813070297241,149,39.9765,1513.4835000740393,1492.3299999999999,1502.0,1340.2775999999999,1500.0
11.284483909606934,149,40.9765,1485.3073430929637,1494.5,1502.0,1341.1576,1500.0
11.309165000915527,148,42.9765,1450.8260321021367,1492.0699999999999,1502.0,1338.1176,1500.0
11.333855867385864,148,44.9765,1424.1889089057418,1489.8399999999999,1502.0,1335.0776000000001,1500.0
11.35858702659607,148,44.9765,1394.0001692831606,1487.6099999999999,1502.0,1335.8776,1500.0
11.38322401046753,148,45.9765,1363.8114296605795,1485.3800000000001,1502.0,1336.9176,1500.0
11.408007860183716,148,46.9765,1330.2683856354893,1483.1500000000001,1502.0,1337.9576,1500.0
11.432656049728394,148,45.9765,1305.2846011202496,1485.3199999999999,1502.0,1345.7175999999999,1500.0
11.457293033599854,148,45.9765,1280.3008166050101,1487.49,1502.0,1350,1500.0
11.481791019439697,147,45.9765,1258.8686485159567,1487.23,1502.0,1350,1500.0
11.506304025650024,147,44.9765,1246.0613044336496,1487.1700000000001,1502.0,1350,1500.0
11.53085994720459,147,44.9765,1237.2562553770636,1487.1099999999999,1502.0,1350,1500.0
11.555446863174438,146,43.9765,1254.921557559556,1482.45,1502.0,1350,1500.0
11.579982995986938,146,43.9765,1276.3537256486095,1480,1502.0,1350,1500.0
11.60458493232727,147,44.9765,1306.5424652711906,1480.3599999999999,1502.0,1350,1500.0
11.629324913024902,147,43.9765,1342.3217122312867,1482.53,1502.0,1350,1500.0
11.653969049453735,147,44.9765,1381.4552635938921,1484.7,1502.0,1350,1500.0
11.678981065750122,148,45.9765,1423.2550569174659,1493.7,1502.0,1350,1500.0
11.703579902648926,148,45.9765,1465.0548502410397,1502.5,1502.0,1350,1500.0
11.728226900100708,147,45.9765,1516.8492564562523,1502.3,1502.0,1350,1500.0
11.753063917160034,148,45.9765,1557.8327575196352,1504.73,1502.0,1350,1500.0
11.777749061584473,147,45.9765,1594.813963557297,1504.53,1502.0,1350,1500.0
11.802279949188232,147,45.9765,1611.6299723656314,1497.96,1502.0,1350,1500.0
11.826818943023682,147,45.9765,1628.4459811739657,1491.3900000000001,1502.0,1350,1500.0
11.851335048675537,147,45.9765,1634.0364885114807,1491.3900000000001,1502.0,1350,1500.0
11.875865936279297,147,45.9765,1640.0570348749584,1486.99,1502.0,1350,1500.0
11.90040397644043,147,45.9765,1640.0570348749584,1486.99,1502.0,1350,1500.0
11.9250328540802,147,45.9765,1634.0364885114809,1489.1600000000001,1502.0,1350,1500.0
11.949658870697021,147,46.9765,1634.0364885114809,1491.3299999999999,1502.0,1350,1500.0
11.974231958389282,148,46.9765,1620.4902591936559,1493.76,1502.0,1350,1500.0
11.998847961425781,148,46.9765,1613.9880691210999,1498.1600000000001,1502.0,1350,1500.0
12.023366928100586,148,46.9765,1607.4858790485439,1500.3900000000001,1502.0,1350,1500.0
12.048040866851807,148,46.9765,1607.4858790485439,1502.6199999999999,1502.0,1350,1500.0
12.072581052780151,148,46.9765,1613.9880691210999,1504.8499999999999,1502.0,1350,1500.0
12.097110033035278,148,46.9765,1626.5108055571336,1502.6800000000001,1502.0,1350,1500.0
12.12163496017456,148,46.9765,1626.5108055571336,1500.51,1502.0,1350,1500.0
12.146162033081055,148,46.9765,1632.5313519206113,1498.3399999999999,1502.0,1350,1500.0
12.170698881149292,148,46.9765,1638.551898284089,1496.1700000000001,1502.0,1350,1500.0
12.195257902145386,148,46.9765,1638.551898284089,1494.0,1502.0,1350,1500.0
12.219754934310913,148,46.9765,1638.551898284089,1494.0,1502.0,1350,1500.0
12.244287014007568,148,46.9765,1638.551898284089,1494.0,1502.0,1350,1500.0
12.268898963928223,148,46.9765,1638.551898284089,1494.0,1502.0,1350,1500.0
12.293482065200806,147,46.9765,1638.551898284089,1491.5699999999999,1502.0,1350,1500.0
12.318140983581543,147,45.9765,1626.0291618480555,1489.3399999999999,1502.0,1350,1500.0
12.342653036117554,147,45.9765,1613.5064254120218,1487.1099999999999,1502.0,1350,1500.0
12.367187023162842,147,45.9765,1607.4858790485441,1484.8800000000001,1502.0,1350,1500.0
12.391716003417969,147,45.9765,1601.4653326850664,1482.6500000000001,1502.0,1350,1500.0
12.416285991668701,148,45.9765,1595.4447863215887,1487.25,1502.0,1350,1500.0
12.440855026245117,148,45.9765,1589.4242399581112,1491.6500000000001,1502.0,1350,1500.0
12.465374946594238,148,46.9765,1577.8131862571186,1496.05,1502.0,1350,1500.0
12.489913940429688,148,45.9765,1571.7926398936409,1500.45,1502.0,1350,1500.0
12.51459789276123,147,45.9765,1565.7720935301631,1502.4200000000001,1502.0,1350,1500.0
12.539330005645752,147,45.9765,1559.7515471666854,1498.02,1502.0,1350,1500.0
12.563935995101929,147,45.9765,1559.7515471666854,1493.6199999999999,1502.0,1350,1500.0
12.588964939117432,147,45.9765,1559.7515471666854,1489.22,1502.0,1350,1500.0
12.613623857498169,147,45.9765,1559.7515471666854,1484.8199999999999,1502.0,1350,1500.0
12.638692855834961,147,45.9765,1559.7515471666854,1484.8199999999999,1502.0,1350,1500.0
12.663214921951294,147,45.9765,1559.7515471666854,1486.99,1502.0,1350,1500.0
12.687922954559326,147,45.9765,1559.7515471666854,1489.1600000000001,1502.0,1350,1500.0
12.712481021881104,148,45.9765,1565.3420545042004,1493.76,1502.0,1350,1500.0
12.737056016921997,148,45.9765,1565.3420545042004,1498.1600000000001,1502.0,1350,1500.0
12.761571884155273,149,45.9765,1565.3420545042004,1502.8199999999999,1502.0,1350,1500.0
12.786102056503296,149,45.9765,1565.3420545042004,1507.28,1502.0,1350,1500.0
12.810657024383545,149,46.9765,1571.3626008676781,1511.74,1502.0,1350,1500.0
12.835165023803711,149,46.9765,1577.3831472311558,1511.8,1502.0,1350,1500.0
12.859709024429321,148,46.9765,1583.4036935946335,1509.4300000000001,1502.0,1350,1500.0
12.884387016296387,149,46.9765,1589.4242399581112,1505.29,1502.0,1350,1500.0
12.90913987159729,148,46.9765,1595.4447863215887,1498.52,1502.0,1350,1500.0
12.93374490737915,149,46.9765,1601.4653326850664,1494.3800000000001,1502.0,1350,1500.0
