time,x,y,size_inv,roll,pitch,thrust,yaw
0.0007889270782470703,171,20.0,1761.009811317233,1502.53,1511.1340441509276,1350,1500.0
0.023185014724731445,171,19.9765,1761.009811317233,1502.8599999999999,1511.1340441509276,1350,1500.0
0.04527997970581055,171,18.9765,1768.6663757142646,1503.1900000000001,1511.1684986907142,1350,1500.0
0.0672919750213623,171,19.9765,1768.6663757142646,1503.52,1511.1684986907142,1350,1500.0
0.08930492401123047,171,18.9765,1776.3229401112962,1503.8499999999999,1511.2029532305007,1350,1500.0
0.11131596565246582,171,18.9765,1783.9795045083279,1504.1800000000001,1511.2374077702875,1350,1500.0
0.13329386711120605,171,18.9765,1791.6360689053595,1504.51,1511.2718623100741,1350,1500.0
0.15527701377868652,171,18.9765,1799.2926333023911,1504.8399999999999,1511.3063168498607,1350,1500.0
0.17726993560791016,171,18.9765,1806.9491976994227,1505.1700000000001,1511.3407713896474,1350,1500.0
0.19927000999450684,171,18.9765,1814.6057620964543,1505.5,1511.375225929434,1350,1500.0
0.22140884399414062,171,18.9765,1822.2623264934859,1505.5,1516.6927099031725,1350,1500.0
0.24371099472045898,171,18.9765,1822.2623264934859,1505.5,1516.6927099031725,1350,1500.0
0.26601600646972656,172,18.9765,1814.6057620964543,1507.9300000000001,1516.1988614995639,1350,1500.0
0.2883319854736328,172,18.953,1814.6057620964543,1510.1600000000001,1515.2800737719201,1350,1500.0
0.31064295768737793,172,18.906,1806.9491976994227,1512.3900000000001,1513.8674376406677,1350,1500.0
0.332913875579834,172,17.906,1806.9491976994227,1514.6199999999999,1512.2595591172912,1350,1500.0
0.3551340103149414,172,16.7415,,1516.8499999999999,1495,1350,1500.0
0.3772618770599365,171,14.6945,,1512.25,1495,1350,1500.0
0.3993799686431885,170,15.7415,,1505.4200000000001,1495,1350,1500.0
0.42159295082092285,170,18.8355,1799.2926333023911,1498.79,1510.617226054128,1350,1500.0
0.4440279006958008,169,20.9295,1791.6360689053595,1489.73,1509.4342868547865,1350,1500.0
0.4663419723510742,169,24.0,1783.9795045083279,1480.8699999999999,1508.2513476554452,1350,1500.0
0.4886319637298584,169,26.0235,1783.9795045083279,1480,1507.7919537916232,1350,1500.0
0.5108819007873535,169,28.0,1783.9795045083279,1480.6900000000001,1507.5622568597123,1350,1500.0
0.5331699848175049,169,28.9295,1791.6360689053595,1482.8,1508.0561052633209,1350,1500.0
0.5554819107055664,170,28.859,1799.2926333023911,1491.74,1509.0093475307513,1348.0417199999999,1500.0
0.5778448581695557,170,29.7885,1806.9491976994227,1500.48,1510.6516805939145,1348.46244,1500.0
0.6001849174499512,170,30.7415,1806.9491976994227,1507.05,1512.0298621853804,1350,1500.0
0.6225228309631348,171,31.7415,1792.2485940571223,1513.8800000000001,1512.9008729511866,1350,1500.0
0.6448709964752197,170,36.765,1778.7023647392975,1518.0799999999999,1512.6816007261855,1350,1500.0
0.6671748161315918,170,39.7885,1765.1561354214725,1515.9100000000001,1511.3668508259168,1350,1500.0
0.6895349025726318,169,41.812,1751.6099061036475,1511.3099999999999,1508.9566232503805,1341.98044,1500.0
0.7120168209075928,169,43.7885,1736.9093024613471,1506.9100000000001,1506.100182881115,1327.2374400000001,1500.0
0.734442949295044,168,45.765,1722.2086988190465,1495.6800000000001,1503.6847606211186,1309.7602400000001,1500.0
0.756788969039917,168,47.718,1707.5080951767461,1489.05,1501.8707909428335,1302.3006,1500.0
0.7791440486907959,167,49.6945,1692.8074915344455,1482.1600000000001,1500.6582738462598,1300.52828,1500.0
0.8015110492706299,167,51.671,1678.1068878921451,1480,1500.0472093313977,1300.3114800000001,1500.0
0.8239169120788574,167,54.6475,1664.5606585743203,1480,1499.916988839999,1298.84664,1500.0
0.8462479114532471,167,56.6475,1658.0584685017645,1481.8599999999999,1500.0644189322963,1299.8478,1500.0
0.8686130046844482,167,59.6475,1658.0584685017645,1483.97,1500.7167582189234,1293.9653999999998,1500.0
0.8909859657287598,167,64.671,1652.0379221382868,1490.48,1501.6370379950138,1279.8432000000003,1500.0
0.9133169651031494,167,67.671,1640.4268684372939,1494.8199999999999,1502.6594782160589,1266.6114400000001,1500.0
0.9356639385223389,166,70.6945,1622.3136246637453,1496.73,1503.4810169183713,1254.6438000000001,1500.0
0.958237886428833,166,72.718,1604.2003808901966,1496.6700000000001,1503.7082716025618,1250,1500.0
0.9805479049682617,165,75.718,1586.0871371166479,1494.1800000000001,1502.9511108642769,1250,1500.0
1.0028438568115234,165,77.718,1567.9738933430992,1489.72,1501.570767485325,1250,1500.0
1.0251438617706299,164,79.718,1549.8606495695506,1482.8299999999999,1499.9026719059573,1250,1500.0
1.0474588871002197,164,81.718,1538.2495958685579,1480.54,1498.5959123177645,1250,1500.0
1.0697529315948486,163,83.718,1521.4335870602235,1480,1497.6529790915747,1250,1500.0
1.0920569896697998,163,85.718,1509.8225333592309,1480,1497.4719311787512,1250,1500.0
1.1143670082092285,162,86.718,1499.0270709143742,1480,1497.8768677887433,1250.3553199999999,1500.0
1.1366839408874512,162,88.718,1499.0270709143742,1480,1499.0688469951203,1251.37924,1500.0
1.1590309143066406,161,90.718,1493.8221158070326,1480,1500.2345211591471,1251.0111999999999,1500.0
1.1813008785247803,160,92.718,1483.7592025995057,1480,1501.5420103307908,1250.6112000000001,1500.0
1.2035799026489258,160,92.7415,1478.554247492164,1480,1502.8684775695183,1254.06916,1500.0
1.2258789539337158,160,94.765,1468.4913342846371,1480,1503.9755270340543,1252.2932800000001,1500.0
1.2481729984283447,159,95.765,1458.42842107711,1480,1504.2372917891576,1253.1856,1500.0
1.2705278396606445,159,95.7885,1453.2234659697683,1480,1504.3287343979025,1258.0958800000001,1500.0
1.2928390502929688,158,96.7885,1453.2234659697683,1480,1504.5428938328319,1263.2743600000001,1500.0
1.3151650428771973,158,96.7885,1448.0185108624269,1480,1504.5414480119687,1266.99864,1500.0
1.3374829292297363,157,97.7885,1443.1605527622412,1480,1504.6757358537382,1272.3887199999999,1500.0
1.3597898483276367,157,97.7885,1433.0976395547143,1480,1505.0884887937502,1279.0588,1500.0
1.3821358680725098,156,96.7885,1433.0976395547143,1480,1505.7026734964165,1285.71468,1500.0
1.4044978618621826,155,96.7885,1433.0976395547143,1480,1506.0149708028571,1291.25056,1500.0
1.4267969131469727,154,95.765,1433.0976395547143,1480,1506.4834167625179,1299.45652,1500.0
1.4490840435028076,154,95.765,1433.0976395547143,1480,1506.9414528119639,1306.4823200000001,1500.0
1.471376895904541,153,94.765,1437.9555976548997,1480,1507.8689758120922,1314.7881199999999,1500.0
1.493669033050537,152,93.765,1437.9555976548997,1480,1508.6184893475495,1321.7019600000001,1500.0
1.5159709453582764,152,93.7885,1433.0976395547143,1480,1509.2004033285502,1325.9937600000001,1500.0
1.5382740497589111,151,92.7885,1433.0976395547143,1480,1509.6480294677815,1330.0879600000001,1500.0
1.5605709552764893,150,91.7885,1437.9555976548997,1480,1510.1175164184638,1334.26216,1500.0
1.582866907119751,150,91.7885,1437.9555976548997,1480,1509.9717776754583,1334.4363599999999,1500.0
1.6051750183105469,149,90.7885,1433.0976395547143,1480,1509.6584393779963,1335.8105599999999,1500.0
1.6274998188018799,148,89.7885,1437.9555976548997,1480,1509.8260389324525,1338.69056,1500.0
1.6498088836669922,148,88.7885,1437.9555976548997,1480,1509.9717776754583,1341.6025199999999,1500.0
1.6721608638763428,146,87.7885,1437.9555976548997,1480,1509.8260389324525,1343.1544799999999,1500.0
1.694525957107544,145,86.7885,1437.9555976548997,1480,1509.8260389324525,1347.5064400000001,1500.0
1.7168288230895996,145,85.7885,1437.9555976548997,1480,1510.1175164184638,1350,1500.0
1.7390539646148682,144,85.7885,1437.9555976548997,1480,1509.9717776754583,1350,1500.0
1.7612810134887695,143,84.7885,1433.0976395547143,1480,1509.6584393779963,1350,1500.0
1.7835478782653809,143,83.765,1433.0976395547143,1480,1509.5127006349906,1350,1500.0
1.805816888809204,142,82.765,1437.9555976548997,1480,1509.5345614464416,1350,1500.0
1.8280668258666992,140,82.765,1437.9555976548997,1480,1509.3888227034358,1350,1500.0
1.8503079414367676,140,81.7415,1437.9555976548997,1480,1509.3888227034358,1350,1500.0
1.8726139068603516,140,80.7415,1437.9555976548997,1480,1509.6803001894471,1350,1500.0
1.894927978515625,139,80.7415,1442.8135557550854,1480,1510.1393772299145,1350,1500.0
1.91740083694458,139,79.7415,1442.8135557550854,1480,1510.28511597292,1350,1500.0
1.93967604637146,138,79.7415,1437.9555976548997,1480,1510.2632551614693,1350,1500.0
1.961961030960083,138,78.7415,1442.8135557550854,1480,1510.4308547159258,1350,1500.0
1.984266996383667,136,78.718,1447.6715138552709,1480,1510.598454270382,1350,1500.0
2.0065228939056396,137,78.718,1442.8135557550854,1480,1510.2851159729203,1350,1500.0
2.0287749767303467,137,77.6945,1442.8135557550854,1480,1510.1393772299145,1350,1500.0
2.0510458946228027,136,77.671,1447.6715138552709,1480,1510.4527155273765,1350,1500.0
2.073314905166626,136,77.6475,1442.8135557550854,1480,1510.28511597292,1348.1786399999999,1500.0
2.095613956451416,137,77.624,1437.9555976548997,1480,1509.6803001894471,1347.03024,1500.0
2.1179158687591553,137,76.624,1437.9555976548997,1480,1509.5345614464416,1348.4936399999999,1500.0
2.1402339935302734,137,76.6005,1437.9555976548997,1481.8699999999999,1509.3888227034358,1347.3132800000001,1500.0
2.162632942199707,137,77.6005,1437.9555976548997,1488.4400000000001,1508.8058677314136,1343.3989200000001,1500.0
2.185014009475708,137,77.577,1433.0976395547143,1495.01,1508.4925294339516,1342.0408,1500.0
2.207465887069702,138,78.6005,1428.2396814545286,1495.27,1508.4706686225009,1337.9186,1500.0
2.229969024658203,138,79.6005,1428.2396814545286,1497.5,1508.3249298794954,1329.5845999999999,1500.0
2.2523720264434814,139,80.6005,1423.3817233543432,1502.1600000000001,1508.0115915820334,1321.1367599999999,1500.0
2.274791955947876,139,80.6005,1423.3817233543432,1504.45,1507.8658528390276,1316.7208800000001,1500.0
2.2971558570861816,140,81.624,1423.3817233543432,1509.1700000000001,1507.8658528390276,1309.5691200000001,1500.0
2.3194968700408936,141,82.624,1428.2396814545286,1513.8900000000001,1508.1791911364896,1303.9033200000001,1500.0
2.341830015182495,142,83.624,1433.4446365618703,1520,1508.6502395737041,1300.9575199999999,1500.0
2.3642139434814453,142,83.6005,1433.4446365618703,1520,1509.3893431989466,1302.10572,1500.0
2.386483907699585,143,84.6005,1438.302594662056,1520,1510.2960463786455,1299.2257199999999,1500.0
2.408754825592041,143,85.6005,1443.1605527622414,1520,1511.2027495583445,1297.80348,1500.0
2.4310498237609863,144,86.6005,1453.2234659697683,1520,1511.9975462032355,1296.3492799999999,1500.0
2.4533610343933105,145,87.577,1463.2863791772954,1520,1512.781932937912,1294.95712,1500.0
2.475656032562256,146,87.577,1478.9397997223375,1520,1513.9153408289528,1293.31096,1500.0
2.497941017150879,147,87.5535,1489.7352621671942,1520,1515.0592742958775,1294.52684,1500.0
2.5202510356903076,148,87.5065,1505.3886827122362,1520,1516.4031937045929,1297.2466400000001,1500.0
2.5425808429718018,148,87.5065,1516.1841451570929,1520,1517.5910801257573,1301.35004,1500.0
2.564918041229248,149,87.483,1521.7746524946078,1520,1518.4756333298328,1306.88968,1500.0
2.587214946746826,149,88.4595,1538.5906613029422,1520,1518.9759763220745,1309.8551199999999,1500.0
2.6095168590545654,149,88.436,1555.4066701112765,1520,1519.4788105748803,1312.6286,1500.0
2.6318278312683105,150,87.4125,1572.2226789196106,1520,1519.6926586022391,1316.5843199999999,1500.0
2.6542129516601562,150,87.3655,1583.8337326206033,1520,1519.8855755921793,1318.07592,1500.0
2.6765189170837402,151,87.342,1595.444786321596,1519.01,1520.393281149124,1318.17932,1500.0
2.699626922607422,151,86.3185,1607.9675227576297,1516.96,1520.7414134593087,1323.69076,1500.0
2.7240278720855713,152,85.295,1620.4902591936634,1519.51,1520.7801312074198,1330.6422,1500.0
2.748354911804199,152,85.2715,1633.0129956296971,1519.6300000000001,1520.6551731364634,1333.6256000000001,1500.0
2.7726898193359375,152,85.2245,1639.0335419931748,1519.75,1520.308772252371,1336.5732800000001,1500.0
2.7970619201660156,152,84.2245,1651.5562784292083,1517.6400000000001,1519.8383653147519,1342.0707199999999,1500.0
2.8213748931884766,152,84.201,1658.0584685017643,1515.53,1519.2890476987618,1342.2363599999999,1500.0
2.845829963684082,152,83.1775,1664.5606585743201,1509.02,1518.6879118630363,1342.242,1500.0
2.8704299926757812,152,83.154,1664.5606585743201,1504.6800000000001,1517.8106322500723,1342.4076400000001,1500.0
2.894757032394409,152,83.154,1664.5606585743201,1500.3399999999999,1516.9204514663295,1342.4774,1500.0
2.919080972671509,152,83.154,1664.5606585743201,1498.1700000000001,1515.6272381074546,1339.7791200000001,1500.0
2.9434168338775635,152,83.154,1658.0584685017643,1496.0,1514.095249879804,1338.4070000000002,1500.0
2.967726945877075,152,83.154,1651.5562784292083,1496.0,1512.3537466387045,1335.56104,1500.0
2.9921629428863525,153,83.154,1645.0540883566525,1498.4300000000001,1510.7928597885093,1332.6812400000001,1500.0
3.0166499614715576,153,83.154,1639.0335419931748,1500.6600000000001,1509.2341403350049,1329.86536,1500.0
3.0409610271453857,153,83.154,1626.5108055571411,1502.8900000000001,1507.646161026174,1328.40948,1500.0
3.0652480125427246,153,83.1775,1613.9880691211074,1505.1199999999999,1506.2676967307921,1326.9235200000001,1500.0
3.0895609855651855,154,84.1775,1595.8748253475587,1509.78,1504.9058749457151,1324.2177200000001,1500.0
3.1138858795166016,155,85.201,1584.2637716465661,1512.27,1503.6151128092881,1320.0418400000001,1500.0
3.138201951980591,155,85.2245,1578.2432252830883,1514.5599999999999,1502.5301243467841,1317.0321200000001,1500.0
3.1625728607177734,156,86.2715,1572.2226789196106,1519.28,1502.0158836795379,1311.2865199999999,1500.0
3.186969041824341,156,87.3185,1566.2021325561332,1520,1501.8773251053728,1304.0990400000001,1500.0
3.2111928462982178,157,88.342,1560.1815861926555,1520,1502.4498790645396,1298.2659200000001,1500.0
3.2354190349578857,158,90.3655,1554.1610398291778,1520,1503.3434141526848,1291.1847599999999,1500.0
3.2596328258514404,158,91.4125,1554.1610398291778,1520,1504.44465809037,1283.8335199999999,1500.0
3.2838590145111084,159,91.436,1554.1610398291778,1520,1505.531452716783,1280.60824,1500.0
3.3080618381500244,160,92.4595,1554.1610398291778,1520,1506.6037980319236,1277.6087600000001,1500.0
3.332350015640259,161,92.4595,1559.7515471666927,1520,1507.6868513188106,1277.34328,1500.0
3.3566689491271973,161,93.4595,1571.3626008676854,1520,1509.1582298461419,1278.71164,1500.0
3.380887031555176,163,92.436,1571.3626008676854,1520,1510.3967422409146,1286.88168,1500.0
3.40509295463562,164,92.4125,1571.3626008676854,1520,1511.4546382447827,1292.5274400000001,1500.0
3.4293038845062256,165,92.389,1577.3831472311631,1520,1512.5396267072865,1299.6489200000001,1500.0
3.4535038471221924,166,91.389,1577.3831472311631,1520,1513.0814758799995,1307.9902400000001,1500.0
3.4777169227600098,166,91.389,1583.4036935946408,1520,1512.9537542892888,1315.1795999999999,1500.0
3.501981019973755,168,90.3655,1589.4242399581185,1520,1513.0066490894822,1320.7812800000002,1500.0
3.526291847229004,169,89.3655,1589.4242399581185,1520,1513.0324514310398,1327.6970000000001,1500.0
3.5504939556121826,170,89.3655,1595.444786321596,1520,1512.9047298403289,1331.95496,1500.0
3.574673891067505,171,88.342,1601.4653326850737,1520,1513.1253398606477,1336.1149600000001,1500.0
3.598857879638672,172,87.342,1595.444786321596,1520,1513.098247402012,1340.3267599999999,1500.0
3.6232359409332275,174,86.342,1595.444786321596,1520,1512.7370146202034,1344.5047199999999,1500.0
3.6476898193359375,175,85.342,1601.4653326850737,1520,1512.5834906879347,1347.35464,1500.0
3.671947956085205,177,84.3185,1595.444786321596,1520,1512.0145490565862,1350,1500.0
3.696168899536133,178,84.3185,1601.4653326850737,1520,1511.3191759516044,1350,1500.0
3.7203209400177,179,84.342,1601.4653326850737,1520,1511.1385595607001,1350,1500.0
3.744457960128784,180,83.342,1601.4653326850737,1520,1511.1385595607001,1350,1500.0
3.7686119079589844,182,83.342,1607.4858790485514,1520,1510.9850356284314,1349.6324400000001,1500.0
3.792954921722412,183,82.3655,1607.4858790485514,1520,1511.3462684102401,1346.7526399999999,1500.0
3.8173298835754395,183,82.3655,1607.4858790485514,1520,1511.5268848011444,1344.0930000000001,1500.0
3.841538906097412,184,82.389,1613.5064254120291,1520,1511.7345936506845,1342.7971199999999,1500.0
3.8662779331207275,185,82.389,1619.5269717755068,1520,1512.1229188911288,1340.08944,1500.0
3.8905608654022217,186,82.389,1619.5269717755068,1520,1512.3035352820332,1338.7417600000001,1500.0
3.914794921875,186,81.389,1632.0497082115403,1520,1512.7355696890763,1338.69184,1500.0
3.9390008449554443,187,81.3655,1632.0497082115403,1520,1513.2918681730616,1337.50396,1500.0
3.9632508754730225,187,81.3655,1632.0497082115403,1520,1513.4869338752383,1336.3217199999999,1500.0
3.9875218868255615,188,81.342,1632.0497082115403,1520,1513.3207667956062,1336.56152,1500.0
4.0117268562316895,188,81.3655,1632.0497082115403,1520,1513.3352161068785,1336.71108,1500.0
4.036072015762329,189,81.3655,1632.0497082115403,1520,1512.5983012319889,1335.41688,1500.0
4.06029486656189,189,81.3655,1632.0497082115403,1520,1511.8613863570993,1334.0568800000001,1500.0
4.084503889083862,190,81.342,1632.0497082115403,1520,1511.305087873114,1332.72696,1500.0
4.108716011047363,190,81.342,1632.0497082115403,1520,1510.929405780033,1331.30304,1500.0
4.132988929748535,190,81.342,1632.0497082115403,1520,1510.553723686952,1329.9449200000001,1500.0
4.157294034957886,189,81.3185,1619.5269717755068,1520,1510.1216892799089,1330.00884,1500.0
4.181569814682007,189,81.3185,1613.5064254120291,1520,1509.5382983372879,1330.0765200000001,1500.0
4.205963850021362,188,82.342,1601.8953717110364,1518.7,1508.5814185006182,1327.37636,1500.0
4.230264902114868,188,82.342,1595.8748253475587,1509.9000000000001,1507.4690795560632,1325.9363599999999,1500.0
4.254536867141724,188,82.342,1589.854278984081,1501.0999999999999,1506.1761242206037,1324.4644000000001,1500.0
4.278806924819946,187,83.3655,1578.2432252830883,1496.4400000000001,1505.2610441772576,1320.2246,1500.0
4.303160905838013,186,84.3655,1566.6321715820957,1489.55,1504.3588653046904,1314.5729999999999,1500.0
4.327548027038574,186,84.3655,1555.021117881103,1489.4300000000001,1503.8050180431533,1313.0191600000001,1500.0
4.351833820343018,185,85.389,1543.4100641801103,1486.8800000000001,1503.2640719523947,1308.7632800000001,1500.0
4.376247882843018,185,86.436,1531.7990104791177,1484.53,1502.7360270324152,1302.9715200000001,1500.0
4.400532960891724,183,86.4595,1521.003548034261,1480,1502.2087695287209,1301.27188,1500.0
4.4247448444366455,183,87.4595,1510.2080855894044,1480,1501.8736949828365,1299.76044,1500.0
4.448958873748779,181,89.5065,1500.1451723818775,1480,1501.5883611233237,1292.6529599999999,1500.0
4.473222017288208,181,90.5065,1484.4917518368354,1480,1501.3243141955963,1288.22768,1500.0
4.497495889663696,180,90.53,1464.2937898432328,1480,1500.9499248026975,1287.8719599999999,1500.0
4.521694898605347,180,91.5535,1449.6863351871452,1480,1500.4618651887963,1283.5162399999999,1500.0
4.546023845672607,179,91.577,1435.0788805310576,1480,1499.8349780708743,1281.76668,1500.0
4.570235967636108,177,93.6005,1416.2109182669444,1480,1498.8783229822145,1280.43488,1500.0
4.594425916671753,177,94.6475,1397.3429560028312,1480,1497.9465026473042,1280.17524,1500.0
4.6186230182647705,176,94.671,1374.472698712997,1480,1497.1741103746695,1279.7518400000001,1500.0
4.642881870269775,176,94.6945,1356.8073965305043,1480,1496.4477647405624,1282.12844,1500.0
4.667134046554565,175,95.718,1335.3752284414509,1480,1495.6140865732239,1280.537,1500.0
4.691326856613159,174,95.7415,1318.8010184525829,1480,1495.1352332572912,1282.9936,1500.0
4.7157838344573975,173,94.765,1298.6751920375286,1480,1494.6990979944844,1289.62796,1500.0
4.740073919296265,172,94.7885,1286.6455234972213,1480,1494.7047819634868,1295.06232,1500.0
4.764291048049927,171,93.7885,1271.0642385307278,1480,1494.8487396008436,1301.83872,1500.0
4.788547992706299,170,93.812,1259.0345699904203,1480,1495.4954959015695,1310.1869200000001,1500.0
4.812821865081787,170,92.8355,1251.2654090581384,1480,1496.3567633899718,1318.4551200000001,1500.0
4.837111949920654,169,92.859,1243.4962481258565,1480,1497.6264667673854,1321.3313600000001,1500.0
4.861321926116943,168,90.8825,1236.1777657931095,1480,1498.714316122238,1329.4876000000002,1500.0
4.885669946670532,167,90.9295,1232.4108998865486,1480,1500.1100598063263,1332.316,1500.0
4.910202980041504,166,89.953,1228.8592834603626,1480,1501.4790386900377,1336.4526000000001,1500.0
4.934428930282593,165,89.0235,1225.3076670341766,1480,1502.7103924372343,1339.1051199999999,1500.0
4.958643913269043,164,89.0235,1225.3076670341766,1480,1503.820103321834,1342.0360800000001,1500.0
4.9829020500183105,162,87.047,1218.4017462054815,1480,1504.7697788215994,1344.6188400000001,1500.0
5.007199048995972,161,85.047,1218.4017462054815,1480,1505.5091043704929,1350,1500.0
5.031317949295044,161,84.0235,1211.4958253767866,1480,1505.8623825801581,1350,1500.0
5.0555338859558105,159,83.0,1204.5899045480915,1480,1505.9885053225653,1350,1500.0
5.079632997512817,158,80.9765,1197.6839837193966,1480,1505.6743756121432,1350,1500.0
5.103744983673096,158,78.9765,1191.1566886658654,1480,1505.3609316458426,1350,1500.0
5.127861976623535,155,75.953,1181.0777771861483,1480,1504.6161320840361,1350,1500.0
5.152015924453735,154,74.953,1174.5504821326172,1480,1503.9993027014773,1350,1500.0
5.176195859909058,154,73.953,1168.0231870790863,1480,1503.4944612242489,1350,1500.0
5.200295925140381,153,73.953,1158.4899008824816,1480,1503.1044494507,1350,1500.0
5.224416017532349,152,72.9295,1152.3109190883861,1480,1502.7286226714907,1350,1500.0
5.248520851135254,151,70.9295,1142.7776328917814,1480,1502.656437625355,1350,1500.0
5.272678852081299,150,69.906,1133.746813346565,1480,1502.5000491711451,1350,1500.0
5.296864986419678,149,69.906,1127.5678315524694,1480,1502.3555846113431,1350,1500.0
5.320943832397461,149,68.906,1118.5370120072528,1480,1502.2921817422402,1350,1500.0
5.345059871673584,148,68.9295,1109.9699372494933,1480,1502.1487735379881,1350,1500.0
5.369184970855713,148,68.9295,1101.4028624917339,1480,1502.0179829184076,1350,1500.0
5.393405914306641,147,67.953,1095.5450335975395,1480,1502.0696793594946,1350,1500.0
5.417644023895264,147,68.9765,1086.9779588397801,1480,1502.0270920075025,1350,1500.0
5.441738843917847,147,68.9765,1081.4168752250939,1480,1502.0870496940286,1350,1500.0
5.4659600257873535,147,68.9765,1075.855791610408,1480,1502.3088299037565,1350,1500.0
5.490063905715942,147,69.0,1070.2947079957221,1480,1502.5918035046116,1350,1500.0
5.514186859130859,147,68.9765,1067.5854621321571,1480.48,1502.8868781467349,1349.2521999999999,1500.0
5.538487911224365,147,68.9765,1062.0243785174712,1484.8199999999999,1503.3309420421801,1347.9880800000001,1500.0
5.562849044799805,148,68.953,1056.7380451251493,1491.5899999999999,1503.6803927423812,1348.146,1500.0
5.5872228145599365,149,68.953,1054.1609575963923,1498.4200000000001,1504.041375197254,1348.2437600000001,1500.0
5.611519813537598,149,68.9295,1051.5838700676354,1505.05,1504.4016978004122,1348.4693600000001,1500.0
5.6359639167785645,150,69.953,1048.8746242040702,1511.9400000000001,1504.666968200145,1347.2269600000002,1500.0
5.6602489948272705,151,70.953,1046.2975366753133,1520,1504.9321734606701,1343.1807999999999,1500.0
5.684448957443237,152,71.953,1043.7204491465563,1520,1505.2704135904314,1337.6288399999999,1500.0
5.708654880523682,153,72.9765,1043.7204491465563,1520,1505.6080433573568,1330.57484,1500.0
5.732864856719971,153,73.9765,1043.7204491465563,1520,1505.9334658675668,1322.0112799999999,1500.0
5.757086992263794,154,73.953,1043.7204491465563,1520,1506.3401657536842,1317.60752,1500.0
5.781327962875366,155,73.953,1046.4296950101213,1520,1506.828127365379,1315.9755599999999,1500.0
5.805759906768799,156,74.9295,1054.5678661535644,1520,1507.5806995250925,1314.5976000000001,1500.0
5.829977989196777,157,74.906,1062.7060372970072,1520,1508.5001041932467,1317.3192799999999,1500.0
5.854166030883789,158,74.906,1073.8501995835236,1520,1509.6900480642776,1322.8447200000001,1500.0
5.878367900848389,159,74.8825,1082.4172743412832,1520,1511.0441299082545,1326.97444,1500.0
5.902653932571411,160,75.859,1096.7344272788216,1520,1512.6137343144903,1327.1379999999999,1500.0
5.926954984664917,161,76.859,1111.05158021636,1520,1514.0472504143829,1327.2075600000001,1500.0
5.951153993606567,162,76.812,1122.7916456251417,1520,1515.3330813140528,1327.1434400000001,1500.0
5.975777864456177,162,75.7885,1137.8860154364322,1520,1516.4181879406819,1328.3649600000001,1500.0
5.999979019165039,162,75.7415,1152.9803852477228,1520,1517.4421011761842,1328.4485199999999,1500.0
6.024194955825806,162,75.718,1165.3655091954483,1520,1518.0476247233867,1331.2719199999999,1500.0
6.04841685295105,162,75.6945,1174.8987953920528,1520,1518.3114295446583,1335.60112,1500.0
6.072680950164795,163,75.6475,1184.4320815886574,1520,1518.4009741616044,1339.9265599999999,1500.0
6.09697699546814,163,75.6005,1190.9593766421885,1518.6800000000001,1518.1014733499308,1341.45388,1500.0
6.121285915374756,163,74.5535,1197.4866716957197,1514.4000000000001,1517.3491414439184,1345.58924,1500.0
6.145711898803711,161,74.53,1200.8409760982286,1507.4300000000001,1516.3695673633142,1347.1364000000001,1500.0
6.170008897781372,162,74.483,1204.1952805007375,1505.46,1515.3481398311153,1347.35364,1500.0
6.1943039894104,161,75.4595,1211.1012013294326,1498.6300000000001,1514.3300769881623,1344.8688399999999,1500.0
6.218614816665649,160,75.436,1211.1012013294326,1489.5699999999999,1513.342130892607,1344.87824,1500.0
6.2429540157318115,159,75.4125,1211.1012013294326,1480,1512.4153781881782,1342.0537999999999,1500.0
6.267246961593628,158,76.4125,1214.6528177556186,1480,1511.7814517047345,1336.5273199999999,1500.0
6.291445016860962,158,76.389,1214.6528177556186,1480,1511.2162832691204,1332.1632400000001,1500.0
6.315928936004639,157,76.3655,1214.6528177556186,1480,1510.5227581696827,1330.63112,1500.0
6.340143918991089,154,78.3655,1211.2985133531097,1480,1509.9093284199644,1323.78892,1500.0
6.364341974258423,154,79.3655,1207.9442089506006,1480,1509.3910883897768,1318.06484,1500.0
6.388540029525757,153,80.3655,1201.4169138970697,1480,1508.5502831965578,1313.73272,1500.0
6.412794828414917,152,81.3655,1194.8896188435385,1480,1507.614288283808,1307.9587200000001,1500.0
6.437088966369629,150,82.389,1184.8107073638214,1480,1506.5671213776097,1299.2888399999999,1500.0
6.461297988891602,148,84.389,1172.4255834160958,1480,1505.3392810610242,1292.19912,1500.0
6.485641002655029,147,85.389,1160.0404594683703,1480,1503.9411452901575,1287.70136,1500.0
6.509838819503784,145,87.4125,1146.9555568455796,1480,1502.6454996325667,1280.5015599999999,1500.0
6.534037828445435,143,88.4125,1137.422270648975,1480,1501.4714753662076,1275.92192,1500.0
6.558226823806763,142,88.436,1125.0371467012496,1480,1500.5177988003195,1275.3779999999999,1500.0
6.582495927810669,141,89.436,1116.006327156033,1480,1499.9507703226745,1275.1022800000001,1500.0
6.606806039810181,138,91.4595,1106.9755076108163,1480,1499.7552955634615,1272.1245199999998,1500.0
6.631044864654541,136,91.483,1101.1176787166219,1480,1499.9876397011135,1275.81872,1500.0
6.655241012573242,134,92.5065,1095.2598498224274,1480,1500.4204272921302,1278.27908,1500.0
6.679436922073364,133,93.53,1086.6927750646678,1480,1501.0247511265,1277.9394399999999,1500.0
6.703635931015015,131,93.53,1083.9835292011028,1480,1501.7444532692678,1278.9079999999999,1500.0
6.727866888046265,129,93.5535,1081.2742833375378,1480,1502.55317349041,1284.12032,1500.0
6.752142906188965,126,93.577,1075.7131997228519,1480,1503.1411505881997,1286.6126400000001,1500.0
6.776439905166626,124,93.6005,1070.152116108166,1480,1503.6277663253022,1290.57692,1500.0
6.800662040710449,122,92.624,1064.865782715844,1480,1504.0994992036694,1299.9811999999999,1500.0
6.824865818023682,120,92.6475,1062.156536852279,1480,1504.3931817654666,1306.7916400000001,1500.0
6.849078893661499,118,91.671,1056.8702034599571,1480,1504.4083075970721,1313.52208,1500.0
6.873339891433716,114,90.6945,1051.5838700676354,1480,1504.4227735769632,1321.6925200000001,1500.0
6.897624969482422,112,90.718,1048.8746242040702,1480,1504.525489224882,1327.30296,1500.0
6.9219419956207275,110,89.718,1048.8746242040702,1480,1504.7005642399936,1331.45544,1500.0
6.946221828460693,109,88.7415,1048.8746242040702,1480,1504.9569166310121,1337.05168,1500.0
6.970422983169556,107,86.7415,1051.5838700676354,1480,1505.5426406319559,1343.9899599999999,1500.0
6.994943857192993,105,85.765,1051.5838700676354,1480,1506.2665205216124,1348.34004,1500.0
7.019176959991455,102,82.765,1054.2931159312004,1480,1507.0795916369352,1350,1500.0
7.043320894241333,100,81.765,1059.5794493235221,1480,1507.9042596461375,1350,1500.0
7.067487955093384,98,80.765,1062.2886951870873,1480,1508.7173307614603,1350,1500.0
7.091580867767334,96,79.765,1067.575028579409,1480,1509.3794440188485,1350,1500.0
7.115983963012695,94,78.765,1072.861361971731,1480,1510.0415572762367,1350,1500.0
7.140130996704102,90,76.7415,1078.4224455864169,1480,1510.6279072903455,1350,1500.0
7.1642608642578125,88,74.718,1081.1316914499819,1480,1510.9655214069419,1350,1500.0
7.188357830047607,87,73.6945,1083.8409373135469,1480,1511.2218581476311,1350,1500.0
7.212544918060303,85,72.6945,1086.692775064668,1480,1511.3284890567156,1350,1500.0
7.236766815185547,83,71.671,1092.2538586793539,1480,1511.2969640770875,1350,1500.0
7.2609028816223145,82,70.6475,1095.1056964304751,1480,1511.086414982633,1350,1500.0
7.285068988800049,78,68.6475,1097.9575341815962,1480,1510.9574562706675,1350,1500.0
7.309192895889282,78,67.624,1097.9575341815962,1480,1510.7343869129154,1350,1500.0
7.333359003067017,76,67.624,1100.8093719327173,1480,1510.597185694279,1350,1500.0
7.35745096206665,74,67.6005,1103.6612096838385,1480,1510.370464593065,1350,1500.0
7.3815460205078125,74,66.6005,1103.6612096838385,1480,1510.1266324653441,1350,1500.0
7.4058098793029785,72,66.6005,1106.5130474349594,1480,1509.8913558508766,1350,1500.0
7.429941892623901,71,65.577,1109.3648851860805,1480,1509.8229117448498,1350,1500.0
7.45403790473938,69,65.577,1109.3648851860805,1480,1509.6560792364091,1350,1500.0
7.478154897689819,69,65.577,1109.3648851860805,1480,1509.4849689713419,1350,1500.0
7.502362966537476,68,64.577,1112.370876329154,1480,1509.5031205332443,1350,1500.0
7.526563882827759,68,65.577,1115.3768674722276,1480,1509.5258966969052,1350,1500.0
7.550688028335571,67,65.577,1121.2346963664222,1480,1509.5661307322048,1350,1500.0
7.574785947799683,66,66.577,1127.4136781605177,1480,1509.8787345419105,1350,1500.0
7.598886966705322,66,66.577,1130.4196693035913,1480,1510.3527947605123,1350,1500.0
7.6230528354644775,66,67.577,1136.5986510976868,1480,1510.8461434222822,1346.94876,1500.0
7.647327899932861,65,67.577,1139.6046422407603,1480,1511.3205890243642,1342.6768,1500.0
7.67153787612915,65,68.6005,1145.7836240348556,1480,1511.7287679370802,1337.09476,1500.0
7.69589900970459,64,70.6005,1145.7836240348556,1480,1511.7384025240772,1330.2609199999999,1500.0
7.720134973526001,65,70.6005,1151.9626058289512,1480,1511.7808525143862,1325.82708,1500.0
7.744328022003174,65,71.6005,1155.1355964799732,1480,1511.6244060907284,1322.9132400000001,1500.0
7.7685158252716064,65,71.577,1155.1355964799732,1480,1511.3635014748488,1319.9014399999999,1500.0
7.7928550243377686,64,72.5535,1155.1355964799732,1480,1510.9075928181494,1317.1492800000001,1500.0
7.817239999771118,65,72.53,1151.9626058289512,1480,1510.5275854378124,1319.87096,1500.0
7.841446876525879,66,73.5065,1151.9626058289512,1480,1509.8812973420515,1319.9864799999998,1500.0
7.865794897079468,65,74.5065,1145.7836240348556,1480,1509.016824389156,1320.0737999999999,1500.0
7.889992952346802,66,74.483,1145.7836240348556,1480,1508.2703365886262,1321.35736,1500.0
7.91419792175293,66,75.483,1139.6046422407603,1480,1507.4960433700228,1321.3149599999999,1500.0
7.938417911529541,67,76.483,1139.6046422407603,1480,1506.9399350085544,1317.0467599999999,1500.0
7.962678909301758,67,77.483,1133.4256604466648,1480,1506.3560212290122,1314.07276,1500.0
7.98697304725647,67,77.483,1130.2526697956428,1480,1506.1563733172597,1313.73876,1500.0
8.011184930801392,68,78.5065,1127.2466786525692,1480,1505.8672971690009,1310.6688799999999,1500.0
8.035413026809692,67,79.5065,1124.2406875094957,1480,1505.8587801940955,1307.6591599999999,1500.0
8.059643030166626,69,80.5535,1121.2346963664222,1480,1505.6648937653672,1305.91732,1500.0
8.08384394645691,69,80.5535,1121.2346963664222,1480,1505.8552732044286,1306.9038399999999,1500.0
8.108369827270508,69,82.577,1121.2346963664222,1480,1506.0506626287283,1301.18832,1500.0
8.132664918899536,70,82.577,1118.2287052233487,1480,1506.3227048271765,1300.7987600000001,1500.0
8.15694284439087,70,82.577,1115.3768674722276,1480,1506.5048755981163,1301.8492000000001,1500.0
8.181126832962036,70,82.577,1112.5250297211064,1480,1506.781850705107,1304.4712400000001,1500.0
8.205343008041382,70,83.577,1112.5250297211064,1480,1506.8862896281548,1303.09328,1500.0
8.22954797744751,71,83.577,1109.5190385780329,1480,1506.7918321372358,1308.5811200000001,1500.0
8.253736972808838,71,83.577,1103.957954963347,1480,1506.6092239560464,1312.6770000000001,1500.0
8.27794599533081,72,83.577,1101.1061172122259,1480,1506.4341827794842,1315.4128800000001,1500.0
8.302237033843994,72,83.6005,1095.5450335975399,1480,1506.1610480188706,1316.6628000000001,1500.0
8.326530933380127,73,84.624,1086.9779588397805,1480,1505.6173740553804,1318.0388800000001,1500.0
8.350756883621216,74,84.6475,1081.4168752250946,1480.3900000000001,1505.100754012178,1317.82916,1500.0
8.375056982040405,76,84.671,1075.8557916104087,1489.77,1504.6607867431237,1317.5856000000001,1500.0
8.399343013763428,77,84.671,1070.5694582180868,1496.78,1504.1490209808342,1317.37024,1500.0
8.423648834228516,78,84.671,1065.2831248257648,1506.02,1503.7267751011225,1317.2206799999999,1500.0
8.447940826416016,80,84.671,1059.7220412110789,1515.52,1503.6504848224351,1318.57692,1500.0
8.472287893295288,81,84.671,1054.160957596393,1520,1503.650847317896,1319.9989599999999,1500.0
8.496601819992065,83,83.671,1051.5838700676361,1520,1503.7541576783217,1324.1268,1500.0
8.5208899974823,85,83.671,1046.2975366753142,1520,1503.9183113015972,1327.0546400000001,1500.0
8.54509687423706,86,83.6945,1043.7204491465573,1520,1504.1676914004947,1329.8884800000001,1500.0
8.569280862808228,87,84.6945,1041.1433616178003,1520,1504.4164116476782,1328.71856,1500.0
8.593472003936768,89,85.7415,1041.1433616178003,1520,1504.8435612971814,1325.9526000000001,1500.0
8.617682933807373,91,86.765,1041.1433616178003,1520,1505.2585036899695,1318.90904,1500.0
8.641974925994873,95,87.7885,1046.429695010122,1520,1506.0144145865625,1310.3916400000001,1500.0
8.666224956512451,97,87.812,1051.716028402444,1520,1506.9249507348807,1303.1061999999999,1500.0
8.69040298461914,99,87.812,1054.425274266009,1520,1507.8929601085113,1298.64896,1500.0
8.71457290649414,101,87.812,1057.134520129574,1520,1508.7754143496084,1297.1233200000001,1500.0
8.738756895065308,103,87.765,1065.272691273017,1520,1509.8491312629053,1299.9475600000001,1500.0
8.763020992279053,105,86.7415,1070.5590246653387,1520,1510.5928349027831,1308.28324,1500.0
8.787299871444702,110,85.718,1078.6971958087818,1520,1511.1990243174421,1318.1266000000001,1500.0
8.811498880386353,112,84.6945,1089.8413580952981,1520,1511.9131981831638,1328.0837999999999,1500.0
8.83583402633667,114,83.671,1098.4084328530575,1520,1512.7102326459251,1338.0909199999999,1500.0
8.86003303527832,117,82.6475,1106.9755076108172,1520,1513.2759890828124,1348.0483199999999,1500.0
8.88423490524292,119,82.6475,1116.0063271560336,1520,1513.9561669558304,1350,1500.0
8.90835690498352,124,80.624,1121.8641560502281,1520,1514.4681009709075,1350,1500.0
8.932536840438843,126,80.624,1130.8949755954447,1520,1514.6778656689867,1350,1500.0
8.956729888916016,128,79.624,1139.9257951406612,1520,1514.7258078438638,1350,1500.0
8.9808189868927,131,79.624,1146.1047769347567,1520,1514.6764068515213,1350,1500.0
9.004914045333862,133,78.6005,1155.1355964799734,1520,1514.5275045444721,1350,1500.0
9.029023885726929,135,77.577,1164.6688826765781,1520,1514.5595373239039,1350,1500.0
9.053189992904663,139,76.5535,1167.8418733275998,1520,1514.4506141887939,1350,1500.0
9.077368974685669,141,75.53,1174.369168381131,1520,1514.2677673451208,1350,1500.0
9.10146188735962,143,74.53,1180.8964634346621,1520,1514.1670126881406,1350,1500.0
9.12567687034607,145,75.5065,1180.8964634346621,1520,1513.765960617063,1350,1500.0
9.149780035018921,147,74.5065,1187.4237584881932,1520,1513.1938379203618,1350,1500.0
9.17830491065979,151,75.5065,1190.7780628907021,1520,1512.7886110451016,1350,1500.0
9.202545881271362,153,75.53,1194.132367293211,1520,1512.3633001850612,1350,1500.0
9.226760864257812,154,76.53,1201.0382881219061,1520,1511.9548809744106,1345.04528,1500.0
9.250955820083618,156,76.5065,1204.3925925244152,1520,1511.9020332082737,1339.4256399999999,1500.0
9.275171995162964,158,77.5065,1207.9442089506013,1520,1511.8509827217154,1329.7297599999999,1500.0
9.299391031265259,161,78.483,1214.8501297792961,1520,1511.9161356852092,1322.84788,1500.0
9.323585033416748,163,78.4595,1218.4017462054821,1520,1512.0673033591327,1318.6576,1500.0
9.347765922546387,164,79.436,1221.9533626316684,1520,1512.1064831277261,1316.02116,1500.0
9.372000932693481,166,79.436,1225.3076670341773,1520,1512.0441458601376,1313.1626799999999,1500.0
9.39628291130066,167,80.436,1228.8592834603633,1520,1512.0719668554761,1311.8242,1500.0
9.420464992523193,169,81.436,1232.4108998865493,1520,1511.8926102259538,1310.41992,1500.0
9.444666862487793,171,83.436,1235.9625163127353,1520,1511.707334235721,1304.83788,1500.0
9.468854904174805,173,84.4125,1235.9625163127353,1520,1511.5001566108601,1300.45208,1500.0
9.493157863616943,174,85.4125,1239.5141327389215,1520,1511.3148806206275,1294.63004,1500.0
9.517467975616455,175,86.389,1239.5141327389215,1520,1511.0070738636914,1288.87004,1500.0
9.541697978973389,176,87.3655,1239.5141327389215,1520,1510.693347746045,1283.1758400000001,1500.0
9.5660719871521,178,88.3655,1239.5141327389215,1520,1510.273073135613,1281.6454000000001,1500.0
9.590288877487183,179,89.342,1239.5141327389215,1520,1509.9593470179666,1280.1431600000001,1500.0
9.61450481414795,180,89.3185,1243.0657491651075,1520,1509.6556838135277,1282.6747600000001,1500.0
9.638726949691772,181,90.295,1243.0657491651075,1520,1509.4425868279566,1283.9744000000001,1500.0
9.663007974624634,181,91.295,1243.0657491651075,1520,1509.336038335171,1285.18004,1500.0
9.68730092048645,183,91.295,1243.0657491651075,1520,1509.336038335171,1287.6656800000001,1500.0
9.711514949798584,184,93.295,1243.0657491651075,1520,1509.3360383351708,1286.27748,1500.0
9.735872983932495,185,93.3185,1239.5141327389215,1520,1509.106959075682,1285.80144,1500.0
9.760072946548462,185,94.3185,1235.9625163127353,1520,1508.7713313234074,1284.11976,1500.0
9.784292936325073,185,95.342,1235.9625163127353,1520,1508.4516858450506,1282.4079999999999,1500.0
9.808512926101685,186,96.3655,1235.9625163127353,1520,1508.1320403666939,1277.8624,1500.0
9.832767963409424,187,97.3655,1235.9625163127353,1520,1507.8123948883372,1276.17696,1500.0
9.857050895690918,187,97.3655,1235.9625163127353,1520,1507.8123948883372,1275.78928,1500.0
9.881263017654419,188,97.342,1235.9625163127353,1520,1508.0254918739083,1276.9356,1500.0
9.905632019042969,188,97.342,1235.9625163127353,1520,1508.2385888594795,1279.55952,1500.0
9.929849863052368,188,97.342,1235.9625163127353,1520,1508.4516858450506,1285.0492400000001,1500.0
9.954049825668335,188,97.342,1235.9625163127353,1520,1508.6647828306218,1290.61896,1500.0
9.978265047073364,188,96.342,1239.5141327389215,1520,1508.8938620901108,1298.7967200000001,1500.0
10.002543926239014,188,96.342,1243.0657491651075,1520,1509.1229413495998,1304.3486800000001,1500.0
10.026831865310669,188,96.3655,1243.0657491651075,1520,1509.336038335171,1308.4466399999999,1500.0
10.051082849502563,187,96.389,1243.0657491651075,1515.9100000000001,1509.5491353207422,1311.1188,1500.0
10.075387954711914,187,95.4125,1239.5141327389215,1511.51,1509.6397015396099,1315.03712,1500.0
10.099699974060059,186,95.436,1239.5141327389215,1504.6800000000001,1509.5331530468243,1314.9215999999999,1500.0
10.124019861221313,185,94.4595,1235.9625163127353,1497.79,1509.0909768017641,1317.4441999999999,1500.0
10.148329973220825,185,94.483,1235.9625163127353,1491.0999999999999,1508.6647828306218,1318.7987599999999,1500.0
10.172715902328491,184,93.5065,1232.4108998865493,1486.3800000000001,1508.116058092776,1322.82528,1500.0
10.19712495803833,184,93.5065,1232.4108998865493,1481.8599999999999,1507.7964126144193,1322.9458,1500.0
10.221755981445312,183,92.5065,1232.4108998865493,1480,1507.5833156288481,1327.13212,1500.0
10.246157884597778,182,90.5065,1228.8592834603633,1480,1507.5673333549303,1332.6642400000001,1500.0
10.270373821258545,181,89.5065,1228.8592834603633,1480,1507.5673333549303,1338.4702,1500.0
10.294594049453735,180,87.5065,1225.3076670341773,1480,1507.657899573798,1345.5899999999999,1500.0
10.318819046020508,180,86.5065,1225.3076670341773,1480,1507.657899573798,1350,1500.0
10.342996835708618,179,85.5065,1221.7560506079913,1480,1507.5353688070945,1350,1500.0
10.367198944091797,177,83.5065,1218.4017462054821,1480,1507.419645305208,1350,1500.0
10.39132285118103,176,82.5065,1211.495825376787,1480,1507.0807619045427,1350,1500.0
10.415685892105103,175,81.53,1208.1415209742779,1480,1506.7637801385056,1350,1500.0
10.439810037612915,175,81.53,1201.235600145583,1480,1506.2236384736898,1350,1500.0
10.463928937911987,174,80.5535,1194.3296793168879,1480,1505.6894161695843,1350,1500.0
10.488064050674438,173,79.577,1187.802384263357,1480,1505.0557886012261,1350,1500.0
10.512271881103516,171,78.6005,1177.7234727836399,1480,1504.5181666642802,1350,1500.0
10.536634922027588,170,78.624,1171.1961777301087,1480,1503.8954179210114,1350,1500.0
10.560926914215088,169,78.6475,1164.6688826765776,1480,1503.491205575858,1350,1500.0
