time,x,y,size_inv,roll,pitch,thrust,yaw
0.0010409355163574219,161,57,0.004784688995215311,1503.0,1494.0,1325,1501.0
0.025119781494140625,160,57,0.005050505050505051,1501.0,1494.0,1325,1500.0
0.04784083366394043,160,57,0.005050505050505051,1501.0,1494.0,1325,1500.0
0.07138800621032715,160,57,0.005050505050505051,1501.0,1494.0,1325,1500.0
0.09532380104064941,160,57,0.005050505050505051,1501.0,1494.0,1325,1500.0
0.11882781982421875,160,57,0.005050505050505051,1501.0,1494.0,1325,1500.0
0.14239287376403809,160,57,0.005050505050505051,1501.0,1494.0,1325,1500.0
0.16593289375305176,160,57,0.005050505050505051,1501.0,1494.0,1325,1500.0
0.18941092491149902,160,57,0.005050505050505051,1501.0,1494.0,1325,1500.0
0.21291589736938477,160,57,0.005050505050505051,1501.0,1494.0,1325,1500.0
0.23671197891235352,160,57,0.005050505050505051,1500.0,1494.0,1325,1500.0
0.26082777976989746,160,57,0.005050505050505051,1500.0,1494.0,1325,1500.0
0.28533101081848145,160,57,0.005555555555555556,1500.0,1494.0,1325,1500.0
0.30943894386291504,160,58,0.005050505050505051,1500.0,1494.0,1325,1500.0
0.33359479904174805,160,58,0.005555555555555556,1500.0,1494.0,1325,1500.0
0.35770082473754883,160,58,0.005555555555555556,1500.0,1494.0,1325,1500.0
0.3818659782409668,160,58,0.005555555555555556,1500.0,1494.0,1325,1500.0
0.40601587295532227,160,58,0.005050505050505051,1500.0,1494.0,1325,1500.0
0.43014979362487793,160,58,0.005555555555555556,1500.0,1494.0,1325,1500.0
0.4544098377227783,160,60,0.005555555555555556,1500.0,1494.0,1325,1500.0
0.4788248538970947,160,62,0.006172839506172839,1500.0,1494.0,1325,1500.0
0.5029439926147461,160,66,0.005555555555555556,1500.0,1494.0,1325,1500.0
0.5270688533782959,160,68,0.005555555555555556,1500.0,1494.0,1325,1500.0
0.5511698722839355,160,69,0.005050505050505051,1500.0,1494.0,1325,1500.0
0.5757339000701904,160,69,0.005555555555555556,1500.0,1494.0,1325,1500.0
0.6001858711242676,160,69,0.005555555555555556,1500.0,1494.0,1325,1500.0
0.6243288516998291,162,68,0.007142857142857143,1506.0,1494.0,1325,1502.0
0.6487448215484619,162,68,0.007142857142857143,1508.0,1494.0,1325,1502.0
0.6728529930114746,162,69,0.006493506493506494,1510.0,1494.0,1325,1502.0
0.6969609260559082,161,70,0.005050505050505051,1509.0,1494.0,1325,1501.0
0.7211019992828369,161,71,0.005050505050505051,1510.0,1494.0,1325,1501.0
0.7456269264221191,162,72,0.006493506493506494,1514.0,1494.0,1325,1502.0
0.7697827816009521,162,73,0.007142857142857143,1516.0,1494.0,1325,1502.0
0.7939279079437256,160,75,0.005050505050505051,1512.0,1494.0,1325,1500.0
0.8180358409881592,161,75,0.006493506493506494,1515.0,1494.0,1325,1501.0
0.8422188758850098,162,75,0.006060606060606061,1519.0,1494.0,1325,1502.0
0.8664178848266602,159,75,0.005050505050505051,1510.0,1494.0,1325,1499.0
0.8905599117279053,160,75,0.007142857142857143,1510.0,1494.0,1325,1500.0
0.9146749973297119,159,77,0.006493506493506494,1505.0,1494.0,1325,1499.0
0.9388048648834229,159,78,0.006493506493506494,1503.0,1494.0,1325,1499.0
0.9629008769989014,159,79,0.005681818181818182,1501.0,1494.0,1325,1499.0
0.9870288372039795,157,80,0.005555555555555556,1492.0,1494.0,1325,1497.0
1.0111308097839355,158,82,0.006493506493506494,1490.0,1494.0,1325,1498.0
1.0356907844543457,156,82,0.005555555555555556,1482.0,1494.0,1325,1496.0
1.0598487854003906,158,84,0.006060606060606061,1483.0,1494.0,1325,1498.0
1.083953857421875,156,84,0.005050505050505051,1480,1494.0,1325,1496.0
1.10798978805542,159,84,0.006060606060606061,1480,1494.0,1325,1499.0
1.1320669651031494,158,85,0.006493506493506494,1480,1494.0,1325,1498.0
1.1561717987060547,156,85,0.005555555555555556,1480,1494.0,1325,1496.0
1.1802349090576172,156,86,0.005050505050505051,1480,1494.0,1325,1496.0
1.2045619487762451,157,88,0.006493506493506494,1480,1494.0,1322.2,1497.0
1.2287139892578125,157,89,0.006493506493506494,1480,1494.0,1319.53,1497.0
1.252870798110962,157,90,0.006493506493506494,1480,1494.0,1316.8900000000001,1497.0
1.2769858837127686,156,91,0.005050505050505051,1480,1494.0,1313.9200000000001,1496.0
1.3011088371276855,157,92,0.006493506493506494,1480,1494.0,1310.98,1497.0
1.3260087966918945,157,93,0.006493506493506494,1480,1494.0,1308.3099999999999,1497.0
1.3502140045166016,157,94,0.006493506493506494,1480,1494.0,1305.6099999999999,1497.0
1.3743469715118408,158,95,0.006060606060606061,1480,1494.0,1302.9100000000001,1498.0
1.3984878063201904,157,95,0.006493506493506494,1480,1494.0,1301.4100000000001,1497.0
1.422672986984253,155,96,0.005050505050505051,1480,1494.0,1299.01,1495.0
1.446875810623169,155,96,0.005050505050505051,1480,1494.0,1297.8699999999999,1495.0
1.4710378646850586,155,97,0.005050505050505051,1480,1494.0,1295.8299999999999,1495.0
1.4955689907073975,155,98,0.005050505050505051,1480,1494.0,1293.79,1495.0
1.519709825515747,156,98,0.0043859649122807015,1480,1494.0,1292.6800000000001,1496.0
1.5441958904266357,155,99,0.005050505050505051,1480,1494.0,1290.6700000000001,1495.0
1.5683908462524414,155,99,0.004629629629629629,1480,1494.0,1289.5899999999999,1495.0
1.5926599502563477,155,100,0.005050505050505051,1480,1494.0,1287.6099999999999,1495.0
1.6169018745422363,155,100,0.005050505050505051,1480,1494.0,1286.8599999999999,1495.0
1.6411468982696533,156,100,0.0043859649122807015,1480,1494.0,1286.1099999999999,1496.0
1.6657578945159912,156,100,0.0043859649122807015,1480,1494.0,1285.6900000000001,1496.0
1.689936876296997,155,101,0.005050505050505051,1480,1494.0,1284.04,1495.0
1.7140769958496094,157,101,0.006493506493506494,1480,1494.0,1283.6199999999999,1497.0
1.7379539012908936,156,101,0.004629629629629629,1480,1494.0,1283.23,1496.0
1.7623918056488037,156,102,0.005050505050505051,1480,1494.0,1281.6099999999999,1496.0
1.7865819931030273,156,102,0.005050505050505051,1480,1494.0,1280.9200000000001,1496.0
1.810722827911377,157,102,0.0043859649122807015,1480,1494.0,1280.53,1497.0
1.834975004196167,156,102,0.005050505050505051,1480,1494.0,1280.1700000000001,1496.0
1.8591139316558838,156,102,0.005050505050505051,1480,1494.0,1279.8099999999999,1496.0
1.8835117816925049,157,102,0.005050505050505051,1480,1494.0,1279.75,1497.0
1.9078848361968994,157,101,0.004629629629629629,1480,1494.0,1280.9200000000001,1497.0
1.9320428371429443,157,101,0.004629629629629629,1480,1494.0,1281.22,1497.0
1.9562509059906006,158,101,0.0043859649122807015,1480,1494.0,1281.52,1498.0
1.9803848266601562,157,101,0.005050505050505051,1480,1494.0,1281.8199999999999,1497.0
2.0047719478607178,159,101,0.0043859649122807015,1480,1494.0,1282.1500000000001,1499.0
2.0291929244995117,158,101,0.005050505050505051,1480,1494.0,1282.1800000000001,1498.0
2.0535759925842285,158,101,0.005050505050505051,1480,1494.0,1282.21,1498.0
2.077692985534668,158,100,0.004629629629629629,1480,1494.0,1283.47,1498.0
2.1019158363342285,158,100,0.004629629629629629,1480,1494.0,1283.8299999999999,1498.0
2.1261558532714844,159,100,0.005050505050505051,1480,1494.0,1284.1900000000001,1499.0
2.1502819061279297,159,99,0.005050505050505051,1480,1494.0,1285.75,1499.0
2.1743979454040527,159,98,0.004629629629629629,1481.0,1494.0,1287.6400000000001,1499.0
2.1985738277435303,159,98,0.005050505050505051,1482.0,1494.0,1288.3299999999999,1499.0
2.222744941711426,160,97,0.004629629629629629,1487.0,1494.0,1290.25,1500.0
2.2469358444213867,161,97,0.005050505050505051,1491.0,1494.0,1291.27,1501.0
2.2711329460144043,161,96,0.004784688995215311,1494.0,1494.0,1293.22,1501.0
2.2957329750061035,160,95,0.004629629629629629,1494.0,1494.0,1295.2,1500.0
2.320021867752075,161,95,0.005050505050505051,1499.0,1494.0,1296.25,1501.0
2.344237804412842,161,94,0.004629629629629629,1502.0,1494.0,1298.23,1501.0
2.3684229850769043,161,93,0.0043859649122807015,1504.0,1494.0,1300.54,1501.0
2.3926868438720703,161,93,0.004784688995215311,1506.0,1494.0,1301.6199999999999,1501.0
2.4169678688049316,162,91,0.005555555555555556,1511.0,1494.0,1304.8299999999999,1502.0
2.441196918487549,160,90,0.004629629629629629,1508.0,1494.0,1307.47,1500.0
2.4657669067382812,160,90,0.005050505050505051,1508.0,1494.0,1308.8800000000001,1500.0
2.4902358055114746,160,89,0.005050505050505051,1507.0,1494.0,1311.22,1500.0
2.514720916748047,160,88,0.004629629629629629,1506.0,1494.0,1313.8599999999999,1500.0
2.550388813018799,161,87,0.004784688995215311,1509.0,1494.0,1316.2,1501.0
2.574770927429199,160,86,0.005050505050505051,1506.0,1494.0,1318.5699999999999,1500.0
2.599057912826538,160,85,0.005050505050505051,1505.0,1494.0,1321.24,1500.0
2.623530864715576,161,83,0.005050505050505051,1507.0,1494.0,1325,1501.0
2.6476898193359375,162,81,0.007142857142857143,1510.0,1494.0,1325,1502.0
2.67185378074646,161,80,0.005555555555555556,1507.0,1494.0,1325,1501.0
2.696021795272827,161,79,0.005555555555555556,1508.0,1494.0,1325,1501.0
2.720141887664795,161,78,0.005555555555555556,1509.0,1494.0,1325,1501.0
2.744277000427246,161,77,0.005555555555555556,1510.0,1494.0,1325,1501.0
2.768427848815918,161,76,0.005555555555555556,1511.0,1494.0,1325,1501.0
2.7928168773651123,163,76,0.006493506493506494,1517.0,1494.0,1325,1503.0
2.816969871520996,161,75,0.005050505050505051,1514.0,1494.0,1325,1501.0
2.841078996658325,163,74,0.007142857142857143,1520,1494.0,1325,1503.0
2.865480899810791,163,73,0.007142857142857143,1520,1494.0,1325,1503.0
2.88954496383667,161,71,0.005555555555555556,1518.0,1494.0,1325,1501.0
2.9136908054351807,161,71,0.005050505050505051,1518.0,1494.0,1325,1501.0
2.937835931777954,161,70,0.005555555555555556,1518.0,1494.0,1325,1501.0
2.962000846862793,161,69,0.005555555555555556,1518.0,1494.0,1325,1501.0
2.9861698150634766,163,69,0.006060606060606061,1520,1494.0,1325,1503.0
3.0104777812957764,162,68,0.006493506493506494,1520,1494.0,1325,1502.0
3.0345427989959717,161,67,0.004784688995215311,1519.0,1494.0,1325,1501.0
3.058666944503784,160,66,0.005555555555555556,1516.0,1494.0,1325,1500.0
3.082793951034546,161,66,0.006493506493506494,1516.0,1494.0,1325,1501.0
3.106879949569702,161,65,0.007142857142857143,1514.0,1494.0,1325,1501.0
3.1309988498687744,161,64,0.007142857142857143,1514.0,1494.0,1325,1501.0
3.1555068492889404,160,64,0.0053475935828877,1511.0,1494.0,1325,1500.0
3.179609775543213,160,64,0.005050505050505051,1510.0,1494.0,1325,1500.0
3.2039759159088135,159,63,0.005555555555555556,1506.0,1494.0,1325,1499.0
3.2280819416046143,159,63,0.005555555555555556,1502.0,1494.0,1325,1499.0
3.2522518634796143,159,62,0.005555555555555556,1499.0,1494.0,1325,1499.0
3.2764618396759033,159,62,0.005555555555555556,1497.0,1494.0,1325,1499.0
3.300574779510498,159,63,0.005555555555555556,1496.0,1494.0,1325,1499.0
3.324683904647827,160,63,0.007142857142857143,1497.0,1494.0,1325,1500.0
3.3488008975982666,160,64,0.007142857142857143,1496.0,1494.0,1325,1500.0
3.3728959560394287,159,65,0.004784688995215311,1492.0,1494.0,1325,1499.0
3.3970119953155518,158,65,0.005555555555555556,1488.0,1494.0,1325,1498.0
3.4211418628692627,158,66,0.005555555555555556,1486.0,1494.0,1325,1498.0
3.445701837539673,159,67,0.004784688995215311,1488.0,1494.0,1325,1499.0
3.469841957092285,158,67,0.005555555555555556,1485.0,1494.0,1325,1498.0
3.493945837020874,159,68,0.005050505050505051,1487.0,1494.0,1325,1499.0
3.518056869506836,160,68,0.007142857142857143,1490.0,1494.0,1325,1500.0
3.5422918796539307,160,69,0.007142857142857143,1491.0,1494.0,1325,1500.0
3.5665299892425537,160,70,0.007142857142857143,1491.0,1494.0,1325,1500.0
3.590698003768921,160,71,0.007142857142857143,1491.0,1494.0,1325,1500.0
3.615259885787964,159,72,0.005263157894736842,1489.0,1494.0,1325,1499.0
3.639434814453125,158,73,0.005555555555555556,1487.0,1494.0,1325,1498.0
3.6635549068450928,158,74,0.005555555555555556,1487.0,1494.0,1325,1498.0
3.687685966491699,159,74,0.007142857142857143,1489.0,1494.0,1325,1499.0
3.7118489742279053,159,74,0.006493506493506494,1490.0,1494.0,1325,1499.0
3.736034870147705,159,73,0.007142857142857143,1490.0,1494.0,1325,1499.0
3.760157823562622,159,73,0.007142857142857143,1489.0,1494.0,1325,1499.0
3.784256935119629,159,73,0.007142857142857143,1488.0,1494.0,1325,1499.0
3.808358907699585,158,74,0.005050505050505051,1484.0,1494.0,1325,1498.0
3.8323299884796143,157,75,0.005050505050505051,1480,1494.0,1325,1497.0
3.8558189868927,157,77,0.005050505050505051,1480,1494.0,1325,1497.0
3.879464864730835,157,78,0.005050505050505051,1480,1494.0,1325,1497.0
3.902864933013916,157,79,0.005050505050505051,1480,1494.0,1325,1497.0
3.9262328147888184,158,80,0.004784688995215311,1480,1494.0,1325,1498.0
3.949582815170288,158,80,0.005555555555555556,1480,1494.0,1325,1498.0
3.97294282913208,159,81,0.006493506493506494,1480,1494.0,1325,1499.0
3.996297836303711,158,81,0.005555555555555556,1480,1494.0,1325,1498.0
4.019742965698242,159,82,0.006493506493506494,1480,1494.0,1325,1499.0
4.043104887008667,159,82,0.007142857142857143,1480,1494.0,1325,1499.0
4.066454887390137,160,83,0.006060606060606061,1482.0,1494.0,1325,1500.0
4.08988094329834,159,83,0.006493506493506494,1482.0,1494.0,1325,1499.0
4.113310813903809,160,84,0.006060606060606061,1487.0,1494.0,1325,1500.0
4.1368348598480225,159,84,0.006493506493506494,1487.0,1494.0,1325,1499.0
4.160283803939819,159,85,0.006060606060606061,1488.0,1494.0,1325,1499.0
4.183725833892822,159,86,0.006493506493506494,1489.0,1494.0,1325,1499.0
4.207170009613037,157,86,0.005555555555555556,1483.0,1494.0,1325,1497.0
4.230616807937622,157,87,0.005050505050505051,1482.0,1494.0,1323.04,1497.0
4.254239797592163,158,87,0.0058823529411764705,1483.0,1494.0,1321.99,1498.0
4.277768850326538,157,88,0.005050505050505051,1480,1494.0,1320.01,1497.0
4.30129599571228,159,88,0.007142857142857143,1482.0,1494.0,1319.26,1499.0
4.325236797332764,159,89,0.006493506493506494,1482.0,1494.0,1317.28,1499.0
4.349481821060181,158,90,0.005050505050505051,1480,1494.0,1315.3,1498.0
4.373102903366089,158,91,0.005050505050505051,1480,1494.0,1312.99,1498.0
4.397151947021484,158,91,0.005050505050505051,1480,1494.0,1311.9100000000001,1498.0
4.421247959136963,158,91,0.005555555555555556,1480,1494.0,1310.8599999999999,1498.0
4.444968938827515,158,92,0.005050505050505051,1480,1494.0,1308.8800000000001,1498.0
4.468249797821045,158,92,0.005555555555555556,1480,1494.0,1308.1300000000001,1498.0
4.491825819015503,160,93,0.006493506493506494,1483.0,1494.0,1306.45,1500.0
4.515448808670044,159,93,0.005050505050505051,1483.0,1494.0,1305.7,1499.0
4.539020776748657,159,93,0.005050505050505051,1483.0,1494.0,1304.95,1499.0
4.562624931335449,159,94,0.005050505050505051,1483.0,1494.0,1303.3,1499.0
4.586244821548462,159,94,0.005050505050505051,1484.0,1494.0,1302.5799999999999,1499.0
4.609903812408447,159,94,0.005050505050505051,1485.0,1494.0,1302.1900000000001,1499.0
4.6334919929504395,159,95,0.005050505050505051,1486.0,1494.0,1300.5699999999999,1499.0
4.6570940017700195,159,95,0.005050505050505051,1487.0,1494.0,1299.8499999999999,1499.0
4.680651903152466,159,95,0.005050505050505051,1488.0,1494.0,1299.46,1499.0
4.704246997833252,160,96,0.004784688995215311,1492.0,1494.0,1297.8399999999999,1500.0
4.727775812149048,161,96,0.006493506493506494,1495.0,1494.0,1297.1500000000001,1501.0
4.7513267993927,159,96,0.005050505050505051,1491.0,1494.0,1296.76,1499.0
4.77506685256958,160,96,0.005050505050505051,1494.0,1494.0,1296.3699999999999,1500.0
4.798597812652588,160,96,0.005050505050505051,1495.0,1494.0,1296.01,1500.0
4.822197914123535,160,96,0.005050505050505051,1496.0,1494.0,1295.95,1500.0
4.8457958698272705,160,96,0.005050505050505051,1497.0,1494.0,1295.8900000000001,1500.0
4.869347810745239,160,96,0.005555555555555556,1498.0,1494.0,1295.8599999999999,1500.0
4.892910003662109,160,97,0.005050505050505051,1499.0,1494.0,1294.5999999999999,1500.0
4.916447877883911,160,97,0.005050505050505051,1500.0,1494.0,1294.24,1500.0
4.940001010894775,160,97,0.005050505050505051,1500.0,1494.0,1293.9100000000001,1500.0
4.9635419845581055,161,98,0.004784688995215311,1502.0,1494.0,1292.3499999999999,1501.0
4.987096786499023,161,98,0.004784688995215311,1504.0,1494.0,1291.6900000000001,1501.0
5.010628938674927,160,97,0.005555555555555556,1502.0,1494.0,1292.5599999999999,1500.0
5.034244775772095,162,97,0.006060606060606061,1508.0,1494.0,1292.53,1502.0
5.057801008224487,162,97,0.006493506493506494,1510.0,1494.0,1292.5,1502.0
5.0813069343566895,162,97,0.006493506493506494,1512.0,1494.0,1292.77,1502.0
5.105024814605713,163,97,0.006060606060606061,1517.0,1494.0,1293.04,1503.0
5.1288979053497314,161,96,0.005555555555555556,1514.0,1494.0,1294.27,1501.0
5.1525537967681885,161,96,0.0053475935828877,1515.0,1494.0,1294.5999999999999,1501.0
5.17616081237793,160,96,0.005050505050505051,1513.0,1494.0,1294.9300000000001,1500.0
5.199729919433594,160,96,0.005050505050505051,1512.0,1494.0,1295.29,1500.0
5.223313808441162,161,96,0.004784688995215311,1514.0,1494.0,1295.6500000000001,1501.0
5.246867895126343,160,96,0.005050505050505051,1512.0,1494.0,1295.6800000000001,1500.0
5.270412921905518,160,95,0.005555555555555556,1510.0,1494.0,1296.9400000000001,1500.0
5.294026851654053,160,95,0.005555555555555556,1508.0,1494.0,1297.3,1500.0
5.317579984664917,160,94,0.005555555555555556,1506.0,1494.0,1298.8900000000001,1500.0
5.341117858886719,160,94,0.005555555555555556,1503.0,1494.0,1299.5799999999999,1500.0
5.364865779876709,160,93,0.005555555555555556,1502.0,1494.0,1301.47,1500.0
5.388423919677734,160,93,0.005555555555555556,1501.0,1494.0,1302.1600000000001,1500.0
5.4120519161224365,160,92,0.005555555555555556,1501.0,1494.0,1304.0799999999999,1500.0
5.435678005218506,160,92,0.005555555555555556,1501.0,1494.0,1304.8,1500.0
5.459220886230469,160,91,0.005555555555555556,1500.0,1494.0,1306.75,1500.0
5.482736825942993,160,91,0.005555555555555556,1500.0,1494.0,1307.5,1500.0
5.5062878131866455,160,90,0.005555555555555556,1500.0,1494.0,1309.45,1500.0
5.5298378467559814,160,89,0.005555555555555556,1500.0,1494.0,1311.4300000000001,1500.0
5.553386926651001,160,89,0.005050505050505051,1500.0,1494.0,1312.48,1500.0
5.576950788497925,160,88,0.005555555555555556,1500.0,1494.0,1314.46,1500.0
5.600596904754639,160,86,0.005555555555555556,1500.0,1494.0,1317.97,1500.0
5.624115943908691,160,86,0.005050505050505051,1500.0,1494.0,1319.3800000000001,1500.0
5.647488832473755,160,85,0.005555555555555556,1500.0,1494.0,1321.6900000000001,1500.0
5.670848846435547,160,85,0.005555555555555556,1500.0,1494.0,1323.0999999999999,1500.0
5.694271802902222,160,84,0.005555555555555556,1500.0,1494.0,1325,1500.0
5.717517852783203,160,84,0.005555555555555556,1500.0,1494.0,1325,1500.0
5.74072790145874,160,83,0.005555555555555556,1500.0,1494.0,1325,1500.0
5.763932943344116,160,82,0.005555555555555556,1500.0,1494.0,1325,1500.0
5.787115812301636,160,80,0.005555555555555556,1500.0,1494.0,1325,1500.0
5.810287952423096,160,79,0.005555555555555556,1500.0,1494.0,1325,1500.0
5.8334808349609375,160,78,0.005555555555555556,1500.0,1494.0,1325,1500.0
5.856637001037598,160,77,0.005555555555555556,1500.0,1494.0,1325,1500.0
5.87982177734375,160,77,0.005555555555555556,1500.0,1494.0,1325,1500.0
5.903012990951538,160,76,0.005555555555555556,1500.0,1494.0,1325,1500.0
5.926198959350586,161,75,0.007142857142857143,1503.0,1494.0,1325,1501.0
5.949383974075317,161,75,0.007142857142857143,1504.0,1494.0,1325,1501.0
5.972622871398926,161,74,0.007142857142857143,1505.0,1494.0,1325,1501.0
5.995874881744385,159,74,0.005555555555555556,1500.0,1494.0,1325,1499.0
6.0190629959106445,159,73,0.005555555555555556,1499.0,1494.0,1325,1499.0
6.042325973510742,159,73,0.0058823529411764705,1498.0,1494.0,1325,1499.0
6.065586805343628,158,72,0.005555555555555556,1494.0,1494.0,1325,1498.0
6.08878493309021,158,72,0.005555555555555556,1492.0,1494.0,1325,1498.0
6.112063884735107,159,71,0.007142857142857143,1493.0,1494.0,1325,1499.0
6.135344982147217,157,70,0.005555555555555556,1486.0,1494.0,1325,1497.0
6.158531904220581,157,69,0.005555555555555556,1482.0,1494.0,1325,1497.0
6.181760787963867,157,68,0.006172839506172839,1480,1494.0,1325,1497.0
6.204935789108276,157,66,0.005555555555555556,1480,1494.0,1325,1497.0
6.228056907653809,157,66,0.005555555555555556,1480,1494.0,1325,1497.0
6.251165866851807,159,66,0.007142857142857143,1480,1494.0,1325,1499.0
6.274390935897827,159,66,0.007142857142857143,1480,1494.0,1325,1499.0
6.297520875930786,158,66,0.005555555555555556,1480,1494.0,1325,1498.0
6.320608854293823,158,67,0.005555555555555556,1480,1494.0,1325,1498.0
