time,frame,x,y,size_inv,roll,pitch,thrust,yaw
6.890296936035156e-05,1,,,,1500.0,1500.0,1400.0,1500
0.021255970001220703,2,,,,1500.0,1500.0,1400.0,1500
0.04207205772399902,3,,,,1500.0,1500.0,1400.0,1500
0.0628499984741211,4,,,,1500.0,1500.0,1400.0,1500
0.08356690406799316,5,,,,1500.0,1500.0,1400.0,1500
0.10429096221923828,6,,,,1500.0,1500.0,1400.0,1500
0.12501192092895508,7,,,,1500.0,1500.0,1400.0,1500
0.14572691917419434,8,,,,1500.0,1500.0,1400.0,1500
0.16643595695495605,9,,,,1500.0,1500.0,1400.0,1500
0.18713998794555664,10,,,,1500.0,1500.0,1400.0,1500
0.20785284042358398,11,,,,1500.0,1500.0,1400.0,1500
0.22856903076171875,12,,,,1500.0,1500.0,1400.0,1500
0.2492818832397461,13,,,,1500.0,1500.0,1400.0,1500
0.2699928283691406,14,,,,1500.0,1500.0,1400.0,1500
0.290693998336792,15,,,,1500.0,1500.0,1400.0,1500
0.31153082847595215,16,,,,1500.0,1500.0,1400.0,1500
0.33226704597473145,17,,,,1500.0,1500.0,1400.0,1500
0.35299086570739746,18,,,,1500.0,1500.0,1400.0,1500
0.373729944229126,19,,,,1500.0,1500.0,1400.0,1500
0.39444589614868164,20,,,,1500.0,1500.0,1400.0,1500
0.4151630401611328,21,,,,1500.0,1500.0,1400.0,1500
0.43587684631347656,22,,,,1500.0,1500.0,1400.0,1500
0.45662403106689453,23,,,,1500.0,1500.0,1400.0,1500
0.4773399829864502,24,,,,1500.0,1500.0,1400.0,1500
0.4980599880218506,25,,,,1500.0,1500.0,1400.0,1500
0.5187728404998779,26,,,,1500.0,1500.0,1400.0,1500
0.5394818782806396,27,,,,1500.0,1500.0,1400.0,1500
0.5601940155029297,28,,,,1500.0,1500.0,1400.0,1500
0.5809168815612793,29,,,,1500.0,1500.0,1400.0,1500
0.6017029285430908,30,,,,1500.0,1500.0,1400.0,1500
0.622412919998169,31,,,,1500.0,1500.0,1400.0,1500
0.6431179046630859,32,,,,1500.0,1500.0,1400.0,1500
0.6638309955596924,33,,,,1500.0,1500.0,1400.0,1500
0.6845369338989258,34,,,,1500.0,1500.0,1400.0,1500
0.7052469253540039,35,,,,1500.0,1500.0,1400.0,1500
0.7259609699249268,36,,,,1500.0,1500.0,1400.0,1500
0.7466709613800049,37,,,,1500.0,1500.0,1400.0,1500
0.7673799991607666,38,,,,1500.0,1500.0,1400.0,1500
0.7880818843841553,39,,,,1500.0,1500.0,1400.0,1500
0.8087868690490723,40,,,,1500.0,1500.0,1400.0,1500
0.8294949531555176,41,,,,1500.0,1500.0,1400.0,1500
0.8501999378204346,42,,,,1500.0,1500.0,1400.0,1500
0.870898962020874,43,,,,1500.0,1500.0,1400.0,1500
0.8916919231414795,44,,,,1500.0,1500.0,1400.0,1500
0.9124109745025635,45,,,,1500.0,1500.0,1400.0,1500
0.9331190586090088,46,,,,1500.0,1500.0,1400.0,1500
0.9538290500640869,47,,,,1500.0,1500.0,1400.0,1500
0.9745440483093262,48,,,,1500.0,1500.0,1400.0,1500
0.995250940322876,49,,,,1500.0,1500.0,1400.0,1500
1.0159578323364258,50,,,,1500.0,1500.0,1400.0,1500
1.0366690158843994,51,,,,1500.0,1500.0,1400.0,1500
1.0573749542236328,52,,,,1500.0,1500.0,1400.0,1500
1.0780730247497559,53,,,,1500.0,1500.0,1400.0,1500
1.0987818241119385,54,,,,1500.0,1500.0,1400.0,1500
1.119488000869751,55,,,,1500.0,1500.0,1400.0,1500
1.1401958465576172,56,,,,1500.0,1500.0,1400.0,1500
1.1608929634094238,57,,,,1500.0,1500.0,1400.0,1500
1.181663990020752,58,,,,1500.0,1500.0,1400.0,1500
1.202368974685669,59,,,,1500.0,1500.0,1400.0,1500
1.2230780124664307,60,,,,1500.0,1500.0,1400.0,1500
1.2437939643859863,61,,,,1500.0,1500.0,1400.0,1500
1.2645070552825928,62,,,,1500.0,1500.0,1400.0,1500
1.2852158546447754,63,,,,1500.0,1500.0,1400.0,1500
1.3059139251708984,64,,,,1500.0,1500.0,1400.0,1500
1.3266329765319824,65,,,,1500.0,1500.0,1400.0,1500
1.3473379611968994,66,,,,1500.0,1500.0,1400.0,1500
1.3680388927459717,67,,,,1500.0,1500.0,1400.0,1500
1.3887639045715332,68,,,,1500.0,1500.0,1400.0,1500
1.4094648361206055,69,,,,1500.0,1500.0,1400.0,1500
1.4301738739013672,70,,,,1500.0,1500.0,1400.0,1500
1.4508919715881348,71,,,,1500.0,1500.0,1400.0,1500
1.4716558456420898,72,,,,1500.0,1500.0,1400.0,1500
1.4923670291900635,73,,,,1500.0,1500.0,1400.0,1500
1.5130720138549805,74,,,,1500.0,1500.0,1400.0,1500
1.533776044845581,75,,,,1500.0,1500.0,1400.0,1500
1.554473876953125,76,,,,1500.0,1500.0,1400.0,1500
1.5751969814300537,77,,,,1500.0,1500.0,1400.0,1500
1.5959060192108154,78,,,,1500.0,1500.0,1400.0,1500
1.6168289184570312,79,,,,1500.0,1500.0,1400.0,1500
1.6375558376312256,80,,,,1500.0,1500.0,1400.0,1500
1.658263921737671,81,,,,1500.0,1500.0,1400.0,1500
1.6789710521697998,82,,,,1500.0,1500.0,1400.0,1500
1.699681043624878,83,,,,1500.0,1500.0,1400.0,1500
1.7203779220581055,84,,,,1500.0,1500.0,1400.0,1500
1.7410800457000732,85,,,,1500.0,1500.0,1400.0,1500
1.7617900371551514,86,,,,1500.0,1500.0,1400.0,1500
1.7824978828430176,87,,,,1500.0,1500.0,1400.0,1500
1.8031978607177734,88,,,,1500.0,1500.0,1400.0,1500
1.8239078521728516,89,,,,1500.0,1500.0,1400.0,1500
1.8446199893951416,90,,,,1500.0,1500.0,1400.0,1500
1.8653340339660645,91,,,,1500.0,1500.0,1400.0,1500
1.8860468864440918,92,,,,1500.0,1500.0,1400.0,1500
1.9067599773406982,93,,,,1500.0,1500.0,1400.0,1500
1.9274718761444092,94,,,,1500.0,1500.0,1400.0,1500
1.9481899738311768,95,,,,1500.0,1500.0,1400.0,1500
1.9688899517059326,96,,,,1500.0,1500.0,1400.0,1500
1.9896018505096436,97,,,,1500.0,1500.0,1400.0,1500
2.0103139877319336,98,,,,1500.0,1500.0,1400.0,1500
2.031026840209961,99,,,,1500.0,1500.0,1400.0,1500
2.05173397064209,100,,,,1500.0,1500.0,1400.0,1500
2.072490930557251,101,,,,1500.0,1500.0,1400.0,1500
2.093518018722534,102,,,,1500.0,1500.0,1400.0,1500
2.114506959915161,103,,,,1500.0,1500.0,1400.0,1500
2.1354949474334717,104,,,,1500.0,1500.0,1400.0,1500
2.1564879417419434,105,,,,1500.0,1500.0,1400.0,1500
2.17746901512146,106,,,,1500.0,1500.0,1400.0,1500
2.1984479427337646,107,,,,1500.0,1500.0,1400.0,1500
2.2194368839263916,108,,,,1500.0,1500.0,1400.0,1500
2.240428924560547,109,,,,1500.0,1500.0,1400.0,1500
2.261415958404541,110,,,,1500.0,1500.0,1400.0,1500
2.282402992248535,111,,,,1500.0,1500.0,1400.0,1500
2.30338191986084,112,,,,1500.0,1500.0,1400.0,1500
2.324363946914673,113,,,,1500.0,1500.0,1400.0,1500
2.345341920852661,114,,,,1500.0,1500.0,1400.0,1500
2.366389036178589,115,,,,1500.0,1500.0,1400.0,1500
2.3881888389587402,116,,,,1500.0,1500.0,1400.0,1500
2.4099318981170654,117,,,,1500.0,1500.0,1400.0,1500
2.4316680431365967,118,,,,1500.0,1500.0,1400.0,1500
2.4534480571746826,119,,,,1500.0,1500.0,1400.0,1500
2.475188970565796,120,,,,1500.0,1500.0,1400.0,1500
2.496906042098999,121,,,,1500.0,1500.0,1400.0,1500
2.518622875213623,122,,,,1500.0,1500.0,1400.0,1500
2.5403330326080322,123,,,,1500.0,1500.0,1400.0,1500
2.5621860027313232,124,,,,1500.0,1500.0,1400.0,1500
2.583951950073242,125,,,,1500.0,1500.0,1400.0,1500
2.6056649684906006,126,,,,1500.0,1500.0,1400.0,1500
2.6273930072784424,127,,,,1500.0,1500.0,1400.0,1500
2.64912486076355,128,,,,1500.0,1500.0,1400.0,1500
2.6708638668060303,129,,,,1500.0,1500.0,1400.0,1500
2.6927499771118164,130,,,,1500.0,1500.0,1400.0,1500
2.714463949203491,131,,,,1500.0,1500.0,1400.0,1500
2.7361929416656494,132,,,,1500.0,1500.0,1400.0,1500
2.7579119205474854,133,,,,1500.0,1500.0,1400.0,1500
2.7797000408172607,134,,,,1500.0,1500.0,1400.0,1500
2.801439046859741,135,,,,1500.0,1500.0,1400.0,1500
2.8231759071350098,136,,,,1500.0,1500.0,1400.0,1500
2.8448970317840576,137,,,,1500.0,1500.0,1400.0,1500
2.866602897644043,138,,,,1500.0,1500.0,1400.0,1500
2.888352870941162,139,,,,1500.0,1500.0,1400.0,1500
2.910101890563965,140,,,,1500.0,1500.0,1400.0,1500
2.9318249225616455,141,,,,1500.0,1500.0,1400.0,1500
2.9535369873046875,142,,,,1500.0,1500.0,1400.0,1500
2.9752678871154785,143,,,,1500.0,1500.0,1400.0,1500
2.99698805809021,144,,,,1500.0,1500.0,1400.0,1500
3.018707036972046,145,,,,1500.0,1500.0,1400.0,1500
3.040416955947876,146,,,,1500.0,1500.0,1400.0,1500
3.062264919281006,147,,,,1500.0,1500.0,1400.0,1500
3.084007978439331,148,,,,1500.0,1500.0,1400.0,1500
3.105463981628418,149,,,,1500.0,1500.0,1400.0,1500
3.127007007598877,150,,,,1500.0,1500.0,1400.0,1500
3.1485378742218018,151,,,,1500.0,1500.0,1400.0,1500
3.1701278686523438,152,,,,1500.0,1500.0,1400.0,1500
3.1916580200195312,153,,,,1500.0,1500.0,1400.0,1500
3.2131779193878174,154,,,,1500.0,1500.0,1400.0,1500
3.2346889972686768,155,,,,1500.0,1500.0,1400.0,1500
3.256213903427124,156,,,,1500.0,1500.0,1400.0,1500
3.2777469158172607,157,,,,1500.0,1500.0,1400.0,1500
3.299527883529663,158,,,,1500.0,1500.0,1400.0,1500
3.3211169242858887,159,,,,1500.0,1500.0,1400.0,1500
3.3426408767700195,160,,,,1500.0,1500.0,1400.0,1500
3.3641769886016846,161,,,,1500.0,1500.0,1400.0,1500
3.3857359886169434,162,,,,1500.0,1500.0,1400.0,1500
3.4072630405426025,163,,,,1500.0,1500.0,1400.0,1500
3.4287869930267334,164,,,,1500.0,1500.0,1400.0,1500
3.4504079818725586,165,,,,1500.0,1500.0,1400.0,1500
3.4721200466156006,166,,,,1500.0,1500.0,1400.0,1500
3.4936530590057373,167,,,,1500.0,1500.0,1400.0,1500
3.5151689052581787,168,,,,1500.0,1500.0,1400.0,1500
3.536667823791504,169,,,,1500.0,1500.0,1400.0,1500
3.5581870079040527,170,,,,1500.0,1500.0,1400.0,1500
3.579807996749878,171,,,,1500.0,1500.0,1400.0,1500
3.601341962814331,172,,,,1500.0,1500.0,1400.0,1500
3.622865915298462,173,,,,1500.0,1500.0,1400.0,1500
3.6444029808044434,174,,,,1500.0,1500.0,1400.0,1500
3.665923833847046,175,,,,1500.0,1500.0,1400.0,1500
3.6874659061431885,176,,,,1500.0,1500.0,1400.0,1500
3.7089829444885254,177,,,,1500.0,1500.0,1400.0,1500
3.73056697845459,178,,,,1500.0,1500.0,1400.0,1500
3.752178907394409,179,,,,1500.0,1500.0,1400.0,1500
3.7737138271331787,180,,,,1500.0,1500.0,1400.0,1500
3.7952539920806885,181,,,,1500.0,1500.0,1400.0,1500
3.8167760372161865,182,,,,1500.0,1500.0,1400.0,1500
3.8383049964904785,183,,,,1500.0,1500.0,1400.0,1500
3.8598878383636475,184,,,,1500.0,1500.0,1400.0,1500
3.881239891052246,185,,,,1500.0,1500.0,1400.0,1500
3.902519941329956,186,,,,1500.0,1500.0,1400.0,1500
3.923759937286377,187,,,,1500.0,1500.0,1400.0,1500
3.94508695602417,188,,,,1500.0,1500.0,1400.0,1500
3.966362953186035,189,,,,1500.0,1500.0,1400.0,1500
3.987649917602539,190,,,,1500.0,1500.0,1400.0,1500
4.00892186164856,191,,,,1500.0,1500.0,1400.0,1500
4.030170917510986,192,,,,1500.0,1500.0,1400.0,1500
4.051427841186523,193,,,,1500.0,1500.0,1400.0,1500
4.072689056396484,194,,,,1500.0,1500.0,1400.0,1500
4.093950033187866,195,,,,1500.0,1500.0,1400.0,1500
4.115212917327881,196,,,,1500.0,1500.0,1400.0,1500
4.1364970207214355,197,,,,1500.0,1500.0,1400.0,1500
4.157774925231934,198,,,,1500.0,1500.0,1400.0,1500
4.179060935974121,199,,,,1500.0,1500.0,1400.0,1500
4.200317859649658,200,,,,1500.0,1500.0,1400.0,1500
4.221575975418091,201,,,,1500.0,1500.0,1400.0,1500
4.242841005325317,202,,,,1500.0,1500.0,1400.0,1500
4.264096021652222,203,,,,1500.0,1500.0,1400.0,1500
4.285366058349609,204,,,,1500.0,1500.0,1400.0,1500
4.306627988815308,205,,,,1500.0,1500.0,1400.0,1500
4.327940940856934,206,,,,1500.0,1500.0,1400.0,1500
4.349446058273315,207,,,,1500.0,1500.0,1400.0,1500
4.370767831802368,208,,,,1500.0,1500.0,1400.0,1500
4.3921849727630615,209,,,,1500.0,1500.0,1400.0,1500
4.413492918014526,210,,,,1500.0,1500.0,1400.0,1500
4.434782981872559,211,,,,1500.0,1500.0,1400.0,1500
4.456089019775391,212,,,,1500.0,1500.0,1400.0,1500
4.47736382484436,213,,,,1500.0,1500.0,1400.0,1500
4.4986419677734375,214,,,,1500.0,1500.0,1400.0,1500
4.519918918609619,215,,,,1500.0,1500.0,1400.0,1500
4.5411999225616455,216,,,,1500.0,1500.0,1400.0,1500
4.562510967254639,217,,,,1500.0,1500.0,1400.0,1500
4.583777904510498,218,,,,1500.0,1500.0,1400.0,1500
4.605015993118286,219,,,,1500.0,1500.0,1400.0,1500
4.626309871673584,220,,,,1500.0,1500.0,1400.0,1500
4.647578001022339,221,,,,1500.0,1500.0,1400.0,1500
4.668855905532837,222,,,,1500.0,1500.0,1400.0,1500
4.690117835998535,223,,,,1500.0,1500.0,1400.0,1500
4.71138596534729,224,,,,1500.0,1500.0,1400.0,1500
4.732651948928833,225,,,,1500.0,1500.0,1400.0,1500
4.753922939300537,226,,,,1500.0,1500.0,1400.0,1500
4.775187969207764,227,,,,1500.0,1500.0,1400.0,1500
4.796457052230835,228,,,,1500.0,1500.0,1400.0,1500
4.81771993637085,229,,,,1500.0,1500.0,1400.0,1500
4.838983058929443,230,,,,1500.0,1500.0,1400.0,1500
4.860235929489136,231,,,,1500.0,1500.0,1400.0,1500
4.881515026092529,232,,,,1500.0,1500.0,1400.0,1500
4.902789831161499,233,,,,1500.0,1500.0,1400.0,1500
4.924059867858887,234,,,,1500.0,1500.0,1400.0,1500
4.945327997207642,235,,,,1500.0,1500.0,1400.0,1500
4.966928005218506,236,,,,1500.0,1500.0,1400.0,1500
4.988221883773804,237,,,,1500.0,1500.0,1400.0,1500
5.009493827819824,238,,,,1500.0,1500.0,1400.0,1500
5.030755996704102,239,,,,1500.0,1500.0,1400.0,1500
5.05224084854126,240,,,,1500.0,1500.0,1400.0,1500
5.073535919189453,241,,,,1500.0,1500.0,1400.0,1500
5.094806909561157,242,,,,1500.0,1500.0,1400.0,1500
5.116076946258545,243,,,,1500.0,1500.0,1400.0,1500
5.137351036071777,244,,,,1500.0,1500.0,1400.0,1500
5.158609867095947,245,,,,1500.0,1500.0,1400.0,1500
5.179880857467651,246,,,,1500.0,1500.0,1400.0,1500
5.201125860214233,247,,,,1500.0,1500.0,1400.0,1500
5.22239089012146,248,,,,1500.0,1500.0,1400.0,1500
5.243650913238525,249,,,,1500.0,1500.0,1400.0,1500
5.264914035797119,250,,,,1500.0,1500.0,1400.0,1500
5.286185026168823,251,,,,1500.0,1500.0,1400.0,1500
5.30745005607605,252,,,,1500.0,1500.0,1400.0,1500
5.328716993331909,253,,,,1500.0,1500.0,1400.0,1500
5.349995851516724,254,,,,1500.0,1500.0,1400.0,1500
5.371269941329956,255,,,,1500.0,1500.0,1400.0,1500
5.392547845840454,256,,,,1500.0,1500.0,1400.0,1500
5.413812875747681,257,,,,1500.0,1500.0,1400.0,1500
5.4350810050964355,258,,,,1500.0,1500.0,1400.0,1500
5.456373929977417,259,,,,1500.0,1500.0,1400.0,1500
5.4776458740234375,260,,,,1500.0,1500.0,1400.0,1500
5.498929977416992,261,,,,1500.0,1500.0,1400.0,1500
5.5201849937438965,262,,,,1500.0,1500.0,1400.0,1500
5.54144287109375,263,,,,1500.0,1500.0,1400.0,1500
5.562731027603149,264,,,,1500.0,1500.0,1400.0,1500
5.584028959274292,265,,,,1500.0,1500.0,1400.0,1500
5.60551905632019,266,,,,1500.0,1500.0,1400.0,1500
5.627161026000977,267,,,,1500.0,1500.0,1400.0,1500
5.648550987243652,268,,,,1500.0,1500.0,1400.0,1500
5.6698689460754395,269,,,,1500.0,1500.0,1400.0,1500
5.691202878952026,270,,,,1500.0,1500.0,1400.0,1500
5.712515830993652,271,,,,1500.0,1500.0,1400.0,1500
5.7337870597839355,272,,,,1500.0,1500.0,1400.0,1500
5.755054950714111,273,,,,1500.0,1500.0,1400.0,1500
5.776331901550293,274,,,,1500.0,1500.0,1400.0,1500
5.797602891921997,275,,,,1500.0,1500.0,1400.0,1500
5.8188629150390625,276,,,,1500.0,1500.0,1400.0,1500
5.8401288986206055,277,,,,1500.0,1500.0,1400.0,1500
5.861403942108154,278,,,,1500.0,1500.0,1400.0,1500
5.882689952850342,279,,,,1500.0,1500.0,1400.0,1500
5.903966903686523,280,,,,1500.0,1500.0,1400.0,1500
5.925230979919434,281,,,,1500.0,1500.0,1400.0,1500
5.946514844894409,282,,,,1500.0,1500.0,1400.0,1500
5.96779203414917,283,,,,1500.0,1500.0,1400.0,1500
5.989092826843262,284,,,,1500.0,1500.0,1400.0,1500
6.0103600025177,285,,,,1500.0,1500.0,1400.0,1500
6.0316150188446045,286,,,,1500.0,1500.0,1400.0,1500
6.052904844284058,287,,,,1500.0,1500.0,1400.0,1500
6.074203968048096,288,,,,1500.0,1500.0,1400.0,1500
6.09550404548645,289,,,,1500.0,1500.0,1400.0,1500
6.11677885055542,290,,,,1500.0,1500.0,1400.0,1500
6.138064861297607,291,,,,1500.0,1500.0,1400.0,1500
6.159358024597168,292,,,,1500.0,1500.0,1400.0,1500
6.180659055709839,293,,,,1500.0,1500.0,1400.0,1500
6.202115058898926,294,,,,1500.0,1500.0,1400.0,1500
6.223404884338379,295,,,,1500.0,1500.0,1400.0,1500
6.244686841964722,296,,,,1500.0,1500.0,1400.0,1500
6.265959978103638,297,,,,1500.0,1500.0,1400.0,1500
6.287237882614136,298,,,,1500.0,1500.0,1400.0,1500
6.3085339069366455,299,,,,1500.0,1500.0,1400.0,1500
6.329833984375,300,,,,1500.0,1500.0,1400.0,1500
6.351183891296387,301,,,,1500.0,1500.0,1400.0,1500
6.372524976730347,302,,,,1500.0,1500.0,1400.0,1500
6.393813848495483,303,,,,1500.0,1500.0,1400.0,1500
6.415093898773193,304,,,,1500.0,1500.0,1400.0,1500
6.4363720417022705,305,,,,1500.0,1500.0,1400.0,1500
6.457679033279419,306,,,,1500.0,1500.0,1400.0,1500
6.478970050811768,307,,,,1500.0,1500.0,1400.0,1500
6.500231981277466,308,,,,1500.0,1500.0,1400.0,1500
6.521505832672119,309,,,,1500.0,1500.0,1400.0,1500
6.542795896530151,310,,,,1500.0,1500.0,1400.0,1500
6.564103841781616,311,,,,1500.0,1500.0,1400.0,1500
6.585392951965332,312,,,,1500.0,1500.0,1400.0,1500
6.606677055358887,313,,,,1500.0,1500.0,1400.0,1500
6.627954959869385,314,,,,1500.0,1500.0,1400.0,1500
6.649521827697754,315,,,,1500.0,1500.0,1400.0,1500
6.670816898345947,316,,,,1500.0,1500.0,1400.0,1500
6.69242787361145,317,,,,1500.0,1500.0,1400.0,1500
6.713702917098999,318,,,,1500.0,1500.0,1400.0,1500
6.734984874725342,319,,,,1500.0,1500.0,1400.0,1500
6.756259918212891,320,,,,1500.0,1500.0,1400.0,1500
6.777554035186768,321,,,,1500.0,1500.0,1400.0,1500
6.798823833465576,322,,,,1500.0,1500.0,1400.0,1500
6.82008695602417,323,,,,1500.0,1500.0,1400.0,1500
6.841344833374023,324,,,,1500.0,1500.0,1400.0,1500
6.862618923187256,325,,,,1500.0,1500.0,1400.0,1500
6.883900880813599,326,,,,1500.0,1500.0,1400.0,1500
6.905174970626831,327,,,,1500.0,1500.0,1400.0,1500
6.926442861557007,328,,,,1500.0,1500.0,1400.0,1500
6.947710990905762,329,,,,1500.0,1500.0,1400.0,1500
6.969002962112427,330,,,,1500.0,1500.0,1400.0,1500
6.990278959274292,331,,,,1500.0,1500.0,1400.0,1500
7.011551856994629,332,,,,1500.0,1500.0,1400.0,1500
7.032851934432983,333,,,,1500.0,1500.0,1400.0,1500
7.054131031036377,334,,,,1500.0,1500.0,1400.0,1500
7.075418949127197,335,,,,1500.0,1500.0,1400.0,1500
7.096688985824585,336,,,,1500.0,1500.0,1400.0,1500
7.1179609298706055,337,,,,1500.0,1500.0,1400.0,1500
7.139240026473999,338,,,,1500.0,1500.0,1400.0,1500
7.1604979038238525,339,,,,1500.0,1500.0,1400.0,1500
7.182054042816162,340,,,,1500.0,1500.0,1400.0,1500
7.203402042388916,341,,,,1500.0,1500.0,1400.0,1500
7.224715948104858,342,,,,1500.0,1500.0,1400.0,1500
7.246026039123535,343,,,,1500.0,1500.0,1400.0,1500
7.267340898513794,344,,,,1500.0,1500.0,1400.0,1500
7.2886669635772705,345,,,,1500.0,1500.0,1400.0,1500
7.310281038284302,346,,,,1500.0,1500.0,1400.0,1500
7.331815958023071,347,,,,1500.0,1500.0,1400.0,1500
7.353359937667847,348,,,,1500.0,1500.0,1400.0,1500
7.3749330043792725,349,,,,1500.0,1500.0,1400.0,1500
7.396472930908203,350,,,,1500.0,1500.0,1400.0,1500
7.41799783706665,351,,,,1500.0,1500.0,1400.0,1500
7.439587831497192,352,,,,1500.0,1500.0,1400.0,1500
7.461199998855591,353,,,,1500.0,1500.0,1400.0,1500
7.482740879058838,354,,,,1500.0,1500.0,1400.0,1500
7.5042688846588135,355,,,,1500.0,1500.0,1400.0,1500
7.52579402923584,356,,,,1500.0,1500.0,1400.0,1500
7.547315835952759,357,,,,1500.0,1500.0,1400.0,1500
7.568846940994263,358,,,,1500.0,1500.0,1400.0,1500
7.590446949005127,359,,,,1500.0,1500.0,1400.0,1500
7.612094879150391,360,,,,1500.0,1500.0,1400.0,1500
7.633633852005005,361,,,,1500.0,1500.0,1400.0,1500
7.655170917510986,362,,,,1500.0,1500.0,1400.0,1500
7.67671799659729,363,,,,1500.0,1500.0,1400.0,1500
7.6982738971710205,364,,,,1500.0,1500.0,1400.0,1500
7.71986198425293,365,,,,1500.0,1500.0,1400.0,1500
7.741389989852905,366,,,,1500.0,1500.0,1400.0,1500
7.762910842895508,367,,,,1500.0,1500.0,1400.0,1500
7.784453868865967,368,,,,1500.0,1500.0,1400.0,1500
7.805974960327148,369,,,,1500.0,1500.0,1400.0,1500
7.82755184173584,370,,,,1500.0,1500.0,1400.0,1500
7.849064826965332,371,,,,1500.0,1500.0,1400.0,1500
7.870645999908447,372,,,,1500.0,1500.0,1400.0,1500
7.892464876174927,373,,,,1500.0,1500.0,1400.0,1500
7.914031028747559,374,,,,1500.0,1500.0,1400.0,1500
7.9355788230896,375,,,,1500.0,1500.0,1400.0,1500
7.957115888595581,376,,,,1500.0,1500.0,1400.0,1500
7.978662014007568,377,,,,1500.0,1500.0,1400.0,1500
8.00025486946106,378,,,,1500.0,1500.0,1400.0,1500
8.021777868270874,379,,,,1500.0,1500.0,1400.0,1500
8.043313026428223,380,,,,1500.0,1500.0,1400.0,1500
8.064823865890503,381,,,,1500.0,1500.0,1400.0,1500
8.086403846740723,382,,,,1500.0,1500.0,1400.0,1500
8.107921838760376,383,,,,1500.0,1500.0,1400.0,1500
8.129506826400757,384,,,,1500.0,1500.0,1400.0,1500
8.151128053665161,385,,,,1500.0,1500.0,1400.0,1500
8.172790050506592,386,,,,1500.0,1500.0,1400.0,1500
8.19432783126831,387,,,,1500.0,1500.0,1400.0,1500
8.215904951095581,388,,,,1500.0,1500.0,1400.0,1500
8.237447023391724,389,,,,1500.0,1500.0,1400.0,1500
8.258967876434326,390,,,,1500.0,1500.0,1400.0,1500
8.280556917190552,391,,,,1500.0,1500.0,1400.0,1500
8.302183866500854,392,,,,1500.0,1500.0,1400.0,1500
8.32372498512268,393,,,,1500.0,1500.0,1400.0,1500
8.345547914505005,394,,,,1500.0,1500.0,1400.0,1500
8.367118835449219,395,,,,1500.0,1500.0,1400.0,1500
8.388675928115845,396,,,,1500.0,1500.0,1400.0,1500
8.410269975662231,397,,,,1500.0,1500.0,1400.0,1500
8.431797981262207,398,,,,1500.0,1500.0,1400.0,1500
8.453361988067627,399,,,,1500.0,1500.0,1400.0,1500
8.474901914596558,400,,,,1500.0,1500.0,1400.0,1500
8.496433973312378,401,,,,1500.0,1500.0,1400.0,1500
8.517956018447876,402,,,,1500.0,1500.0,1400.0,1500
8.53954291343689,403,,,,1500.0,1500.0,1400.0,1500
8.561095952987671,404,,,,1500.0,1500.0,1400.0,1500
8.582722902297974,405,,,,1500.0,1500.0,1400.0,1500
8.6042640209198,406,,,,1500.0,1500.0,1400.0,1500
8.625789880752563,407,,,,1500.0,1500.0,1400.0,1500
8.647307872772217,408,,,,1500.0,1500.0,1400.0,1500
8.668819904327393,409,,,,1500.0,1500.0,1400.0,1500
8.690410852432251,410,,,,1500.0,1500.0,1400.0,1500
8.712029933929443,411,,,,1500.0,1500.0,1400.0,1500
8.733561992645264,412,,,,1500.0,1500.0,1400.0,1500
8.75508189201355,413,,,,1500.0,1500.0,1400.0,1500
8.776618957519531,414,,,,1500.0,1500.0,1400.0,1500
8.798133850097656,415,,,,1500.0,1500.0,1400.0,1500
8.819713830947876,416,,,,1500.0,1500.0,1400.0,1500
8.841224908828735,417,,,,1500.0,1500.0,1400.0,1500
8.862767934799194,418,,,,1500.0,1500.0,1400.0,1500
8.884346961975098,419,,,,1500.0,1500.0,1400.0,1500
8.905882835388184,420,,,,1500.0,1500.0,1400.0,1500
8.927424907684326,421,,,,1500.0,1500.0,1400.0,1500
8.948717832565308,422,,,,1500.0,1500.0,1400.0,1500
8.969982862472534,423,,,,1500.0,1500.0,1400.0,1500
8.991245985031128,424,,,,1500.0,1500.0,1400.0,1500
9.012500047683716,425,,,,1500.0,1500.0,1400.0,1500
9.03374195098877,426,,,,1500.0,1500.0,1400.0,1500
9.054996013641357,427,,,,1500.0,1500.0,1400.0,1500
9.076256036758423,428,,,,1500.0,1500.0,1400.0,1500
9.097517013549805,429,,,,1500.0,1500.0,1400.0,1500
9.118769884109497,430,,,,1500.0,1500.0,1400.0,1500
9.140022039413452,431,,,,1500.0,1500.0,1400.0,1500
9.161269903182983,432,,,,1500.0,1500.0,1400.0,1500
9.182549953460693,433,,,,1500.0,1500.0,1400.0,1500
9.203824043273926,434,,,,1500.0,1500.0,1400.0,1500
9.225083827972412,435,,,,1500.0,1500.0,1400.0,1500
9.246342897415161,436,,,,1500.0,1500.0,1400.0,1500
9.267596960067749,437,,,,1500.0,1500.0,1400.0,1500
9.288851976394653,438,,,,1500.0,1500.0,1400.0,1500
9.31010890007019,439,,,,1500.0,1500.0,1400.0,1500
9.331379890441895,440,,,,1500.0,1500.0,1400.0,1500
9.35263705253601,441,,,,1500.0,1500.0,1400.0,1500
9.37391996383667,442,,,,1500.0,1500.0,1400.0,1500
9.39517092704773,443,,,,1500.0,1500.0,1400.0,1500
9.416419982910156,444,,,,1500.0,1500.0,1400.0,1500
9.437679052352905,445,,,,1500.0,1500.0,1400.0,1500
9.45896601676941,446,,,,1500.0,1500.0,1400.0,1500
9.480222940444946,447,,,,1500.0,1500.0,1400.0,1500
9.501468896865845,448,,,,1500.0,1500.0,1400.0,1500
9.522709846496582,449,,,,1500.0,1500.0,1400.0,1500
9.543968915939331,450,,,,1500.0,1500.0,1400.0,1500
9.565242052078247,451,,,,1500.0,1500.0,1400.0,1500
9.586504936218262,452,,,,1500.0,1500.0,1400.0,1500
9.607745885848999,453,,,,1500.0,1500.0,1400.0,1500
9.629238843917847,454,151,16,0.03333333333333333,1499.1,1540,1450,1500
9.650914907455444,455,126,19,0.007936507936507936,1496.6,1529.3650793650793,1450,1500
9.672788858413696,456,152,21,0.0022675736961451248,1499.2,1472.6757369614513,1450,1500
9.69442892074585,457,164,23,0.0016025641025641025,1500.4,1466.025641025641,1450,1500
9.71604585647583,458,158,24,0.001152073732718894,1499.8,1461.520737327189,1450,1500
9.737669944763184,459,163,23,0.0007974481658692185,1500.3,1460,1450,1500
9.759212017059326,460,168,27,0.0009337068160597573,1500.8,1460,1450,1500
9.780765056610107,461,166,26,0.000641025641025641,1500.6,1460,1450,1500
9.802425861358643,462,165,29,0.0006613756613756613,1500.5,1460,1450,1500
9.823966026306152,463,166,29,0.0005040322580645161,1500.6,1460,1450,1500
9.845454931259155,464,176,31,0.0008183306055646482,1501.6,1460,1450,1500
9.867004871368408,465,166,32,0.0004901960784313725,1500.6,1460,1450,1500
9.888571977615356,466,166,34,0.00048146364949446316,1500.6,1460,1450,1500
9.910454034805298,467,167,34,0.00043252595155709344,1500.7,1460,1450,1500
9.93203592300415,468,167,34,0.0003869969040247678,1500.7,1460,1450,1500
9.953608989715576,469,167,38,0.000445632798573975,1500.7,1460,1450,1500
9.97516393661499,470,167,39,0.00041459369817578774,1500.7,1460,1450,1500
9.996700048446655,471,167,42,0.0004158004158004158,1500.7,1460,1450,1500
10.018242835998535,472,166,43,0.00042087542087542086,1500.6,1460,1450,1500
10.039785861968994,473,166,44,0.0003944773175542406,1500.6,1460,1450,1500
10.061327934265137,474,166,46,0.0004464285714285714,1500.6,1460,1450,1500
10.08288288116455,475,166,48,0.0004222972972972973,1500.6,1460,1450,1500
10.104430913925171,476,167,49,0.000407000407000407,1500.7,1460,1450,1500
10.125970840454102,477,166,50,0.00043591979075850045,1500.6,1460,1450,1500
10.147510051727295,478,167,52,0.00045351473922902497,1500.7,1460,1450,1500
10.169070959091187,479,166,52,0.00043591979075850045,1500.6,1460,1450,1500
10.190603017807007,480,166,53,0.0004608294930875576,1500.6,1460,1450,1500
10.212291955947876,481,167,54,0.00045351473922902497,1500.7,1460,1450,1500
10.233854055404663,482,166,54,0.00043591979075850045,1500.6,1460,1450,1500
10.255393981933594,483,166,56,0.0004608294930875576,1500.6,1460,1450,1500
10.27694582939148,484,167,54,0.0004177109440267335,1500.7,1460,1450,1500
10.298486948013306,485,167,55,0.0004177109440267335,1500.7,1460,1450,1500
10.320066928863525,486,166,58,0.0005040322580645161,1500.6,1460,1450,1500
10.34183382987976,487,167,57,0.00045351473922902497,1500.7,1460,1450,1500
10.363423824310303,488,166,57,0.0004743833017077799,1500.6,1460,1450,1500
10.385010004043579,489,167,58,0.00046685340802987864,1500.7,1460,1450,1500
10.406561851501465,490,167,60,0.0005288207297726071,1500.7,1460,1450,1500
10.428115844726562,491,167,59,0.0005122950819672131,1500.7,1460,1450,1500
10.449687957763672,492,167,59,0.000505050505050505,1500.7,1460,1450,1500
10.47126293182373,493,168,61,0.000585480093676815,1500.8,1460,1450,1500
10.492811918258667,494,169,59,0.0005411255411255411,1500.9,1460,1450,1500
10.514346837997437,495,167,60,0.0005555555555555556,1500.7,1460,1450,1500
10.535883903503418,496,169,62,0.0007062146892655367,1500.9,1460,1450,1500
10.557417869567871,497,173,57,0.0011574074074074073,1501.3,1461.5740740740741,1450,1500
10.579071998596191,498,168,56,0.0006557377049180328,1500.8,1460,1450,1500
10.600620031356812,499,168,59,0.0005122950819672131,1500.8,1460,1450,1500
10.622306823730469,500,168,61,0.000546448087431694,1500.8,1460,1450,1500
10.64387583732605,501,168,63,0.0006305170239596469,1500.8,1460,1450,1500
10.665420055389404,502,168,59,0.00048216007714561236,1500.8,1460,1450,1500
10.686970949172974,503,168,62,0.0005288207297726071,1500.8,1460,1450,1500
10.708513975143433,504,167,62,0.0005376344086021505,1500.7,1460,1450,1500
10.730051040649414,505,167,62,0.0005555555555555556,1500.7,1460,1450,1500
10.751585960388184,506,167,61,0.0005555555555555556,1500.7,1460,1450,1500
10.773138999938965,507,167,62,0.0006305170239596469,1500.7,1460,1450,1500
10.794692039489746,508,167,67,0.0008771929824561404,1500.7,1460,1450,1500
10.816236019134521,509,167,61,0.0004967709885742673,1500.7,1460,1450,1500
10.83776593208313,510,166,62,0.0005555555555555556,1500.6,1460,1450,1500
10.859312057495117,511,166,61,0.000505050505050505,1500.6,1460,1450,1500
10.880871057510376,512,166,61,0.0004985044865403788,1500.6,1460,1450,1500
10.902565956115723,513,166,62,0.0005376344086021505,1500.6,1460,1450,1500
10.924121856689453,514,166,61,0.0004967709885742673,1500.6,1460,1450,1500
10.945720911026001,515,167,61,0.000468384074941452,1500.7,1460,1450,1500
10.96747088432312,516,167,61,0.000468384074941452,1500.7,1460,1450,1500
10.989076852798462,517,166,62,0.0005376344086021505,1500.6,1460,1450,1500
11.010650873184204,518,166,60,0.0004743833017077799,1500.6,1460,1450,1500
11.032333850860596,519,166,61,0.0004608294930875576,1500.6,1460,1450,1500
11.053897857666016,520,167,61,0.000468384074941452,1500.7,1460,1450,1500
11.075764894485474,521,166,60,0.0004608294930875576,1500.6,1460,1450,1500
11.097323894500732,522,166,61,0.000505050505050505,1500.6,1460,1450,1500
11.118871927261353,523,167,60,0.00048216007714561236,1500.7,1460,1450,1500
11.140423059463501,524,167,65,0.0006203473945409429,1500.7,1460,1450,1500
11.16196894645691,525,167,61,0.00048216007714561236,1500.7,1460,1450,1500
11.18350887298584,526,167,62,0.0004887585532746823,1500.7,1460,1450,1500
11.205059051513672,527,167,64,0.000641025641025641,1500.7,1460,1450,1500
11.22660493850708,528,167,61,0.0004761904761904762,1500.7,1460,1450,1500
11.248142004013062,529,167,60,0.0004901960784313725,1500.7,1460,1450,1500
11.269697904586792,530,169,62,0.0005411255411255411,1500.9,1460,1450,1500
11.291316986083984,531,167,61,0.0004901960784313725,1500.7,1460,1450,1500
11.312893867492676,532,168,61,0.000468384074941452,1500.8,1460,1450,1500
11.334439992904663,533,167,61,0.0004761904761904762,1500.7,1460,1450,1500
11.356010913848877,534,168,62,0.0005122950819672131,1500.8,1460,1450,1500
11.377596855163574,535,168,61,0.0004743833017077799,1500.8,1460,1450,1500
11.399165868759155,536,168,61,0.0004967709885742673,1500.8,1460,1450,1500
11.42072606086731,537,168,64,0.000585480093676815,1500.8,1460,1450,1500
11.442416906356812,538,168,62,0.0004887585532746823,1500.8,1460,1450,1500
11.46397590637207,539,168,63,0.0005288207297726071,1500.8,1460,1450,1500
11.485530853271484,540,168,60,0.0004608294930875576,1500.8,1460,1450,1500
11.50707197189331,541,168,62,0.0005122950819672131,1500.8,1460,1450,1500
11.528604984283447,542,168,62,0.0005122950819672131,1500.8,1460,1450,1500
11.550140857696533,543,167,60,0.000462962962962963,1500.7,1460,1450,1500
11.571706056594849,544,167,60,0.0004901960784313725,1500.7,1460,1450,1500
11.593276023864746,545,168,63,0.000585480093676815,1500.8,1460,1450,1500
11.614825963973999,546,167,63,0.0005376344086021505,1500.7,1460,1450,1500
11.636360883712769,547,168,60,0.00048216007714561236,1500.8,1460,1450,1500
11.657915830612183,548,167,62,0.000505050505050505,1500.7,1460,1450,1500
11.679455041885376,549,168,61,0.00048216007714561236,1500.8,1460,1450,1500
11.701063871383667,550,167,62,0.0005376344086021505,1500.7,1460,1450,1500
11.72269892692566,551,167,61,0.000505050505050505,1500.7,1460,1450,1500
11.74425482749939,552,168,62,0.0005122950819672131,1500.8,1460,1450,1500
11.765794038772583,553,168,62,0.0004967709885742673,1500.8,1460,1450,1500
11.787333011627197,554,167,62,0.0005202913631633715,1500.7,1460,1450,1500
11.808876991271973,555,167,60,0.0004761904761904762,1500.7,1460,1450,1500
11.830416917800903,556,167,61,0.0005122950819672131,1500.7,1460,1450,1500
11.851948022842407,557,167,61,0.0004967709885742673,1500.7,1460,1450,1500
11.873518943786621,558,166,62,0.0005208333333333333,1500.6,1460,1450,1500
11.895057916641235,559,167,61,0.000468384074941452,1500.7,1460,1450,1500
11.916599988937378,560,166,62,0.000505050505050505,1500.6,1460,1450,1500
11.938129901885986,561,167,62,0.0005040322580645161,1500.7,1460,1450,1500
11.959671974182129,562,167,62,0.0005122950819672131,1500.7,1460,1450,1500
11.981255054473877,563,167,62,0.0005208333333333333,1500.7,1460,1450,1500
12.002818822860718,564,167,61,0.0004761904761904762,1500.7,1460,1450,1500
12.0243558883667,565,167,61,0.0004761904761904762,1500.7,1460,1450,1500
12.04588794708252,566,167,60,0.0004553734061930783,1500.7,1460,1450,1500
12.06742787361145,567,167,61,0.0004761904761904762,1500.7,1460,1450,1500
12.08895993232727,568,167,63,0.0005376344086021505,1500.7,1460,1450,1500
12.11049485206604,569,167,61,0.0004901960784313725,1500.7,1460,1450,1500
12.13217282295227,570,168,62,0.0005122950819672131,1500.8,1460,1450,1500
12.153728008270264,571,168,62,0.0005122950819672131,1500.8,1460,1450,1500
12.175287961959839,572,168,62,0.0005652911249293386,1500.8,1460,1450,1500
12.196833848953247,573,167,63,0.0005555555555555556,1500.7,1460,1450,1500
12.218384981155396,574,168,63,0.0005288207297726071,1500.8,1460,1450,1500
12.239930868148804,575,167,62,0.0005376344086021505,1500.7,1460,1450,1500
12.261790037155151,576,168,61,0.000468384074941452,1500.8,1460,1450,1500
12.28339695930481,577,174,62,0.0006583278472679394,1501.4,1460,1450,1500
12.305492877960205,578,168,61,0.00048216007714561236,1500.8,1460,1450,1500
12.327565908432007,579,168,61,0.000468384074941452,1500.8,1460,1450,1500
12.349613904953003,580,168,62,0.00048216007714561236,1500.8,1460,1450,1500
12.371649026870728,581,168,63,0.000546448087431694,1500.8,1460,1450,1500
12.393733978271484,582,168,63,0.0005288207297726071,1500.8,1460,1450,1500
12.415791034698486,583,168,63,0.0005288207297726071,1500.8,1460,1450,1500
12.437837839126587,584,168,65,0.0006071645415907711,1500.8,1460,1450,1500
12.45991587638855,585,168,62,0.0005202913631633715,1500.8,1460,1450,1500
12.48196291923523,586,168,63,0.0005288207297726071,1500.8,1460,1450,1500
12.504029989242554,587,168,62,0.0005122950819672131,1500.8,1460,1450,1500
12.52608585357666,588,168,61,0.000468384074941452,1500.8,1460,1450,1500
12.548120975494385,589,168,61,0.0004608294930875576,1500.8,1460,1450,1500
12.57019591331482,590,168,62,0.0005122950819672131,1500.8,1460,1450,1500
12.592265844345093,591,168,62,0.0004967709885742673,1500.8,1460,1450,1500
12.614322900772095,592,168,62,0.0004743833017077799,1500.8,1460,1450,1500
12.636384963989258,593,168,61,0.00048216007714561236,1500.8,1460,1450,1500
12.658457040786743,594,168,61,0.00048216007714561236,1500.8,1460,1450,1500
12.680520057678223,595,168,61,0.000468384074941452,1500.8,1460,1450,1500
12.702723979949951,596,167,61,0.0004761904761904762,1500.7,1460,1450,1500
12.72478699684143,597,168,61,0.000468384074941452,1500.8,1460,1450,1500
12.746816873550415,598,168,61,0.000468384074941452,1500.8,1460,1450,1500
12.76885199546814,599,168,60,0.00048216007714561236,1500.8,1460,1450,1500
12.790902853012085,600,168,61,0.00048216007714561236,1500.8,1460,1450,1500
12.813073873519897,601,168,61,0.00048216007714561236,1500.8,1460,1450,1500
12.835139036178589,602,168,61,0.00048216007714561236,1500.8,1460,1450,1500
12.857182025909424,603,168,62,0.0004608294930875576,1500.8,1460,1450,1500
12.87927794456482,604,168,61,0.00048216007714561236,1500.8,1460,1450,1500
12.901355981826782,605,168,62,0.000468384074941452,1500.8,1460,1450,1500
12.923401832580566,606,168,61,0.0004553734061930783,1500.8,1460,1450,1500
12.945443868637085,607,168,60,0.0004743833017077799,1500.8,1460,1450,1500
12.967481851577759,608,168,62,0.0004608294930875576,1500.8,1460,1450,1500
12.989542961120605,609,169,62,0.00046685340802987864,1500.9,1460,1450,1500
13.011589050292969,610,168,63,0.0005376344086021505,1500.8,1460,1450,1500
13.033643960952759,611,169,62,0.0004887585532746823,1500.9,1460,1450,1500
13.055697917938232,612,169,62,0.000481000481000481,1500.9,1460,1450,1500
13.077739000320435,613,168,62,0.0004608294930875576,1500.8,1460,1450,1500
13.099798917770386,614,168,61,0.0004743833017077799,1500.8,1460,1450,1500
13.12185001373291,615,168,61,0.0004608294930875576,1500.8,1460,1450,1500
13.143892049789429,616,169,62,0.00045351473922902497,1500.9,1460,1450,1500
13.165932893753052,617,168,62,0.0004608294930875576,1500.8,1460,1450,1500
13.188011884689331,618,168,62,0.0004743833017077799,1500.8,1460,1450,1500
13.210096836090088,619,168,61,0.0004608294930875576,1500.8,1460,1450,1500
13.232187986373901,620,168,62,0.0004608294930875576,1500.8,1460,1450,1500
13.254331827163696,621,169,61,0.0004409171075837742,1500.9,1460,1450,1500
13.276121854782104,622,168,62,0.0004608294930875576,1500.8,1460,1450,1500
13.297981977462769,623,168,62,0.00048216007714561236,1500.8,1460,1450,1500
13.319812059402466,624,168,61,0.00048216007714561236,1500.8,1460,1450,1500
13.341694831848145,625,168,62,0.000468384074941452,1500.8,1460,1450,1500
13.363517999649048,626,168,63,0.0004743833017077799,1500.8,1460,1450,1500
13.3853759765625,627,169,62,0.0004967709885742673,1500.9,1460,1450,1500
13.407206058502197,628,169,62,0.00048216007714561236,1500.9,1460,1450,1500
13.429044008255005,629,168,62,0.000468384074941452,1500.8,1460,1450,1500
13.451066017150879,630,168,62,0.0004967709885742673,1500.8,1460,1450,1500
13.473276853561401,631,168,62,0.000468384074941452,1500.8,1460,1450,1500
13.49512505531311,632,168,63,0.0004887585532746823,1500.8,1460,1450,1500
13.516954898834229,633,168,62,0.0004608294930875576,1500.8,1460,1450,1500
13.538780927658081,634,168,62,0.00043591979075850045,1500.8,1460,1450,1500
13.560672044754028,635,167,63,0.0005208333333333333,1500.7,1460,1450,1500
13.582634925842285,636,168,62,0.0004743833017077799,1500.8,1460,1450,1500
13.604477882385254,637,169,62,0.00045351473922902497,1500.9,1460,1450,1500
13.626323938369751,638,168,63,0.0004887585532746823,1500.8,1460,1450,1500
13.648152828216553,639,168,61,0.00044802867383512545,1500.8,1460,1450,1500
13.670047044754028,640,168,63,0.0005202913631633715,1500.8,1460,1450,1500
13.691882848739624,641,169,62,0.00045351473922902497,1500.9,1460,1450,1500
13.713709831237793,642,173,63,0.0005896226415094339,1501.3,1460,1450,1500
13.735522985458374,643,169,61,0.00045351473922902497,1500.9,1460,1450,1500
13.75736689567566,644,168,62,0.0005040322580645161,1500.8,1460,1450,1500
13.77919602394104,645,168,62,0.0004743833017077799,1500.8,1460,1450,1500
13.801110982894897,646,168,61,0.0004743833017077799,1500.8,1460,1450,1500
13.822988033294678,647,168,65,0.0005202913631633715,1500.8,1460,1450,1500
13.844815969467163,648,168,62,0.0004743833017077799,1500.8,1460,1450,1500
13.866637945175171,649,169,62,0.00045351473922902497,1500.9,1460,1450,1500
13.888572931289673,650,168,61,0.00044802867383512545,1500.8,1460,1450,1500
13.910423040390015,651,168,62,0.0004608294930875576,1500.8,1460,1450,1500
13.932456016540527,652,169,61,0.0004409171075837742,1500.9,1460,1450,1500
13.954287052154541,653,168,62,0.0004608294930875576,1500.8,1460,1450,1500
13.976124048233032,654,168,63,0.0004887585532746823,1500.8,1460,1450,1500
13.997947931289673,655,168,61,0.0004743833017077799,1500.8,1460,1450,1500
14.01975393295288,656,168,62,0.0004608294930875576,1500.8,1460,1450,1500
14.041622877120972,657,169,61,0.0004608294930875576,1500.9,1460,1450,1500
14.063454866409302,658,169,62,0.0004743833017077799,1500.9,1460,1450,1500
14.085284948348999,659,168,64,0.000546448087431694,1500.8,1460,1450,1500
14.107115030288696,660,169,62,0.000468384074941452,1500.9,1460,1450,1500
14.129004955291748,661,169,62,0.0004967709885742673,1500.9,1460,1450,1500
14.150823831558228,662,169,61,0.000468384074941452,1500.9,1460,1450,1500
14.172847032546997,663,169,63,0.0005122950819672131,1500.9,1460,1450,1500
14.194702863693237,664,168,62,0.0004761904761904762,1500.8,1460,1450,1500
14.216541051864624,665,169,63,0.0005288207297726071,1500.9,1460,1450,1500
14.238366842269897,666,169,63,0.0005202913631633715,1500.9,1460,1450,1500
14.260263919830322,667,169,64,0.0005202913631633715,1500.9,1460,1450,1500
14.282071828842163,668,170,62,0.00045351473922902497,1501.0,1460,1450,1500
14.30387282371521,669,169,62,0.0004743833017077799,1500.9,1460,1450,1500
14.325695037841797,670,169,63,0.0005202913631633715,1500.9,1460,1450,1500
14.347518920898438,671,169,63,0.0005202913631633715,1500.9,1460,1450,1500
14.369346857070923,672,169,63,0.0005040322580645161,1500.9,1460,1450,1500
14.39126992225647,673,169,61,0.0004608294930875576,1500.9,1460,1450,1500
14.413096904754639,674,169,64,0.0005202913631633715,1500.9,1460,1450,1500
14.434939861297607,675,169,62,0.0004608294930875576,1500.9,1460,1450,1500
14.45681095123291,676,170,62,0.000496031746031746,1501.0,1460,1450,1500
14.478646993637085,677,169,62,0.0004608294930875576,1500.9,1460,1450,1500
14.500534057617188,678,169,62,0.0004887585532746823,1500.9,1460,1450,1500
14.522469997406006,679,169,63,0.0004887585532746823,1500.9,1460,1450,1500
14.544312000274658,680,170,63,0.000496031746031746,1501.0,1460,1450,1500
14.566148042678833,681,170,62,0.000468384074941452,1501.0,1460,1450,1500
14.58798098564148,682,170,64,0.0005291005291005291,1501.0,1460,1450,1500
14.609797954559326,683,169,62,0.0005040322580645161,1500.9,1460,1450,1500
14.6316978931427,684,169,62,0.0004887585532746823,1500.9,1460,1450,1500
14.65352988243103,685,170,61,0.00048216007714561236,1501.0,1460,1450,1500
14.675626993179321,686,169,62,0.0004608294930875576,1500.9,1460,1450,1500
14.697494983673096,687,169,61,0.00044802867383512545,1500.9,1460,1450,1500
14.71932601928711,688,169,62,0.0004743833017077799,1500.9,1460,1450,1500
14.741250038146973,689,170,61,0.0004553734061930783,1501.0,1460,1450,1500
14.763077020645142,690,169,62,0.0004608294930875576,1500.9,1460,1450,1500
14.784919023513794,691,170,62,0.0005122950819672131,1501.0,1460,1450,1500
14.806751012802124,692,170,62,0.000496031746031746,1501.0,1460,1450,1500
14.828567028045654,693,169,62,0.0004887585532746823,1500.9,1460,1450,1500
14.850452899932861,694,169,63,0.0005040322580645161,1500.9,1460,1450,1500
14.872457027435303,695,169,61,0.0004608294930875576,1500.9,1460,1450,1500
14.894382953643799,696,169,62,0.0004887585532746823,1500.9,1460,1450,1500
14.916278839111328,697,169,61,0.0004743833017077799,1500.9,1460,1450,1500
14.938112020492554,698,169,61,0.0004608294930875576,1500.9,1460,1450,1500
14.9599449634552,699,169,62,0.0004743833017077799,1500.9,1460,1450,1500
14.981842994689941,700,170,62,0.000496031746031746,1501.0,1460,1450,1500
15.003742933273315,701,169,62,0.0004608294930875576,1500.9,1460,1450,1500
15.025591850280762,702,169,62,0.0004743833017077799,1500.9,1460,1450,1500
15.04746699333191,703,169,63,0.0004608294930875576,1500.9,1460,1450,1500
15.069294929504395,704,170,62,0.00045351473922902497,1501.0,1460,1450,1500
15.091223955154419,705,169,62,0.0004608294930875576,1500.9,1460,1450,1500
15.11309289932251,706,170,62,0.00045351473922902497,1501.0,1460,1450,1500
15.134922981262207,707,169,61,0.0004743833017077799,1500.9,1460,1450,1500
15.156744956970215,708,170,63,0.0005120327700972862,1501.0,1460,1450,1500
15.1785728931427,709,169,62,0.0004743833017077799,1500.9,1460,1450,1500
15.20045804977417,710,170,63,0.000481000481000481,1501.0,1460,1450,1500
15.222461938858032,711,169,63,0.0004887585532746823,1500.9,1460,1450,1500
15.244282007217407,712,170,61,0.00046685340802987864,1501.0,1460,1450,1500
15.266096830368042,713,169,62,0.0005040322580645161,1500.9,1460,1450,1500
15.287812948226929,714,169,62,0.0004743833017077799,1500.9,1460,1450,1500
15.309408903121948,715,169,62,0.0004743833017077799,1500.9,1460,1450,1500
15.331053018569946,716,169,61,0.00044802867383512545,1500.9,1460,1450,1500
15.352705001831055,717,169,62,0.0004608294930875576,1500.9,1460,1450,1500
15.374315977096558,718,170,61,0.00048216007714561236,1501.0,1460,1450,1500
15.395900011062622,719,170,61,0.0004409171075837742,1501.0,1460,1450,1500
15.41746997833252,720,170,62,0.000481000481000481,1501.0,1460,1450,1500
15.439031839370728,721,169,62,0.0004608294930875576,1500.9,1460,1450,1500
15.46065092086792,722,170,63,0.0005120327700972862,1501.0,1460,1450,1500
15.482333898544312,723,169,64,0.0005376344086021505,1500.9,1460,1450,1500
15.503911972045898,724,169,62,0.0004743833017077799,1500.9,1460,1450,1500
15.525487899780273,725,169,62,0.0004743833017077799,1500.9,1460,1450,1500
15.547067880630493,726,169,63,0.0005040322580645161,1500.9,1460,1450,1500
15.568672895431519,727,169,61,0.0004743833017077799,1500.9,1460,1450,1500
15.59025502204895,728,170,62,0.00045351473922902497,1501.0,1460,1450,1500
15.611824989318848,729,170,62,0.00045351473922902497,1501.0,1460,1450,1500
15.633409023284912,730,169,61,0.0004887585532746823,1500.9,1460,1450,1500
15.654979944229126,731,169,63,0.0005040322580645161,1500.9,1460,1450,1500
15.676561832427979,732,169,60,0.00046685340802987864,1500.9,1460,1450,1500
15.698122024536133,733,169,62,0.0005040322580645161,1500.9,1460,1450,1500
15.719691038131714,734,168,60,0.0004734848484848485,1500.8,1460,1450,1500
15.741251945495605,735,169,61,0.0005120327700972862,1500.9,1460,1450,1500
15.76279592514038,736,169,58,0.0004734848484848485,1500.9,1460,1450,1500
15.78432297706604,737,169,57,0.000625,1500.9,1460,1450,1500
15.805881023406982,738,170,56,0.0004807692307692308,1501.0,1460,1450,1500
15.827469825744629,739,170,56,0.0005040322580645161,1501.0,1460,1450,1500
15.849078893661499,740,171,56,0.0005698005698005698,1501.1,1460,1450,1500
15.87094497680664,741,171,53,0.0004887585532746823,1501.1,1460,1450,1500
15.892675876617432,742,171,52,0.0004887585532746823,1501.1,1460,1450,1500
15.914237976074219,743,174,50,0.000496031746031746,1501.4,1460,1450,1500
15.935802936553955,744,172,48,0.00042643923240938164,1501.2,1460,1450,1500
15.95737099647522,745,172,48,0.0004901960784313725,1501.2,1460,1450,1500
15.978947877883911,746,173,45,0.00040257648953301127,1501.3,1460,1450,1500
16.00051188468933,747,172,43,0.0003663003663003663,1501.2,1460,1450,1500
16.022196054458618,748,172,41,0.00033875338753387534,1501.2,1460,1450,1500
16.043776035308838,749,174,39,0.00034722222222222224,1501.4,1460,1450,1500
16.065351009368896,750,172,38,0.0002981514609421586,1501.2,1460,1450,1500
16.086940050125122,751,173,38,0.00030873726458783575,1501.3,1460,1450,1500
16.108500003814697,752,173,36,0.00030525030525030525,1501.3,1460,1450,1500
16.130064010620117,753,175,37,0.0003287310979618672,1501.5,1460,1450,1500
16.151612043380737,754,177,36,0.00033311125916055963,1501.7,1460,1450,1500
16.173166036605835,755,177,35,0.0003245699448231094,1501.7,1460,1450,1500
16.194700002670288,756,177,33,0.00029036004645760743,1501.7,1460,1450,1500
16.216243028640747,757,176,34,0.0002941176470588235,1501.6,1460,1450,1500
16.23778486251831,758,178,32,0.00027056277056277056,1501.8,1460,1450,1500
16.259326934814453,759,177,32,0.00027056277056277056,1501.7,1460,1450,1500
16.280894994735718,760,178,33,0.00029069767441860465,1501.8,1460,1450,1500
16.302572011947632,761,178,34,0.00028735632183908046,1501.8,1460,1450,1500
16.324198007583618,762,178,33,0.00026455026455026457,1501.8,1460,1450,1500
16.345963954925537,763,178,34,0.0003003003003003003,1501.8,1460,1450,1500
16.36754584312439,764,178,34,0.0002747252747252747,1501.8,1460,1450,1500
16.389122009277344,765,177,32,0.00022675736961451248,1501.7,1460,1450,1500
16.410658836364746,766,177,32,0.0002244668911335578,1501.7,1460,1450,1500
16.432342052459717,767,176,31,0.0002173913043478261,1501.6,1460,1450,1500
16.453935861587524,768,179,31,0.0002173913043478261,1501.9,1460,1450,1500
16.475499868392944,769,177,34,0.00022361359570661896,1501.7,1460,1450,1500
16.497053861618042,770,179,32,0.0002127659574468085,1501.9,1460,1450,1500
16.518610954284668,771,178,33,0.0002031694433157253,1501.8,1460,1450,1500
16.540161848068237,772,176,34,0.00021367521367521368,1501.6,1460,1450,1500
16.561707973480225,773,177,34,0.0002153316106804479,1501.7,1460,1450,1500
16.583291053771973,774,178,33,0.00020458265139116204,1501.8,1460,1450,1500
16.604835987091064,775,179,34,0.0002031694433157253,1501.9,1460,1450,1500
16.62639093399048,776,179,32,0.0002031694433157253,1501.9,1460,1450,1500
16.647941827774048,777,178,33,0.0001976284584980237,1501.8,1460,1450,1500
16.669491052627563,778,178,32,0.0001827485380116959,1501.8,1460,1450,1500
16.691092014312744,779,178,33,0.00019290123456790122,1501.8,1460,1450,1500
16.71269702911377,780,178,34,0.0001866368047779022,1501.8,1460,1450,1500
16.734233856201172,781,180,32,0.00017857142857142857,1502.0,1460,1450,1500
16.75578999519348,782,178,33,0.0001827485380116959,1501.8,1460,1450,1500
16.7773380279541,783,179,34,0.00018422991893883567,1501.9,1460,1450,1500
16.798877954483032,784,181,32,0.00017543859649122806,1502.1,1460,1450,1500
16.82042384147644,785,178,34,0.0001774622892635315,1501.8,1460,1450,1500
16.84195899963379,786,178,35,0.0001774622892635315,1501.8,1460,1450,1500
16.86349391937256,787,181,36,0.0001890359168241966,1502.1,1460,1450,1500
16.885045051574707,788,179,36,0.00017442874585731728,1501.9,1460,1450,1500
16.906594038009644,789,180,34,0.00016297262059973924,1502.0,1460,1450,1500
16.92813801765442,790,179,36,0.00016616816218012627,1501.9,1460,1450,1500
16.949687004089355,791,179,34,0.00015693659761456373,1501.9,1460,1450,1500
16.97123098373413,792,179,35,0.00015432098765432098,1501.9,1460,1450,1500
16.99278497695923,793,180,34,0.0001424298532972511,1502.0,1460,1450,1500
17.01432490348816,794,180,36,0.00014619883040935673,1502.0,1460,1450,1500
17.036191940307617,795,180,35,0.0001424298532972511,1502.0,1460,1450,1500
17.057759046554565,796,180,36,0.00014363688595231256,1502.0,1460,1450,1500
17.079315900802612,797,181,36,0.0001448855404230658,1502.1,1460,1450,1500
17.10092282295227,798,181,37,0.00014367816091954023,1502.1,1460,1450,1500
17.122822999954224,799,182,38,0.00015006002400960383,1502.2,1460,1450,1500
17.144418954849243,800,182,37,0.00014005602240896358,1502.2,1460,1450,1500
17.165984869003296,801,182,40,0.00014742739200943535,1502.2,1460,1450,1500
17.187553882598877,802,182,38,0.00013776002204160352,1502.2,1460,1450,1500
17.209096908569336,803,183,38,0.0001366867140513942,1502.3,1460,1450,1500
17.230628967285156,804,182,39,0.00014367816091954023,1502.2,1460,1450,1500
17.252326011657715,805,184,38,0.0001355380862022228,1502.4,1460,1450,1500
17.27389097213745,806,183,40,0.00013776002204160352,1502.3,1460,1450,1500
17.29543685913086,807,184,39,0.00013785497656465398,1502.4,1460,1450,1500
17.31698489189148,808,183,40,0.00014005602240896358,1502.3,1460,1450,1500
17.33855891227722,809,183,41,0.0001389274798555154,1502.3,1460,1450,1500
17.360136032104492,810,183,40,0.00013451708366962604,1502.3,1460,1450,1500
17.381716012954712,811,184,41,0.0001355380862022228,1502.4,1460,1450,1500
17.403278827667236,812,183,41,0.00013440860215053763,1502.3,1460,1450,1500
17.424834966659546,813,184,41,0.0001355380862022228,1502.4,1460,1450,1500
17.446428060531616,814,184,41,0.00013451708366962604,1502.4,1460,1450,1500
17.467979907989502,815,184,40,0.00012732365673542143,1502.4,1460,1450,1500
17.48955798149109,816,183,42,0.00013451708366962604,1502.3,1460,1450,1500
17.511143922805786,817,183,42,0.00013451708366962604,1502.3,1460,1450,1500
17.53273892402649,818,184,42,0.00013227513227513228,1502.4,1460,1450,1500
17.55429196357727,819,184,43,0.00013451708366962604,1502.4,1460,1450,1500
17.575865983963013,820,184,42,0.0001282051282051282,1502.4,1460,1450,1500
17.597415924072266,821,184,43,0.0001366867140513942,1502.4,1460,1450,1500
17.618958950042725,822,185,43,0.00013149243918474687,1502.5,1460,1450,1500
17.640498876571655,823,184,42,0.00013175230566534913,1502.4,1460,1450,1500
17.662169933319092,824,185,45,0.00014367816091954023,1502.5,1460,1450,1500
17.683743000030518,825,184,44,0.00013469827586206896,1502.4,1460,1450,1500
17.70531988143921,826,185,44,0.00013149243918474687,1502.5,1460,1450,1500
17.72686505317688,827,184,44,0.0001326259946949602,1502.4,1460,1450,1500
17.748399019241333,828,184,44,0.00012866700977869275,1502.4,1460,1450,1500
17.76993703842163,829,184,45,0.00013241525423728814,1502.4,1460,1450,1500
17.791486978530884,830,185,44,0.0001295001295001295,1502.5,1460,1450,1500
17.81302785873413,831,185,44,0.00013061650992685477,1502.5,1460,1450,1500
17.834568977355957,832,185,45,0.00013241525423728814,1502.5,1460,1450,1500
17.856104850769043,833,184,45,0.00013061650992685477,1502.4,1460,1450,1500
17.877656936645508,834,184,46,0.00013469827586206896,1502.4,1460,1450,1500
17.899149894714355,835,185,45,0.0001295001295001295,1502.5,1460,1450,1500
17.920703887939453,836,184,46,0.00013241525423728814,1502.4,1460,1450,1500
17.94240093231201,837,184,46,0.0001326259946949602,1502.4,1460,1450,1500
17.964005947113037,838,185,46,0.00013149243918474687,1502.5,1460,1450,1500
17.985554933547974,839,184,46,0.00013241525423728814,1502.4,1460,1450,1500
18.00710105895996,840,183,46,0.00013469827586206896,1502.3,1460,1450,1500
18.02864098548889,841,183,46,0.00013469827586206896,1502.3,1460,1450,1500
18.05018401145935,842,184,46,0.00012978585334198572,1502.4,1460,1450,1500
18.071707010269165,843,183,47,0.0001326259946949602,1502.3,1460,1450,1500
18.093243837356567,844,184,46,0.00012866700977869275,1502.4,1460,1450,1500
18.114799976348877,845,184,47,0.00013469827586206896,1502.4,1460,1450,1500
18.136364936828613,846,184,46,0.00012899896800825592,1502.4,1460,1450,1500
18.157909870147705,847,185,47,0.00012756729174639623,1502.5,1460,1450,1500
18.179471015930176,848,185,46,0.0001278772378516624,1502.5,1460,1450,1500
18.201340913772583,849,185,48,0.00013175230566534913,1502.5,1460,1450,1500
18.22291088104248,850,185,48,0.00012866700977869275,1502.5,1460,1450,1500
18.244457960128784,851,185,47,0.0001249375312343828,1502.5,1460,1450,1500
18.266002893447876,852,186,47,0.0001278772378516624,1502.6,1460,1450,1500
18.287559032440186,853,185,48,0.00012866700977869275,1502.5,1460,1450,1500
18.30911898612976,854,186,48,0.00012978585334198572,1502.6,1460,1450,1500
18.330713987350464,855,186,48,0.00012866700977869275,1502.6,1460,1450,1500
18.3524169921875,856,186,48,0.00012866700977869275,1502.6,1460,1450,1500
18.374013900756836,857,186,48,0.00012899896800825592,1502.6,1460,1450,1500
18.395570039749146,858,187,49,0.00012978585334198572,1502.7,1460,1450,1500
18.41710901260376,859,185,49,0.00013092432573972245,1502.5,1460,1450,1500
18.438681840896606,860,186,49,0.0001320829480914014,1502.6,1460,1450,1500
18.46026301383972,861,186,49,0.0001365001365001365,1502.6,1460,1450,1500
18.481802940368652,862,186,50,0.00013326226012793177,1502.6,1460,1450,1500
18.50330090522766,863,187,50,0.00013528138528138528,1502.7,1460,1450,1500
18.524860858917236,864,187,50,0.0001377410468319559,1502.7,1460,1450,1500
18.546435832977295,865,188,52,0.0001386001386001386,1502.8,1460,1450,1500
18.56806993484497,866,187,52,0.00013986013986013986,1502.7,1460,1450,1500
18.589658975601196,867,188,52,0.00014334862385321102,1502.8,1460,1450,1500
18.611264944076538,868,187,52,0.00014602803738317756,1502.7,1460,1450,1500
18.632837057113647,869,188,52,0.00014602803738317756,1502.8,1460,1450,1500
18.654399871826172,870,187,53,0.00015216068167985393,1502.7,1460,1450,1500
18.67596983909607,871,187,53,0.00015508684863523573,1502.7,1460,1450,1500
18.697514057159424,872,187,54,0.00015762925598991173,1502.7,1460,1450,1500
18.7190580368042,873,188,54,0.00016181229773462783,1502.8,1460,1450,1500
18.74059295654297,874,187,54,0.0001633986928104575,1502.7,1460,1450,1500
18.762266874313354,875,187,54,0.00016666666666666666,1502.7,1460,1450,1500
18.783838033676147,876,187,55,0.00016949152542372882,1502.7,1460,1450,1500
18.805404901504517,877,188,55,0.00017415534656913968,1502.8,1460,1450,1500
18.82696795463562,878,186,55,0.00017959770114942528,1502.6,1460,1450,1500
18.84851384162903,879,186,56,0.0001827485380116959,1502.6,1460,1450,1500
18.87006902694702,880,187,56,0.00018467220683287164,1502.7,1460,1450,1500
18.891645908355713,881,186,56,0.00018996960486322188,1502.6,1460,1450,1500
18.91323184967041,882,185,56,0.00019409937888198756,1502.5,1460,1450,1500
18.934787034988403,883,185,57,0.00020202020202020202,1502.5,1460,1450,1500
18.9563410282135,884,185,57,0.00020202020202020202,1502.5,1460,1450,1500
18.97790503501892,885,185,57,0.00021043771043771043,1502.5,1460,1450,1500
18.999462842941284,886,185,57,0.00021687269572760788,1502.5,1460,1450,1500
19.021065950393677,887,184,57,0.00022361359570661896,1502.4,1460,1450,1500
19.042693853378296,888,184,57,0.00022893772893772894,1502.4,1460,1450,1500
19.06425404548645,889,183,57,0.0002380952380952381,1502.3,1460,1450,1500
19.08580994606018,890,184,57,0.00024509803921568627,1502.4,1460,1450,1500
19.107378005981445,891,184,56,0.00025316455696202533,1502.4,1460,1450,1500
19.128926038742065,892,185,56,0.00025316455696202533,1502.5,1460,1450,1500
19.150476932525635,893,186,56,0.0002583311805734952,1502.6,1460,1450,1500
19.172139883041382,894,185,56,0.00026371308016877635,1502.5,1460,1450,1500
19.193737030029297,895,184,56,0.0002685284640171858,1502.4,1460,1450,1500
19.21528196334839,896,184,55,0.00027412280701754384,1502.4,1460,1450,1500
19.23683190345764,897,185,56,0.00028368794326241134,1502.5,1460,1450,1500
19.258376836776733,898,185,56,0.00028368794326241134,1502.5,1460,1450,1500
19.279932975769043,899,185,55,0.0002937720329024677,1502.5,1460,1450,1500
19.301480054855347,900,184,55,0.0002937720329024677,1502.4,1460,1450,1500
19.32304286956787,901,184,55,0.00030193236714975844,1502.4,1460,1450,1500
19.344589948654175,902,184,56,0.0003061849357011635,1502.4,1460,1450,1500
19.366142988204956,903,184,56,0.00031298904538341156,1502.4,1460,1450,1500
19.388025045394897,904,184,56,0.0003201024327784891,1502.4,1460,1450,1500
19.40960693359375,905,184,56,0.0003201024327784891,1502.4,1460,1450,1500
19.43122386932373,906,183,57,0.0003322259136212625,1502.3,1460,1450,1500
19.45286989212036,907,184,57,0.0003450655624568668,1502.4,1460,1450,1500
19.474431037902832,908,183,57,0.0003370407819346141,1502.3,1460,1450,1500
19.495977878570557,909,183,57,0.0003401360544217687,1502.3,1460,1450,1500
19.517514944076538,910,182,59,0.0003827018752391887,1502.2,1460,1450,1500
19.539049863815308,911,181,58,0.00035014005602240897,1502.1,1460,1450,1500
19.560590982437134,912,181,58,0.0003401360544217687,1502.1,1460,1450,1500
19.58230495452881,913,181,58,0.00035014005602240897,1502.1,1460,1450,1500
19.60386085510254,914,181,59,0.00036403349108117945,1502.1,1460,1450,1500
19.625421047210693,915,180,59,0.0003787878787878788,1502.0,1460,1450,1500
19.646957874298096,916,180,59,0.00037313432835820896,1502.0,1460,1450,1500
19.668503046035767,917,179,59,0.0003695491500369549,1501.9,1460,1450,1500
19.690075874328613,918,181,61,0.000407000407000407,1502.1,1460,1450,1500
19.71161389350891,919,177,59,0.0003720238095238095,1501.7,1460,1450,1500
19.733162879943848,920,178,60,0.000375234521575985,1501.8,1460,1450,1500
19.75471591949463,921,178,60,0.00038109756097560977,1501.8,1460,1450,1500
19.77627682685852,922,177,60,0.000390625,1501.7,1460,1450,1500
19.79779887199402,923,177,60,0.000390625,1501.7,1460,1450,1500
19.819314002990723,924,177,60,0.0003968253968253968,1501.7,1460,1450,1500
19.840863943099976,925,176,60,0.00040064102564102563,1501.6,1460,1450,1500
19.86255192756653,926,177,60,0.000407000407000407,1501.7,1460,1450,1500
19.884130001068115,927,176,60,0.00040064102564102563,1501.6,1460,1450,1500
19.905683040618896,928,177,60,0.0004177109440267335,1501.7,1460,1450,1500
19.92723798751831,929,175,60,0.00042444821731748726,1501.5,1460,1450,1500
19.94877791404724,930,175,60,0.00042444821731748726,1501.5,1460,1450,1500
19.970335960388184,931,174,62,0.00043591979075850045,1501.4,1460,1450,1500
19.99187994003296,932,175,61,0.00044306601683650863,1501.5,1460,1450,1500
20.01344084739685,933,174,62,0.00045045045045045046,1501.4,1460,1450,1500
20.035006046295166,934,175,62,0.00048426150121065375,1501.5,1460,1450,1500
20.056582927703857,935,174,61,0.00044306601683650863,1501.4,1460,1450,1500
20.078141927719116,936,174,61,0.00045045045045045046,1501.4,1460,1450,1500
20.09969997406006,937,174,61,0.00045045045045045046,1501.4,1460,1450,1500
