time,x,y,size_inv,roll,pitch,thrust,yaw
0.0004458427429199219,220,51,0.0043859649122807015,1512.5999999999999,1502.0,1350,1500.0
0.0223238468170166,219,52,0.004784688995215311,1512.99,1502.0,1350,1500.0
0.04385495185852051,219,51,0.004166666666666667,1513.5799999999999,1502.0,1350,1500.0
0.0653238296508789,219,52,0.004784688995215311,1514.1700000000001,1502.0,1350,1500.0
0.08678483963012695,219,51,0.0043859649122807015,1514.76,1502.0,1350,1500.0
0.10825800895690918,219,52,0.004545454545454545,1515.3499999999999,1502.0,1350,1500.0
0.12980103492736816,220,52,0.004784688995215311,1516.1500000000001,1502.0,1350,1500.0
0.15126585960388184,220,51,0.0043859649122807015,1516.75,1502.0,1350,1500.0
0.1727149486541748,220,51,0.0043859649122807015,1517.3499999999999,1502.0,1350,1500.0
0.19417691230773926,219,52,0.004784688995215311,1517.74,1502.0,1350,1500.0
0.21578693389892578,220,51,0.0043859649122807015,1520,1502.0,1350,1500.0
0.23752903938293457,219,51,0.004166666666666667,1518.9400000000001,1502.0,1350,1500.0
0.2593119144439697,220,51,0.0043859649122807015,1518.55,1502.0,1350,1500.0
0.2810988426208496,220,51,0.004784688995215311,1517.96,1502.0,1350,1500.0
0.30287599563598633,220,51,0.004784688995215311,1518.5699999999999,1502.0,1350,1500.0
0.324664831161499,219,50,0.004784688995215311,1517.1700000000001,1502.0,1350,1500.0
0.3464539051055908,219,49,0.005263157894736842,1517.76,1502.0,1350,1500.0
0.36824893951416016,218,46,0.005263157894736842,1516.3399999999999,1502.0,1350,1500.0
0.3901379108428955,217,46,0.004784688995215311,1514.3099999999999,1502.0,1350,1500.0
0.4119579792022705,217,46,0.005263157894736842,1511.8900000000001,1502.0,1350,1500.0
0.4338688850402832,216,47,0.005,1510.45,1502.0,1350,1500.0
0.45565295219421387,216,49,0.005263157894736842,1508.6199999999999,1502.0,1350,1500.0
0.477435827255249,215,51,0.005555555555555556,1507.77,1502.0,1350,1500.0
0.499208927154541,215,54,0.004545454545454545,1508.3199999999999,1502.0,1350,1500.0
0.5215089321136475,216,55,0.004784688995215311,1509.6800000000001,1502.0,1347.6800000000001,1500.0
0.5449178218841553,215,56,0.005263157894736842,1510.6400000000001,1502.0,1329.4400000000001,1500.0
0.5682859420776367,215,57,0.004784688995215311,1511.8,1502.0,1316.72,1500.0
0.5917959213256836,215,57,0.004784688995215311,1513.5699999999999,1502.0,1314.8800000000001,1500.0
0.6151869297027588,215,58,0.004784688995215311,1514.75,1502.0,1318.8,1500.0
0.6386048793792725,214,59,0.004545454545454545,1513.9200000000001,1502.0,1324.0799999999999,1500.0
0.6620290279388428,214,60,0.004784688995215311,1513.9000000000001,1502.0,1329.3599999999999,1500.0
0.6853969097137451,214,61,0.004545454545454545,1513.8800000000001,1502.0,1333.28,1500.0
0.708784818649292,214,62,0.004784688995215311,1513.27,1502.0,1333.04,1500.0
0.73219895362854,213,64,0.004545454545454545,1511.8499999999999,1502.0,1327.4400000000001,1500.0
0.7555630207061768,213,65,0.004784688995215311,1512.4200000000001,1502.0,1323.04,1500.0
0.7789528369903564,213,65,0.0043859649122807015,1512.4000000000001,1502.0,1321.28,1500.0
0.8023898601531982,212,67,0.0043859649122807015,1511.5699999999999,1502.0,1315.6800000000001,1500.0
0.825934886932373,212,68,0.004784688995215311,1510.9400000000001,1502.0,1312.6400000000001,1500.0
0.8495068550109863,212,69,0.004784688995215311,1511.51,1502.0,1312.4000000000001,1500.0
0.8731369972229004,211,69,0.004166666666666667,1510.6800000000001,1502.0,1314.8,1500.0
0.8967540264129639,211,70,0.0043859649122807015,1510.05,1502.0,1313.2,1500.0
0.9203720092773438,211,71,0.0043859649122807015,1510.6199999999999,1502.0,1314.4000000000001,1500.0
0.9439959526062012,210,73,0.0043859649122807015,1510.3800000000001,1502.0,1312.96,1500.0
0.9675688743591309,209,74,0.0043859649122807015,1508.9400000000001,1502.0,1311.3599999999999,1500.0
0.991257905960083,209,76,0.004784688995215311,1508.9000000000001,1502.0,1304.3199999999999,1500.0
1.0148978233337402,208,77,0.0043859649122807015,1508.05,1502.0,1299.8399999999999,1500.0
1.0386099815368652,208,78,0.0043859649122807015,1506.8099999999999,1502.0,1294.0,1500.0
1.0628249645233154,207,79,0.004166666666666667,1505.96,1502.0,1290.96,1500.0
1.0866389274597168,206,81,0.004545454545454545,1505.7,1502.0,1285.28,1500.0
1.110306978225708,206,82,0.004784688995215311,1505.05,1502.0,1284.96,1500.0
1.133944034576416,204,83,0.004166666666666667,1503.98,1502.0,1284.6400000000001,1500.0
1.157588005065918,204,84,0.0043859649122807015,1503.3099999999999,1502.0,1284.3199999999999,1500.0
1.1814138889312744,203,85,0.0043859649122807015,1502.4400000000001,1502.0,1282.6400000000001,1500.0
1.2050158977508545,202,86,0.0043859649122807015,1501.5699999999999,1502.0,1283.76,1500.0
1.2287168502807617,201,87,0.0043859649122807015,1500.0899999999999,1502.0,1283.52,1500.0
1.2526090145111084,199,88,0.0043859649122807015,1499.0,1502.0,1283.28,1500.0
1.2764179706573486,199,88,0.0043859649122807015,1498.3099999999999,1502.0,1285.6800000000001,1500.0
1.3000450134277344,198,90,0.0043859649122807015,1497.4200000000001,1502.0,1284.24,1500.0
1.3236579895019531,197,91,0.004784688995215311,1496.53,1502.0,1282.6400000000001,1500.0
1.3472888469696045,196,91,0.0043859649122807015,1496.23,1502.0,1283.6800000000001,1500.0
1.3709628582000732,195,92,0.0043859649122807015,1496.54,1502.0,1283.52,1500.0
1.394582986831665,194,92,0.0043859649122807015,1496.24,1502.0,1283.2,1500.0
1.418177843093872,192,93,0.004784688995215311,1495.1300000000001,1502.0,1284.48,1500.0
1.4420208930969238,191,93,0.004784688995215311,1494.22,1502.0,1288.4000000000001,1500.0
1.4656879901885986,190,93,0.004784688995215311,1493.3099999999999,1502.0,1290.96,1500.0
1.4894249439239502,190,93,0.004784688995215311,1492.6199999999999,1502.0,1294.96,1500.0
1.5131189823150635,188,93,0.0043859649122807015,1491.51,1502.0,1298.96,1500.0
1.5367460250854492,187,93,0.0043859649122807015,1491.8,1502.0,1303.04,1500.0
1.560438871383667,184,94,0.004166666666666667,1490.47,1502.0,1303.1199999999999,1500.0
1.5841259956359863,184,94,0.003968253968253968,1490.3499999999999,1502.0,1304.4000000000001,1500.0
1.6078200340270996,182,94,0.0043859649122807015,1488.02,1502.0,1304.3199999999999,1500.0
1.6316699981689453,182,94,0.0043859649122807015,1487.9000000000001,1502.0,1304.24,1500.0
1.655297040939331,180,95,0.004784688995215311,1486.1800000000001,1502.0,1300.1600000000001,1500.0
1.6789519786834717,178,95,0.004166666666666667,1486.25,1502.0,1300.0799999999999,1500.0
1.7026278972625732,178,95,0.003968253968253968,1486.1300000000001,1502.0,1300.0,1500.0
1.7262589931488037,175,95,0.0043859649122807015,1485.98,1502.0,1299.9200000000001,1500.0
1.7498869895935059,174,95,0.0043859649122807015,1484.4400000000001,1502.0,1299.8399999999999,1500.0
1.7735178470611572,174,95,0.0043859649122807015,1484.9100000000001,1502.0,1302.5599999999999,1500.0
1.7971258163452148,171,96,0.004166666666666667,1483.5799999999999,1502.0,1301.28,1500.0
1.8208119869232178,170,96,0.004166666666666667,1482.04,1502.0,1301.2,1500.0
1.8445909023284912,169,96,0.0043859649122807015,1482.3099999999999,1502.0,1301.1199999999999,1500.0
1.8685088157653809,168,96,0.0043859649122807015,1483.1700000000001,1502.0,1301.04,1500.0
1.8922510147094727,165,95,0.004166666666666667,1480.6199999999999,1502.0,1302.24,1500.0
1.9159159660339355,165,95,0.004166666666666667,1481.0899999999999,1502.0,1305.04,1500.0
1.939546823501587,163,94,0.0038461538461538464,1481.1400000000001,1502.0,1310.48,1500.0
1.9631588459014893,162,93,0.0043859649122807015,1480.21,1502.0,1317.3599999999999,1500.0
1.986764907836914,160,92,0.004166666666666667,1480,1502.0,1325.6800000000001,1500.0
2.010382890701294,160,91,0.0043859649122807015,1480.73,1502.0,1332.6400000000001,1500.0
2.0340068340301514,158,91,0.003663003663003663,1480,1502.0,1337.04,1500.0
2.0575809478759766,158,91,0.003663003663003663,1480.6800000000001,1502.0,1338.6400000000001,1500.0
2.0813229084014893,155,91,0.004048582995951417,1480,1502.0,1337.4400000000001,1500.0
2.104827880859375,154,91,0.004048582995951417,1480.8,1502.0,1333.4400000000001,1500.0
2.1285018920898438,153,91,0.0038461538461538464,1480,1502.0,1328.0,1500.0
2.1521120071411133,152,91,0.0043859649122807015,1480,1502.0,1322.5599999999999,1500.0
2.175949811935425,151,91,0.0043859649122807015,1480,1502.0,1318.48,1500.0
2.1995060443878174,149,91,0.0043859649122807015,1480,1502.0,1315.76,1500.0
2.2230188846588135,148,91,0.004048582995951417,1480,1502.0,1314.4000000000001,1500.0
2.2465460300445557,147,90,0.004048582995951417,1480,1502.0,1317.04,1500.0
2.2701778411865234,146,89,0.004048582995951417,1480,1502.0,1321.1199999999999,1500.0
2.2935469150543213,145,88,0.0038461538461538464,1480,1502.0,1326.6400000000001,1500.0
2.317081928253174,144,87,0.0038461538461538464,1480,1502.0,1333.5999999999999,1500.0
2.3406269550323486,144,85,0.0043859649122807015,1480,1502.0,1344.6400000000001,1500.0
2.3641719818115234,143,84,0.004048582995951417,1480.29,1502.0,1350,1500.0
2.387704849243164,141,83,0.004166666666666667,1480.3800000000001,1502.0,1350,1500.0
2.411454916000366,140,83,0.0038461538461538464,1480.6700000000001,1502.0,1350,1500.0
2.4350039958953857,139,83,0.0038461538461538464,1480.3699999999999,1502.0,1350,1500.0
2.4586069583892822,139,83,0.0038461538461538464,1480,1502.0,1350,1500.0
2.482100009918213,138,83,0.0038461538461538464,1480,1502.0,1350,1500.0
2.505574941635132,136,83,0.0038461538461538464,1480,1502.0,1343.52,1500.0
2.529217004776001,136,82,0.0043859649122807015,1480,1502.0,1339.3599999999999,1500.0
2.5528500080108643,135,81,0.004166666666666667,1480,1502.0,1338.0,1500.0
2.576373815536499,135,81,0.0038461538461538464,1480,1502.0,1338.1600000000001,1500.0
2.599958896636963,134,80,0.0038461538461538464,1480,1502.0,1342.3199999999999,1500.0
2.6235358715057373,134,79,0.0043859649122807015,1481.6600000000001,1502.0,1349.28,1500.0
2.6472020149230957,133,79,0.0038461538461538464,1481.99,1502.0,1350,1500.0
2.6707348823547363,133,78,0.004048582995951417,1483.1300000000001,1502.0,1350,1500.0
2.694260835647583,132,78,0.004048582995951417,1483.46,1502.0,1350,1500.0
2.717780828475952,132,77,0.0043859649122807015,1484.5999999999999,1502.0,1350,1500.0
2.741642951965332,131,78,0.0038461538461538464,1483.75,1502.0,1350,1500.0
2.7651429176330566,130,78,0.0038461538461538464,1483.49,1502.0,1350,1500.0
2.7887299060821533,130,78,0.0038461538461538464,1482.8399999999999,1502.0,1346.1600000000001,1500.0
2.812419891357422,130,78,0.004048582995951417,1483.3900000000001,1502.0,1342.0799999999999,1500.0
2.8360579013824463,129,77,0.004166666666666667,1482.54,1502.0,1339.2,1500.0
2.859699010848999,129,77,0.004166666666666667,1483.0899999999999,1502.0,1339.28,1500.0
2.8833279609680176,128,77,0.0038461538461538464,1483.4400000000001,1502.0,1339.3599999999999,1500.0
2.9069478511810303,128,76,0.0043859649122807015,1483.99,1502.0,1343.4400000000001,1500.0
2.9306318759918213,128,76,0.004166666666666667,1483.95,1502.0,1346.3199999999999,1500.0
2.9542360305786133,127,75,0.004166666666666667,1484.3,1502.0,1350,1500.0
2.977766990661621,127,76,0.0038461538461538464,1484.26,1502.0,1349.28,1500.0
3.0016160011291504,127,76,0.0038461538461538464,1484.8299999999999,1502.0,1349.3599999999999,1500.0
3.025261878967285,127,76,0.0043859649122807015,1485.4000000000001,1502.0,1346.6400000000001,1500.0
3.0489439964294434,127,76,0.0043859649122807015,1485.97,1502.0,1343.9200000000001,1500.0
3.072618007659912,127,77,0.004048582995951417,1487.1500000000001,1502.0,1337.1199999999999,1500.0
3.0962438583374023,126,77,0.004166666666666667,1487.52,1502.0,1334.3199999999999,1500.0
3.1198859214782715,126,78,0.004048582995951417,1487.5,1502.0,1328.8800000000001,1500.0
3.143543004989624,125,78,0.0038461538461538464,1486.6700000000001,1502.0,1326.0,1500.0
3.1671698093414307,126,78,0.004048582995951417,1486.8499999999999,1502.0,1323.1199999999999,1500.0
3.1908679008483887,126,78,0.0043859649122807015,1486.24,1502.0,1324.4000000000001,1500.0
3.2144649028778076,125,78,0.004166666666666667,1486.02,1502.0,1324.3199999999999,1500.0
3.238170862197876,126,78,0.0043859649122807015,1486.8099999999999,1502.0,1327.04,1500.0
3.261910915374756,126,78,0.0043859649122807015,1488.5999999999999,1502.0,1329.76,1500.0
3.2855639457702637,125,79,0.004166666666666667,1488.3800000000001,1502.0,1329.8399999999999,1500.0
3.3094630241394043,126,79,0.0043859649122807015,1489.1700000000001,1502.0,1329.76,1500.0
3.3331329822540283,125,80,0.004166666666666667,1489.5599999999999,1502.0,1327.04,1500.0
3.356771945953369,125,81,0.0038461538461538464,1488.95,1502.0,1321.52,1500.0
3.38045597076416,125,81,0.004166666666666667,1487.75,1502.0,1317.2,1500.0
3.404042959213257,126,81,0.0043859649122807015,1489.1500000000001,1502.0,1315.6800000000001,1500.0
3.4277398586273193,125,81,0.004166666666666667,1488.3399999999999,1502.0,1314.1600000000001,1500.0
3.4516239166259766,126,81,0.0043859649122807015,1489.1500000000001,1502.0,1315.4400000000001,1500.0
3.4752650260925293,126,82,0.004048582995951417,1490.3499999999999,1502.0,1316.8800000000001,1500.0
3.4989569187164307,126,81,0.0043859649122807015,1491.55,1502.0,1322.1600000000001,1500.0
3.5226528644561768,126,82,0.004048582995951417,1490.96,1502.0,1322.24,1500.0
3.546380043029785,126,82,0.004048582995951417,1492.1600000000001,1502.0,1323.52,1500.0
3.570032835006714,126,82,0.004048582995951417,1491.5699999999999,1502.0,1323.4400000000001,1500.0
3.593714952468872,126,82,0.0043859649122807015,1490.98,1502.0,1324.8,1500.0
3.6173789501190186,126,82,0.004166666666666667,1490.3900000000001,1502.0,1323.3599999999999,1500.0
3.6410088539123535,126,83,0.0038461538461538464,1490.3900000000001,1502.0,1322.0799999999999,1500.0
3.6646358966827393,126,83,0.004048582995951417,1489.8,1502.0,1322.0,1500.0
3.6882238388061523,127,83,0.0043859649122807015,1490.6099999999999,1502.0,1321.9200000000001,1500.0
3.7120168209075928,127,83,0.0043859649122807015,1491.22,1502.0,1320.48,1500.0
3.7356669902801514,127,84,0.0038461538461538464,1491.8299999999999,1502.0,1317.76,1500.0
3.7593770027160645,128,84,0.0043859649122807015,1493.25,1502.0,1317.6800000000001,1500.0
3.783052921295166,128,84,0.0043859649122807015,1494.47,1502.0,1317.5999999999999,1500.0
3.806670904159546,128,84,0.004166666666666667,1494.49,1502.0,1317.52,1500.0
3.8302719593048096,129,84,0.0043859649122807015,1495.3199999999999,1502.0,1317.4400000000001,1500.0
3.853925943374634,129,85,0.004048582995951417,1495.95,1502.0,1317.52,1500.0
3.8775570392608643,129,85,0.0038461538461538464,1495.3800000000001,1502.0,1317.4400000000001,1500.0
3.901258945465088,129,85,0.004048582995951417,1494.8099999999999,1502.0,1317.3599999999999,1500.0
3.9248969554901123,129,85,0.004166666666666667,1494.8299999999999,1502.0,1317.28,1500.0
3.9485788345336914,130,85,0.0043859649122807015,1494.46,1502.0,1317.2,1500.0
3.9722650051116943,130,85,0.0043859649122807015,1493.8900000000001,1502.0,1318.5599999999999,1500.0
3.9959118366241455,130,86,0.0038461538461538464,1493.9100000000001,1502.0,1317.28,1500.0
4.019538879394531,131,86,0.0038461538461538464,1494.74,1502.0,1317.2,1500.0
4.043169975280762,131,85,0.0043859649122807015,1495.3699999999999,1502.0,1319.76,1500.0
4.066802024841309,132,86,0.0043859649122807015,1496.2,1502.0,1318.48,1500.0
4.09040904045105,132,86,0.0038461538461538464,1496.8299999999999,1502.0,1317.04,1500.0
4.114058017730713,132,86,0.004166666666666667,1497.46,1502.0,1318.4000000000001,1500.0
4.1376848220825195,133,86,0.0038461538461538464,1497.7,1502.0,1319.76,1500.0
4.1614978313446045,133,86,0.004166666666666667,1497.74,1502.0,1318.3199999999999,1500.0
4.18511700630188,134,86,0.0043859649122807015,1497.98,1502.0,1319.6800000000001,1500.0
4.208786964416504,134,86,0.004166666666666667,1498.02,1502.0,1321.04,1500.0
4.232446908950806,135,86,0.0043859649122807015,1498.8699999999999,1502.0,1321.04,1500.0
4.2561118602752686,136,86,0.0043859649122807015,1499.72,1502.0,1321.04,1500.0
4.279744863510132,136,86,0.0043859649122807015,1500.3699999999999,1502.0,1322.4000000000001,1500.0
4.303377866744995,137,86,0.0043859649122807015,1501.22,1502.0,1322.4000000000001,1500.0
4.326998949050903,137,86,0.004166666666666667,1501.8699999999999,1502.0,1322.4000000000001,1500.0
4.350631952285767,137,86,0.0038461538461538464,1501.3199999999999,1502.0,1322.4000000000001,1500.0
4.374543905258179,138,86,0.0038461538461538464,1500.97,1502.0,1322.4000000000001,1500.0
4.398195028305054,139,86,0.0038461538461538464,1501.23,1502.0,1322.4000000000001,1500.0
4.4219489097595215,140,86,0.004048582995951417,1501.49,1502.0,1322.4000000000001,1500.0
4.445590019226074,140,86,0.004048582995951417,1501.55,1502.0,1322.4000000000001,1500.0
4.469249963760376,141,86,0.0043859649122807015,1503.01,1502.0,1322.4000000000001,1500.0
4.492908954620361,141,86,0.004166666666666667,1503.6600000000001,1502.0,1322.4000000000001,1500.0
4.516511917114258,142,86,0.004166666666666667,1503.9200000000001,1502.0,1322.4000000000001,1500.0
4.540134906768799,142,86,0.004048582995951417,1503.3699999999999,1502.0,1322.4000000000001,1500.0
4.563817024230957,144,85,0.003968253968253968,1504.4400000000001,1502.0,1325.04,1500.0
4.587474822998047,143,85,0.0038461538461538464,1503.0999999999999,1502.0,1326.48,1500.0
4.611198902130127,144,84,0.0043859649122807015,1503.3599999999999,1502.0,1330.5599999999999,1500.0
4.634836912155151,144,84,0.0038461538461538464,1502.8099999999999,1502.0,1333.4400000000001,1500.0
4.658517837524414,146,83,0.003968253968253968,1504.47,1502.0,1338.96,1500.0
4.6822829246521,146,83,0.0043859649122807015,1503.3299999999999,1502.0,1340.48,1500.0
4.7059149742126465,147,84,0.004048582995951417,1504.79,1502.0,1339.3599999999999,1500.0
4.729568958282471,147,84,0.0038461538461538464,1504.8499999999999,1502.0,1336.6400000000001,1500.0
4.75321102142334,148,84,0.004048582995951417,1506.3099999999999,1502.0,1333.9200000000001,1500.0
4.776829957962036,148,84,0.0043859649122807015,1505.1700000000001,1502.0,1328.4000000000001,1500.0
4.80054783821106,149,84,0.0043859649122807015,1506.02,1502.0,1324.24,1500.0
4.824188947677612,149,84,0.0043859649122807015,1504.8800000000001,1502.0,1322.8800000000001,1500.0
4.847829818725586,150,84,0.004048582995951417,1505.1400000000001,1502.0,1322.8800000000001,1500.0
4.871687889099121,151,83,0.0043859649122807015,1504.8099999999999,1502.0,1325.52,1500.0
4.895339012145996,151,83,0.0038461538461538464,1505.46,1502.0,1328.3199999999999,1500.0
4.9190919399261475,152,82,0.0043859649122807015,1505.72,1502.0,1333.76,1500.0
4.94283390045166,153,82,0.003968253968253968,1507.1800000000001,1502.0,1336.6400000000001,1500.0
4.966446876525879,153,82,0.004048582995951417,1507.24,1502.0,1339.52,1500.0
4.990099906921387,153,82,0.0038461538461538464,1506.6900000000001,1502.0,1339.5999999999999,1500.0
5.013737916946411,155,82,0.0034965034965034965,1507.76,1502.0,1339.6800000000001,1500.0
5.037379026412964,155,82,0.004048582995951417,1507.8199999999999,1502.0,1336.96,1500.0
5.061084032058716,156,82,0.003968253968253968,1507.49,1502.0,1334.24,1500.0
5.084681034088135,156,82,0.0043859649122807015,1507.55,1502.0,1331.52,1500.0
5.108181953430176,157,82,0.003968253968253968,1509.01,1502.0,1330.1600000000001,1500.0
5.132400989532471,157,82,0.003968253968253968,1507.8699999999999,1502.0,1328.8,1500.0
5.156535863876343,158,82,0.003968253968253968,1508.1300000000001,1502.0,1328.8,1500.0
5.180124044418335,158,81,0.0043859649122807015,1507.5799999999999,1502.0,1331.4400000000001,1500.0
5.203510999679565,160,81,0.003968253968253968,1508.6500000000001,1502.0,1332.8800000000001,1500.0
5.226862907409668,160,81,0.003968253968253968,1508.1199999999999,1502.0,1334.3199999999999,1500.0
5.250213861465454,160,80,0.003787878787878788,1508.77,1502.0,1338.4000000000001,1500.0
5.273568868637085,161,80,0.003968253968253968,1509.03,1502.0,1341.28,1500.0
5.29691481590271,161,80,0.003968253968253968,1509.6800000000001,1502.0,1341.3599999999999,1500.0
5.32029390335083,161,80,0.003787878787878788,1507.9300000000001,1502.0,1341.4400000000001,1500.0
5.343665838241577,162,80,0.003968253968253968,1507.5799999999999,1502.0,1341.52,1500.0
5.367009878158569,163,80,0.003968253968253968,1507.8399999999999,1502.0,1338.8,1500.0
5.3903748989105225,163,81,0.003663003663003663,1507.29,1502.0,1333.4400000000001,1500.0
5.413741827011108,163,81,0.003968253968253968,1506.74,1502.0,1330.6400000000001,1500.0
5.437096834182739,163,81,0.003787878787878788,1507.3699999999999,1502.0,1327.8399999999999,1500.0
5.460788011550903,164,81,0.003968253968253968,1507.6099999999999,1502.0,1325.04,1500.0
5.484158992767334,164,81,0.003968253968253968,1506.45,1502.0,1323.5999999999999,1500.0
5.5075249671936035,165,81,0.003968253968253968,1506.6900000000001,1502.0,1324.96,1500.0
5.530892848968506,165,80,0.003968253968253968,1506.73,1502.0,1328.96,1500.0
5.554271936416626,165,80,0.003787878787878788,1506.77,1502.0,1331.76,1500.0
5.577653884887695,166,80,0.003663003663003663,1507.01,1502.0,1334.5599999999999,1500.0
5.601078033447266,166,79,0.003968253968253968,1507.6400000000001,1502.0,1340.0,1500.0
5.624444961547852,166,79,0.003968253968253968,1507.0699999999999,1502.0,1342.8800000000001,1500.0
5.647795915603638,166,80,0.0034965034965034965,1506.5,1502.0,1340.3199999999999,1500.0
5.671274900436401,167,80,0.003968253968253968,1506.74,1502.0,1338.96,1500.0
5.694622993469238,167,81,0.0034965034965034965,1506.1700000000001,1502.0,1334.96,1500.0
5.717972993850708,167,81,0.003787878787878788,1505.5999999999999,1502.0,1329.3599999999999,1500.0
5.7416088581085205,167,81,0.003787878787878788,1505.6199999999999,1502.0,1323.76,1500.0
5.764991998672485,167,81,0.003787878787878788,1505.6400000000001,1502.0,1322.3199999999999,1500.0
5.7883429527282715,167,81,0.003787878787878788,1504.46,1502.0,1320.8800000000001,1500.0
5.8118579387664795,168,81,0.003968253968253968,1504.6800000000001,1502.0,1322.24,1500.0
5.8352110385894775,168,81,0.003968253968253968,1504.7,1502.0,1324.96,1500.0
5.85863184928894,168,81,0.003787878787878788,1504.72,1502.0,1327.6800000000001,1500.0
5.882072925567627,168,81,0.0034965034965034965,1504.74,1502.0,1329.04,1500.0
5.905411958694458,168,81,0.0034965034965034965,1505.3499999999999,1502.0,1330.4000000000001,1500.0
5.928802967071533,168,81,0.0034965034965034965,1504.76,1502.0,1330.4000000000001,1500.0
5.952234983444214,168,81,0.0034965034965034965,1504.1700000000001,1502.0,1330.4000000000001,1500.0
5.975596904754639,168,81,0.0034965034965034965,1503.5799999999999,1502.0,1330.4000000000001,1500.0
5.999032974243164,169,81,0.003663003663003663,1503.8,1502.0,1330.4000000000001,1500.0
6.022467851638794,168,81,0.003787878787878788,1503.01,1502.0,1330.4000000000001,1500.0
6.045881032943726,168,81,0.003787878787878788,1503.01,1502.0,1330.4000000000001,1500.0
6.069269895553589,169,81,0.003663003663003663,1503.8199999999999,1502.0,1330.4000000000001,1500.0
6.092671871185303,168,81,0.0034965034965034965,1503.6199999999999,1502.0,1330.4000000000001,1500.0
6.116016864776611,168,81,0.0034965034965034965,1502.4200000000001,1502.0,1330.4000000000001,1500.0
6.139371871948242,168,81,0.0034965034965034965,1502.4200000000001,1502.0,1330.4000000000001,1500.0
6.162782907485962,168,81,0.0034965034965034965,1502.4200000000001,1502.0,1330.4000000000001,1500.0
6.186197996139526,168,81,0.003787878787878788,1501.22,1502.0,1330.4000000000001,1500.0
6.209621906280518,168,82,0.0034965034965034965,1501.22,1502.0,1327.76,1500.0
6.232977867126465,168,82,0.0034965034965034965,1501.8099999999999,1502.0,1326.3199999999999,1500.0
6.2563560009002686,168,82,0.0034965034965034965,1501.8099999999999,1502.0,1324.8800000000001,1500.0
6.279691934585571,168,82,0.0034965034965034965,1501.8099999999999,1502.0,1323.4400000000001,1500.0
6.303057909011841,168,82,0.0034965034965034965,1502.4000000000001,1502.0,1322.0,1500.0
6.326406002044678,168,81,0.0034965034965034965,1502.4000000000001,1502.0,1326.0,1500.0
6.349763870239258,168,81,0.0034965034965034965,1502.4000000000001,1502.0,1328.8,1500.0
6.373111963272095,168,81,0.0034965034965034965,1502.4000000000001,1502.0,1331.5999999999999,1500.0
6.396440029144287,168,81,0.0033444816053511705,1502.4000000000001,1502.0,1334.4000000000001,1500.0
6.419801950454712,168,81,0.003105590062111801,1502.4000000000001,1502.0,1337.2,1500.0
6.443156003952026,168,82,0.0033444816053511705,1502.4000000000001,1502.0,1333.2,1500.0
6.466493844985962,167,82,0.0034965034965034965,1501.5899999999999,1502.0,1330.4000000000001,1500.0
6.4938249588012695,167,82,0.003246753246753247,1500.98,1502.0,1327.5999999999999,1500.0
6.517308950424194,167,83,0.0033444816053511705,1500.3699999999999,1502.0,1322.1600000000001,1500.0
6.540693044662476,167,83,0.0033444816053511705,1499.76,1502.0,1317.9200000000001,1500.0
6.5641028881073,167,83,0.0033444816053511705,1499.1500000000001,1502.0,1317.8399999999999,1500.0
6.58750581741333,167,83,0.0033444816053511705,1499.74,1502.0,1317.76,1500.0
6.610905885696411,167,83,0.0033444816053511705,1500.3299999999999,1502.0,1317.6800000000001,1500.0
6.634244918823242,166,83,0.0033444816053511705,1500.1099999999999,1502.0,1320.4000000000001,1500.0
6.657624959945679,166,83,0.0033444816053511705,1500.0899999999999,1502.0,1323.1199999999999,1500.0
6.680990934371948,166,82,0.003105590062111801,1500.0699999999999,1502.0,1327.1199999999999,1500.0
6.704357862472534,166,82,0.003105590062111801,1499.46,1502.0,1329.9200000000001,1500.0
6.7282609939575195,166,82,0.0033444816053511705,1498.8499999999999,1502.0,1332.72,1500.0
6.752281904220581,165,82,0.003205128205128205,1498.6300000000001,1502.0,1334.1600000000001,1500.0
6.77619194984436,165,82,0.0033444816053511705,1498.6099999999999,1502.0,1335.5999999999999,1500.0
6.80009388923645,165,82,0.0033444816053511705,1498.5899999999999,1502.0,1334.24,1500.0
6.823961019515991,164,82,0.002976190476190476,1497.76,1502.0,1332.8800000000001,1500.0
6.847851037979126,164,82,0.002976190476190476,1497.1300000000001,1502.0,1331.52,1500.0
6.871883869171143,164,82,0.003105590062111801,1497.1099999999999,1502.0,1330.1600000000001,1500.0
6.895756959915161,164,82,0.003105590062111801,1497.0899999999999,1502.0,1328.8,1500.0
6.91960883140564,163,82,0.003205128205128205,1496.26,1502.0,1328.8,1500.0
6.943441867828369,163,81,0.002976190476190476,1496.8299999999999,1502.0,1331.4400000000001,1500.0
6.96737003326416,163,81,0.003105590062111801,1497.4000000000001,1502.0,1332.8800000000001,1500.0
6.991289854049683,163,81,0.003105590062111801,1497.3800000000001,1502.0,1334.3199999999999,1500.0
7.015221834182739,162,82,0.003105590062111801,1496.55,1502.0,1333.1199999999999,1500.0
7.039162874221802,161,82,0.002976190476190476,1496.3099999999999,1502.0,1333.1199999999999,1500.0
7.0631678104400635,161,82,0.003105590062111801,1495.6800000000001,1502.0,1330.3199999999999,1500.0
7.087033987045288,161,82,0.003105590062111801,1495.05,1502.0,1327.52,1500.0
7.1108739376068115,160,83,0.003105590062111801,1493.6099999999999,1502.0,1322.0799999999999,1500.0
7.134781837463379,160,83,0.003105590062111801,1493.5699999999999,1502.0,1320.6400000000001,1500.0
7.158146858215332,159,83,0.002777777777777778,1493.3299999999999,1502.0,1319.2,1500.0
7.18164587020874,159,83,0.002777777777777778,1493.29,1502.0,1319.1199999999999,1500.0
7.204989910125732,159,82,0.003105590062111801,1493.25,1502.0,1321.6800000000001,1500.0
7.228335857391357,158,82,0.003105590062111801,1493.5999999999999,1502.0,1325.8399999999999,1500.0
7.251996040344238,158,82,0.003105590062111801,1493.5599999999999,1502.0,1328.6400000000001,1500.0
7.275719881057739,157,83,0.002777777777777778,1493.3199999999999,1502.0,1328.8,1500.0
7.299147844314575,157,83,0.002898550724637681,1493.28,1502.0,1330.1600000000001,1500.0
7.32254695892334,156,83,0.002777777777777778,1492.4300000000001,1502.0,1328.72,1500.0
7.345901966094971,156,83,0.002898550724637681,1492.3900000000001,1502.0,1325.9200000000001,1500.0
7.369293928146362,156,83,0.002898550724637681,1492.3499999999999,1502.0,1323.1199999999999,1500.0
7.392737865447998,155,83,0.002777777777777778,1492.1099999999999,1502.0,1323.1199999999999,1500.0
7.416085958480835,155,83,0.002777777777777778,1492.0699999999999,1502.0,1323.1199999999999,1500.0
7.439446926116943,154,82,0.002976190476190476,1492.4200000000001,1502.0,1327.1199999999999,1500.0
7.462816953659058,154,82,0.002777777777777778,1492.3800000000001,1502.0,1329.9200000000001,1500.0
7.486161947250366,153,81,0.002976190476190476,1491.53,1502.0,1335.3599999999999,1500.0
7.509536027908325,153,81,0.003105590062111801,1491.49,1502.0,1338.24,1500.0
7.533339977264404,153,81,0.003105590062111801,1491.45,1502.0,1341.1199999999999,1500.0
7.556886911392212,153,81,0.003105590062111801,1492.02,1502.0,1341.2,1500.0
7.580338954925537,153,82,0.0026666666666666666,1492.5899999999999,1502.0,1338.6400000000001,1500.0
7.6037938594818115,151,83,0.002777777777777778,1492.74,1502.0,1331.8399999999999,1500.0
7.627161026000977,151,83,0.002898550724637681,1492.7,1502.0,1326.24,1500.0
7.6505279541015625,151,83,0.002898550724637681,1492.6600000000001,1502.0,1320.6400000000001,1500.0
7.673849821090698,151,83,0.0026666666666666666,1492.03,1502.0,1316.4000000000001,1500.0
7.697175979614258,150,83,0.0026666666666666666,1490.5899999999999,1502.0,1314.96,1500.0
7.72052001953125,149,82,0.002777777777777778,1490.3499999999999,1502.0,1320.3199999999999,1500.0
7.743924856185913,149,82,0.002777777777777778,1490.3099999999999,1502.0,1324.48,1500.0
7.767570972442627,148,82,0.002777777777777778,1489.46,1502.0,1328.6400000000001,1500.0
7.791272878646851,148,81,0.002777777777777778,1488.8099999999999,1502.0,1335.4400000000001,1500.0
7.814889907836914,148,81,0.002777777777777778,1489.3599999999999,1502.0,1339.6800000000001,1500.0
7.838562965393066,147,81,0.002898550724637681,1489.1199999999999,1502.0,1339.76,1500.0
7.862234830856323,147,81,0.002777777777777778,1489.0799999999999,1502.0,1339.8399999999999,1500.0
7.88587498664856,147,81,0.0026666666666666666,1490.24,1502.0,1339.9200000000001,1500.0
7.909497976303101,146,81,0.002564102564102564,1490.5899999999999,1502.0,1337.2,1500.0
7.933110952377319,146,81,0.002564102564102564,1490.55,1502.0,1334.48,1500.0
7.956718921661377,145,81,0.002564102564102564,1490.3099999999999,1502.0,1333.1199999999999,1500.0
7.980334997177124,145,81,0.002564102564102564,1490.27,1502.0,1331.76,1500.0
8.00394892692566,145,81,0.002564102564102564,1489.6400000000001,1502.0,1330.4000000000001,1500.0
8.027561902999878,144,81,0.002403846153846154,1489.4000000000001,1502.0,1330.4000000000001,1500.0
8.05128788948059,144,81,0.002403846153846154,1489.3599999999999,1502.0,1330.4000000000001,1500.0
8.074913024902344,143,81,0.002564102564102564,1489.1199999999999,1502.0,1330.4000000000001,1500.0
8.09859299659729,143,80,0.002403846153846154,1489.0799999999999,1502.0,1333.04,1500.0
8.122270822525024,143,80,0.002403846153846154,1489.04,1502.0,1334.48,1500.0
8.145898818969727,143,80,0.0023148148148148147,1489.6099999999999,1502.0,1335.9200000000001,1500.0
8.169513940811157,142,80,0.002403846153846154,1489.3699999999999,1502.0,1337.3599999999999,1500.0
8.193444967269897,142,80,0.002403846153846154,1489.9400000000001,1502.0,1338.8,1500.0
8.217254877090454,142,79,0.0023148148148148147,1490.51,1502.0,1340.0799999999999,1500.0
8.241014957427979,141,79,0.0023148148148148147,1490.27,1502.0,1340.1600000000001,1500.0
8.264688968658447,141,79,0.0023148148148148147,1489.6400000000001,1502.0,1340.24,1500.0
8.288280010223389,140,79,0.002403846153846154,1489.4000000000001,1502.0,1340.3199999999999,1500.0
8.311993837356567,140,79,0.0023148148148148147,1488.77,1502.0,1340.4000000000001,1500.0
8.335635900497437,140,79,0.002403846153846154,1488.1400000000001,1502.0,1339.04,1500.0
8.359381914138794,140,79,0.0023148148148148147,1488.71,1502.0,1337.6800000000001,1500.0
8.383049011230469,140,79,0.0023148148148148147,1489.28,1502.0,1336.3199999999999,1500.0
8.406685829162598,139,79,0.0023148148148148147,1489.6500000000001,1502.0,1334.96,1500.0
8.430295944213867,138,79,0.0021008403361344537,1489.4100000000001,1502.0,1333.5999999999999,1500.0
8.45393991470337,138,79,0.0021008403361344537,1489.3699999999999,1502.0,1333.5999999999999,1500.0
8.477691888809204,138,79,0.0021008403361344537,1488.74,1502.0,1333.5999999999999,1500.0
8.501466035842896,138,79,0.002178649237472767,1488.1099999999999,1502.0,1333.5999999999999,1500.0
8.525203943252563,138,79,0.002178649237472767,1488.0899999999999,1502.0,1333.5999999999999,1500.0
8.54891300201416,138,79,0.002178649237472767,1489.27,1502.0,1333.5999999999999,1500.0
8.572603940963745,137,78,0.0021008403361344537,1489.6400000000001,1502.0,1336.24,1500.0
8.596484899520874,137,79,0.0021008403361344537,1490.21,1502.0,1335.04,1500.0
8.620146036148071,137,79,0.0021008403361344537,1490.78,1502.0,1335.04,1500.0
8.643849849700928,137,79,0.0021008403361344537,1490.76,1502.0,1335.04,1500.0
8.667443037033081,137,79,0.001984126984126984,1490.1500000000001,1502.0,1335.04,1500.0
8.691128015518188,137,79,0.0019157088122605363,1490.74,1502.0,1332.24,1500.0
8.714733839035034,136,80,0.0021008403361344537,1490.52,1502.0,1329.5999999999999,1500.0
