time,frame,x,y,size,roll,pitch,thrust,yaw
0,1,132,84,25345,1497.2,1500,1436.0,1500
0.05,2,133,83,27504,1497.3,1500,1437.0,1500
0.1,3,134,83,28908,1497.4,1500,1437.0,1500
0.15000000000000002,4,133,83,30098,1497.3,1500,1437.0,1500
0.2,5,133,83,31518,1497.3,1500,1437.0,1500
0.25,6,134,82,33384,1497.4,1500,1438.0,1500
0.3,7,134,81,35478,1497.4,1500,1439.0,1500
0.35,8,134,81,37001,1497.4,1500,1439.0,1500
0.39999999999999997,9,133,82,37884,1497.3,1500,1438.0,1500
0.44999999999999996,10,132,84,39648,1497.2,1500,1436.0,1500
0.49999999999999994,11,129,85,39843,1496.9,1500,1435.0,1500
0.5499999999999999,12,130,84,39884,1497.0,1500,1436.0,1500
0.6,13,130,83,39840,1497.0,1500,1437.0,1500
0.65,14,130,82,38940,1497.0,1500,1438.0,1500
0.7000000000000001,15,132,82,38048,1497.2,1500,1438.0,1500
0.7500000000000001,16,130,81,37422,1497.0,1500,1439.0,1500
0.8000000000000002,17,130,82,37720,1497.0,1500,1438.0,1500
0.8500000000000002,18,127,82,38048,1496.7,1500,1438.0,1500
0.9000000000000002,19,126,81,37653,1496.6,1500,1439.0,1500
0.9500000000000003,20,127,81,37422,1496.7,1500,1439.0,1500
1.0000000000000002,21,126,82,37720,1496.6,1500,1438.0,1500
1.0500000000000003,22,126,81,37098,1496.6,1500,1439.0,1500
1.1000000000000003,23,127,82,37950,1496.7,1500,1438.0,1500
1.1500000000000004,24,127,82,37620,1496.7,1500,1438.0,1500
1.2000000000000004,25,126,82,37392,1496.6,1500,1438.0,1500
1.2500000000000004,26,126,81,37164,1496.6,1500,1439.0,1500
1.3000000000000005,27,125,82,37620,1496.5,1500,1438.0,1500
1.3500000000000005,28,124,81,37164,1496.4,1500,1439.0,1500
1.4000000000000006,29,125,82,37290,1496.5,1500,1438.0,1500
1.4500000000000006,30,123,82,37228,1496.3,1500,1438.0,1500
1.5000000000000007,31,123,82,37064,1496.3,1500,1438.0,1500
1.5500000000000007,32,123,80,35581,1496.3,1500,1440.0,1500
1.6000000000000008,33,122,80,36064,1496.2,1500,1440.0,1500
1.6500000000000008,34,123,81,36288,1496.3,1500,1439.0,1500
1.7000000000000008,35,124,81,36023,1496.4,1500,1439.0,1500
1.7500000000000009,36,123,81,36186,1496.3,1500,1439.0,1500
1.800000000000001,37,123,83,34602,1496.3,1500,1437.0,1500
1.850000000000001,38,123,82,34383,1496.3,1500,1438.0,1500
1.900000000000001,39,125,84,34286,1496.5,1500,1436.0,1500
1.950000000000001,40,125,84,33912,1496.5,1500,1436.0,1500
2.000000000000001,41,127,84,34444,1496.7,1500,1436.0,1500
2.0500000000000007,42,128,84,34069,1496.8,1500,1436.0,1500
2.1000000000000005,43,131,85,34880,1497.1,1500,1435.0,1500
2.1500000000000004,44,131,87,35640,1497.1,1500,1433.0,1500
2.2,45,133,90,36186,1497.3,1500,1430.0,1500
2.25,46,134,95,37350,1497.4,1500,1425.0,1500
2.3,47,139,103,38363,1497.9,1500,1417.0,1500
2.3499999999999996,48,145,109,38410,1498.5,1500,1411.0,1500
2.3999999999999995,49,153,117,38157,1499.3,1500,1403.0,1500
2.4499999999999993,50,155,86,22656,1499.5,1500,1434.0,1500
2.499999999999999,51,152,107,33276,1499.2,1500,1413.0,1500
2.549999999999999,52,147,79,22752,1498.7,1500,1441.0,1500
2.5999999999999988,53,145,102,35964,1498.5,1500,1418.0,1500
2.6499999999999986,54,146,100,38000,1498.6,1500,1420.0,1500
2.6999999999999984,55,146,103,39156,1498.6,1500,1417.0,1500
2.7499999999999982,56,146,115,42000,1498.6,1500,1405.0,1500
2.799999999999998,57,146,116,41168,1498.6,1500,1404.0,1500
2.849999999999998,58,147,120,39658,1498.7,1500,1400.0,1500
2.8999999999999977,59,147,121,39468,1498.7,1500,1399.0,1500
2.9499999999999975,60,147,110,31620,1498.7,1500,1410.0,1500
2.9999999999999973,61,145,115,32250,1498.5,1500,1405.0,1500
3.049999999999997,62,146,127,37180,1498.6,1500,1393.0,1500
3.099999999999997,63,148,128,36237,1498.8,1500,1392.0,1500
3.149999999999997,64,148,128,36494,1498.8,1500,1392.0,1500
3.1999999999999966,65,147,129,36140,1498.7,1500,1391.0,1500
3.2499999999999964,66,149,130,35894,1498.9,1500,1390.0,1500
3.2999999999999963,67,152,129,32760,1499.2,1500,1391.0,1500
3.349999999999996,68,152,130,33660,1499.2,1500,1390.0,1500
3.399999999999996,69,154,134,32895,1499.4,1500,1386.0,1500
3.4499999999999957,70,153,135,32893,1499.3,1500,1385.0,1500
3.4999999999999956,71,153,136,31500,1499.3,1500,1384.0,1500
3.5499999999999954,72,151,139,29036,1499.1,1500,1381.0,1500
3.599999999999995,73,143,141,27840,1498.3,1500,1379.0,1500
3.649999999999995,74,142,142,25990,1498.2,1500,1378.0,1500
3.699999999999995,75,136,145,23220,1497.6,1500,1375.0,1500
3.7499999999999947,76,137,148,19992,1497.7,1500,1372.0,1500
3.7999999999999945,77,128,152,18518,1496.8,1500,1370,1500
3.8499999999999943,78,130,153,18584,1497.0,1500,1370,1500
3.899999999999994,79,131,149,20700,1497.1,1500,1371.0,1500
3.949999999999994,80,133,146,22260,1497.3,1500,1374.0,1500
3.999999999999994,81,142,145,21816,1498.2,1500,1375.0,1500
4.049999999999994,82,134,145,23112,1497.4,1500,1375.0,1500
4.099999999999993,83,142,146,21210,1498.2,1500,1374.0,1500
4.149999999999993,84,140,146,21525,1498.0,1500,1374.0,1500
4.199999999999993,85,135,145,23760,1497.5,1500,1375.0,1500
4.249999999999993,86,141,147,21424,1498.1,1500,1373.0,1500
4.299999999999993,87,139,146,21945,1497.9,1500,1374.0,1500
4.3499999999999925,88,140,145,22896,1498.0,1500,1375.0,1500
4.399999999999992,89,134,145,23540,1497.4,1500,1375.0,1500
4.449999999999992,90,138,146,22684,1497.8,1500,1374.0,1500
4.499999999999992,91,141,145,22572,1498.1,1500,1375.0,1500
4.549999999999992,92,140,146,22366,1498.0,1500,1374.0,1500
4.599999999999992,93,133,145,24300,1497.3,1500,1375.0,1500
4.6499999999999915,94,141,145,22684,1498.1,1500,1375.0,1500
4.699999999999991,95,140,145,22684,1498.0,1500,1375.0,1500
4.749999999999991,96,134,144,24525,1497.4,1500,1376.0,1500
4.799999999999991,97,140,146,22684,1498.0,1500,1374.0,1500
4.849999999999991,98,140,144,23544,1498.0,1500,1376.0,1500
4.899999999999991,99,135,144,24852,1497.5,1500,1376.0,1500
4.94999999999999,100,141,146,22470,1498.1,1500,1374.0,1500
4.99999999999999,101,140,146,22680,1498.0,1500,1374.0,1500
5.04999999999999,102,141,147,22360,1498.1,1500,1373.0,1500
5.09999999999999,103,140,146,22575,1498.0,1500,1374.0,1500
5.14999999999999,104,140,145,23220,1498.0,1500,1375.0,1500
5.1999999999999895,105,139,144,23653,1497.9,1500,1376.0,1500
5.249999999999989,106,141,145,23328,1498.1,1500,1375.0,1500
5.299999999999989,107,139,145,23326,1497.9,1500,1375.0,1500
5.349999999999989,108,135,144,24852,1497.5,1500,1376.0,1500
5.399999999999989,109,140,146,23002,1498.0,1500,1374.0,1500
5.449999999999989,110,140,144,23653,1498.0,1500,1376.0,1500
5.4999999999999885,111,140,146,23002,1498.0,1500,1374.0,1500
5.549999999999988,112,140,146,22575,1498.0,1500,1374.0,1500
5.599999999999988,113,141,144,23762,1498.1,1500,1376.0,1500
5.649999999999988,114,134,145,24732,1497.4,1500,1375.0,1500
5.699999999999988,115,140,147,22568,1498.0,1500,1373.0,1500
5.749999999999988,116,141,145,23112,1498.1,1500,1375.0,1500
5.799999999999987,117,140,144,23762,1498.0,1500,1376.0,1500
5.849999999999987,118,141,144,23544,1498.1,1500,1376.0,1500
5.899999999999987,119,135,145,24624,1497.5,1500,1375.0,1500
5.949999999999987,120,141,144,23653,1498.1,1500,1376.0,1500
5.999999999999987,121,141,144,23435,1498.1,1500,1376.0,1500
6.0499999999999865,122,136,146,24168,1497.6,1500,1374.0,1500
6.099999999999986,123,141,146,22680,1498.1,1500,1374.0,1500
6.149999999999986,124,141,145,23219,1498.1,1500,1375.0,1500
6.199999999999986,125,135,144,24743,1497.5,1500,1376.0,1500
6.249999999999986,126,140,146,23108,1498.0,1500,1374.0,1500
6.299999999999986,127,142,144,23544,1498.2,1500,1376.0,1500
6.349999999999985,128,140,145,23652,1498.0,1500,1375.0,1500
6.399999999999985,129,141,146,23002,1498.1,1500,1374.0,1500
6.449999999999985,130,140,144,23871,1498.0,1500,1376.0,1500
6.499999999999985,131,135,145,24732,1497.5,1500,1375.0,1500
6.549999999999985,132,141,144,23653,1498.1,1500,1376.0,1500
6.5999999999999845,133,141,145,23544,1498.1,1500,1375.0,1500
6.649999999999984,134,141,144,23653,1498.1,1500,1376.0,1500
6.699999999999984,135,136,146,24168,1497.6,1500,1374.0,1500
6.749999999999984,136,142,145,23005,1498.2,1500,1375.0,1500
6.799999999999984,137,136,147,23484,1497.6,1500,1373.0,1500
6.849999999999984,138,140,146,23320,1498.0,1500,1374.0,1500
6.8999999999999835,139,140,145,23652,1498.0,1500,1375.0,1500
6.949999999999983,140,137,146,23850,1497.7,1500,1374.0,1500
6.999999999999983,141,136,145,24624,1497.6,1500,1375.0,1500
7.049999999999983,142,142,146,22890,1498.2,1500,1374.0,1500
7.099999999999983,143,140,145,23976,1498.0,1500,1375.0,1500
7.149999999999983,144,139,146,23426,1497.9,1500,1374.0,1500
7.199999999999982,145,141,146,23214,1498.1,1500,1374.0,1500
7.249999999999982,146,142,145,23544,1498.2,1500,1375.0,1500
7.299999999999982,147,136,145,25056,1497.6,1500,1375.0,1500
7.349999999999982,148,135,145,24610,1497.5,1500,1375.0,1500
7.399999999999982,149,136,145,24840,1497.6,1500,1375.0,1500
7.4499999999999815,150,141,145,23760,1498.1,1500,1375.0,1500
7.499999999999981,151,136,145,24948,1497.6,1500,1375.0,1500
7.549999999999981,152,136,146,24360,1497.6,1500,1374.0,1500
7.599999999999981,153,137,145,24840,1497.7,1500,1375.0,1500
7.649999999999981,154,141,145,23868,1498.1,1500,1375.0,1500
7.699999999999981,155,136,146,24360,1497.6,1500,1374.0,1500
7.7499999999999805,156,143,144,23762,1498.3,1500,1376.0,1500
7.79999999999998,157,142,145,23760,1498.2,1500,1375.0,1500
7.84999999999998,158,143,144,23871,1498.3,1500,1376.0,1500
7.89999999999998,159,140,145,23861,1498.0,1500,1375.0,1500
7.94999999999998,160,135,146,24698,1497.5,1500,1374.0,1500
7.99999999999998,161,140,145,24192,1498.0,1500,1375.0,1500
8.04999999999998,162,142,145,24075,1498.2,1500,1375.0,1500
8.09999999999998,163,138,144,26510,1497.8,1500,1376.0,1500
8.14999999999998,164,146,142,28272,1498.6,1500,1378.0,1500
8.199999999999982,165,149,143,29120,1498.9,1500,1377.0,1500
8.249999999999982,166,146,145,29916,1498.6,1500,1375.0,1500
8.299999999999983,167,144,146,28726,1498.4,1500,1374.0,1500
8.349999999999984,168,143,146,29680,1498.3,1500,1374.0,1500
8.399999999999984,169,143,146,29150,1498.3,1500,1374.0,1500
8.449999999999985,170,147,143,30800,1498.7,1500,1377.0,1500
8.499999999999986,171,147,144,29975,1498.7,1500,1376.0,1500
8.549999999999986,172,145,142,31350,1498.5,1500,1378.0,1500
8.599999999999987,173,149,142,30849,1498.9,1500,1378.0,1500
8.649999999999988,174,152,140,31624,1499.2,1500,1380.0,1500
8.699999999999989,175,152,136,33390,1499.2,1500,1384.0,1500
8.74999999999999,176,153,132,34170,1499.3,1500,1388.0,1500
8.79999999999999,177,152,132,34572,1499.2,1500,1388.0,1500
8.84999999999999,178,152,129,35280,1499.2,1500,1391.0,1500
8.899999999999991,179,152,126,36938,1499.2,1500,1394.0,1500
8.949999999999992,180,152,126,36646,1499.2,1500,1394.0,1500
8.999999999999993,181,153,125,37000,1499.3,1500,1395.0,1500
9.049999999999994,182,153,122,39474,1499.3,1500,1398.0,1500
9.099999999999994,183,155,119,40640,1499.5,1500,1401.0,1500
9.149999999999995,184,155,118,41310,1499.5,1500,1402.0,1500
9.199999999999996,185,153,120,40764,1499.3,1500,1400.0,1500
9.249999999999996,186,151,120,40448,1499.1,1500,1400.0,1500
9.299999999999997,187,154,122,38556,1499.4,1500,1398.0,1500
9.349999999999998,188,161,111,32804,1500.1,1500,1409.0,1500
9.399999999999999,189,160,116,34602,1500.0,1500,1404.0,1500
9.45,190,154,118,41216,1499.4,1500,1402.0,1500
9.5,191,162,115,34602,1500.2,1500,1405.0,1500
9.55,192,153,120,40448,1499.3,1500,1400.0,1500
9.600000000000001,193,154,120,39564,1499.4,1500,1400.0,1500
9.650000000000002,194,160,116,35332,1500.0,1500,1404.0,1500
9.700000000000003,195,154,120,39721,1499.4,1500,1400.0,1500
9.750000000000004,196,156,119,40960,1499.6,1500,1401.0,1500
9.800000000000004,197,159,117,41565,1499.9,1500,1403.0,1500
9.850000000000005,198,158,115,43680,1499.8,1500,1405.0,1500
9.900000000000006,199,168,111,37114,1500.8,1500,1409.0,1500
9.950000000000006,200,158,117,43032,1499.8,1500,1403.0,1500
10.000000000000007,201,156,118,42987,1499.6,1500,1402.0,1500
10.050000000000008,202,164,110,39721,1500.4,1500,1410.0,1500
10.100000000000009,203,159,117,43460,1499.9,1500,1403.0,1500
10.15000000000001,204,158,116,45650,1499.8,1500,1404.0,1500
10.20000000000001,205,170,110,42662,1501.0,1500,1410.0,1500
10.25000000000001,206,161,113,49536,1500.1,1500,1407.0,1500
10.300000000000011,207,164,109,51373,1500.4,1500,1411.0,1500
10.350000000000012,208,163,111,52096,1500.3,1500,1409.0,1500
10.400000000000013,209,169,111,47988,1500.9,1500,1409.0,1500
10.450000000000014,210,166,110,51976,1500.6,1500,1410.0,1500
10.500000000000014,211,162,109,55669,1500.2,1500,1411.0,1500
10.550000000000015,212,171,109,52984,1501.1,1500,1411.0,1500
10.600000000000016,213,173,110,51620,1501.3,1500,1410.0,1500
10.650000000000016,214,184,115,44856,1502.4,1500,1405.0,1500
10.700000000000017,215,198,127,34892,1503.8,1500,1393.0,1500
10.750000000000018,216,218,158,13120,1505.8,1500,1370,1500
10.800000000000018,217,237,180,3441,1507.7,1500,1370,1500
10.85000000000002,217,,,,1500.0,1500,1420.0,1500
10.90000000000002,217,,,,1500.0,1500,1420.0,1500
10.95000000000002,217,,,,1500.0,1500,1420.0,1500
11.000000000000021,217,,,,1500.0,1500,1420.0,1500
11.050000000000022,217,,,,1500.0,1500,1420.0,1500
11.100000000000023,217,,,,1500.0,1500,1420.0,1500
11.150000000000023,217,,,,1500.0,1500,1420.0,1500
11.200000000000024,217,,,,1500.0,1500,1420.0,1500
11.250000000000025,217,,,,1500.0,1500,1420.0,1500
11.300000000000026,217,,,,1500.0,1500,1420.0,1500
11.350000000000026,217,,,,1500.0,1500,1420.0,1500
11.400000000000027,217,,,,1500.0,1500,1420.0,1500
11.450000000000028,217,,,,1500.0,1500,1420.0,1500
11.500000000000028,217,,,,1500.0,1500,1420.0,1500
11.55000000000003,217,,,,1500.0,1500,1420.0,1500
11.60000000000003,217,,,,1500.0,1500,1420.0,1500
11.65000000000003,217,,,,1500.0,1500,1420.0,1500
11.700000000000031,217,,,,1500.0,1500,1420.0,1500
11.750000000000032,217,,,,1500.0,1500,1420.0,1500
11.800000000000033,217,,,,1500.0,1500,1420.0,1500
11.850000000000033,217,,,,1500.0,1500,1420.0,1500
11.900000000000034,217,,,,1500.0,1500,1420.0,1500
11.950000000000035,217,,,,1500.0,1500,1420.0,1500
12.000000000000036,217,,,,1500.0,1500,1420.0,1500
12.050000000000036,217,,,,1500.0,1500,1420.0,1500
12.100000000000037,217,,,,1500.0,1500,1420.0,1500
12.150000000000038,217,,,,1500.0,1500,1420.0,1500
12.200000000000038,217,,,,1500.0,1500,1420.0,1500
12.250000000000039,217,,,,1500.0,1500,1420.0,1500
12.30000000000004,217,,,,1500.0,1500,1420.0,1500
12.35000000000004,217,,,,1500.0,1500,1420.0,1500
12.400000000000041,217,,,,1500.0,1500,1420.0,1500
12.450000000000042,217,,,,1500.0,1500,1420.0,1500
12.500000000000043,217,,,,1500.0,1500,1420.0,1500
12.550000000000043,217,,,,1500.0,1500,1420.0,1500
12.600000000000044,217,,,,1500.0,1500,1420.0,1500
12.650000000000045,217,,,,1500.0,1500,1420.0,1500
12.700000000000045,217,,,,1500.0,1500,1420.0,1500
12.750000000000046,217,,,,1500.0,1500,1420.0,1500
12.800000000000047,217,,,,1500.0,1500,1420.0,1500
12.850000000000048,217,,,,1500.0,1500,1420.0,1500
12.900000000000048,217,,,,1500.0,1500,1420.0,1500
12.950000000000049,217,,,,1500.0,1500,1420.0,1500
13.00000000000005,217,,,,1500.0,1500,1420.0,1500
13.05000000000005,217,,,,1500.0,1500,1420.0,1500
13.100000000000051,217,,,,1500.0,1500,1420.0,1500
13.150000000000052,217,,,,1500.0,1500,1420.0,1500
13.200000000000053,217,,,,1500.0,1500,1420.0,1500
13.250000000000053,217,,,,1500.0,1500,1420.0,1500
13.300000000000054,217,,,,1500.0,1500,1420.0,1500
13.350000000000055,217,,,,1500.0,1500,1420.0,1500
13.400000000000055,217,,,,1500.0,1500,1420.0,1500
13.450000000000056,217,,,,1500.0,1500,1420.0,1500
13.500000000000057,217,,,,1500.0,1500,1420.0,1500
13.550000000000058,217,,,,1500.0,1500,1420.0,1500
13.600000000000058,217,,,,1500.0,1500,1420.0,1500
13.650000000000059,217,,,,1500.0,1500,1420.0,1500
13.70000000000006,217,,,,1500.0,1500,1420.0,1500
13.75000000000006,217,,,,1500.0,1500,1420.0,1500
13.800000000000061,217,,,,1500.0,1500,1420.0,1500
13.850000000000062,217,,,,1500.0,1500,1420.0,1500
13.900000000000063,217,,,,1500.0,1500,1420.0,1500
13.950000000000063,217,,,,1500.0,1500,1420.0,1500
14.000000000000064,217,,,,1500.0,1500,1420.0,1500
14.050000000000065,217,,,,1500.0,1500,1420.0,1500
14.100000000000065,217,,,,1500.0,1500,1420.0,1500
14.150000000000066,217,,,,1500.0,1500,1420.0,1500
14.200000000000067,217,,,,1500.0,1500,1420.0,1500
14.250000000000068,217,,,,1500.0,1500,1420.0,1500
14.300000000000068,217,,,,1500.0,1500,1420.0,1500
14.350000000000069,217,,,,1500.0,1500,1420.0,1500
14.40000000000007,217,,,,1500.0,1500,1420.0,1500
14.45000000000007,217,,,,1500.0,1500,1420.0,1500
14.500000000000071,217,,,,1500.0,1500,1420.0,1500
14.550000000000072,217,,,,1500.0,1500,1420.0,1500
14.600000000000072,217,,,,1500.0,1500,1420.0,1500
14.650000000000073,217,,,,1500.0,1500,1420.0,1500
14.700000000000074,217,,,,1500.0,1500,1420.0,1500
14.750000000000075,217,,,,1500.0,1500,1420.0,1500
14.800000000000075,217,,,,1500.0,1500,1420.0,1500
14.850000000000076,217,,,,1500.0,1500,1420.0,1500
14.900000000000077,217,,,,1500.0,1500,1420.0,1500
14.950000000000077,217,,,,1500.0,1500,1420.0,1500
15.000000000000078,217,,,,1500.0,1500,1420.0,1500
15.050000000000079,217,,,,1500.0,1500,1420.0,1500
15.10000000000008,217,,,,1500.0,1500,1420.0,1500
15.15000000000008,217,,,,1500.0,1500,1420.0,1500
15.200000000000081,217,,,,1500.0,1500,1420.0,1500
15.250000000000082,217,,,,1500.0,1500,1420.0,1500
15.300000000000082,217,,,,1500.0,1500,1420.0,1500
15.350000000000083,217,,,,1500.0,1500,1420.0,1500
15.400000000000084,217,,,,1500.0,1500,1420.0,1500
15.450000000000085,217,,,,1500.0,1500,1420.0,1500
15.500000000000085,217,,,,1500.0,1500,1420.0,1500
15.550000000000086,217,,,,1500.0,1500,1420.0,1500
15.600000000000087,217,,,,1500.0,1500,1420.0,1500
15.650000000000087,217,,,,1500.0,1500,1420.0,1500
15.700000000000088,217,,,,1500.0,1500,1420.0,1500
15.750000000000089,217,,,,1500.0,1500,1420.0,1500
15.80000000000009,217,,,,1500.0,1500,1420.0,1500
15.85000000000009,217,,,,1500.0,1500,1420.0,1500
15.900000000000091,217,,,,1500.0,1500,1420.0,1500
15.950000000000092,217,,,,1500.0,1500,1420.0,1500
16.000000000000092,217,,,,1500.0,1500,1420.0,1500
16.050000000000093,217,,,,1500.0,1500,1420.0,1500
16.100000000000094,217,,,,1500.0,1500,1420.0,1500
16.150000000000095,217,,,,1500.0,1500,1420.0,1500
16.200000000000095,218,190,140,780,1503.0,1500,1380.0,1500
16.250000000000096,219,157,95,1488,1499.7,1500,1425.0,1500
16.300000000000097,220,251,81,1587,1509.1,1500,1439.0,1500
16.350000000000097,221,178,57,16428,1501.8,1500,1463.0,1500
16.400000000000098,222,190,51,21115,1503.0,1500,1469.0,1500
16.4500000000001,223,182,49,20678,1502.2,1500,1470,1500
16.5000000000001,224,154,48,18624,1499.4,1500,1470,1500
16.5500000000001,225,150,51,20808,1499.0,1500,1469.0,1500
16.6000000000001,226,147,52,20265,1498.7,1500,1468.0,1500
16.6500000000001,227,146,53,23112,1498.6,1500,1467.0,1500
16.700000000000102,228,153,54,24416,1499.3,1500,1466.0,1500
16.750000000000103,229,144,52,21525,1498.4,1500,1468.0,1500
16.800000000000104,230,152,52,23088,1499.2,1500,1468.0,1500
16.850000000000104,231,135,53,20776,1497.5,1500,1467.0,1500
16.900000000000105,232,136,51,20188,1497.6,1500,1469.0,1500
16.950000000000106,233,145,55,25308,1498.5,1500,1465.0,1500
17.000000000000107,234,136,57,27018,1497.6,1500,1463.0,1500
17.050000000000107,235,136,57,26910,1497.6,1500,1463.0,1500
17.100000000000108,236,133,58,26448,1497.3,1500,1462.0,1500
17.15000000000011,237,138,39,18876,1497.8,1500,1470,1500
17.20000000000011,238,134,61,28182,1497.4,1500,1459.0,1500
17.25000000000011,239,140,63,31242,1498.0,1500,1457.0,1500
17.30000000000011,240,137,62,31125,1497.7,1500,1458.0,1500
17.35000000000011,241,141,64,32379,1498.1,1500,1456.0,1500
17.400000000000112,242,138,64,33024,1497.8,1500,1456.0,1500
17.450000000000113,243,140,63,31752,1498.0,1500,1457.0,1500
17.500000000000114,244,142,62,31620,1498.2,1500,1458.0,1500
17.550000000000114,245,143,60,29640,1498.3,1500,1460.0,1500
17.600000000000115,246,145,61,30012,1498.5,1500,1459.0,1500
17.650000000000116,247,137,56,25764,1497.7,1500,1464.0,1500
17.700000000000117,248,143,56,26668,1498.3,1500,1464.0,1500
17.750000000000117,249,145,53,23956,1498.5,1500,1467.0,1500
17.800000000000118,250,145,52,23400,1498.5,1500,1468.0,1500
17.85000000000012,251,147,53,22472,1498.7,1500,1467.0,1500
17.90000000000012,252,148,50,21109,1498.8,1500,1470.0,1500
17.95000000000012,253,150,49,19305,1499.0,1500,1470,1500
18.00000000000012,254,150,50,18800,1499.0,1500,1470.0,1500
18.05000000000012,255,149,50,18800,1498.9,1500,1470.0,1500
18.100000000000122,256,148,50,17978,1498.8,1500,1470.0,1500
18.150000000000123,257,148,50,17100,1498.8,1500,1470.0,1500
18.200000000000124,258,145,48,16128,1498.5,1500,1470,1500
18.250000000000124,259,145,49,16072,1498.5,1500,1470,1500
18.300000000000125,260,144,48,14938,1498.4,1500,1470,1500
18.350000000000126,261,142,35,10430,1498.2,1500,1470,1500
18.400000000000126,262,141,48,13728,1498.1,1500,1470,1500
18.450000000000127,263,141,47,13160,1498.1,1500,1470,1500
18.500000000000128,264,140,46,12369,1498.0,1500,1470,1500
18.55000000000013,265,139,45,11557,1497.9,1500,1470,1500
18.60000000000013,266,139,46,10320,1497.9,1500,1470,1500
18.65000000000013,267,139,46,9794,1497.9,1500,1470,1500
18.70000000000013,268,138,46,8769,1497.8,1500,1470,1500
18.75000000000013,269,136,47,7980,1497.6,1500,1470,1500
18.800000000000132,270,137,47,7100,1497.7,1500,1470,1500
18.850000000000133,271,137,48,6693,1497.7,1500,1470,1500
18.900000000000134,272,138,51,6204,1497.8,1500,1469.0,1500
18.950000000000134,273,139,53,5670,1497.9,1500,1467.0,1500
19.000000000000135,274,141,56,5607,1498.1,1500,1464.0,1500
19.050000000000136,275,143,59,5270,1498.3,1500,1461.0,1500
19.100000000000136,276,147,62,5040,1498.7,1500,1458.0,1500
19.150000000000137,277,149,63,4920,1498.9,1500,1457.0,1500
19.200000000000138,278,151,64,4720,1499.1,1500,1456.0,1500
19.25000000000014,279,152,66,4389,1499.2,1500,1454.0,1500
19.30000000000014,280,155,67,4180,1499.5,1500,1453.0,1500
19.35000000000014,281,156,68,3996,1499.6,1500,1452.0,1500
19.40000000000014,282,157,68,3763,1499.7,1500,1452.0,1500
19.45000000000014,283,159,69,3570,1499.9,1500,1451.0,1500
19.500000000000142,284,159,70,3468,1499.9,1500,1450.0,1500
19.550000000000143,285,161,70,3168,1500.1,1500,1450.0,1500
19.600000000000144,286,161,71,3055,1500.1,1500,1449.0,1500
19.650000000000144,287,162,72,2898,1500.2,1500,1448.0,1500
19.700000000000145,288,162,72,2655,1500.2,1500,1448.0,1500
19.750000000000146,289,164,74,2478,1500.4,1500,1446.0,1500
19.800000000000146,290,165,74,2537,1500.5,1500,1446.0,1500
19.850000000000147,291,165,75,2255,1500.5,1500,1445.0,1500
19.900000000000148,292,166,77,2200,1500.6,1500,1443.0,1500
19.95000000000015,293,166,78,2120,1500.6,1500,1442.0,1500
20.00000000000015,294,167,78,2028,1500.7,1500,1442.0,1500
20.05000000000015,295,167,79,1938,1500.7,1500,1441.0,1500
20.10000000000015,296,168,79,1850,1500.8,1500,1441.0,1500
20.15000000000015,297,168,80,1850,1500.8,1500,1440.0,1500
20.200000000000152,298,167,81,1692,1500.7,1500,1439.0,1500
20.250000000000153,299,168,82,1598,1500.8,1500,1438.0,1500
20.300000000000153,300,169,81,1564,1500.9,1500,1439.0,1500
20.350000000000154,301,169,81,1518,1500.9,1500,1439.0,1500
20.400000000000155,302,169,82,1485,1500.9,1500,1438.0,1500
20.450000000000156,303,169,82,1376,1500.9,1500,1438.0,1500
20.500000000000156,304,169,82,1333,1500.9,1500,1438.0,1500
20.550000000000157,305,170,82,1302,1501.0,1500,1438.0,1500
20.600000000000158,306,170,83,1290,1501.0,1500,1437.0,1500
20.65000000000016,307,169,83,1131,1500.9,1500,1437.0,1500
20.70000000000016,308,170,83,1160,1501.0,1500,1437.0,1500
20.75000000000016,309,170,84,1064,1501.0,1500,1436.0,1500
20.80000000000016,310,171,84,1092,1501.1,1500,1436.0,1500
20.85000000000016,311,171,84,999,1501.1,1500,1436.0,1500
20.900000000000162,312,171,84,999,1501.1,1500,1436.0,1500
20.950000000000163,313,171,84,945,1501.1,1500,1436.0,1500
21.000000000000163,314,171,85,910,1501.1,1500,1435.0,1500
21.050000000000164,315,171,85,910,1501.1,1500,1435.0,1500
21.100000000000165,316,172,85,816,1501.2,1500,1435.0,1500
21.150000000000166,317,172,85,816,1501.2,1500,1435.0,1500
21.200000000000166,318,173,85,816,1501.3,1500,1435.0,1500
21.250000000000167,319,173,85,782,1501.3,1500,1435.0,1500
21.300000000000168,320,172,85,713,1501.2,1500,1435.0,1500
21.35000000000017,321,173,85,690,1501.3,1500,1435.0,1500
21.40000000000017,322,173,86,713,1501.3,1500,1434.0,1500
21.45000000000017,323,174,86,690,1501.4,1500,1434.0,1500
21.50000000000017,324,175,87,660,1501.5,1500,1433.0,1500
21.55000000000017,325,176,87,660,1501.6,1500,1433.0,1500
21.600000000000172,326,177,87,660,1501.7,1500,1433.0,1500
21.650000000000173,327,177,87,630,1501.7,1500,1433.0,1500
21.700000000000173,328,177,88,551,1501.7,1500,1432.0,1500
21.750000000000174,329,177,88,580,1501.7,1500,1432.0,1500
21.800000000000175,330,178,88,560,1501.8,1500,1432.0,1500
21.850000000000176,331,177,88,513,1501.7,1500,1432.0,1500
21.900000000000176,332,177,88,513,1501.7,1500,1432.0,1500
21.950000000000177,333,177,88,494,1501.7,1500,1432.0,1500
22.000000000000178,334,177,88,459,1501.7,1500,1432.0,1500
22.05000000000018,335,177,88,513,1501.7,1500,1432.0,1500
22.10000000000018,336,177,89,513,1501.7,1500,1431.0,1500
22.15000000000018,337,177,89,442,1501.7,1500,1431.0,1500
22.20000000000018,338,178,89,494,1501.8,1500,1431.0,1500
22.25000000000018,339,177,90,468,1501.7,1500,1430.0,1500
22.300000000000182,340,177,90,432,1501.7,1500,1430.0,1500
22.350000000000183,341,176,89,408,1501.6,1500,1431.0,1500
22.400000000000183,342,175,90,368,1501.5,1500,1430.0,1500
22.450000000000184,343,174,90,368,1501.4,1500,1430.0,1500
22.500000000000185,344,174,90,368,1501.4,1500,1430.0,1500
22.550000000000185,345,174,90,352,1501.4,1500,1430.0,1500
22.600000000000186,346,174,90,345,1501.4,1500,1430.0,1500
22.650000000000187,347,173,90,315,1501.3,1500,1430.0,1500
22.700000000000188,348,173,91,336,1501.3,1500,1429.0,1500
22.75000000000019,349,173,91,352,1501.3,1500,1429.0,1500
22.80000000000019,350,173,90,315,1501.3,1500,1430.0,1500
22.85000000000019,351,173,90,252,1501.3,1500,1430.0,1500
22.90000000000019,352,174,91,352,1501.4,1500,1429.0,1500
22.95000000000019,353,173,91,336,1501.3,1500,1429.0,1500
23.000000000000192,354,173,90,270,1501.3,1500,1430.0,1500
23.050000000000193,355,174,91,315,1501.4,1500,1429.0,1500
23.100000000000193,356,174,91,315,1501.4,1500,1429.0,1500
23.150000000000194,357,173,91,270,1501.3,1500,1429.0,1500
23.200000000000195,358,174,92,252,1501.4,1500,1428.0,1500
23.250000000000195,359,174,92,247,1501.4,1500,1428.0,1500
23.300000000000196,360,174,92,252,1501.4,1500,1428.0,1500
23.350000000000197,361,174,91,234,1501.4,1500,1429.0,1500
23.400000000000198,362,174,92,252,1501.4,1500,1428.0,1500
23.4500000000002,363,174,92,266,1501.4,1500,1428.0,1500
23.5000000000002,364,174,92,234,1501.4,1500,1428.0,1500
23.5500000000002,365,174,93,216,1501.4,1500,1427.0,1500
23.6000000000002,366,174,92,234,1501.4,1500,1428.0,1500
23.6500000000002,367,174,92,234,1501.4,1500,1428.0,1500
23.700000000000202,368,173,92,221,1501.3,1500,1428.0,1500
23.750000000000203,369,173,92,221,1501.3,1500,1428.0,1500
23.800000000000203,370,173,93,204,1501.3,1500,1427.0,1500
23.850000000000204,371,173,92,187,1501.3,1500,1428.0,1500
23.900000000000205,372,172,93,204,1501.2,1500,1427.0,1500
23.950000000000205,373,173,93,216,1501.3,1500,1427.0,1500
24.000000000000206,374,172,91,162,1501.2,1500,1429.0,1500
24.050000000000207,375,171,93,221,1501.1,1500,1427.0,1500
24.100000000000207,376,172,93,198,1501.2,1500,1427.0,1500
24.150000000000208,377,170,94,168,1501.0,1500,1426.0,1500
24.20000000000021,378,171,93,176,1501.1,1500,1427.0,1500
24.25000000000021,379,170,93,187,1501.0,1500,1427.0,1500
24.30000000000021,380,169,93,154,1500.9,1500,1427.0,1500
24.35000000000021,381,168,93,165,1500.8,1500,1427.0,1500
24.40000000000021,382,168,93,165,1500.8,1500,1427.0,1500
24.450000000000212,383,168,93,154,1500.8,1500,1427.0,1500
24.500000000000213,384,167,94,130,1500.7,1500,1426.0,1500
24.550000000000214,385,167,94,140,1500.7,1500,1426.0,1500
24.600000000000215,386,167,94,140,1500.7,1500,1426.0,1500
24.650000000000215,387,167,94,165,1500.7,1500,1426.0,1500
24.700000000000216,388,167,94,154,1500.7,1500,1426.0,1500
24.750000000000217,389,167,94,144,1500.7,1500,1426.0,1500
24.800000000000217,390,166,94,126,1500.6,1500,1426.0,1500
24.850000000000218,391,166,95,140,1500.6,1500,1425.0,1500
24.90000000000022,392,166,95,154,1500.6,1500,1425.0,1500
24.95000000000022,393,165,97,90,1500.5,1500,1423.0,1500
25.00000000000022,394,166,95,154,1500.6,1500,1425.0,1500
25.05000000000022,395,165,95,140,1500.5,1500,1425.0,1500
25.10000000000022,396,166,95,140,1500.6,1500,1425.0,1500
25.150000000000222,397,165,95,126,1500.5,1500,1425.0,1500
25.200000000000223,398,165,95,140,1500.5,1500,1425.0,1500
25.250000000000224,399,165,94,126,1500.5,1500,1426.0,1500
25.300000000000225,400,164,95,143,1500.4,1500,1425.0,1500
25.350000000000225,401,164,95,130,1500.4,1500,1425.0,1500
25.400000000000226,402,164,95,140,1500.4,1500,1425.0,1500
25.450000000000227,403,165,95,126,1500.5,1500,1425.0,1500
25.500000000000227,404,164,94,84,1500.4,1500,1426.0,1500
25.550000000000228,405,164,95,126,1500.4,1500,1425.0,1500
25.60000000000023,406,164,96,126,1500.4,1500,1424.0,1500
25.65000000000023,407,163,95,117,1500.3,1500,1425.0,1500
25.70000000000023,408,163,95,117,1500.3,1500,1425.0,1500
25.75000000000023,409,163,96,130,1500.3,1500,1424.0,1500
25.80000000000023,410,163,95,117,1500.3,1500,1425.0,1500
25.850000000000232,411,163,96,130,1500.3,1500,1424.0,1500
25.900000000000233,412,163,96,130,1500.3,1500,1424.0,1500
25.950000000000234,413,163,95,126,1500.3,1500,1425.0,1500
26.000000000000234,414,163,96,112,1500.3,1500,1424.0,1500
26.050000000000235,415,163,95,104,1500.3,1500,1425.0,1500
26.100000000000236,416,163,95,117,1500.3,1500,1425.0,1500
26.150000000000237,417,163,95,117,1500.3,1500,1425.0,1500
26.200000000000237,418,162,96,80,1500.2,1500,1424.0,1500
26.250000000000238,419,163,96,117,1500.3,1500,1424.0,1500
26.30000000000024,420,162,96,130,1500.2,1500,1424.0,1500
26.35000000000024,421,162,96,117,1500.2,1500,1424.0,1500
26.40000000000024,422,162,96,117,1500.2,1500,1424.0,1500
26.45000000000024,423,161,97,80,1500.1,1500,1423.0,1500
26.50000000000024,424,162,96,108,1500.2,1500,1424.0,1500
26.550000000000242,425,161,96,90,1500.1,1500,1424.0,1500
26.600000000000243,426,160,96,80,1500.0,1500,1424.0,1500
26.650000000000244,427,160,96,99,1500.0,1500,1424.0,1500
26.700000000000244,428,160,96,90,1500.0,1500,1424.0,1500
26.750000000000245,429,160,96,90,1500.0,1500,1424.0,1500
26.800000000000246,430,160,96,99,1500.0,1500,1424.0,1500
26.850000000000247,431,160,96,90,1500.0,1500,1424.0,1500
26.900000000000247,432,161,97,96,1500.1,1500,1423.0,1500
26.950000000000248,433,160,96,70,1500.0,1500,1424.0,1500
27.00000000000025,434,160,96,90,1500.0,1500,1424.0,1500
27.05000000000025,435,160,97,80,1500.0,1500,1423.0,1500
27.10000000000025,436,160,97,88,1500.0,1500,1423.0,1500
27.15000000000025,437,160,96,99,1500.0,1500,1424.0,1500
27.20000000000025,438,160,97,80,1500.0,1500,1423.0,1500
27.250000000000252,439,159,99,36,1499.9,1500,1421.0,1500
27.300000000000253,440,160,97,80,1500.0,1500,1423.0,1500
27.350000000000254,441,160,97,70,1500.0,1500,1423.0,1500
27.400000000000254,442,159,97,80,1499.9,1500,1423.0,1500
27.450000000000255,443,159,97,70,1499.9,1500,1423.0,1500
27.500000000000256,444,158,98,72,1499.8,1500,1422.0,1500
27.550000000000257,445,159,98,80,1499.9,1500,1422.0,1500
27.600000000000257,446,159,98,88,1499.9,1500,1422.0,1500
27.650000000000258,447,159,98,88,1499.9,1500,1422.0,1500
27.70000000000026,448,159,96,40,1499.9,1500,1424.0,1500
27.75000000000026,449,159,96,50,1499.9,1500,1424.0,1500
27.80000000000026,450,159,98,70,1499.9,1500,1422.0,1500
27.85000000000026,451,159,98,80,1499.9,1500,1422.0,1500
27.90000000000026,452,159,99,80,1499.9,1500,1421.0,1500
27.950000000000262,453,159,99,88,1499.9,1500,1421.0,1500
28.000000000000263,454,158,98,54,1499.8,1500,1422.0,1500
28.050000000000264,455,159,98,70,1499.9,1500,1422.0,1500
28.100000000000264,456,159,99,88,1499.9,1500,1421.0,1500
28.150000000000265,457,159,99,80,1499.9,1500,1421.0,1500
28.200000000000266,458,159,98,88,1499.9,1500,1422.0,1500
28.250000000000266,459,159,98,70,1499.9,1500,1422.0,1500
28.300000000000267,460,159,98,70,1499.9,1500,1422.0,1500
28.350000000000268,461,159,99,88,1499.9,1500,1421.0,1500
28.40000000000027,462,159,98,90,1499.9,1500,1422.0,1500
28.45000000000027,463,158,99,72,1499.8,1500,1421.0,1500
28.50000000000027,464,159,99,80,1499.9,1500,1421.0,1500
28.55000000000027,465,159,99,80,1499.9,1500,1421.0,1500
28.60000000000027,466,159,99,90,1499.9,1500,1421.0,1500
28.650000000000272,467,159,99,80,1499.9,1500,1421.0,1500
28.700000000000273,468,159,99,80,1499.9,1500,1421.0,1500
28.750000000000274,469,158,97,45,1499.8,1500,1423.0,1500
28.800000000000274,470,159,99,80,1499.9,1500,1421.0,1500
28.850000000000275,471,159,99,80,1499.9,1500,1421.0,1500
28.900000000000276,472,160,99,108,1500.0,1500,1421.0,1500
28.950000000000276,473,160,99,117,1500.0,1500,1421.0,1500
29.000000000000277,474,160,99,117,1500.0,1500,1421.0,1500
29.050000000000278,475,161,100,126,1500.1,1500,1420.0,1500
29.10000000000028,476,161,100,126,1500.1,1500,1420.0,1500
29.15000000000028,477,160,100,117,1500.0,1500,1420.0,1500
29.20000000000028,478,160,98,65,1500.0,1500,1422.0,1500
29.25000000000028,479,160,100,130,1500.0,1500,1420.0,1500
29.30000000000028,480,161,100,140,1500.1,1500,1420.0,1500
29.350000000000282,481,160,99,135,1500.0,1500,1421.0,1500
29.400000000000283,482,160,99,117,1500.0,1500,1421.0,1500
29.450000000000284,483,160,99,126,1500.0,1500,1421.0,1500
29.500000000000284,484,160,99,130,1500.0,1500,1421.0,1500
29.550000000000285,485,161,99,140,1500.1,1500,1421.0,1500
29.600000000000286,486,160,99,130,1500.0,1500,1421.0,1500
29.650000000000286,487,160,98,126,1500.0,1500,1422.0,1500
29.700000000000287,488,160,99,140,1500.0,1500,1421.0,1500
29.750000000000288,489,160,98,126,1500.0,1500,1422.0,1500
29.80000000000029,490,160,98,165,1500.0,1500,1422.0,1500
29.85000000000029,491,160,98,140,1500.0,1500,1422.0,1500
29.90000000000029,492,160,98,140,1500.0,1500,1422.0,1500
29.95000000000029,493,160,98,140,1500.0,1500,1422.0,1500
30.00000000000029,494,160,97,165,1500.0,1500,1423.0,1500
30.050000000000292,495,160,97,140,1500.0,1500,1423.0,1500
30.100000000000293,496,160,97,140,1500.0,1500,1423.0,1500
30.150000000000293,497,160,97,140,1500.0,1500,1423.0,1500
30.200000000000294,498,159,96,130,1499.9,1500,1424.0,1500
30.250000000000295,499,159,96,165,1499.9,1500,1424.0,1500
30.300000000000296,500,160,96,154,1500.0,1500,1424.0,1500
30.350000000000296,501,160,96,165,1500.0,1500,1424.0,1500
30.400000000000297,502,160,96,154,1500.0,1500,1424.0,1500
30.450000000000298,503,159,96,143,1499.9,1500,1424.0,1500
30.5000000000003,504,160,95,154,1500.0,1500,1425.0,1500
30.5500000000003,505,161,96,204,1500.1,1500,1424.0,1500
30.6000000000003,506,161,95,187,1500.1,1500,1425.0,1500
30.6500000000003,507,161,95,187,1500.1,1500,1425.0,1500
30.7000000000003,508,161,95,216,1500.1,1500,1425.0,1500
30.750000000000302,509,161,93,119,1500.1,1500,1427.0,1500
30.800000000000303,510,162,94,216,1500.2,1500,1426.0,1500
30.850000000000303,511,161,94,216,1500.1,1500,1426.0,1500
30.900000000000304,512,160,93,221,1500.0,1500,1427.0,1500
30.950000000000305,513,161,93,234,1500.1,1500,1427.0,1500
31.000000000000306,514,160,93,247,1500.0,1500,1427.0,1500
31.050000000000306,515,160,93,234,1500.0,1500,1427.0,1500
31.100000000000307,516,160,93,216,1500.0,1500,1427.0,1500
31.150000000000308,517,160,92,234,1500.0,1500,1428.0,1500
31.20000000000031,518,160,92,260,1500.0,1500,1428.0,1500
31.25000000000031,519,159,91,234,1499.9,1500,1429.0,1500
31.30000000000031,520,158,92,247,1499.8,1500,1428.0,1500
31.35000000000031,521,159,92,280,1499.9,1500,1428.0,1500
31.40000000000031,522,159,92,294,1499.9,1500,1428.0,1500
31.450000000000312,523,158,95,171,1499.8,1500,1425.0,1500
31.500000000000313,524,160,93,308,1500.0,1500,1427.0,1500
31.550000000000313,525,160,93,308,1500.0,1500,1427.0,1500
31.600000000000314,526,160,93,294,1500.0,1500,1427.0,1500
31.650000000000315,527,161,93,330,1500.1,1500,1427.0,1500
31.700000000000315,528,162,93,330,1500.2,1500,1427.0,1500
31.750000000000316,529,162,93,330,1500.2,1500,1427.0,1500
31.800000000000317,530,162,93,330,1500.2,1500,1427.0,1500
31.850000000000318,531,162,93,368,1500.2,1500,1427.0,1500
31.90000000000032,532,161,93,391,1500.1,1500,1427.0,1500
31.95000000000032,533,160,93,368,1500.0,1500,1427.0,1500
32.00000000000032,534,161,92,360,1500.1,1500,1428.0,1500
32.05000000000032,535,161,92,408,1500.1,1500,1428.0,1500
32.100000000000314,536,160,92,450,1500.0,1500,1428.0,1500
32.15000000000031,537,160,92,468,1500.0,1500,1428.0,1500
32.20000000000031,538,159,91,468,1499.9,1500,1429.0,1500
32.250000000000306,539,157,89,459,1499.7,1500,1431.0,1500
32.3000000000003,540,156,89,494,1499.6,1500,1431.0,1500
32.3500000000003,541,155,89,468,1499.5,1500,1431.0,1500
32.4000000000003,542,153,88,513,1499.3,1500,1432.0,1500
32.450000000000294,543,152,88,513,1499.2,1500,1432.0,1500
32.50000000000029,544,152,88,560,1499.2,1500,1432.0,1500
32.55000000000029,545,151,88,560,1499.1,1500,1432.0,1500
32.600000000000286,546,151,88,600,1499.1,1500,1432.0,1500
32.65000000000028,547,151,88,630,1499.1,1500,1432.0,1500
32.70000000000028,548,150,89,660,1499.0,1500,1431.0,1500
32.75000000000028,549,150,89,682,1499.0,1500,1431.0,1500
32.800000000000274,550,151,90,704,1499.1,1500,1430.0,1500
32.85000000000027,551,151,90,736,1499.1,1500,1430.0,1500
32.90000000000027,552,152,91,736,1499.2,1500,1429.0,1500
32.950000000000266,553,152,91,759,1499.2,1500,1429.0,1500
33.00000000000026,554,153,92,875,1499.3,1500,1428.0,1500
33.05000000000026,555,153,92,850,1499.3,1500,1428.0,1500
33.10000000000026,556,153,93,910,1499.3,1500,1427.0,1500
33.150000000000254,557,154,93,962,1499.4,1500,1427.0,1500
33.20000000000025,558,154,92,1053,1499.4,1500,1428.0,1500
33.25000000000025,559,154,92,1064,1499.4,1500,1428.0,1500
33.300000000000246,560,153,91,1053,1499.3,1500,1429.0,1500
33.35000000000024,561,152,91,1131,1499.2,1500,1429.0,1500
33.40000000000024,562,152,91,1189,1499.2,1500,1429.0,1500
33.45000000000024,563,152,91,1333,1499.2,1500,1429.0,1500
33.500000000000234,564,151,91,1333,1499.1,1500,1429.0,1500
33.55000000000023,565,151,91,1333,1499.1,1500,1429.0,1500
33.60000000000023,566,151,91,1452,1499.1,1500,1429.0,1500
33.650000000000226,567,151,91,1518,1499.1,1500,1429.0,1500
33.70000000000022,568,150,92,1564,1499.0,1500,1428.0,1500
33.75000000000022,569,149,93,1598,1498.9,1500,1427.0,1500
33.80000000000022,570,150,93,1750,1499.0,1500,1427.0,1500
33.850000000000215,571,148,94,1850,1498.8,1500,1426.0,1500
33.90000000000021,572,148,95,2052,1498.8,1500,1425.0,1500
33.95000000000021,573,146,95,2200,1498.6,1500,1425.0,1500
34.000000000000206,574,147,95,2436,1498.7,1500,1425.0,1500
34.0500000000002,575,146,94,2580,1498.6,1500,1426.0,1500
34.1000000000002,576,146,93,2700,1498.6,1500,1427.0,1500
34.1500000000002,577,147,92,2898,1498.7,1500,1428.0,1500
34.200000000000195,578,149,91,3168,1498.9,1500,1429.0,1500
34.25000000000019,579,151,90,3400,1499.1,1500,1430.0,1500
34.30000000000019,580,153,88,3570,1499.3,1500,1432.0,1500
34.350000000000186,581,154,87,3888,1499.4,1500,1433.0,1500
34.40000000000018,582,156,86,4256,1499.6,1500,1434.0,1500
34.45000000000018,583,158,86,4524,1499.8,1500,1434.0,1500
34.50000000000018,584,158,84,4941,1499.8,1500,1436.0,1500
34.550000000000175,585,160,84,5208,1500.0,1500,1436.0,1500
34.60000000000017,586,160,82,5655,1500.0,1500,1438.0,1500
34.65000000000017,587,161,80,6164,1500.1,1500,1440.0,1500
34.700000000000166,588,161,79,6720,1500.1,1500,1441.0,1500
34.75000000000016,589,161,78,7400,1500.1,1500,1442.0,1500
34.80000000000016,590,160,76,8085,1500.0,1500,1444.0,1500
34.85000000000016,591,162,75,8800,1500.2,1500,1445.0,1500
34.900000000000155,592,159,72,9628,1499.9,1500,1448.0,1500
34.95000000000015,593,158,71,10115,1499.8,1500,1449.0,1500
35.00000000000015,594,157,71,11592,1499.7,1500,1449.0,1500
35.050000000000146,595,155,69,12576,1499.5,1500,1451.0,1500
35.10000000000014,596,153,67,14140,1499.3,1500,1453.0,1500
35.15000000000014,597,152,66,15330,1499.2,1500,1454.0,1500
35.20000000000014,598,151,65,16632,1499.1,1500,1455.0,1500
35.250000000000135,599,149,63,18256,1498.9,1500,1457.0,1500
35.30000000000013,600,150,58,19656,1499.0,1500,1462.0,1500
35.35000000000013,601,148,57,19950,1498.8,1500,1463.0,1500
35.40000000000013,602,148,55,20313,1498.8,1500,1465.0,1500
35.450000000000124,603,148,54,20520,1498.8,1500,1466.0,1500
35.50000000000012,604,148,53,20776,1498.8,1500,1467.0,1500
35.55000000000012,605,148,54,22563,1498.8,1500,1466.0,1500
35.600000000000115,606,150,56,23856,1499.0,1500,1464.0,1500
35.65000000000011,607,151,59,27132,1499.1,1500,1461.0,1500
35.70000000000011,608,152,62,29250,1499.2,1500,1458.0,1500
35.75000000000011,609,153,66,32472,1499.3,1500,1454.0,1500
35.800000000000104,610,156,68,33976,1499.6,1500,1452.0,1500
35.8500000000001,611,154,71,37037,1499.4,1500,1449.0,1500
35.9000000000001,612,153,73,38690,1499.3,1500,1447.0,1500
35.950000000000095,613,156,76,41192,1499.6,1500,1444.0,1500
36.00000000000009,614,155,77,42812,1499.5,1500,1443.0,1500
36.05000000000009,615,156,77,43400,1499.6,1500,1443.0,1500
36.10000000000009,616,154,78,44148,1499.4,1500,1442.0,1500
36.150000000000084,617,153,79,46269,1499.3,1500,1441.0,1500
36.20000000000008,618,156,80,46851,1499.6,1500,1440.0,1500
36.25000000000008,619,156,81,47596,1499.6,1500,1439.0,1500
36.300000000000075,620,157,82,48216,1499.7,1500,1438.0,1500
36.35000000000007,621,155,83,50434,1499.5,1500,1437.0,1500
36.40000000000007,622,160,59,34748,1500.0,1500,1461.0,1500
36.45000000000007,623,155,85,51170,1499.5,1500,1435.0,1500
36.500000000000064,624,153,86,53111,1499.3,1500,1434.0,1500
36.55000000000006,625,155,87,52374,1499.5,1500,1433.0,1500
36.60000000000006,626,154,88,52272,1499.4,1500,1432.0,1500
36.650000000000055,627,152,89,54112,1499.2,1500,1431.0,1500
36.70000000000005,628,154,89,52688,1499.4,1500,1431.0,1500
36.75000000000005,629,153,64,38442,1499.3,1500,1456.0,1500
36.80000000000005,630,155,88,52038,1499.5,1500,1432.0,1500
36.850000000000044,631,152,87,52500,1499.2,1500,1433.0,1500
36.90000000000004,632,153,89,53578,1499.3,1500,1431.0,1500
36.95000000000004,633,154,89,53400,1499.4,1500,1431.0,1500
37.000000000000036,634,155,88,51920,1499.5,1500,1432.0,1500
37.05000000000003,635,157,87,50808,1499.7,1500,1433.0,1500
37.10000000000003,636,152,85,50103,1499.2,1500,1435.0,1500
37.15000000000003,637,156,85,48960,1499.6,1500,1435.0,1500
37.200000000000024,638,152,84,49517,1499.2,1500,1436.0,1500
37.25000000000002,639,153,83,48430,1499.3,1500,1437.0,1500
37.30000000000002,640,151,82,47888,1499.1,1500,1438.0,1500
37.350000000000016,641,153,81,46455,1499.3,1500,1439.0,1500
37.40000000000001,642,153,81,45846,1499.3,1500,1439.0,1500
37.45000000000001,643,152,81,46008,1499.2,1500,1439.0,1500
37.50000000000001,644,153,81,46618,1499.3,1500,1439.0,1500
37.550000000000004,645,154,82,47355,1499.4,1500,1438.0,1500
37.6,646,157,83,47428,1499.7,1500,1437.0,1500
37.65,647,156,84,48384,1499.6,1500,1436.0,1500
37.699999999999996,648,156,60,34440,1499.6,1500,1460.0,1500
37.74999999999999,649,154,84,49686,1499.4,1500,1436.0,1500
37.79999999999999,650,155,84,49056,1499.5,1500,1436.0,1500
37.84999999999999,651,149,82,49036,1498.9,1500,1438.0,1500
37.899999999999984,652,151,82,48216,1499.1,1500,1438.0,1500
37.94999999999998,653,149,82,49335,1498.9,1500,1438.0,1500
37.99999999999998,654,149,83,49634,1498.9,1500,1437.0,1500
38.049999999999976,655,151,83,50298,1499.1,1500,1437.0,1500
38.09999999999997,656,151,82,49528,1499.1,1500,1438.0,1500
38.14999999999997,657,151,80,48622,1499.1,1500,1440.0,1500
38.19999999999997,658,152,80,49105,1499.2,1500,1440.0,1500
38.249999999999964,659,153,79,48654,1499.3,1500,1441.0,1500
38.29999999999996,660,153,75,46357,1499.3,1500,1445.0,1500
38.34999999999996,661,153,69,40449,1499.3,1500,1451.0,1500
38.399999999999956,662,156,60,31200,1499.6,1500,1460.0,1500
38.44999999999995,663,159,56,27798,1499.9,1500,1464.0,1500
38.49999999999995,664,167,51,22248,1500.7,1500,1469.0,1500
38.54999999999995,665,168,48,18915,1500.8,1500,1470,1500
38.599999999999945,666,172,43,14616,1501.2,1500,1470,1500
38.64999999999994,667,172,40,12474,1501.2,1500,1470,1500
38.69999999999994,668,172,38,10336,1501.2,1500,1470,1500
38.749999999999936,669,168,36,8906,1500.8,1500,1470,1500
38.79999999999993,670,172,35,8520,1501.2,1500,1470,1500
38.84999999999993,671,170,35,7881,1501.0,1500,1470,1500
38.89999999999993,672,168,34,7176,1500.8,1500,1470,1500
38.949999999999925,673,169,35,7350,1500.9,1500,1470,1500
38.99999999999992,674,169,35,7526,1500.9,1500,1470,1500
39.04999999999992,675,170,36,7920,1501.0,1500,1470,1500
39.099999999999916,676,170,37,8658,1501.0,1500,1470,1500
39.14999999999991,677,169,37,9028,1500.9,1500,1470,1500
39.19999999999991,678,169,37,9975,1500.9,1500,1470,1500
39.24999999999991,679,167,39,11466,1500.7,1500,1470,1500
39.299999999999905,680,164,41,13284,1500.4,1500,1470,1500
39.3499999999999,681,160,44,16910,1500.0,1500,1470,1500
39.3999999999999,682,159,47,19950,1499.9,1500,1470,1500
39.449999999999896,683,159,52,24856,1499.9,1500,1468.0,1500
39.49999999999989,684,155,55,28710,1499.5,1500,1465.0,1500
39.54999999999989,685,153,63,36830,1499.3,1500,1457.0,1500
39.59999999999989,686,150,69,41538,1499.0,1500,1451.0,1500
39.649999999999885,687,154,74,45584,1499.4,1500,1446.0,1500
39.69999999999988,688,155,73,45570,1499.5,1500,1447.0,1500
39.74999999999988,689,152,70,42700,1499.2,1500,1450.0,1500
39.799999999999876,690,157,66,37884,1499.7,1500,1454.0,1500
39.84999999999987,691,161,61,32472,1500.1,1500,1459.0,1500
39.89999999999987,692,159,58,28768,1499.9,1500,1462.0,1500
39.94999999999987,693,159,54,24525,1499.9,1500,1466.0,1500
39.999999999999865,694,162,52,21320,1500.2,1500,1468.0,1500
40.04999999999986,695,164,50,19089,1500.4,1500,1470.0,1500
40.09999999999986,696,167,47,16150,1500.7,1500,1470,1500
40.14999999999986,697,171,45,14220,1501.1,1500,1470,1500
40.199999999999854,698,175,42,11928,1501.5,1500,1470,1500
40.24999999999985,699,176,40,10640,1501.6,1500,1470,1500
40.29999999999985,700,180,38,9471,1502.0,1500,1470,1500
40.349999999999845,701,182,37,8732,1502.2,1500,1470,1500
40.39999999999984,702,183,36,8208,1502.3,1500,1470,1500
40.44999999999984,703,184,37,7952,1502.4,1500,1470,1500
40.49999999999984,704,182,38,7521,1502.2,1500,1470,1500
40.549999999999834,705,183,38,7616,1502.3,1500,1470,1500
40.59999999999983,706,181,37,8400,1502.1,1500,1470,1500
40.64999999999983,707,182,39,9516,1502.2,1500,1470,1500
40.699999999999825,708,181,42,11390,1502.1,1500,1470,1500
40.74999999999982,709,179,45,13230,1501.9,1500,1470,1500
40.79999999999982,710,179,50,17069,1501.9,1500,1470.0,1500
40.84999999999982,711,177,54,20165,1501.7,1500,1466.0,1500
40.899999999999814,712,177,59,24157,1501.7,1500,1461.0,1500
40.94999999999981,713,176,67,31995,1501.6,1500,1453.0,1500
40.99999999999981,714,174,73,38808,1501.4,1500,1447.0,1500
41.049999999999805,715,170,81,46818,1501.0,1500,1439.0,1500
41.0999999999998,716,168,82,49170,1500.8,1500,1438.0,1500
41.1499999999998,717,169,79,46428,1500.9,1500,1441.0,1500
41.1999999999998,718,172,76,42560,1501.2,1500,1444.0,1500
41.249999999999794,719,173,71,35358,1501.3,1500,1449.0,1500
41.29999999999979,720,171,68,31416,1501.1,1500,1452.0,1500
41.34999999999979,721,166,65,26260,1500.6,1500,1455.0,1500
41.399999999999785,722,163,64,23865,1500.3,1500,1456.0,1500
41.44999999999978,723,159,66,19071,1499.9,1500,1454.0,1500
41.49999999999978,724,161,67,17490,1500.1,1500,1453.0,1500
41.54999999999978,725,160,66,14256,1500.0,1500,1454.0,1500
41.599999999999774,726,160,66,12596,1500.0,1500,1454.0,1500
41.64999999999977,727,160,66,10614,1500.0,1500,1454.0,1500
41.69999999999977,728,160,65,9477,1500.0,1500,1455.0,1500
41.749999999999766,729,159,65,7665,1499.9,1500,1455.0,1500
41.79999999999976,730,159,66,6762,1499.9,1500,1454.0,1500
41.84999999999976,731,158,67,5915,1499.8,1500,1453.0,1500
41.89999999999976,732,157,70,4980,1499.7,1500,1450.0,1500
41.949999999999754,733,157,72,4424,1499.7,1500,1448.0,1500
41.99999999999975,734,157,74,3922,1499.7,1500,1446.0,1500
42.04999999999975,735,156,76,3500,1499.6,1500,1444.0,1500
42.099999999999746,736,156,78,3102,1499.6,1500,1442.0,1500
42.14999999999974,737,156,80,2925,1499.6,1500,1440.0,1500
42.19999999999974,738,157,83,2728,1499.7,1500,1437.0,1500
42.24999999999974,739,156,84,2623,1499.6,1500,1436.0,1500
42.299999999999734,740,156,85,2419,1499.6,1500,1435.0,1500
42.34999999999973,741,156,86,2320,1499.6,1500,1434.0,1500
42.39999999999973,742,156,87,2360,1499.6,1500,1433.0,1500
42.449999999999726,743,156,87,2320,1499.6,1500,1433.0,1500
42.49999999999972,744,155,87,2280,1499.5,1500,1433.0,1500
42.54999999999972,745,155,87,2280,1499.5,1500,1433.0,1500
42.59999999999972,746,154,86,2419,1499.4,1500,1434.0,1500
42.649999999999714,747,154,86,2580,1499.4,1500,1434.0,1500
42.69999999999971,748,154,87,2790,1499.4,1500,1433.0,1500
42.74999999999971,749,152,89,2772,1499.2,1500,1431.0,1500
42.799999999999706,750,153,91,2970,1499.3,1500,1429.0,1500
42.8499999999997,751,153,96,3243,1499.3,1500,1424.0,1500
42.8999999999997,752,143,113,666,1498.3,1500,1407.0,1500
42.9499999999997,753,144,110,494,1498.4,1500,1410.0,1500
42.999999999999694,754,138,101,528,1497.8,1500,1419.0,1500
43.04999999999969,755,154,105,45,1499.4,1500,1415.0,1500
43.09999999999969,756,139,113,110,1497.9,1500,1407.0,1500
43.149999999999686,757,137,129,124,1497.7,1500,1391.0,1500
43.19999999999968,758,152,136,186,1499.2,1500,1384.0,1500
43.24999999999968,759,149,139,660,1498.9,1500,1381.0,1500
43.29999999999968,760,161,137,156,1500.1,1500,1383.0,1500
43.349999999999675,761,133,145,18,1497.3,1500,1375.0,1500
43.39999999999967,761,,,,1500.0,1500,1420.0,1500
43.44999999999967,761,,,,1500.0,1500,1420.0,1500
43.499999999999666,761,,,,1500.0,1500,1420.0,1500
43.54999999999966,761,,,,1500.0,1500,1420.0,1500
43.59999999999966,761,,,,1500.0,1500,1420.0,1500
43.64999999999966,761,,,,1500.0,1500,1420.0,1500
43.699999999999655,761,,,,1500.0,1500,1420.0,1500
43.74999999999965,762,109,79,10,1494.9,1500,1441.0,1500
43.79999999999965,763,105,86,65,1494.5,1500,1434.0,1500
43.849999999999646,764,99,100,88,1493.9,1500,1420.0,1500
43.89999999999964,765,105,84,612,1494.5,1500,1436.0,1500
43.94999999999964,766,103,94,476,1494.3,1500,1426.0,1500
43.99999999999964,767,105,82,744,1494.5,1500,1438.0,1500
44.049999999999635,768,101,86,884,1494.1,1500,1434.0,1500
44.09999999999963,769,101,71,1840,1494.1,1500,1449.0,1500
44.14999999999963,770,98,81,2660,1493.8,1500,1439.0,1500
44.199999999999626,771,98,79,2992,1493.8,1500,1441.0,1500
44.24999999999962,772,100,79,3600,1494.0,1500,1441.0,1500
44.29999999999962,773,103,78,3780,1494.3,1500,1442.0,1500
44.34999999999962,774,106,77,4071,1494.6,1500,1443.0,1500
44.399999999999615,775,109,79,3904,1494.9,1500,1441.0,1500
44.44999999999961,776,118,82,4366,1495.8,1500,1438.0,1500
44.49999999999961,777,127,89,4774,1496.7,1500,1431.0,1500
44.549999999999606,778,140,107,3528,1498.0,1500,1413.0,1500
44.5999999999996,779,147,114,2924,1498.7,1500,1406.0,1500
44.6499999999996,780,154,127,3168,1499.4,1500,1393.0,1500
44.6999999999996,781,155,121,2210,1499.5,1500,1399.0,1500
44.749999999999595,782,151,118,1408,1499.1,1500,1402.0,1500
44.79999999999959,783,150,114,1449,1499.0,1500,1406.0,1500
44.84999999999959,784,138,113,900,1497.8,1500,1407.0,1500
44.89999999999959,785,151,117,1885,1499.1,1500,1403.0,1500
44.949999999999584,786,152,118,2613,1499.2,1500,1402.0,1500
44.99999999999958,787,153,118,2838,1499.3,1500,1402.0,1500
45.04999999999958,788,155,120,3484,1499.5,1500,1400.0,1500
45.099999999999575,789,156,119,3484,1499.6,1500,1401.0,1500
45.14999999999957,790,157,117,3510,1499.7,1500,1403.0,1500
45.19999999999957,791,157,115,3944,1499.7,1500,1405.0,1500
45.24999999999957,792,154,114,4028,1499.4,1500,1406.0,1500
45.299999999999564,793,153,115,4389,1499.3,1500,1405.0,1500
45.34999999999956,794,154,116,3848,1499.4,1500,1404.0,1500
45.39999999999956,795,154,115,4104,1499.4,1500,1405.0,1500
45.449999999999555,796,155,116,4056,1499.5,1500,1404.0,1500
45.49999999999955,797,154,112,3116,1499.4,1500,1408.0,1500
45.54999999999955,798,156,112,3478,1499.6,1500,1408.0,1500
45.59999999999955,799,153,114,3696,1499.3,1500,1406.0,1500
45.649999999999544,800,155,114,3696,1499.5,1500,1406.0,1500
45.69999999999954,801,152,115,3750,1499.2,1500,1405.0,1500
45.74999999999954,802,155,115,4028,1499.5,1500,1405.0,1500
45.799999999999535,803,153,118,3952,1499.3,1500,1402.0,1500
45.84999999999953,804,157,111,2720,1499.7,1500,1409.0,1500
45.89999999999953,805,155,116,3696,1499.5,1500,1404.0,1500
45.94999999999953,806,154,116,3750,1499.4,1500,1404.0,1500
45.999999999999524,807,155,111,3465,1499.5,1500,1409.0,1500
46.04999999999952,808,158,111,2520,1499.8,1500,1409.0,1500
46.09999999999952,809,154,114,3542,1499.4,1500,1406.0,1500
46.149999999999515,810,153,119,3876,1499.3,1500,1401.0,1500
46.19999999999951,811,150,122,3774,1499.0,1500,1398.0,1500
46.24999999999951,812,145,124,3650,1498.5,1500,1396.0,1500
46.29999999999951,813,140,128,3381,1498.0,1500,1392.0,1500
46.349999999999504,814,133,137,2928,1497.3,1500,1383.0,1500
46.3999999999995,815,130,143,2784,1497.0,1500,1377.0,1500
46.4499999999995,816,126,146,1452,1496.6,1500,1374.0,1500
46.499999999999496,817,129,146,1421,1496.9,1500,1374.0,1500
46.54999999999949,818,134,145,2074,1497.4,1500,1375.0,1500
46.59999999999949,819,133,145,2006,1497.3,1500,1375.0,1500
46.64999999999949,820,134,145,2160,1497.4,1500,1375.0,1500
46.699999999999484,821,134,145,2135,1497.4,1500,1375.0,1500
46.74999999999948,822,134,146,2046,1497.4,1500,1374.0,1500
46.79999999999948,823,134,147,1984,1497.4,1500,1373.0,1500
46.849999999999476,824,134,147,1984,1497.4,1500,1373.0,1500
46.89999999999947,825,134,147,2016,1497.4,1500,1373.0,1500
46.94999999999947,826,134,147,1953,1497.4,1500,1373.0,1500
46.99999999999947,827,134,147,1953,1497.4,1500,1373.0,1500
47.049999999999464,828,134,148,1890,1497.4,1500,1372.0,1500
47.09999999999946,829,134,148,1920,1497.4,1500,1372.0,1500
47.14999999999946,830,134,148,1984,1497.4,1500,1372.0,1500
47.199999999999456,831,133,148,1953,1497.3,1500,1372.0,1500
47.24999999999945,832,134,148,1984,1497.4,1500,1372.0,1500
47.29999999999945,833,134,148,1984,1497.4,1500,1372.0,1500
47.34999999999945,834,133,149,1950,1497.3,1500,1371.0,1500
47.399999999999444,835,134,149,1920,1497.4,1500,1371.0,1500
47.44999999999944,836,133,149,1920,1497.3,1500,1371.0,1500
47.49999999999944,837,133,149,1950,1497.3,1500,1371.0,1500
47.549999999999436,838,133,149,1890,1497.3,1500,1371.0,1500
47.59999999999943,839,133,149,1885,1497.3,1500,1371.0,1500
47.64999999999943,840,133,149,1890,1497.3,1500,1371.0,1500
47.69999999999943,841,133,149,1920,1497.3,1500,1371.0,1500
47.749999999999424,842,134,149,1856,1497.4,1500,1371.0,1500
47.79999999999942,843,133,149,1856,1497.3,1500,1371.0,1500
47.84999999999942,844,133,149,1856,1497.3,1500,1371.0,1500
47.899999999999416,845,133,149,1856,1497.3,1500,1371.0,1500
47.94999999999941,846,133,150,1820,1497.3,1500,1370.0,1500
47.99999999999941,847,133,150,1792,1497.3,1500,1370.0,1500
48.04999999999941,848,133,150,1820,1497.3,1500,1370.0,1500
48.099999999999405,849,133,151,1820,1497.3,1500,1370,1500
