time,frame,x,y,size_inv,roll,pitch,thrust,yaw
0,1,171,99,0.000273972602739726,1501.1,1480,1421.0,1500
0.05,2,170,99,0.0002834467120181406,1501.0,1480,1421.0,1500
0.1,3,170,99,0.0002723311546840959,1501.0,1480,1421.0,1500
0.15000000000000002,4,169,99,0.00026860059092130003,1500.9,1480,1421.0,1500
0.2,5,169,100,0.00026860059092130003,1500.9,1480,1420.0,1500
0.25,6,169,102,0.000273972602739726,1500.9,1480,1418.0,1500
0.3,7,169,105,0.0002777777777777778,1500.9,1480,1415.0,1500
0.35,8,168,111,0.0002777777777777778,1500.8,1480,1409.0,1500
0.39999999999999997,9,169,116,0.0002795638803466592,1500.9,1480,1404.0,1500
0.44999999999999996,10,169,120,0.0002795638803466592,1500.9,1480,1400.0,1500
0.49999999999999994,11,169,120,0.0002795638803466592,1500.9,1480,1400.0,1500
0.5499999999999999,12,169,118,0.000273972602739726,1500.9,1480,1402.0,1500
0.6,13,168,114,0.0002834467120181406,1500.8,1480,1406.0,1500
0.65,14,169,110,0.0002834467120181406,1500.9,1480,1410.0,1500
0.7000000000000001,15,169,103,0.0002777777777777778,1500.9,1480,1417.0,1500
0.7500000000000001,16,169,98,0.0002777777777777778,1500.9,1480,1422.0,1500
0.8000000000000002,17,169,91,0.0002834467120181406,1500.9,1480,1429.0,1500
0.8500000000000002,18,169,88,0.0002834467120181406,1500.9,1480,1432.0,1500
0.9000000000000002,19,170,86,0.00028169014084507044,1501.0,1480,1434.0,1500
0.9500000000000003,20,170,87,0.00028169014084507044,1501.0,1480,1433.0,1500
1.0000000000000002,21,170,91,0.00028571428571428574,1501.0,1480,1429.0,1500
1.0500000000000003,22,171,94,0.00028571428571428574,1501.1,1480,1426.0,1500
1.1000000000000003,23,172,97,0.00028571428571428574,1501.2,1480,1423.0,1500
1.1500000000000004,24,174,100,0.0002957704821058858,1501.4,1480,1420.0,1500
1.2000000000000004,25,175,100,0.0003109452736318408,1501.5,1480,1420.0,1500
1.2500000000000004,26,176,101,0.00031289111389236547,1501.6,1480,1419.0,1500
1.3000000000000005,27,177,101,0.00031756113051762465,1501.7,1480,1419.0,1500
1.3500000000000005,28,178,101,0.00031756113051762465,1501.8,1480,1419.0,1500
1.4000000000000006,29,178,101,0.0003244646333549643,1501.8,1480,1419.0,1500
1.4500000000000006,30,176,102,0.0003223726627981947,1501.6,1480,1418.0,1500
1.5000000000000007,31,175,102,0.0003244646333549643,1501.5,1480,1418.0,1500
1.5500000000000007,32,172,103,0.00033444816053511704,1501.2,1480,1417.0,1500
1.6000000000000008,33,170,104,0.0003223726627981947,1501.0,1480,1416.0,1500
1.6500000000000008,34,168,105,0.0003223726627981947,1500.8,1480,1415.0,1500
1.7000000000000008,35,165,105,0.00032938076416337287,1500.5,1480,1415.0,1500
1.7500000000000009,36,163,106,0.0003418803418803419,1500.3,1480,1414.0,1500
1.800000000000001,37,161,106,0.0003418803418803419,1500.1,1480,1414.0,1500
1.850000000000001,38,159,106,0.0003551136363636364,1499.9,1480,1414.0,1500
1.900000000000001,39,157,108,0.0003551136363636364,1499.7,1480,1412.0,1500
1.950000000000001,40,156,110,0.00034722222222222224,1499.6,1480,1410.0,1500
2.000000000000001,41,156,105,0.00046685340802987864,1499.6,1480,1415.0,1500
2.0500000000000007,42,156,112,0.00034722222222222224,1499.6,1480,1408.0,1500
2.1000000000000005,43,157,113,0.0003551136363636364,1499.7,1480,1407.0,1500
2.1500000000000004,44,158,113,0.0003551136363636364,1499.8,1480,1407.0,1500
2.2,45,160,113,0.00036075036075036075,1500.0,1480,1407.0,1500
2.25,46,161,113,0.0003633720930232558,1500.1,1480,1407.0,1500
2.3,47,162,112,0.0003551136363636364,1500.2,1480,1408.0,1500
2.3499999999999996,48,164,111,0.00036075036075036075,1500.4,1480,1409.0,1500
2.3999999999999995,49,165,111,0.00036075036075036075,1500.5,1480,1409.0,1500
2.4499999999999993,50,166,110,0.0003551136363636364,1500.6,1480,1410.0,1500
2.499999999999999,51,167,109,0.0003633720930232558,1500.7,1480,1411.0,1500
2.549999999999999,52,167,106,0.0003633720930232558,1500.7,1480,1414.0,1500
2.5999999999999988,53,167,102,0.0003633720930232558,1500.7,1480,1418.0,1500
2.6499999999999986,54,167,94,0.00036075036075036075,1500.7,1480,1426.0,1500
2.6999999999999984,55,167,87,0.0003551136363636364,1500.7,1480,1433.0,1500
2.7499999999999982,56,166,75,0.0003551136363636364,1500.6,1480,1445.0,1500
2.799999999999998,57,167,66,0.0003418803418803419,1500.7,1480,1454.0,1500
2.849999999999998,58,166,51,0.00038109756097560977,1500.6,1480,1469.0,1500
2.8999999999999977,59,165,41,0.0003720238095238095,1500.5,1480,1470,1500
2.9499999999999975,60,165,31,0.000390625,1500.5,1480,1470,1500
2.9999999999999973,61,165,18,0.0004222972972972973,1500.5,1480,1470,1500
3.049999999999997,62,165,13,0.0005668934240362812,1500.5,1480.668934240363,1470,1500
3.099999999999997,63,166,7,0.0010582010582010583,1500.6,1485.5820105820105,1470,1500
3.149999999999997,64,165,2,0.00273224043715847,1500.5,1502.3224043715848,1470,1500
3.1999999999999966,64,,,,1500.0,1500.0,1420.0,1500
3.2499999999999964,64,,,,1500.0,1500.0,1420.0,1500
3.2999999999999963,64,,,,1500.0,1500.0,1420.0,1500
3.349999999999996,64,,,,1500.0,1500.0,1420.0,1500
3.399999999999996,64,,,,1500.0,1500.0,1420.0,1500
3.4499999999999957,64,,,,1500.0,1500.0,1420.0,1500
3.4999999999999956,64,,,,1500.0,1500.0,1420.0,1500
3.5499999999999954,64,,,,1500.0,1500.0,1420.0,1500
3.599999999999995,64,,,,1500.0,1500.0,1420.0,1500
3.649999999999995,64,,,,1500.0,1500.0,1420.0,1500
3.699999999999995,64,,,,1500.0,1500.0,1420.0,1500
3.7499999999999947,65,164,1,0.005649717514124294,1500.4,1520,1470,1500
3.7999999999999945,66,164,4,0.0018832391713747645,1500.4,1493.8323917137477,1470,1500
3.8499999999999943,67,166,10,0.00078064012490242,1500.6,1482.8064012490242,1470,1500
3.899999999999994,68,166,14,0.0005561735261401557,1500.6,1480.5617352614015,1470,1500
3.949999999999994,69,167,18,0.00043591979075850045,1500.7,1480,1470,1500
3.999999999999994,70,167,22,0.00044802867383512545,1500.7,1480,1470,1500
4.049999999999994,71,168,25,0.00041118421052631577,1500.8,1480,1470,1500
4.099999999999993,72,168,27,0.00042444821731748726,1500.8,1480,1470,1500
4.149999999999993,73,168,30,0.00042444821731748726,1500.8,1480,1470,1500
4.199999999999993,74,169,31,0.0004314063848144953,1500.9,1480,1470,1500
4.249999999999993,75,169,32,0.00041356492969396195,1500.9,1480,1470,1500
4.299999999999993,76,169,32,0.000434593654932638,1500.9,1480,1470,1500
4.3499999999999925,77,170,31,0.0004314063848144953,1501.0,1480,1470,1500
4.399999999999992,78,170,32,0.0004203446826397646,1501.0,1480,1470,1500
4.449999999999992,79,170,32,0.0004203446826397646,1501.0,1480,1470,1500
4.499999999999992,80,170,32,0.0004314063848144953,1501.0,1480,1470,1500
4.549999999999992,81,169,32,0.0004385964912280702,1500.9,1480,1470,1500
4.599999999999992,82,170,32,0.0004314063848144953,1501.0,1480,1470,1500
4.6499999999999915,83,169,32,0.00044603033006244426,1500.9,1480,1470,1500
4.699999999999991,84,169,32,0.0004385964912280702,1500.9,1480,1470,1500
4.749999999999991,85,169,32,0.0004385964912280702,1500.9,1480,1470,1500
4.799999999999991,86,169,32,0.0004385964912280702,1500.9,1480,1470,1500
4.849999999999991,87,169,32,0.00044603033006244426,1500.9,1480,1470,1500
4.899999999999991,88,169,32,0.0004314063848144953,1500.9,1480,1470,1500
4.94999999999999,89,168,32,0.0004385964912280702,1500.8,1480,1470,1500
4.99999999999999,90,168,32,0.0004385964912280702,1500.8,1480,1470,1500
5.04999999999999,91,168,32,0.0004385964912280702,1500.8,1480,1470,1500
5.09999999999999,92,168,33,0.00042735042735042735,1500.8,1480,1470,1500
5.14999999999999,93,168,33,0.00042735042735042735,1500.8,1480,1470,1500
5.1999999999999895,94,167,33,0.0004385964912280702,1500.7,1480,1470,1500
5.249999999999989,95,167,34,0.00042735042735042735,1500.7,1480,1470,1500
5.299999999999989,96,168,34,0.0004203446826397646,1500.8,1480,1470,1500
5.349999999999989,97,167,34,0.000434593654932638,1500.7,1480,1470,1500
5.399999999999989,98,168,34,0.00042444821731748726,1500.8,1480,1470,1500
5.449999999999989,99,168,35,0.0004203446826397646,1500.8,1480,1470,1500
5.4999999999999885,100,168,34,0.0004314063848144953,1500.8,1480,1470,1500
5.549999999999988,101,168,34,0.0004203446826397646,1500.8,1480,1470,1500
5.599999999999988,102,168,34,0.00041356492969396195,1500.8,1480,1470,1500
5.649999999999988,103,167,34,0.00042735042735042735,1500.7,1480,1470,1500
5.699999999999988,104,168,34,0.00042735042735042735,1500.8,1480,1470,1500
5.749999999999988,105,168,34,0.000434593654932638,1500.8,1480,1470,1500
5.799999999999987,106,167,34,0.00042735042735042735,1500.7,1480,1470,1500
5.849999999999987,107,167,34,0.00042735042735042735,1500.7,1480,1470,1500
5.899999999999987,108,168,34,0.0004203446826397646,1500.8,1480,1470,1500
5.949999999999987,109,167,34,0.0004166666666666667,1500.7,1480,1470,1500
5.999999999999987,110,167,34,0.000423728813559322,1500.7,1480,1470,1500
6.0499999999999865,111,167,34,0.0004166666666666667,1500.7,1480,1470,1500
6.099999999999986,112,167,34,0.0004166666666666667,1500.7,1480,1470,1500
6.149999999999986,113,167,34,0.000423728813559322,1500.7,1480,1470,1500
6.199999999999986,114,167,35,0.000434593654932638,1500.7,1480,1470,1500
6.249999999999986,115,167,35,0.000434593654932638,1500.7,1480,1470,1500
6.299999999999986,116,167,35,0.000434593654932638,1500.7,1480,1470,1500
6.349999999999985,117,166,35,0.00042735042735042735,1500.6,1480,1470,1500
6.399999999999985,118,167,35,0.000434593654932638,1500.7,1480,1470,1500
6.449999999999985,119,166,35,0.00042735042735042735,1500.6,1480,1470,1500
6.499999999999985,120,167,35,0.00042735042735042735,1500.7,1480,1470,1500
6.549999999999985,121,167,35,0.00042735042735042735,1500.7,1480,1470,1500
6.5999999999999845,122,167,35,0.000434593654932638,1500.7,1480,1470,1500
6.649999999999984,123,167,35,0.00042735042735042735,1500.7,1480,1470,1500
6.699999999999984,124,167,34,0.00042735042735042735,1500.7,1480,1470,1500
6.749999999999984,125,167,33,0.00044603033006244426,1500.7,1480,1470,1500
6.799999999999984,126,167,32,0.00044603033006244426,1500.7,1480,1470,1500
6.849999999999984,127,167,31,0.00044603033006244426,1500.7,1480,1470,1500
6.8999999999999835,128,167,30,0.00044603033006244426,1500.7,1480,1470,1500
6.949999999999983,129,167,30,0.00044603033006244426,1500.7,1480,1470,1500
6.999999999999983,130,167,31,0.000434593654932638,1500.7,1480,1470,1500
7.049999999999983,131,167,31,0.000434593654932638,1500.7,1480,1470,1500
7.099999999999983,132,167,31,0.00044603033006244426,1500.7,1480,1470,1500
7.149999999999983,133,167,31,0.000434593654932638,1500.7,1480,1470,1500
7.199999999999982,134,167,30,0.00044603033006244426,1500.7,1480,1470,1500
7.249999999999982,135,166,30,0.00045372050816696913,1500.6,1480,1470,1500
7.299999999999982,136,166,30,0.00044603033006244426,1500.6,1480,1470,1500
7.349999999999982,137,166,30,0.0004385964912280702,1500.6,1480,1470,1500
7.399999999999982,138,167,30,0.00044603033006244426,1500.7,1480,1470,1500
7.4499999999999815,139,166,30,0.00044603033006244426,1500.6,1480,1470,1500
7.499999999999981,140,166,30,0.00044603033006244426,1500.6,1480,1470,1500
7.549999999999981,141,166,30,0.00044603033006244426,1500.6,1480,1470,1500
7.599999999999981,142,166,30,0.00044603033006244426,1500.6,1480,1470,1500
7.649999999999981,143,166,30,0.00044603033006244426,1500.6,1480,1470,1500
7.699999999999981,144,166,30,0.00044603033006244426,1500.6,1480,1470,1500
7.7499999999999805,145,166,31,0.000434593654932638,1500.6,1480,1470,1500
7.79999999999998,146,166,32,0.000434593654932638,1500.6,1480,1470,1500
7.84999999999998,147,165,35,0.0004420866489832007,1500.5,1480,1470,1500
7.89999999999998,148,166,38,0.000434593654932638,1500.6,1480,1470,1500
7.94999999999998,149,166,45,0.0004065040650406504,1500.6,1480,1470,1500
7.99999999999998,150,165,52,0.0004065040650406504,1500.5,1480,1468.0,1500
8.04999999999998,151,165,63,0.0003875968992248062,1500.5,1480,1457.0,1500
8.09999999999998,152,165,73,0.0003812428516965307,1500.5,1480,1447.0,1500
8.14999999999998,153,165,88,0.00036429872495446266,1500.5,1480,1432.0,1500
8.199999999999982,154,165,98,0.00037257824143070045,1500.5,1480,1422.0,1500
8.249999999999982,155,165,114,0.0003875968992248062,1500.5,1480,1406.0,1500
8.299999999999983,156,165,124,0.00041339396444811904,1500.5,1480,1396.0,1500
8.349999999999984,157,165,136,0.0004385964912280702,1500.5,1480,1384.0,1500
8.399999999999984,158,165,143,0.0004420866489832007,1500.5,1480,1377.0,1500
8.449999999999985,159,165,149,0.00048262548262548264,1500.5,1480,1371.0,1500
8.499999999999986,160,166,155,0.0005194805194805195,1500.6,1480.1948051948052,1370,1500
8.549999999999986,161,166,158,0.0005194805194805195,1500.6,1480.1948051948052,1370,1500
8.599999999999987,162,167,160,0.0005347593582887701,1500.7,1480.3475935828876,1370,1500
8.649999999999988,163,167,161,0.0005446623093681918,1500.7,1480.4466230936819,1370,1500
8.699999999999989,164,167,163,0.0005717552887364208,1500.7,1480.7175528873643,1370,1500
8.74999999999999,165,166,164,0.0005611672278338945,1500.6,1480.611672278339,1370,1500
8.79999999999999,166,166,165,0.0005549389567147614,1500.6,1480.5493895671475,1370,1500
8.84999999999999,167,166,166,0.0005509641873278236,1500.6,1480.5096418732783,1370,1500
8.899999999999991,168,165,167,0.0005717552887364208,1500.5,1480.7175528873643,1370,1500
8.949999999999992,169,166,173,0.000980392156862745,1500.6,1484.8039215686274,1370,1500
8.999999999999993,170,165,168,0.0005717552887364208,1500.5,1480.7175528873643,1370,1500
9.049999999999994,171,165,175,0.0010121457489878543,1500.5,1485.1214574898786,1370,1500
9.099999999999994,172,165,168,0.0005896226415094339,1500.5,1480.8962264150944,1370,1500
9.149999999999995,173,166,169,0.0005717552887364208,1500.6,1480.7175528873643,1370,1500
9.199999999999996,174,164,169,0.0006009615384615385,1500.4,1481.0096153846155,1370,1500
9.249999999999996,175,163,171,0.0005827505827505828,1500.3,1480.8275058275058,1370,1500
9.299999999999997,176,164,172,0.0006009615384615385,1500.4,1481.0096153846155,1370,1500
9.349999999999998,177,163,173,0.0006127450980392157,1500.3,1481.127450980392,1370,1500
9.399999999999999,178,164,173,0.0006325110689437065,1500.4,1481.325110689437,1370,1500
9.45,179,164,173,0.0006009615384615385,1500.4,1481.0096153846155,1370,1500
9.5,180,164,173,0.0006127450980392157,1500.4,1481.127450980392,1370,1500
9.55,181,164,174,0.0006325110689437065,1500.4,1481.325110689437,1370,1500
9.600000000000001,182,164,175,0.0006325110689437065,1500.4,1481.325110689437,1370,1500
9.650000000000002,183,164,175,0.0006666666666666666,1500.4,1481.6666666666667,1370,1500
9.700000000000003,184,164,182,0.0010319917440660474,1500.4,1485.3199174406604,1370,1500
9.750000000000004,185,164,176,0.0006325110689437065,1500.4,1481.325110689437,1370,1500
9.800000000000004,186,164,176,0.0006325110689437065,1500.4,1481.325110689437,1370,1500
9.850000000000005,187,164,176,0.000676132521974307,1500.4,1481.761325219743,1370,1500
9.900000000000006,188,164,175,0.000641025641025641,1500.4,1481.4102564102564,1370,1500
9.950000000000006,189,164,175,0.000641025641025641,1500.4,1481.4102564102564,1370,1500
10.000000000000007,190,164,175,0.0006666666666666666,1500.4,1481.6666666666667,1370,1500
10.050000000000008,191,164,175,0.00065359477124183,1500.4,1481.5359477124182,1370,1500
10.100000000000009,192,164,175,0.00065359477124183,1500.4,1481.5359477124182,1370,1500
10.15000000000001,193,163,175,0.0006666666666666666,1500.3,1481.6666666666667,1370,1500
10.20000000000001,194,164,175,0.00065359477124183,1500.4,1481.5359477124182,1370,1500
10.25000000000001,195,163,175,0.0006666666666666666,1500.3,1481.6666666666667,1370,1500
10.300000000000011,196,163,175,0.0006666666666666666,1500.3,1481.6666666666667,1370,1500
10.350000000000012,197,163,172,0.0008333333333333334,1500.3,1483.3333333333333,1370,1500
10.400000000000013,198,164,175,0.00065359477124183,1500.4,1481.5359477124182,1370,1500
10.450000000000014,199,163,182,0.001176470588235294,1500.3,1486.764705882353,1370,1500
10.500000000000014,200,164,175,0.00065359477124183,1500.4,1481.5359477124182,1370,1500
10.550000000000015,201,164,176,0.0006325110689437065,1500.4,1481.325110689437,1370,1500
10.600000000000016,202,164,176,0.0006325110689437065,1500.4,1481.325110689437,1370,1500
10.650000000000016,203,163,176,0.0006451612903225806,1500.3,1481.4516129032259,1370,1500
10.700000000000017,204,164,176,0.0006325110689437065,1500.4,1481.325110689437,1370,1500
10.750000000000018,205,163,176,0.0006666666666666666,1500.3,1481.6666666666667,1370,1500
10.800000000000018,206,164,176,0.00065359477124183,1500.4,1481.5359477124182,1370,1500
10.85000000000002,207,163,176,0.0006203473945409429,1500.3,1481.2034739454093,1370,1500
10.90000000000002,208,164,176,0.00065359477124183,1500.4,1481.5359477124182,1370,1500
10.95000000000002,209,164,176,0.0006325110689437065,1500.4,1481.325110689437,1370,1500
11.000000000000021,210,164,176,0.00065359477124183,1500.4,1481.5359477124182,1370,1500
11.050000000000022,211,164,176,0.00065359477124183,1500.4,1481.5359477124182,1370,1500
11.100000000000023,212,164,176,0.00065359477124183,1500.4,1481.5359477124182,1370,1500
11.150000000000023,213,163,176,0.000641025641025641,1500.3,1481.4102564102564,1370,1500
11.200000000000024,214,163,176,0.00065359477124183,1500.3,1481.5359477124182,1370,1500
11.250000000000025,215,163,176,0.000641025641025641,1500.3,1481.4102564102564,1370,1500
11.300000000000026,216,163,176,0.0006666666666666666,1500.3,1481.6666666666667,1370,1500
11.350000000000026,217,163,176,0.00065359477124183,1500.3,1481.5359477124182,1370,1500
11.400000000000027,218,163,176,0.00065359477124183,1500.3,1481.5359477124182,1370,1500
11.450000000000028,219,163,176,0.0006666666666666666,1500.3,1481.6666666666667,1370,1500
11.500000000000028,220,162,176,0.0006802721088435374,1500.2,1481.8027210884354,1370,1500
11.55000000000003,221,163,176,0.00065359477124183,1500.3,1481.5359477124182,1370,1500
11.60000000000003,222,163,176,0.00065359477124183,1500.3,1481.5359477124182,1370,1500
11.65000000000003,223,163,176,0.00065359477124183,1500.3,1481.5359477124182,1370,1500
11.700000000000031,224,163,176,0.00065359477124183,1500.3,1481.5359477124182,1370,1500
11.750000000000032,225,162,175,0.0006666666666666666,1500.2,1481.6666666666667,1370,1500
11.800000000000033,226,162,175,0.000641025641025641,1500.2,1481.4102564102564,1370,1500
11.850000000000033,227,163,174,0.0006325110689437065,1500.3,1481.325110689437,1370,1500
11.900000000000034,228,162,171,0.0006127450980392157,1500.2,1481.127450980392,1370,1500
11.950000000000035,229,163,167,0.0005896226415094339,1500.3,1480.8962264150944,1370,1500
12.000000000000036,230,163,163,0.0005611672278338945,1500.3,1480.611672278339,1370,1500
12.050000000000036,231,165,155,0.0005012531328320802,1500.5,1480.0125313283208,1370,1500
12.100000000000037,232,165,147,0.00045372050816696913,1500.5,1480,1373.0,1500
12.150000000000038,233,166,133,0.00042735042735042735,1500.6,1480,1387.0,1500
12.200000000000038,234,168,122,0.00038402457757296467,1500.8,1480,1398.0,1500
12.250000000000039,235,170,104,0.0003551136363636364,1501.0,1480,1416.0,1500
12.30000000000004,236,171,93,0.00036913990402362494,1501.1,1480,1427.0,1500
12.35000000000004,237,171,76,0.00039032006245121,1501.1,1480,1444.0,1500
12.400000000000041,238,172,68,0.0003812428516965307,1501.2,1480,1452.0,1500
12.450000000000042,239,172,60,0.0004065040650406504,1501.2,1480,1460.0,1500
12.500000000000043,240,172,56,0.0004166666666666667,1501.2,1480,1464.0,1500
12.550000000000043,241,172,55,0.0004065040650406504,1501.2,1480,1465.0,1500
12.600000000000044,242,172,55,0.0004166666666666667,1501.2,1480,1465.0,1500
12.650000000000045,243,172,57,0.00039984006397441024,1501.2,1480,1463.0,1500
12.700000000000045,244,172,59,0.00039984006397441024,1501.2,1480,1461.0,1500
12.750000000000046,245,171,61,0.0004065040650406504,1501.1,1480,1459.0,1500
12.800000000000047,246,171,62,0.0003968253968253968,1501.1,1480,1458.0,1500
12.850000000000048,247,170,63,0.0003968253968253968,1501.0,1480,1457.0,1500
12.900000000000048,248,170,64,0.0003968253968253968,1501.0,1480,1456.0,1500
12.950000000000049,249,170,64,0.0003968253968253968,1501.0,1480,1456.0,1500
13.00000000000005,250,170,64,0.0004065040650406504,1501.0,1480,1456.0,1500
13.05000000000005,251,170,63,0.0004166666666666667,1501.0,1480,1457.0,1500
13.100000000000051,252,170,63,0.00041339396444811904,1501.0,1480,1457.0,1500
13.150000000000052,253,170,63,0.00041339396444811904,1501.0,1480,1457.0,1500
13.200000000000053,254,170,63,0.00041339396444811904,1501.0,1480,1457.0,1500
13.250000000000053,255,170,63,0.00041339396444811904,1501.0,1480,1457.0,1500
13.300000000000054,256,170,63,0.0004065040650406504,1501.0,1480,1457.0,1500
13.350000000000055,257,170,61,0.0004065040650406504,1501.0,1480,1459.0,1500
13.400000000000055,258,170,56,0.000423728813559322,1501.0,1480,1464.0,1500
13.450000000000056,259,170,53,0.000434593654932638,1501.0,1480,1467.0,1500
13.500000000000057,260,170,47,0.000434593654932638,1501.0,1480,1470,1500
13.550000000000058,261,170,43,0.00044603033006244426,1501.0,1480,1470,1500
13.600000000000058,262,169,39,0.00045372050816696913,1500.9,1480,1470,1500
13.650000000000059,263,168,38,0.00045372050816696913,1500.8,1480,1470,1500
13.70000000000006,264,168,36,0.00045372050816696913,1500.8,1480,1470,1500
13.75000000000006,265,168,36,0.00046598322460391424,1500.8,1480,1470,1500
13.800000000000061,266,167,35,0.00045372050816696913,1500.7,1480,1470,1500
13.850000000000062,267,167,35,0.0004616805170821791,1500.7,1480,1470,1500
13.900000000000063,268,168,35,0.0004616805170821791,1500.8,1480,1470,1500
13.950000000000063,269,168,36,0.0004616805170821791,1500.8,1480,1470,1500
14.000000000000064,270,168,36,0.00045372050816696913,1500.8,1480,1470,1500
14.050000000000065,271,168,37,0.00048262548262548264,1500.8,1480,1470,1500
14.100000000000065,272,168,36,0.00046992481203007516,1500.8,1480,1470,1500
14.150000000000066,273,168,36,0.000474158368895211,1500.8,1480,1470,1500
14.200000000000067,274,168,35,0.0004616805170821791,1500.8,1480,1470,1500
14.250000000000068,275,167,35,0.00048262548262548264,1500.7,1480,1470,1500
14.300000000000068,276,167,34,0.00046992481203007516,1500.7,1480,1470,1500
14.350000000000069,277,167,34,0.00048262548262548264,1500.7,1480,1470,1500
14.40000000000007,278,167,34,0.00048262548262548264,1500.7,1480,1470,1500
14.45000000000007,279,167,34,0.00048262548262548264,1500.7,1480,1470,1500
14.500000000000071,280,167,33,0.000496031746031746,1500.7,1480,1470,1500
14.550000000000072,281,167,33,0.00048262548262548264,1500.7,1480,1470,1500
14.600000000000072,282,167,33,0.00048262548262548264,1500.7,1480,1470,1500
14.650000000000073,283,167,32,0.000505050505050505,1500.7,1480.050505050505,1470,1500
14.700000000000074,284,167,32,0.000505050505050505,1500.7,1480.050505050505,1470,1500
14.750000000000075,285,167,32,0.000505050505050505,1500.7,1480.050505050505,1470,1500
14.800000000000075,286,166,32,0.000496031746031746,1500.6,1480,1470,1500
14.850000000000076,287,166,31,0.000505050505050505,1500.6,1480.050505050505,1470,1500
14.900000000000077,288,166,31,0.000496031746031746,1500.6,1480,1470,1500
14.950000000000077,289,166,33,0.000496031746031746,1500.6,1480,1470,1500
15.000000000000078,290,166,37,0.000474158368895211,1500.6,1480,1470,1500
15.050000000000079,291,166,45,0.0004616805170821791,1500.6,1480,1470,1500
15.10000000000008,292,165,54,0.0004420866489832007,1500.5,1480,1466.0,1500
15.15000000000008,293,166,71,0.00041339396444811904,1500.6,1480,1449.0,1500
15.200000000000081,294,166,84,0.00039416633819471815,1500.6,1480,1436.0,1500
15.250000000000082,295,166,104,0.0003766478342749529,1500.6,1480,1416.0,1500
15.300000000000082,296,166,118,0.00039416633819471815,1500.6,1480,1402.0,1500
15.350000000000083,297,165,130,0.00042052144659377626,1500.5,1480,1390.0,1500
15.400000000000084,298,165,146,0.0004914004914004914,1500.5,1480,1374.0,1500
15.450000000000085,299,164,154,0.0005291005291005291,1500.4,1480.2910052910054,1370,1500
15.500000000000085,300,165,159,0.0006086427267194157,1500.5,1481.0864272671943,1370,1500
15.550000000000086,301,165,156,0.0006086427267194157,1500.5,1481.0864272671943,1370,1500
15.600000000000087,302,165,147,0.0005411255411255411,1500.5,1480.4112554112553,1373.0,1500
15.650000000000087,303,166,137,0.00048262548262548264,1500.6,1480,1383.0,1500
15.700000000000088,304,167,116,0.0004035512510088781,1500.7,1480,1404.0,1500
15.750000000000089,305,168,100,0.0003875968992248062,1500.8,1480,1420.0,1500
15.80000000000009,306,168,74,0.0003875968992248062,1500.8,1480,1446.0,1500
15.85000000000009,307,168,59,0.0004166666666666667,1500.8,1480,1461.0,1500
15.900000000000091,308,169,37,0.00047080979284369113,1500.9,1480,1470,1500
15.950000000000092,309,169,27,0.00048426150121065375,1500.9,1480,1470,1500
16.000000000000092,310,169,15,0.0005482456140350877,1500.9,1480.482456140351,1470,1500
16.050000000000093,311,169,13,0.0006265664160401002,1500.9,1481.265664160401,1470,1500
16.100000000000094,312,169,13,0.0006613756613756613,1500.9,1481.6137566137565,1470,1500
16.150000000000095,313,169,14,0.0005952380952380953,1500.9,1480.952380952381,1470,1500
16.200000000000095,314,169,23,0.0005224660397074191,1500.9,1480.224660397074,1470,1500
16.250000000000096,315,169,32,0.0004580852038479157,1500.9,1480,1470,1500
16.300000000000097,316,168,50,0.000423728813559322,1500.8,1480,1470.0,1500
16.350000000000097,317,167,64,0.0003787878787878788,1500.7,1480,1456.0,1500
16.400000000000098,318,167,91,0.0003606202668589975,1500.7,1480,1429.0,1500
16.4500000000001,319,166,110,0.0003787878787878788,1500.6,1480,1410.0,1500
16.5000000000001,320,166,135,0.00041050903119868636,1500.6,1480,1385.0,1500
16.5500000000001,321,167,149,0.0004662004662004662,1500.7,1480,1371.0,1500
16.6000000000001,322,166,164,0.0005494505494505495,1500.6,1480.4945054945056,1370,1500
16.6500000000001,323,166,171,0.0006086427267194157,1500.6,1481.0864272671943,1370,1500
16.700000000000102,324,167,173,0.0007288629737609329,1500.7,1482.2886297376094,1370,1500
16.750000000000103,325,167,171,0.0007002801120448179,1500.7,1482.002801120448,1370,1500
16.800000000000104,326,167,162,0.000663129973474801,1500.7,1481.631299734748,1370,1500
16.850000000000104,327,168,154,0.0006289308176100629,1500.8,1481.2893081761006,1370,1500
16.900000000000105,328,167,145,0.0005411255411255411,1500.7,1480.4112554112553,1375.0,1500
16.950000000000106,329,168,125,0.00046598322460391424,1500.8,1480,1395.0,1500
17.000000000000107,330,169,108,0.0004166666666666667,1500.9,1480,1412.0,1500
17.050000000000107,331,169,81,0.0003787878787878788,1500.9,1480,1439.0,1500
17.100000000000108,332,169,64,0.00039984006397441024,1500.9,1480,1456.0,1500
17.15000000000011,333,169,40,0.00045045045045045046,1500.9,1480,1470,1500
17.20000000000011,334,168,26,0.0004985044865403788,1500.8,1480,1470,1500
17.25000000000011,335,167,14,0.0006060606060606061,1500.7,1481.060606060606,1470,1500
17.30000000000011,336,168,12,0.0007272727272727272,1500.8,1482.2727272727273,1470,1500
17.35000000000011,337,168,10,0.0008264462809917355,1500.8,1483.2644628099174,1470,1500
17.400000000000112,338,167,11,0.0007575757575757576,1500.7,1482.5757575757575,1470,1500
17.450000000000113,339,167,14,0.0006060606060606061,1500.7,1481.060606060606,1470,1500
17.500000000000114,340,166,21,0.0005580357142857143,1500.6,1480.580357142857,1470,1500
17.550000000000114,341,165,36,0.0004789272030651341,1500.5,1480,1470,1500
17.600000000000115,342,165,50,0.00044603033006244426,1500.5,1480,1470.0,1500
17.650000000000116,343,165,73,0.0003852080123266564,1500.5,1480,1447.0,1500
17.700000000000117,344,164,89,0.0003852080123266564,1500.4,1480,1431.0,1500
17.750000000000117,345,164,113,0.00040096230954290296,1500.4,1480,1407.0,1500
17.800000000000118,346,164,128,0.0004177109440267335,1500.4,1480,1392.0,1500
17.85000000000012,347,163,141,0.0004464285714285714,1500.3,1480,1379.0,1500
17.90000000000012,348,163,157,0.0005241090146750524,1500.3,1480.2410901467506,1370,1500
17.95000000000012,349,163,165,0.0005827505827505828,1500.3,1480.8275058275058,1370,1500
18.00000000000012,350,162,172,0.0006666666666666666,1500.2,1481.6666666666667,1370,1500
18.05000000000012,351,164,176,0.0007142857142857143,1500.4,1482.142857142857,1370,1500
18.100000000000122,352,163,178,0.0007407407407407407,1500.3,1482.4074074074074,1370,1500
18.150000000000123,353,164,177,0.0007288629737609329,1500.4,1482.2886297376094,1370,1500
18.200000000000124,354,164,176,0.000689655172413793,1500.4,1481.896551724138,1370,1500
18.250000000000124,355,165,181,0.0010893246187363835,1500.5,1485.8932461873637,1370,1500
18.300000000000125,356,165,176,0.0006203473945409429,1500.5,1481.2034739454093,1370,1500
18.350000000000126,357,166,176,0.0006009615384615385,1500.6,1481.0096153846155,1370,1500
18.400000000000126,358,166,178,0.0006325110689437065,1500.6,1481.325110689437,1370,1500
18.450000000000127,359,165,178,0.0006666666666666666,1500.5,1481.6666666666667,1370,1500
18.500000000000128,360,166,179,0.00065359477124183,1500.6,1481.5359477124182,1370,1500
18.55000000000013,361,165,180,0.000689655172413793,1500.5,1481.896551724138,1370,1500
18.60000000000013,362,165,180,0.000689655172413793,1500.5,1481.896551724138,1370,1500
18.65000000000013,363,165,180,0.0006666666666666666,1500.5,1481.6666666666667,1370,1500
18.70000000000013,364,165,181,0.000689655172413793,1500.5,1481.896551724138,1370,1500
18.75000000000013,365,165,180,0.0006666666666666666,1500.5,1481.6666666666667,1370,1500
18.800000000000132,366,165,181,0.000689655172413793,1500.5,1481.896551724138,1370,1500
18.850000000000133,367,165,181,0.000689655172413793,1500.5,1481.896551724138,1370,1500
18.900000000000134,368,165,181,0.0007037297677691766,1500.5,1482.0372976776919,1370,1500
18.950000000000134,369,165,181,0.000676132521974307,1500.5,1481.761325219743,1370,1500
19.000000000000135,370,164,181,0.000689655172413793,1500.4,1481.896551724138,1370,1500
19.050000000000136,371,164,181,0.000689655172413793,1500.4,1481.896551724138,1370,1500
19.100000000000136,372,164,181,0.000689655172413793,1500.4,1481.896551724138,1370,1500
19.150000000000137,373,164,181,0.000689655172413793,1500.4,1481.896551724138,1370,1500
19.200000000000138,374,165,181,0.0007142857142857143,1500.5,1482.142857142857,1370,1500
19.25000000000014,375,163,181,0.000744047619047619,1500.3,1482.4404761904761,1370,1500
19.30000000000014,376,164,181,0.0007142857142857143,1500.4,1482.142857142857,1370,1500
19.35000000000014,377,164,181,0.0007288629737609329,1500.4,1482.2886297376094,1370,1500
19.40000000000014,378,165,181,0.0007002801120448179,1500.5,1482.002801120448,1370,1500
19.45000000000014,379,165,181,0.0007288629737609329,1500.5,1482.2886297376094,1370,1500
19.500000000000142,380,165,181,0.0007288629737609329,1500.5,1482.2886297376094,1370,1500
19.550000000000143,381,164,182,0.0007716049382716049,1500.4,1482.716049382716,1370,1500
19.600000000000144,382,165,181,0.0007598784194528875,1500.5,1482.598784194529,1370,1500
19.650000000000144,383,164,181,0.000744047619047619,1500.4,1482.4404761904761,1370,1500
19.700000000000145,384,164,181,0.000744047619047619,1500.4,1482.4404761904761,1370,1500
19.750000000000146,385,167,182,0.0007880220646178094,1500.7,1482.880220646178,1370,1500
19.800000000000146,386,164,182,0.0007880220646178094,1500.4,1482.880220646178,1370,1500
19.850000000000147,387,164,182,0.000744047619047619,1500.4,1482.4404761904761,1370,1500
19.900000000000148,388,164,182,0.000744047619047619,1500.4,1482.4404761904761,1370,1500
19.95000000000015,389,164,181,0.000851063829787234,1500.4,1483.5106382978724,1370,1500
20.00000000000015,390,164,182,0.0007288629737609329,1500.4,1482.2886297376094,1370,1500
20.05000000000015,391,164,182,0.000744047619047619,1500.4,1482.4404761904761,1370,1500
20.10000000000015,392,164,182,0.0007598784194528875,1500.4,1482.598784194529,1370,1500
20.15000000000015,393,164,182,0.0007183908045977011,1500.4,1482.183908045977,1370,1500
20.200000000000152,394,165,182,0.0007598784194528875,1500.5,1482.598784194529,1370,1500
20.250000000000153,395,164,182,0.0007142857142857143,1500.4,1482.142857142857,1370,1500
20.300000000000153,396,163,183,0.0007183908045977011,1500.3,1482.183908045977,1370,1500
20.350000000000154,397,164,183,0.0007037297677691766,1500.4,1482.0372976776919,1370,1500
20.400000000000155,398,164,183,0.0007037297677691766,1500.4,1482.0372976776919,1370,1500
20.450000000000156,399,164,183,0.0007142857142857143,1500.4,1482.142857142857,1370,1500
20.500000000000156,400,164,183,0.0007598784194528875,1500.4,1482.598784194529,1370,1500
20.550000000000157,401,164,183,0.000689655172413793,1500.4,1481.896551724138,1370,1500
20.600000000000158,402,164,183,0.0007288629737609329,1500.4,1482.2886297376094,1370,1500
20.65000000000016,403,164,183,0.0007037297677691766,1500.4,1482.0372976776919,1370,1500
20.70000000000016,404,164,182,0.0007037297677691766,1500.4,1482.0372976776919,1370,1500
20.75000000000016,405,163,182,0.0007183908045977011,1500.3,1482.183908045977,1370,1500
20.80000000000016,406,164,181,0.0007037297677691766,1500.4,1482.0372976776919,1370,1500
20.85000000000016,407,164,179,0.0006802721088435374,1500.4,1481.8027210884354,1370,1500
20.900000000000162,408,164,178,0.0006802721088435374,1500.4,1481.8027210884354,1370,1500
20.950000000000163,409,164,175,0.000676132521974307,1500.4,1481.761325219743,1370,1500
21.000000000000163,410,163,172,0.0006666666666666666,1500.3,1481.6666666666667,1370,1500
21.050000000000164,411,164,167,0.0006203473945409429,1500.4,1481.2034739454093,1370,1500
21.100000000000165,412,164,163,0.0005611672278338945,1500.4,1480.611672278339,1370,1500
21.150000000000166,413,164,155,0.0005291005291005291,1500.4,1480.2910052910054,1370,1500
21.200000000000166,414,164,149,0.000505050505050505,1500.4,1480.050505050505,1371.0,1500
21.250000000000167,415,164,139,0.0004385964912280702,1500.4,1480,1381.0,1500
21.300000000000168,416,164,132,0.0004385964912280702,1500.4,1480,1388.0,1500
21.35000000000017,417,164,121,0.0004385964912280702,1500.4,1480,1399.0,1500
21.40000000000017,418,164,113,0.00041339396444811904,1500.4,1480,1407.0,1500
21.45000000000017,419,164,101,0.00041339396444811904,1500.4,1480,1419.0,1500
21.50000000000017,420,164,92,0.0004035512510088781,1500.4,1480,1428.0,1500
21.55000000000017,421,164,81,0.0003968253968253968,1500.4,1480,1439.0,1500
21.600000000000172,422,164,73,0.0003968253968253968,1500.4,1480,1447.0,1500
21.650000000000173,423,165,63,0.0003968253968253968,1500.5,1480,1457.0,1500
21.700000000000173,424,165,57,0.0004166666666666667,1500.5,1480,1463.0,1500
21.750000000000174,425,166,48,0.000434593654932638,1500.6,1480,1470,1500
21.800000000000175,426,166,43,0.00042735042735042735,1500.6,1480,1470,1500
21.850000000000176,427,167,35,0.00044603033006244426,1500.7,1480,1470,1500
21.900000000000176,428,167,31,0.0004580852038479157,1500.7,1480,1470,1500
21.950000000000177,429,167,25,0.00047080979284369113,1500.7,1480,1470,1500
22.000000000000178,430,167,22,0.0004926108374384236,1500.7,1480,1470,1500
22.05000000000018,431,167,17,0.0005070993914807302,1500.7,1480.0709939148073,1470,1500
22.10000000000018,432,168,15,0.0005482456140350877,1500.8,1480.482456140351,1470,1500
22.15000000000018,433,168,14,0.0005847953216374269,1500.8,1480.8479532163742,1470,1500
22.20000000000018,434,168,13,0.0006613756613756613,1500.8,1481.6137566137565,1470,1500
22.25000000000018,435,168,12,0.0006868131868131869,1500.8,1481.868131868132,1470,1500
22.300000000000182,436,168,13,0.0008503401360544217,1500.8,1483.503401360544,1470,1500
22.350000000000183,437,168,11,0.0007763975155279503,1500.8,1482.7639751552795,1470,1500
22.400000000000183,438,168,10,0.0008116883116883117,1500.8,1483.1168831168832,1470,1500
22.450000000000184,439,167,10,0.0008116883116883117,1500.7,1483.1168831168832,1470,1500
22.500000000000185,440,168,11,0.0007627765064836003,1500.8,1482.627765064836,1470,1500
22.550000000000185,441,167,11,0.0007763975155279503,1500.7,1482.7639751552795,1470,1500
22.600000000000186,442,167,11,0.0007763975155279503,1500.7,1482.7639751552795,1470,1500
22.650000000000187,443,166,11,0.0007763975155279503,1500.6,1482.7639751552795,1470,1500
22.700000000000188,444,166,11,0.000744047619047619,1500.6,1482.4404761904761,1470,1500
22.75000000000019,445,166,11,0.0007575757575757576,1500.6,1482.5757575757575,1470,1500
22.80000000000019,446,166,11,0.0007763975155279503,1500.6,1482.7639751552795,1470,1500
22.85000000000019,447,166,11,0.000744047619047619,1500.6,1482.4404761904761,1470,1500
22.90000000000019,448,166,11,0.000744047619047619,1500.6,1482.4404761904761,1470,1500
22.95000000000019,449,166,11,0.000744047619047619,1500.6,1482.4404761904761,1470,1500
23.000000000000192,450,166,11,0.000744047619047619,1500.6,1482.4404761904761,1470,1500
23.050000000000193,451,166,11,0.000744047619047619,1500.6,1482.4404761904761,1470,1500
23.100000000000193,452,167,11,0.0007309941520467836,1500.7,1482.3099415204679,1470,1500
23.150000000000194,453,166,11,0.000744047619047619,1500.6,1482.4404761904761,1470,1500
23.200000000000195,454,166,14,0.0010504201680672268,1500.6,1485.5042016806722,1470,1500
23.250000000000195,455,166,11,0.0007575757575757576,1500.6,1482.5757575757575,1470,1500
23.300000000000196,456,166,11,0.0007627765064836003,1500.6,1482.627765064836,1470,1500
23.350000000000197,457,165,11,0.000744047619047619,1500.5,1482.4404761904761,1470,1500
23.400000000000198,458,165,13,0.0008928571428571428,1500.5,1483.9285714285713,1470,1500
23.4500000000002,459,165,11,0.000744047619047619,1500.5,1482.4404761904761,1470,1500
23.5000000000002,460,165,11,0.000744047619047619,1500.5,1482.4404761904761,1470,1500
23.5500000000002,461,165,11,0.0007575757575757576,1500.5,1482.5757575757575,1470,1500
23.6000000000002,462,165,11,0.000744047619047619,1500.5,1482.4404761904761,1470,1500
23.6500000000002,463,165,11,0.000744047619047619,1500.5,1482.4404761904761,1470,1500
23.700000000000202,464,165,11,0.000744047619047619,1500.5,1482.4404761904761,1470,1500
23.750000000000203,465,165,11,0.000744047619047619,1500.5,1482.4404761904761,1470,1500
23.800000000000203,466,165,11,0.0007575757575757576,1500.5,1482.5757575757575,1470,1500
23.850000000000204,467,165,11,0.0007575757575757576,1500.5,1482.5757575757575,1470,1500
23.900000000000205,468,166,13,0.000835421888053467,1500.6,1483.3542188805347,1470,1500
23.950000000000205,469,166,11,0.0007309941520467836,1500.6,1482.3099415204679,1470,1500
24.000000000000206,470,165,11,0.0007575757575757576,1500.5,1482.5757575757575,1470,1500
24.050000000000207,471,166,11,0.000744047619047619,1500.6,1482.4404761904761,1470,1500
24.100000000000207,472,166,11,0.0007575757575757576,1500.6,1482.5757575757575,1470,1500
24.150000000000208,473,166,12,0.0007142857142857143,1500.6,1482.142857142857,1470,1500
24.20000000000021,474,166,12,0.0007142857142857143,1500.6,1482.142857142857,1470,1500
24.25000000000021,475,166,12,0.0006868131868131869,1500.6,1481.868131868132,1470,1500
24.30000000000021,476,166,12,0.0006868131868131869,1500.6,1481.868131868132,1470,1500
24.35000000000021,477,167,12,0.0006747638326585695,1500.7,1481.7476383265857,1470,1500
24.40000000000021,478,167,12,0.0006993006993006993,1500.7,1481.993006993007,1470,1500
24.450000000000212,479,166,13,0.0006858710562414266,1500.6,1481.8587105624142,1470,1500
24.500000000000213,480,167,13,0.000649772579597141,1500.7,1481.4977257959715,1470,1500
24.550000000000214,481,166,13,0.0006734006734006734,1500.6,1481.7340067340067,1470,1500
24.600000000000215,482,166,15,0.0008116883116883117,1500.6,1483.1168831168832,1470,1500
24.650000000000215,483,167,13,0.0006265664160401002,1500.7,1481.265664160401,1470,1500
24.700000000000216,484,166,13,0.0006377551020408163,1500.6,1481.3775510204082,1470,1500
24.750000000000217,485,167,14,0.0006049606775559589,1500.7,1481.0496067755596,1470,1500
24.800000000000217,486,167,17,0.0007974481658692185,1500.7,1482.9744816586922,1470,1500
24.850000000000218,487,166,14,0.0005952380952380953,1500.6,1480.952380952381,1470,1500
24.90000000000022,488,167,15,0.0005659309564233164,1500.7,1480.6593095642331,1470,1500
24.95000000000022,489,167,15,0.0005659309564233164,1500.7,1480.6593095642331,1470,1500
25.00000000000022,490,166,15,0.000576036866359447,1500.6,1480.7603686635944,1470,1500
25.05000000000022,491,166,15,0.000576036866359447,1500.6,1480.7603686635944,1470,1500
25.10000000000022,492,166,15,0.000576036866359447,1500.6,1480.7603686635944,1470,1500
25.150000000000222,493,167,15,0.0005659309564233164,1500.7,1480.6593095642331,1470,1500
25.200000000000223,494,166,15,0.000576036866359447,1500.6,1480.7603686635944,1470,1500
25.250000000000224,495,167,15,0.0005659309564233164,1500.7,1480.6593095642331,1470,1500
25.300000000000225,496,167,15,0.0005561735261401557,1500.7,1480.5617352614015,1470,1500
25.350000000000225,497,167,15,0.0005659309564233164,1500.7,1480.6593095642331,1470,1500
25.400000000000226,498,166,15,0.000576036866359447,1500.6,1480.7603686635944,1470,1500
25.450000000000227,499,167,15,0.0005659309564233164,1500.7,1480.6593095642331,1470,1500
25.500000000000227,500,166,15,0.000576036866359447,1500.6,1480.7603686635944,1470,1500
25.550000000000228,501,167,14,0.0005847953216374269,1500.7,1480.8479532163742,1470,1500
25.60000000000023,502,166,14,0.0006060606060606061,1500.6,1481.060606060606,1470,1500
25.65000000000023,503,166,14,0.0005952380952380953,1500.6,1480.952380952381,1470,1500
25.70000000000023,504,166,14,0.0005952380952380953,1500.6,1480.952380952381,1470,1500
25.75000000000023,505,166,14,0.0005952380952380953,1500.6,1480.952380952381,1470,1500
25.80000000000023,506,166,14,0.0005952380952380953,1500.6,1480.952380952381,1470,1500
25.850000000000232,507,166,17,0.0008264462809917355,1500.6,1483.2644628099174,1470,1500
25.900000000000233,508,167,14,0.0006049606775559589,1500.7,1481.0496067755596,1470,1500
25.950000000000234,509,166,14,0.0006157635467980296,1500.6,1481.1576354679803,1470,1500
26.000000000000234,510,166,14,0.0006157635467980296,1500.6,1481.1576354679803,1470,1500
26.050000000000235,511,166,14,0.0006157635467980296,1500.6,1481.1576354679803,1470,1500
26.100000000000236,512,166,14,0.0006157635467980296,1500.6,1481.1576354679803,1470,1500
26.150000000000237,513,166,14,0.0006157635467980296,1500.6,1481.1576354679803,1470,1500
26.200000000000237,514,166,14,0.0006157635467980296,1500.6,1481.1576354679803,1470,1500
26.250000000000238,515,167,14,0.0006049606775559589,1500.7,1481.0496067755596,1470,1500
26.30000000000024,516,166,14,0.0006157635467980296,1500.6,1481.1576354679803,1470,1500
26.35000000000024,517,167,14,0.0006049606775559589,1500.7,1481.0496067755596,1470,1500
26.40000000000024,518,167,14,0.0005945303210463733,1500.7,1480.9453032104636,1470,1500
26.45000000000024,519,167,16,0.0007017543859649122,1500.7,1482.017543859649,1470,1500
26.50000000000024,520,167,14,0.0006049606775559589,1500.7,1481.0496067755596,1470,1500
26.550000000000242,521,166,14,0.0006157635467980296,1500.6,1481.1576354679803,1470,1500
26.600000000000243,522,166,14,0.0005952380952380953,1500.6,1480.952380952381,1470,1500
26.650000000000244,523,167,14,0.0005847953216374269,1500.7,1480.8479532163742,1470,1500
26.700000000000244,524,166,14,0.0005952380952380953,1500.6,1480.952380952381,1470,1500
26.750000000000245,525,166,14,0.0006157635467980296,1500.6,1481.1576354679803,1470,1500
26.800000000000246,526,167,14,0.0005847953216374269,1500.7,1480.8479532163742,1470,1500
26.850000000000247,527,166,14,0.0005952380952380953,1500.6,1480.952380952381,1470,1500
26.900000000000247,528,166,14,0.0005952380952380953,1500.6,1480.952380952381,1470,1500
26.950000000000248,529,167,14,0.0005847953216374269,1500.7,1480.8479532163742,1470,1500
27.00000000000025,530,166,14,0.0005952380952380953,1500.6,1480.952380952381,1470,1500
27.05000000000025,531,166,14,0.0006157635467980296,1500.6,1481.1576354679803,1470,1500
27.10000000000025,532,166,14,0.0006269592476489029,1500.6,1481.269592476489,1470,1500
27.15000000000025,533,166,14,0.0006157635467980296,1500.6,1481.1576354679803,1470,1500
27.20000000000025,534,166,17,0.0007763975155279503,1500.6,1482.7639751552795,1470,1500
27.250000000000252,535,166,14,0.0006157635467980296,1500.6,1481.1576354679803,1470,1500
27.300000000000253,536,166,14,0.0006157635467980296,1500.6,1481.1576354679803,1470,1500
27.350000000000254,537,166,14,0.0006157635467980296,1500.6,1481.1576354679803,1470,1500
27.400000000000254,538,166,13,0.0006377551020408163,1500.6,1481.3775510204082,1470,1500
27.450000000000255,539,167,13,0.0006265664160401002,1500.7,1481.265664160401,1470,1500
27.500000000000256,540,166,15,0.0007142857142857143,1500.6,1482.142857142857,1470,1500
27.550000000000257,541,166,13,0.0006377551020408163,1500.6,1481.3775510204082,1470,1500
27.600000000000257,542,166,13,0.0006613756613756613,1500.6,1481.6137566137565,1470,1500
27.650000000000258,543,166,13,0.0006613756613756613,1500.6,1481.6137566137565,1470,1500
27.70000000000026,544,166,13,0.0006613756613756613,1500.6,1481.6137566137565,1470,1500
27.75000000000026,545,166,16,0.0007763975155279503,1500.6,1482.7639751552795,1470,1500
27.80000000000026,546,166,13,0.0006377551020408163,1500.6,1481.3775510204082,1470,1500
27.85000000000026,547,166,14,0.0006157635467980296,1500.6,1481.1576354679803,1470,1500
27.90000000000026,548,166,14,0.0006269592476489029,1500.6,1481.269592476489,1470,1500
27.950000000000262,549,167,14,0.0005847953216374269,1500.7,1480.8479532163742,1470,1500
28.000000000000263,550,166,14,0.0005847953216374269,1500.6,1480.8479532163742,1470,1500
28.050000000000264,551,166,15,0.0005659309564233164,1500.6,1480.6593095642331,1470,1500
28.100000000000264,552,166,15,0.0005561735261401557,1500.6,1480.5617352614015,1470,1500
28.150000000000265,553,166,15,0.0005659309564233164,1500.6,1480.6593095642331,1470,1500
28.200000000000266,554,166,16,0.0005224660397074191,1500.6,1480.224660397074,1470,1500
28.250000000000266,555,166,17,0.0005012531328320802,1500.6,1480.0125313283208,1470,1500
28.300000000000267,556,166,19,0.0004789272030651341,1500.6,1480,1470,1500
28.350000000000268,557,166,22,0.00046598322460391424,1500.6,1480,1470,1500
28.40000000000027,558,165,28,0.00045372050816696913,1500.5,1480,1470,1500
28.45000000000027,559,165,33,0.000434593654932638,1500.5,1480,1470,1500
28.50000000000027,560,162,42,0.0004310344827586207,1500.2,1480,1470,1500
28.55000000000027,561,161,50,0.0004065040650406504,1500.1,1480,1470.0,1500
28.60000000000027,562,158,57,0.00041339396444811904,1499.8,1480,1463.0,1500
28.650000000000272,563,153,68,0.0003968253968253968,1499.3,1480,1452.0,1500
28.700000000000273,564,151,74,0.0004035512510088781,1499.1,1480,1446.0,1500
28.750000000000274,565,145,81,0.0004177109440267335,1498.5,1480,1439.0,1500
28.800000000000274,566,143,82,0.00042517006802721087,1498.3,1480,1438.0,1500
28.850000000000275,567,142,82,0.0004079967360261118,1498.2,1480,1438.0,1500
28.900000000000276,568,141,81,0.0003968253968253968,1498.1,1480,1439.0,1500
28.950000000000276,569,144,78,0.00038138825324180017,1498.4,1480,1442.0,1500
29.000000000000277,570,147,78,0.00036683785766691124,1498.7,1480,1442.0,1500
29.050000000000278,571,152,80,0.00035803795202291446,1499.2,1480,1440.0,1500
29.10000000000028,572,156,83,0.00033898305084745765,1499.6,1480,1437.0,1500
29.15000000000028,573,161,91,0.0003093102381688834,1500.1,1480,1429.0,1500
29.20000000000028,574,163,96,0.00027056277056277056,1500.3,1480,1424.0,1500
29.25000000000028,575,166,106,0.00023342670401493932,1500.6,1480,1414.0,1500
29.30000000000028,576,169,112,0.000223563603845294,1500.9,1480,1408.0,1500
29.350000000000282,577,168,125,0.0002016942315449778,1500.8,1480,1395.0,1500
29.400000000000283,578,167,131,0.00019047619047619048,1500.7,1480,1389.0,1500
29.450000000000284,579,162,139,0.0001644736842105263,1500.2,1480,1381.0,1500
29.500000000000284,580,158,144,0.00015060240963855423,1499.8,1480,1376.0,1500
29.550000000000285,581,150,149,0.00014343086632243257,1499.0,1480,1371.0,1500
29.600000000000286,582,143,151,0.00012768130745658836,1498.3,1480,1370,1500
29.650000000000286,583,135,153,0.00013368983957219252,1497.5,1480,1370,1500
29.700000000000287,584,124,156,0.0001321178491214163,1496.4,1480,1370,1500
29.750000000000288,585,113,158,0.00014009526478005044,1495.3,1480,1370,1500
29.80000000000029,586,97,160,0.00017325017325017325,1493.7,1480,1370,1500
29.85000000000029,587,80,165,0.00025799793601651185,1492.0,1480,1370,1500
29.90000000000029,588,59,176,0.00267379679144385,1489.9,1501.7379679144385,1370,1500
29.95000000000029,589,42,143,0.008264462809917356,1488.2,1520,1377.0,1500
30.00000000000029,589,,,,1500.0,1500.0,1420.0,1500
30.050000000000292,589,,,,1500.0,1500.0,1420.0,1500
30.100000000000293,589,,,,1500.0,1500.0,1420.0,1500
30.150000000000293,589,,,,1500.0,1500.0,1420.0,1500
30.200000000000294,589,,,,1500.0,1500.0,1420.0,1500
30.250000000000295,589,,,,1500.0,1500.0,1420.0,1500
30.300000000000296,589,,,,1500.0,1500.0,1420.0,1500
30.350000000000296,589,,,,1500.0,1500.0,1420.0,1500
30.400000000000297,589,,,,1500.0,1500.0,1420.0,1500
30.450000000000298,589,,,,1500.0,1500.0,1420.0,1500
30.5000000000003,589,,,,1500.0,1500.0,1420.0,1500
30.5500000000003,589,,,,1500.0,1500.0,1420.0,1500
30.6000000000003,589,,,,1500.0,1500.0,1420.0,1500
30.6500000000003,589,,,,1500.0,1500.0,1420.0,1500
30.7000000000003,589,,,,1500.0,1500.0,1420.0,1500
30.750000000000302,589,,,,1500.0,1500.0,1420.0,1500
30.800000000000303,589,,,,1500.0,1500.0,1420.0,1500
30.850000000000303,589,,,,1500.0,1500.0,1420.0,1500
30.900000000000304,589,,,,1500.0,1500.0,1420.0,1500
30.950000000000305,589,,,,1500.0,1500.0,1420.0,1500
31.000000000000306,589,,,,1500.0,1500.0,1420.0,1500
31.050000000000306,589,,,,1500.0,1500.0,1420.0,1500
31.100000000000307,589,,,,1500.0,1500.0,1420.0,1500
31.150000000000308,589,,,,1500.0,1500.0,1420.0,1500
31.20000000000031,589,,,,1500.0,1500.0,1420.0,1500
31.25000000000031,589,,,,1500.0,1500.0,1420.0,1500
31.30000000000031,589,,,,1500.0,1500.0,1420.0,1500
31.35000000000031,589,,,,1500.0,1500.0,1420.0,1500
31.40000000000031,589,,,,1500.0,1500.0,1420.0,1500
31.450000000000312,589,,,,1500.0,1500.0,1420.0,1500
31.500000000000313,589,,,,1500.0,1500.0,1420.0,1500
31.550000000000313,589,,,,1500.0,1500.0,1420.0,1500
31.600000000000314,589,,,,1500.0,1500.0,1420.0,1500
31.650000000000315,589,,,,1500.0,1500.0,1420.0,1500
31.700000000000315,589,,,,1500.0,1500.0,1420.0,1500
31.750000000000316,589,,,,1500.0,1500.0,1420.0,1500
31.800000000000317,589,,,,1500.0,1500.0,1420.0,1500
31.850000000000318,589,,,,1500.0,1500.0,1420.0,1500
31.90000000000032,589,,,,1500.0,1500.0,1420.0,1500
31.95000000000032,589,,,,1500.0,1500.0,1420.0,1500
32.00000000000032,589,,,,1500.0,1500.0,1420.0,1500
32.05000000000032,589,,,,1500.0,1500.0,1420.0,1500
32.100000000000314,589,,,,1500.0,1500.0,1420.0,1500
32.15000000000031,589,,,,1500.0,1500.0,1420.0,1500
32.20000000000031,589,,,,1500.0,1500.0,1420.0,1500
32.250000000000306,589,,,,1500.0,1500.0,1420.0,1500
32.3000000000003,589,,,,1500.0,1500.0,1420.0,1500
32.3500000000003,589,,,,1500.0,1500.0,1420.0,1500
32.4000000000003,589,,,,1500.0,1500.0,1420.0,1500
32.450000000000294,589,,,,1500.0,1500.0,1420.0,1500
32.50000000000029,590,85,3,0.002421307506053269,1492.5,1499.2130750605327,1470,1500
32.55000000000029,591,75,29,0.00011224604332697273,1491.5,1480,1470,1500
32.600000000000286,592,93,45,6.140997297961189e-05,1493.3,1480,1470,1500
32.65000000000028,593,105,50,5.538938739337543e-05,1494.5,1480,1470.0,1500
32.70000000000028,594,117,53,4.978096375945838e-05,1495.7,1480,1467.0,1500
32.75000000000028,595,123,53,4.8930860693839605e-05,1496.3,1480,1467.0,1500
32.800000000000274,596,122,42,5.683432793407218e-05,1496.2,1480,1470,1500
32.85000000000027,597,115,26,8.816787162757891e-05,1495.5,1480,1470,1500
32.90000000000027,597,,,,1500.0,1500.0,1420.0,1500
32.950000000000266,597,,,,1500.0,1500.0,1420.0,1500
33.00000000000026,597,,,,1500.0,1500.0,1420.0,1500
33.05000000000026,597,,,,1500.0,1500.0,1420.0,1500
33.10000000000026,597,,,,1500.0,1500.0,1420.0,1500
33.150000000000254,597,,,,1500.0,1500.0,1420.0,1500
33.20000000000025,597,,,,1500.0,1500.0,1420.0,1500
33.25000000000025,597,,,,1500.0,1500.0,1420.0,1500
33.300000000000246,597,,,,1500.0,1500.0,1420.0,1500
33.35000000000024,597,,,,1500.0,1500.0,1420.0,1500
33.40000000000024,597,,,,1500.0,1500.0,1420.0,1500
33.45000000000024,597,,,,1500.0,1500.0,1420.0,1500
33.500000000000234,597,,,,1500.0,1500.0,1420.0,1500
33.55000000000023,597,,,,1500.0,1500.0,1420.0,1500
33.60000000000023,597,,,,1500.0,1500.0,1420.0,1500
33.650000000000226,597,,,,1500.0,1500.0,1420.0,1500
33.70000000000022,597,,,,1500.0,1500.0,1420.0,1500
33.75000000000022,597,,,,1500.0,1500.0,1420.0,1500
33.80000000000022,597,,,,1500.0,1500.0,1420.0,1500
33.850000000000215,597,,,,1500.0,1500.0,1420.0,1500
33.90000000000021,597,,,,1500.0,1500.0,1420.0,1500
33.95000000000021,597,,,,1500.0,1500.0,1420.0,1500
34.000000000000206,597,,,,1500.0,1500.0,1420.0,1500
34.0500000000002,597,,,,1500.0,1500.0,1420.0,1500
34.1000000000002,597,,,,1500.0,1500.0,1420.0,1500
34.1500000000002,597,,,,1500.0,1500.0,1420.0,1500
34.200000000000195,597,,,,1500.0,1500.0,1420.0,1500
34.25000000000019,597,,,,1500.0,1500.0,1420.0,1500
34.30000000000019,597,,,,1500.0,1500.0,1420.0,1500
34.350000000000186,597,,,,1500.0,1500.0,1420.0,1500
34.40000000000018,597,,,,1500.0,1500.0,1420.0,1500
34.45000000000018,597,,,,1500.0,1500.0,1420.0,1500
34.50000000000018,597,,,,1500.0,1500.0,1420.0,1500
34.550000000000175,597,,,,1500.0,1500.0,1420.0,1500
34.60000000000017,597,,,,1500.0,1500.0,1420.0,1500
34.65000000000017,597,,,,1500.0,1500.0,1420.0,1500
34.700000000000166,597,,,,1500.0,1500.0,1420.0,1500
34.75000000000016,597,,,,1500.0,1500.0,1420.0,1500
34.80000000000016,597,,,,1500.0,1500.0,1420.0,1500
34.85000000000016,597,,,,1500.0,1500.0,1420.0,1500
34.900000000000155,597,,,,1500.0,1500.0,1420.0,1500
34.95000000000015,597,,,,1500.0,1500.0,1420.0,1500
35.00000000000015,597,,,,1500.0,1500.0,1420.0,1500
35.050000000000146,597,,,,1500.0,1500.0,1420.0,1500
35.10000000000014,597,,,,1500.0,1500.0,1420.0,1500
35.15000000000014,597,,,,1500.0,1500.0,1420.0,1500
35.20000000000014,597,,,,1500.0,1500.0,1420.0,1500
35.250000000000135,597,,,,1500.0,1500.0,1420.0,1500
35.30000000000013,597,,,,1500.0,1500.0,1420.0,1500
35.35000000000013,597,,,,1500.0,1500.0,1420.0,1500
