time,frame,x,y,size_inv,roll,pitch,thrust,yaw
0.00021505355834960938,1,,,,1500.0,1500,1150.0,1500.0
0.02171611785888672,2,180,52,,1502.5,1500,1162.0,1498.0
0.042977094650268555,3,185,48,,1503.625,1500,1163.0,1497.5
0.06414318084716797,4,184,44,,1504.125,1500,1164.0,1497.5999999999999
0.08518600463867188,5,,,,1501.7249999999999,1500,1150.0,1500.0
0.10611510276794434,6,,,,1501.7249999999999,1500,1150.0,1500.0
0.12718915939331055,7,,,,1501.7249999999999,1500,1150.0,1500.0
0.14829301834106445,8,171,21,,1503.0999999999999,1500,1165,1498.9000000000001
0.16936922073364258,9,,,,1502.0,1500,1150.0,1500.0
0.19038605690002441,10,,,,1502.0,1500,1150.0,1500.0
0.21153616905212402,11,,,,1503.74,1500,1150.0,1500.0
0.23280119895935059,12,,,,1502.6400000000001,1500,1150.0,1500.0
0.25409507751464844,13,,,,1501.925,1500,1150.0,1500.0
0.27535414695739746,14,,,,1500.605,1500,1150.0,1500.0
0.2966170310974121,15,,,,1500.605,1500,1150.0,1500.0
0.3178691864013672,16,,,,1500.605,1500,1150.0,1500.0
0.33912110328674316,17,,,,1500.605,1500,1150.0,1500.0
0.360396146774292,18,,,,1500.0,1500,1150.0,1500.0
0.3816370964050293,19,,,,1500.0,1500,1150.0,1500.0
0.4028751850128174,20,,,,1500.0,1500,1150.0,1500.0
0.42410922050476074,21,,,,1500.0,1500,1150.0,1500.0
0.44542622566223145,22,101,56,,1494.395,1500,1161.0,1505.9000000000001
0.46684908866882324,23,63,54,,1491.0799999999999,1500,1161.5,1509.7
0.48825716972351074,24,193,95,,1503.915,1500,1151.25,1496.7
0.5096611976623535,25,197,103,,1504.1300000000001,1500,1149.25,1496.3
0.531055212020874,26,96,89,,1494.3499999999999,1500,1152.75,1506.4000000000001
0.5525400638580322,27,87,96,,1490.2750000000001,1500,1151.0,1507.3
0.5739550590515137,28,104,107,,1486.4349999999999,1500,1148.25,1505.5999999999999
0.5953750610351562,29,84,111,,1486.7950000000001,1500,1147.25,1507.5999999999999
0.6167840957641602,30,93,115,,1490.25,1500,1146.25,1506.7
0.6381771564483643,31,114,119,,1488.74,1500,1145.25,1504.5999999999999
0.6595799922943115,32,128,117,,1489.165,1500,1145.75,1503.2
0.6809952259063721,33,130,119,,1491.49,1500,1145.25,1503.0
0.7024290561676025,34,132,113,,1485.4549999999999,1500,1146.75,1502.8
0.7238490581512451,35,135,113,,1480,1500,1146.75,1502.5
0.7452030181884766,36,137,120,,1480.9000000000001,1500,1145.0,1502.3
0.7666051387786865,37,137,125,,1483.1099999999999,1500,1143.75,1502.3
0.7880110740661621,38,137,130,,1484.5050000000001,1500,1142.5,1502.3
0.8094160556793213,39,105,138,,1484.0799999999999,1500,1140.5,1505.5
0.8308150768280029,40,112,143,,1487.2049999999999,1500,1139.25,1504.8
0.8522160053253174,41,122,147,,1489.5450000000001,1500,1138.25,1503.8
0.8736181259155273,42,121,149,,1490.02,1500,1137.75,1503.9000000000001
0.895017147064209,43,139,152,,1492.1949999999999,1500,1137.0,1502.0999999999999
0.9164202213287354,44,140,155,,1490.635,1500,1136.25,1502.0
0.937812089920044,45,139,155,,1489.135,1500,1136.25,1502.0999999999999
0.959212064743042,46,140,156,,1488.3199999999999,1500,1136.0,1502.0
0.9806241989135742,47,139,157,,1487.25,1500,1135.75,1502.0999999999999
1.0020310878753662,48,139,156,,1487.3599999999999,1500,1136.0,1502.0999999999999
1.0234341621398926,49,138,156,,1489.1949999999999,1500,1136.0,1502.2
1.0448360443115234,50,137,156,,1490.5899999999999,1500,1136.0,1502.3
1.0662331581115723,51,135,153,,1491.405,1500,1136.75,1502.5
1.0876262187957764,52,134,151,,1492.3199999999999,1500,1137.25,1502.5999999999999
1.1090450286865234,53,117,147,,1490.73,1500,1138.25,1504.3
1.1304700374603271,54,132,141,,1492.1500000000001,1500,1139.75,1502.8
1.1518731117248535,55,124,137,,1491.3050000000001,1500,1140.75,1503.5999999999999
1.1733062267303467,56,123,132,,1490.99,1500,1142.0,1503.7
1.1947131156921387,57,122,127,,1490.675,1500,1143.25,1503.8
1.2161331176757812,58,131,121,,1490.2950000000001,1500,1144.75,1502.9000000000001
1.237549066543579,59,132,105,,1490.0650000000001,1500,1148.75,1502.8
1.2589821815490723,60,130,98,,1489.1199999999999,1500,1150.5,1503.0
1.2803850173950195,61,130,90,,1488.425,1500,1152.5,1503.0
1.3017821311950684,62,130,82,,1487.7249999999999,1500,1154.5,1503.0
1.3234050273895264,63,130,74,,1488.5,1500,1156.5,1503.0
1.3448140621185303,64,128,63,,1488.3199999999999,1500,1159.25,1503.2
1.366239070892334,65,128,55,,1488.6600000000001,1500,1161.25,1503.2
1.3876361846923828,66,128,50,,1489.0550000000001,1500,1162.5,1503.2
1.4090352058410645,67,128,57,,1489.5050000000001,1500,1160.75,1503.2
1.4304301738739014,68,129,45,,1489.5550000000001,1500,1163.75,1503.0999999999999
1.4518311023712158,69,129,42,,1489.3299999999999,1500,1164.5,1503.0999999999999
1.473242998123169,70,128,38,,1489.1199999999999,1500,1165,1503.2
1.4945971965789795,71,125,34,,1488.7249999999999,1500,1165,1503.5
1.5159690380096436,72,113,32,,1487.49,1500,1165,1504.7
1.5373241901397705,73,106,30,,1486.8499999999999,1500,1165,1505.4000000000001
1.5587031841278076,74,96,30,,1486.0699999999999,1500,1165,1506.4000000000001
1.5800762176513672,75,108,36,,1487.3699999999999,1500,1165,1505.2
1.601485013961792,76,107,37,,1487.1949999999999,1500,1165,1505.3
1.622847080230713,77,,,,1491.4349999999999,1500,1150.0,1500.0
1.6441211700439453,78,,,,1489.9000000000001,1500,1150.0,1500.0
1.6653800010681152,79,,,,1487.7650000000001,1500,1150.0,1500.0
1.6866340637207031,80,,,,1486.405,1500,1150.0,1500.0
1.7078931331634521,81,,,,1485.1500000000001,1500,1150.0,1500.0
1.7291550636291504,82,,,,1487.7349999999999,1500,1150.0,1500.0
1.7504141330718994,83,,,,1490.7049999999999,1500,1150.0,1500.0
1.771677017211914,84,,,,1494.2249999999999,1500,1150.0,1500.0
1.7929561138153076,85,,,,1497.085,1500,1150.0,1500.0
1.8142151832580566,86,,,,1500.0,1500,1150.0,1500.0
1.835461139678955,87,,,,1500.0,1500,1150.0,1500.0
1.85676908493042,88,120,58,,1496.2,1500,1160.5,1504.0
1.8781700134277344,89,78,52,,1492.4100000000001,1500,1162.0,1508.2
1.8995721340179443,90,72,56,,1492.25,1500,1161.0,1508.8
1.920910120010376,91,,,,1501.05,1500,1150.0,1500.0
1.9422390460968018,92,193,97,,1504.1849999999999,1500,1150.75,1496.7
1.9636461734771729,93,192,103,,1501.5250000000001,1500,1149.25,1496.8
1.9850530624389648,94,103,89,,1487.99,1500,1152.75,1505.7
2.0064620971679688,95,90,92,,1481.76,1500,1152.0,1507.0
2.0278680324554443,96,98,100,,1482.8699999999999,1500,1150.0,1506.2
2.0492751598358154,97,109,106,,1486.2049999999999,1500,1148.5,1505.0999999999999
2.0706770420074463,98,117,108,,1491.3399999999999,1500,1148.0,1504.3
2.092097043991089,99,130,103,,1493.8800000000001,1500,1149.25,1503.0
2.113502025604248,100,131,109,,1494.7650000000001,1500,1147.75,1502.9000000000001
2.1349241733551025,101,132,100,,1491.2850000000001,1500,1150.0,1502.8
2.15632700920105,102,133,92,,1486.645,1500,1152.0,1502.7
2.177725076675415,103,134,95,,1482.5350000000001,1500,1151.25,1502.5999999999999
2.1991381645202637,104,134,100,,1484.0,1500,1150.0,1502.5999999999999
2.2205560207366943,105,118,104,,1484.72,1500,1149.0,1504.2
2.2419681549072266,106,117,108,,1486.5650000000001,1500,1148.0,1504.3
2.2633910179138184,107,109,112,,1487.2049999999999,1500,1147.0,1505.0999999999999
2.2847700119018555,108,117,116,,1489.0250000000001,1500,1146.0,1504.3
2.306190013885498,109,107,123,,1488.3800000000001,1500,1144.25,1505.3
2.327630043029785,110,105,124,,1487.53,1500,1144.0,1505.5
2.349029064178467,111,112,125,,1487.4300000000001,1500,1143.75,1504.8
2.3704700469970703,112,114,128,,1486.2850000000001,1500,1143.0,1504.5999999999999
2.391876220703125,113,127,126,,1486.5999999999999,1500,1143.5,1503.3
2.413283109664917,114,111,130,,1483.4949999999999,1500,1142.5,1504.9000000000001
2.434689998626709,115,108,130,,1482.4649999999999,1500,1142.5,1505.2
2.4560952186584473,116,113,131,,1482.6849999999999,1500,1142.25,1504.7
2.4775071144104004,117,123,132,,1483.915,1500,1142.0,1503.7
2.4989280700683594,118,114,132,,1483.6300000000001,1500,1142.0,1504.5999999999999
2.5203230381011963,119,118,127,,1484.2149999999999,1500,1143.25,1504.2
2.541731119155884,120,120,131,,1484.52,1500,1142.25,1504.0
2.5631351470947266,121,102,128,,1482.8299999999999,1500,1143.0,1505.8
2.5845441818237305,122,110,126,,1484.1900000000001,1500,1143.5,1505.0
2.6059470176696777,123,117,124,,1484.1600000000001,1500,1144.0,1504.3
2.627554178237915,124,109,122,,1483.79,1500,1144.5,1505.0999999999999
2.6489810943603516,125,107,121,,1484.3150000000001,1500,1144.75,1505.3
2.670412063598633,126,113,119,,1484.2550000000001,1500,1145.25,1504.7
2.6918320655822754,127,119,116,,1484.095,1500,1146.0,1504.0999999999999
2.7132580280303955,128,114,113,,1483.7750000000001,1500,1146.75,1504.5999999999999
2.73468017578125,129,133,110,,1485.0599999999999,1500,1147.5,1502.7
2.756164073944092,130,113,106,,1482.3150000000001,1500,1148.5,1504.7
2.777745008468628,131,139,103,,1485.3900000000001,1500,1149.25,1502.0999999999999
2.7992100715637207,132,138,99,,1485.6900000000001,1500,1150.25,1502.2
2.8206470012664795,133,138,89,,1485.405,1500,1152.75,1502.2
2.842061996459961,134,138,84,,1486.7,1500,1154.0,1502.2
2.8634660243988037,135,137,80,,1486.8099999999999,1500,1155.0,1502.3
2.884876012802124,136,137,80,,1488.25,1500,1155.0,1502.3
2.9062790870666504,137,137,77,,1489.3,1500,1155.75,1502.3
2.9276912212371826,138,136,81,,1490.53,1500,1154.75,1502.4000000000001
2.94909405708313,139,136,79,,1490.8150000000001,1500,1155.25,1502.4000000000001
2.9704971313476562,140,135,79,,1492.0450000000001,1500,1155.25,1502.5
2.991901159286499,141,135,78,,1491.9449999999999,1500,1155.5,1502.5
3.013301134109497,142,134,70,,1491.8050000000001,1500,1157.5,1502.5999999999999
3.0347142219543457,143,122,68,,1490.5650000000001,1500,1158.0,1503.8
3.0561342239379883,144,121,66,,1490.4300000000001,1500,1158.5,1503.9000000000001
3.0775492191314697,145,101,63,,1488.49,1500,1159.25,1505.9000000000001
3.098968029022217,146,99,59,,1488.3599999999999,1500,1160.25,1506.0999999999999
3.120408058166504,147,119,59,,1490.27,1500,1160.25,1504.0999999999999
3.141834020614624,148,105,54,,1488.1849999999999,1500,1161.5,1505.5
3.163243055343628,149,122,54,,1489.0550000000001,1500,1161.5,1503.8
3.1846601963043213,150,122,50,,1487.0799999999999,1500,1162.5,1503.8
3.2060320377349854,151,,,,1488.595,1500,1150.0,1500.0
3.2276082038879395,152,,,,1487.5650000000001,1500,1150.0,1500.0
3.2499330043792725,153,,,,1486.355,1500,1150.0,1500.0
3.272212028503418,154,,,,1486.22,1500,1150.0,1500.0
3.2944869995117188,155,,,,1487.1849999999999,1500,1150.0,1500.0
3.3167710304260254,156,,,,1490.54,1500,1150.0,1500.0
3.3390591144561768,157,,,,1492.7950000000001,1500,1150.0,1500.0
3.3615610599517822,158,179,61,,1497.625,1500,1159.75,1498.0999999999999
3.3840770721435547,159,,,,1497.8150000000001,1500,1150.0,1500.0
3.406360149383545,160,,,,1499.905,1500,1150.0,1500.0
3.428650140762329,161,,,,1499.905,1500,1150.0,1500.0
3.450937032699585,162,,,,1499.905,1500,1150.0,1500.0
3.473358154296875,163,,,,1501.0450000000001,1500,1150.0,1500.0
3.49566912651062,164,,,,1501.0450000000001,1500,1150.0,1500.0
3.5179340839385986,165,,,,1501.0450000000001,1500,1150.0,1500.0
3.540335178375244,166,199,99,,1504.75,1500,1150.25,1496.0999999999999
3.562880039215088,167,125,87,,1497.5250000000001,1500,1153.25,1503.5
3.5853869915008545,168,101,88,,1494.375,1500,1153.0,1505.9000000000001
3.6078920364379883,169,97,90,,1494.29,1500,1152.5,1506.3
3.630418062210083,170,99,95,,1494.7950000000001,1500,1151.25,1506.0999999999999
3.652942180633545,171,123,90,,1499.72,1500,1152.5,1503.7
3.675448179244995,172,135,91,,1498.9449999999999,1500,1152.25,1502.5
3.697942018508911,173,136,88,,1495.625,1500,1153.0,1502.4000000000001
3.720454216003418,174,138,82,,1492.155,1500,1154.5,1502.2
3.7429821491241455,175,137,82,,1488.51,1500,1154.5,1502.3
3.765533208847046,176,138,82,,1484.355,1500,1154.5,1502.2
3.7880470752716064,177,138,92,,1484.8900000000001,1500,1152.0,1502.2
3.8105580806732178,178,138,97,,1486.8050000000001,1500,1150.75,1502.2
3.8331429958343506,179,122,101,,1487.54,1500,1149.75,1503.8
3.8558452129364014,180,111,106,,1488.6600000000001,1500,1148.5,1504.9000000000001
3.878416061401367,181,117,112,,1490.1900000000001,1500,1147.0,1504.3
3.900973081588745,182,121,116,,1490.8399999999999,1500,1146.0,1503.9000000000001
3.923643112182617,183,118,121,,1490.75,1500,1144.75,1504.2
3.946489095687866,184,112,102,,1489.3199999999999,1500,1149.5,1504.8
3.96905517578125,185,115,128,,1488.1700000000001,1500,1143.0,1504.5
3.991631031036377,186,114,149,,1486.9300000000001,1500,1137.75,1504.5999999999999
4.014252185821533,187,111,144,,1485.7449999999999,1500,1139.0,1504.9000000000001
4.036787033081055,188,121,145,,1485.6300000000001,1500,1138.75,1503.9000000000001
4.059316158294678,189,117,146,,1484.655,1500,1138.5,1504.3
4.081899166107178,190,122,147,,1485.3399999999999,1500,1138.25,1503.8
4.104485034942627,191,116,148,,1484.5650000000001,1500,1138.0,1504.4000000000001
4.127032041549683,192,120,150,,1484.3699999999999,1500,1137.5,1504.0
4.149545192718506,193,119,150,,1484.4449999999999,1500,1137.5,1504.0999999999999
4.172101020812988,194,142,152,,1486.895,1500,1137.0,1501.8
4.194615125656128,195,122,166,,1485.28,1500,1135,1503.8
4.217047214508057,196,123,165,,1485.4549999999999,1500,1135,1503.7
4.239492177963257,197,117,145,,1485.365,1500,1138.75,1504.3
4.262044191360474,198,118,142,,1485.3599999999999,1500,1139.5,1504.2
4.284556150436401,199,149,137,,1489.8,1500,1140.75,1501.0999999999999
4.307070016860962,200,149,134,,1489.665,1500,1141.5,1501.0999999999999
4.329592227935791,201,149,131,,1489.9200000000001,1500,1142.25,1501.0999999999999
4.352119207382202,202,150,129,,1489.6900000000001,1500,1142.75,1501.0
4.374633073806763,203,149,126,,1489.3800000000001,1500,1143.5,1501.0999999999999
4.39715313911438,204,148,121,,1489.6700000000001,1500,1144.75,1501.2
4.419672012329102,205,147,129,,1491.0650000000001,1500,1142.75,1501.3
4.442205190658569,206,145,126,,1492.3150000000001,1500,1143.5,1501.5
4.464716196060181,207,143,116,,1493.9649999999999,1500,1146.0,1501.7
4.487236022949219,208,143,115,,1495.7,1500,1146.25,1501.7
4.509736061096191,209,142,105,,1495.575,1500,1148.75,1501.8
4.53224515914917,210,180,104,,1499.0999999999999,1500,1149.0,1498.0
4.5547401905059814,211,179,94,,1498.6099999999999,1500,1151.5,1498.0999999999999
4.577272176742554,212,101,87,,1490.635,1500,1153.25,1505.9000000000001
4.599786043167114,213,188,78,,1498.78,1500,1155.5,1497.2
4.622295141220093,214,194,77,,1498.79,1500,1155.75,1496.5999999999999
4.644819021224976,215,194,78,,1500.5350000000001,1500,1155.5,1496.5999999999999
4.667344093322754,216,193,69,,1502.2349999999999,1500,1157.75,1496.7
4.689889192581177,217,194,64,,1499.5599999999999,1500,1159.0,1496.5999999999999
4.712328195571899,218,,,,1498.7750000000001,1500,1150.0,1500.0
4.734629154205322,219,,,,1501.8050000000001,1500,1150.0,1500.0
4.7569050788879395,220,,,,1502.7449999999999,1500,1150.0,1500.0
4.779189109802246,221,,,,1503.6800000000001,1500,1150.0,1500.0
4.8015360832214355,222,,,,1508.9649999999999,1500,1150.0,1500.0
4.823896169662476,223,,,,1507.425,1500,1150.0,1500.0
4.846174001693726,224,,,,1505.5550000000001,1500,1150.0,1500.0
4.868445158004761,225,,,,1503.6849999999999,1500,1150.0,1500.0
4.890717029571533,226,,,,1501.8699999999999,1500,1150.0,1500.0
4.912996053695679,227,,,,1500.0,1500,1150.0,1500.0
4.9352521896362305,228,,,,1500.0,1500,1150.0,1500.0
4.957528114318848,229,,,,1500.0,1500,1150.0,1500.0
4.979786157608032,230,,,,1500.0,1500,1150.0,1500.0
5.002028226852417,231,,,,1500.0,1500,1150.0,1500.0
5.024263143539429,232,,,,1500.0,1500,1150.0,1500.0
5.046512126922607,233,,,,1500.0,1500,1150.0,1500.0
5.068763017654419,234,,,,1500.0,1500,1150.0,1500.0
5.091011047363281,235,,,,1500.0,1500,1150.0,1500.0
5.1134021282196045,236,,,,1500.0,1500,1150.0,1500.0
5.1357221603393555,237,,,,1500.0,1500,1150.0,1500.0
5.158067226409912,238,,,,1500.0,1500,1150.0,1500.0
5.1805431842803955,239,,,,1500.0,1500,1150.0,1500.0
5.202832221984863,240,,,,1500.0,1500,1150.0,1500.0
5.2250940799713135,241,,,,1500.0,1500,1150.0,1500.0
5.247399091720581,242,,,,1500.0,1500,1150.0,1500.0
5.269658088684082,243,,,,1500.0,1500,1150.0,1500.0
5.291906118392944,244,,,,1500.0,1500,1150.0,1500.0
5.31415319442749,245,,,,1500.0,1500,1150.0,1500.0
5.336409091949463,246,,,,1500.0,1500,1150.0,1500.0
5.35868501663208,247,,,,1500.0,1500,1150.0,1500.0
5.381235122680664,248,,,,1500.0,1500,1150.0,1500.0
5.403639078140259,249,,,,1500.0,1500,1150.0,1500.0
5.426019191741943,250,122,59,,1496.3900000000001,1500,1160.25,1503.8
5.448575019836426,251,105,56,,1494.9649999999999,1500,1161.0,1505.5
5.471086025238037,252,103,58,,1495.05,1500,1160.5,1505.7
5.493772029876709,253,118,66,,1496.76,1500,1158.5,1504.2
5.51629900932312,254,118,68,,1496.97,1500,1158.0,1504.2
5.538809061050415,255,118,70,,1494.9000000000001,1500,1157.5,1504.2
5.561395168304443,256,118,73,,1491.8099999999999,1500,1156.75,1504.2
5.583988189697266,257,111,71,,1487.9349999999999,1500,1157.25,1504.9000000000001
5.606516122817993,258,123,76,,1486.8,1500,1156.0,1503.7
5.629022121429443,259,122,73,,1484.3699999999999,1500,1156.75,1503.8
5.651617050170898,260,118,78,,1483.75,1500,1155.5,1504.2
5.674201011657715,261,134,77,,1485.9849999999999,1500,1155.75,1502.5999999999999
5.696741104125977,262,135,80,,1486.405,1500,1155.0,1502.5
5.719255208969116,263,137,75,,1486.8099999999999,1500,1156.25,1502.3
5.741857051849365,264,138,73,,1487.05,1500,1156.75,1502.2
5.764449119567871,265,139,73,,1487.0450000000001,1500,1156.75,1502.0999999999999
5.78696608543396,266,138,75,,1487.8050000000001,1500,1156.25,1502.2
5.809473991394043,267,139,82,,1489.2049999999999,1500,1154.5,1502.0999999999999
5.8320112228393555,268,140,86,,1490.0599999999999,1500,1153.5,1502.0
5.854534149169922,269,140,91,,1490.9300000000001,1500,1152.25,1502.0
5.877035140991211,270,140,95,,1492.0799999999999,1500,1151.25,1502.0
5.8995680809021,271,140,100,,1492.29,1500,1150.0,1502.0
5.9220662117004395,272,140,105,,1492.5050000000001,1500,1148.75,1502.0
5.944577217102051,273,139,112,,1492.575,1500,1147.0,1502.0999999999999
5.967103004455566,274,124,117,,1491.2650000000001,1500,1145.75,1503.5999999999999
5.989636182785034,275,122,122,,1491.21,1500,1144.5,1503.8
6.012129068374634,276,138,124,,1492.9300000000001,1500,1144.0,1502.2
6.034631013870239,277,139,126,,1493.0899999999999,1500,1143.5,1502.0999999999999
6.057157039642334,278,139,130,,1493.0350000000001,1500,1142.5,1502.0999999999999
6.079660177230835,279,132,134,,1491.415,1500,1141.5,1502.8
6.102172136306763,280,137,135,,1490.8499999999999,1500,1141.25,1502.3
6.12471604347229,281,136,135,,1490.6500000000001,1500,1141.25,1502.4000000000001
6.147262096405029,282,130,141,,1490.04,1500,1139.75,1503.0
6.169836044311523,283,134,141,,1490.4649999999999,1500,1139.75,1502.5999999999999
6.1924121379852295,284,133,136,,1490.8,1500,1141.0,1502.7
6.214961051940918,285,127,136,,1491.075,1500,1141.0,1503.3
6.237497091293335,286,131,139,,1491.3900000000001,1500,1140.25,1502.9000000000001
6.260045051574707,287,131,135,,1490.8900000000001,1500,1141.25,1502.9000000000001
6.282587051391602,288,130,132,,1490.5350000000001,1500,1142.0,1503.0
6.305088043212891,289,130,130,,1490.605,1500,1142.5,1503.0
6.327593088150024,290,130,127,,1490.04,1500,1143.25,1503.0
6.350117206573486,291,127,128,,1489.4849999999999,1500,1143.0,1503.3
6.372669219970703,292,129,122,,1489.75,1500,1144.5,1503.0999999999999
6.395183086395264,293,130,116,,1489.6300000000001,1500,1146.0,1503.0
6.417683124542236,294,130,85,,1489.4649999999999,1500,1153.75,1503.0
6.440195083618164,295,130,106,,1489.6300000000001,1500,1148.5,1503.0
6.462698221206665,296,131,76,,1489.49,1500,1156.0,1502.9000000000001
6.485201120376587,297,132,77,,1489.4649999999999,1500,1155.75,1502.8
6.507717132568359,298,133,90,,1489.55,1500,1152.5,1502.7
6.530232191085815,299,134,61,,1489.6300000000001,1500,1159.75,1502.5999999999999
6.552767038345337,300,134,76,,1489.6099999999999,1500,1156.0,1502.5999999999999
6.5753350257873535,301,136,38,,1490.0050000000001,1500,1165,1502.4000000000001
6.597874164581299,302,135,50,,1490.0550000000001,1500,1162.5,1502.5
6.620419025421143,303,134,54,,1490.115,1500,1161.5,1502.5999999999999
6.642951011657715,304,133,49,,1490.24,1500,1162.75,1502.7
6.665503025054932,305,127,41,,1489.895,1500,1164.75,1503.3
6.6880412101745605,306,125,40,,1490.0250000000001,1500,1165.0,1503.5
6.710548162460327,307,122,38,,1489.9549999999999,1500,1165,1503.8
6.733273029327393,308,117,34,,1489.595,1500,1165,1504.3
6.755764007568359,309,115,35,,1489.4300000000001,1500,1165,1504.5
6.778436183929443,310,112,32,,1488.8199999999999,1500,1165,1504.8
6.801131010055542,311,109,31,,1487.9949999999999,1500,1165,1505.0999999999999
6.823962211608887,312,107,29,,1487.155,1500,1165,1505.3
6.846487045288086,313,104,27,,1485.9849999999999,1500,1165,1505.5999999999999
6.868950128555298,314,102,25,,1484.8599999999999,1500,1165,1505.8
6.891456127166748,315,95,22,,1483.4200000000001,1500,1165,1506.5
6.913971185684204,316,92,21,,1482.325,1500,1165,1506.8
6.936413049697876,317,71,11,,1480,1500,1165,1508.9000000000001
6.9587562084198,318,64,8,,1480,1500,1165,1509.5999999999999
6.981006145477295,319,,,,1486.96,1500,1150.0,1500.0
7.0034260749816895,320,,,,1485.7,1500,1150.0,1500.0
7.025745153427124,321,,,,1484.425,1500,1150.0,1500.0
7.048044204711914,322,,,,1482.0,1500,1150.0,1500.0
7.070306062698364,323,,,,1480,1500,1150.0,1500.0
7.092491149902344,324,,,,1482.51,1500,1150.0,1500.0
7.114809989929199,325,,,,1486.085,1500,1150.0,1500.0
7.1371471881866455,326,,,,1489.825,1500,1150.0,1500.0
7.159479141235352,327,,,,1494.72,1500,1150.0,1500.0
7.181826114654541,328,,,,1500.0,1500,1150.0,1500.0
7.204174041748047,329,,,,1500.0,1500,1150.0,1500.0
7.226441144943237,330,,,,1500.0,1500,1150.0,1500.0
7.248722076416016,331,,,,1500.0,1500,1150.0,1500.0
7.270979166030884,332,,,,1500.0,1500,1150.0,1500.0
7.293367147445679,333,,,,1500.0,1500,1150.0,1500.0
7.315632104873657,334,,,,1500.0,1500,1150.0,1500.0
7.337937116622925,335,,,,1500.0,1500,1150.0,1500.0
7.360236167907715,336,,,,1500.0,1500,1150.0,1500.0
7.3825061321258545,337,,,,1500.0,1500,1150.0,1500.0
7.404808044433594,338,,,,1500.0,1500,1150.0,1500.0
7.427087068557739,339,,,,1500.0,1500,1150.0,1500.0
7.449483156204224,340,178,88,,1501.71,1500,1153.0,1498.2
7.471909046173096,341,,,,1499.9100000000001,1500,1150.0,1500.0
7.494300127029419,342,128,92,,1496.8699999999999,1500,1152.0,1503.2
7.516826152801514,343,190,99,,1502.9200000000001,1500,1150.25,1497.0
7.539337158203125,344,191,101,,1502.865,1500,1149.75,1496.9000000000001
7.561938047409058,345,275,71,,1511.77,1500,1157.25,1488.5
7.584524154663086,346,276,74,,1511.29,1500,1156.5,1488.4000000000001
7.607077121734619,347,203,101,,1501.855,1500,1149.75,1495.7
7.629595041275024,348,204,103,,1503.5350000000001,1500,1149.25,1495.5999999999999
7.652139186859131,349,217,101,,1506.4100000000001,1500,1149.75,1494.3
7.674665212631226,350,208,91,,1511.1800000000001,1500,1152.25,1495.2
7.697173118591309,351,204,92,,1517.52,1500,1152.0,1495.5999999999999
7.719685077667236,352,205,91,,1520,1500,1152.25,1495.5
7.742089033126831,353,207,89,,1520,1500,1152.75,1495.3
7.764509201049805,354,210,85,,1520,1500,1153.75,1495.0
7.786895036697388,355,214,80,,1520,1500,1155.0,1494.5999999999999
7.809319019317627,356,218,74,,1517.51,1500,1156.5,1494.2
7.83194899559021,357,221,78,,1517.8399999999999,1500,1155.5,1493.9000000000001
7.854564189910889,358,224,80,,1518.22,1500,1155.0,1493.5999999999999
7.877092123031616,359,233,90,,1518.6199999999999,1500,1152.5,1492.7
7.8996241092681885,360,237,88,,1519.2349999999999,1500,1153.0,1492.3
7.922154188156128,361,240,91,,1520,1500,1152.25,1492.0
7.9445641040802,362,242,96,,1520,1500,1151.0,1491.8
7.966968059539795,363,245,97,,1520,1500,1150.75,1491.5
7.989351034164429,364,247,98,,1520,1500,1150.5,1491.3
8.011824131011963,365,250,99,,1520,1500,1150.25,1491.0
8.034298181533813,366,253,100,,1520,1500,1150.0,1490.7
8.056713104248047,367,253,101,,1520,1500,1149.75,1490.7
8.079121112823486,368,255,101,,1520,1500,1149.75,1490.5
8.10158920288086,369,257,101,,1520,1500,1149.75,1490.3
8.12412714958191,370,261,100,,1520,1500,1150.0,1489.9000000000001
8.146578073501587,371,262,99,,1520,1500,1150.25,1489.8
8.169012069702148,372,263,99,,1520,1500,1150.25,1489.7
8.191480159759521,373,264,99,,1520,1500,1150.25,1489.5999999999999
8.213953018188477,374,265,99,,1520,1500,1150.25,1489.5
8.236353158950806,375,265,98,,1520,1500,1150.5,1489.5
8.259056091308594,376,266,98,,1520,1500,1150.5,1489.4000000000001
8.281563997268677,377,268,95,,1520,1500,1151.25,1489.2
8.304076194763184,378,269,95,,1520,1500,1151.25,1489.0999999999999
8.326553106307983,379,270,95,,1520,1500,1151.25,1489.0
8.349009990692139,380,270,94,,1520,1500,1151.5,1489.0
8.371522188186646,381,270,93,,1520,1500,1151.75,1489.0
8.394000053405762,382,269,92,,1520,1500,1152.0,1489.0999999999999
8.416404008865356,383,269,91,,1520,1500,1152.25,1489.0999999999999
8.438819169998169,384,268,90,,1520,1500,1152.5,1489.2
8.461214065551758,385,267,90,,1520,1500,1152.5,1489.3
8.483753204345703,386,266,89,,1520,1500,1152.75,1489.4000000000001
8.506182193756104,387,265,89,,1520,1500,1152.75,1489.5
8.528585195541382,388,263,88,,1520,1500,1153.0,1489.7
8.551015138626099,389,261,89,,1520,1500,1152.75,1489.9000000000001
8.57354211807251,390,259,88,,1520,1500,1153.0,1490.0999999999999
8.59595799446106,391,257,87,,1520,1500,1153.25,1490.3
8.618369102478027,392,253,87,,1520,1500,1153.25,1490.7
8.640775203704834,393,251,87,,1520,1500,1153.25,1490.9000000000001
8.663193225860596,394,247,87,,1520,1500,1153.25,1491.3
8.685617208480835,395,244,87,,1520,1500,1153.25,1491.5999999999999
8.708032131195068,396,242,85,,1520,1500,1153.75,1491.8
8.730445146560669,397,238,84,,1520,1500,1154.0,1492.2
8.752853155136108,398,235,85,,1520,1500,1153.75,1492.5
8.775284051895142,399,230,86,,1520,1500,1153.5,1493.0
8.798005104064941,400,225,84,,1520,1500,1154.0,1493.5
8.82067608833313,401,218,84,,1520,1500,1154.0,1494.2
8.843644142150879,402,207,88,,1520,1500,1153.0,1495.3
8.866358041763306,403,198,68,,1520,1500,1158.0,1496.2
8.889050006866455,404,196,72,,1520,1500,1157.0,1496.4000000000001
8.911783218383789,405,189,62,,1520,1500,1159.5,1497.0999999999999
8.934534072875977,406,184,87,,1520,1500,1153.25,1497.5999999999999
8.957247018814087,407,180,72,,1518.5899999999999,1500,1157.0,1498.0
8.98012113571167,408,175,87,,1516.1700000000001,1500,1153.25,1498.5
9.002918004989624,409,170,87,,1513.9300000000001,1500,1153.25,1499.0
9.025719165802002,410,166,88,,1511.665,1500,1153.0,1499.4000000000001
9.048543214797974,411,157,87,,1509.03,1500,1153.25,1500.3
9.071468114852905,412,153,86,,1507.28,1500,1153.5,1500.7
9.094325065612793,413,149,86,,1505.7449999999999,1500,1153.5,1501.0999999999999
9.117149114608765,414,146,86,,1504.135,1500,1153.5,1501.4000000000001
9.140046119689941,415,142,86,,1502.5899999999999,1500,1153.5,1501.8
9.162851095199585,416,138,86,,1500.8,1500,1153.5,1502.2
9.185644149780273,417,134,86,,1499.01,1500,1153.5,1502.5999999999999
9.208447217941284,418,132,87,,1497.4649999999999,1500,1153.25,1502.8
9.231245040893555,419,130,87,,1496.0250000000001,1500,1153.25,1503.0
9.254181146621704,420,125,88,,1494.29,1500,1153.0,1503.5
9.277002096176147,421,122,88,,1493.0250000000001,1500,1153.0,1503.8
9.299814224243164,422,121,88,,1491.9449999999999,1500,1153.0,1503.9000000000001
9.322715044021606,423,119,88,,1490.875,1500,1153.0,1504.0999999999999
9.345291137695312,424,118,88,,1489.9549999999999,1500,1153.0,1504.2
9.3678560256958,425,116,88,,1488.865,1500,1153.0,1504.4000000000001
9.390362024307251,426,115,88,,1487.9200000000001,1500,1153.0,1504.5
9.412853002548218,427,113,87,,1487.0450000000001,1500,1153.25,1504.7
9.435372114181519,428,113,88,,1486.3599999999999,1500,1153.0,1504.7
9.457894086837769,429,111,88,,1485.5350000000001,1500,1153.0,1504.9000000000001
9.48043704032898,430,110,88,,1484.97,1500,1153.0,1505.0
9.502990007400513,431,111,87,,1484.7049999999999,1500,1153.25,1504.9000000000001
9.525511026382446,432,111,87,,1484.2750000000001,1500,1153.25,1504.9000000000001
9.548044204711914,433,111,86,,1483.9549999999999,1500,1153.5,1504.9000000000001
9.570550203323364,434,113,86,,1483.76,1500,1153.5,1504.7
9.59305214881897,435,111,87,,1483.2249999999999,1500,1153.25,1504.9000000000001
9.61555004119873,436,112,89,,1483.0999999999999,1500,1152.75,1504.8
9.63806414604187,437,112,91,,1482.9849999999999,1500,1152.25,1504.8
9.660600185394287,438,117,92,,1483.345,1500,1152.0,1504.3
9.683399200439453,439,121,91,,1483.8150000000001,1500,1152.25,1503.9000000000001
9.70595121383667,440,119,91,,1483.6300000000001,1500,1152.25,1504.0999999999999
9.72848105430603,441,123,91,,1484.03,1500,1152.25,1503.7
9.750992059707642,442,125,90,,1484.22,1500,1152.5,1503.5
9.77362608909607,443,128,90,,1484.7950000000001,1500,1152.5,1503.2
9.79612922668457,444,131,90,,1485.4849999999999,1500,1152.5,1502.9000000000001
9.81863808631897,445,134,89,,1486.1500000000001,1500,1152.75,1502.5999999999999
9.841148138046265,446,139,88,,1487.175,1500,1153.0,1502.0999999999999
9.863798141479492,447,143,88,,1488.2,1500,1153.0,1501.7
9.886333227157593,448,148,87,,1489.2049999999999,1500,1153.25,1501.2
9.908847093582153,449,151,86,,1489.9549999999999,1500,1153.5,1500.9000000000001
9.931421995162964,450,156,86,,1491.1700000000001,1500,1153.5,1500.4000000000001
9.95405101776123,451,167,84,,1493.01,1500,1154.0,1499.3
9.976569175720215,452,171,83,,1494.26,1500,1154.25,1498.9000000000001
9.99908709526062,453,178,82,,1495.9100000000001,1500,1154.5,1498.2
10.021676063537598,454,182,80,,1497.2550000000001,1500,1155.0,1497.8
10.044341087341309,455,187,80,,1498.8099999999999,1500,1155.0,1497.3
10.06686019897461,456,193,78,,1500.8199999999999,1500,1155.5,1496.7
10.089361190795898,457,199,76,,1502.8199999999999,1500,1156.0,1496.0999999999999
10.111952066421509,458,206,76,,1505.03,1500,1156.0,1495.4000000000001
10.134587049484253,459,210,76,,1506.9949999999999,1500,1156.0,1495.0
10.157129049301147,460,215,75,,1509.0599999999999,1500,1156.25,1494.5
10.179650068283081,461,225,74,,1511.3299999999999,1500,1156.5,1493.5
10.202184200286865,462,230,74,,1513.2149999999999,1500,1156.5,1493.0
10.224729061126709,463,235,74,,1515.1099999999999,1500,1156.5,1492.5
10.247266054153442,464,241,75,,1517.095,1500,1156.25,1491.9000000000001
10.269772052764893,465,242,75,,1518.5999999999999,1500,1156.25,1491.8
10.292288064956665,466,246,76,,1520,1500,1156.0,1491.4000000000001
10.314728021621704,467,248,77,,1520,1500,1155.75,1491.2
10.33716106414795,468,251,77,,1520,1500,1155.75,1490.9000000000001
10.359644174575806,469,253,77,,1520,1500,1155.75,1490.7
10.382058143615723,470,253,77,,1520,1500,1155.75,1490.7
10.404476165771484,471,257,78,,1520,1500,1155.5,1490.3
10.426897048950195,472,261,78,,1520,1500,1155.5,1489.9000000000001
10.44929814338684,473,263,78,,1520,1500,1155.5,1489.7
10.471756219863892,474,266,78,,1520,1500,1155.5,1489.4000000000001
10.49422311782837,475,269,79,,1520,1500,1155.25,1489.0999999999999
10.516618013381958,476,270,81,,1520,1500,1154.75,1489.0
10.539008140563965,477,272,81,,1520,1500,1154.75,1488.8
10.561468124389648,478,274,82,,1520,1500,1154.5,1488.5999999999999
10.583956003189087,479,276,82,,1520,1500,1154.5,1488.4000000000001
10.606410026550293,480,277,83,,1520,1500,1154.25,1488.3
10.628836154937744,481,279,84,,1520,1500,1154.0,1488.0999999999999
10.651260137557983,482,280,85,,1520,1500,1153.75,1488.0
10.673817157745361,483,283,87,,1520,1500,1153.25,1487.7
10.696246147155762,484,283,87,,1520,1500,1153.25,1487.7
10.718648195266724,485,284,88,,1520,1500,1153.0,1487.5999999999999
10.741044998168945,486,284,89,,1520,1500,1152.75,1487.5999999999999
10.763577222824097,487,284,90,,1520,1500,1152.5,1487.5999999999999
10.786009073257446,488,284,90,,1520,1500,1152.5,1487.5999999999999
10.808422088623047,489,283,89,,1520,1500,1152.75,1487.7
10.830828189849854,490,282,89,,1520,1500,1152.75,1487.8
10.853376150131226,491,282,89,,1520,1500,1152.75,1487.8
10.875789165496826,492,281,88,,1520,1500,1153.0,1487.9000000000001
10.898205041885376,493,279,87,,1520,1500,1153.25,1488.0999999999999
10.920611143112183,494,277,87,,1520,1500,1153.25,1488.3
10.943006038665771,495,275,87,,1520,1500,1153.25,1488.5
10.965397119522095,496,273,87,,1520,1500,1153.25,1488.7
10.987802028656006,497,271,87,,1520,1500,1153.25,1488.9000000000001
11.010201215744019,498,269,87,,1520,1500,1153.25,1489.0999999999999
11.032612085342407,499,266,87,,1520,1500,1153.25,1489.4000000000001
11.055023193359375,500,264,87,,1520,1500,1153.25,1489.5999999999999
11.081698179244995,501,262,87,,1520,1500,1153.25,1489.8
11.104340076446533,502,259,87,,1520,1500,1153.25,1490.0999999999999
11.126819133758545,503,253,88,,1520,1500,1153.0,1490.7
11.149237155914307,504,251,88,,1520,1500,1153.0,1490.9000000000001
11.171732187271118,505,247,89,,1520,1500,1152.75,1491.3
11.194204092025757,506,244,90,,1520,1500,1152.5,1491.5999999999999
11.216613054275513,507,240,91,,1520,1500,1152.25,1492.0
11.239006042480469,508,237,92,,1520,1500,1152.0,1492.3
11.261495113372803,509,233,92,,1520,1500,1152.0,1492.7
11.28432822227478,510,228,93,,1520,1500,1151.75,1493.2
11.306892156600952,511,221,93,,1520,1500,1151.75,1493.9000000000001
11.329371213912964,512,215,94,,1520,1500,1151.5,1494.5
11.351891994476318,513,203,93,,1520,1500,1151.75,1495.7
11.374394178390503,514,197,94,,1520,1500,1151.5,1496.3
11.396794080734253,515,190,93,,1520,1500,1151.75,1497.0
11.419164180755615,516,185,93,,1520,1500,1151.75,1497.5
11.441626071929932,517,178,92,,1519.405,1500,1152.0,1498.2
11.464219093322754,518,172,92,,1517.0899999999999,1500,1152.0,1498.8
11.486741065979004,519,166,91,,1514.665,1500,1152.25,1499.4000000000001
11.509259223937988,520,161,90,,1512.22,1500,1152.5,1499.9000000000001
11.531848192214966,521,156,91,,1509.885,1500,1152.25,1500.4000000000001
11.554437160491943,522,151,89,,1507.4849999999999,1500,1152.75,1500.9000000000001
11.576965093612671,523,142,87,,1505.03,1500,1153.25,1501.8
11.599487066268921,524,137,85,,1502.97,1500,1153.75,1502.3
11.622002124786377,525,132,86,,1501.02,1500,1153.5,1502.8
11.644505023956299,526,128,85,,1499.165,1500,1153.75,1503.2
11.667018175125122,527,123,85,,1497.3199999999999,1500,1153.75,1503.7
11.689521074295044,528,119,83,,1495.385,1500,1154.25,1504.0999999999999
11.71204400062561,529,116,84,,1493.595,1500,1154.0,1504.4000000000001
11.734547138214111,530,114,84,,1491.8900000000001,1500,1154.0,1504.5999999999999
11.757083177566528,531,111,83,,1490.135,1500,1154.25,1504.9000000000001
11.779592037200928,532,108,84,,1488.3699999999999,1500,1154.0,1505.2
11.802113056182861,533,107,83,,1487.0650000000001,1500,1154.25,1505.3
11.824649095535278,534,106,84,,1485.8599999999999,1500,1154.0,1505.4000000000001
11.847195148468018,535,105,82,,1484.8150000000001,1500,1154.5,1505.5
11.869689226150513,536,104,83,,1483.8150000000001,1500,1154.25,1505.5999999999999
11.892213106155396,537,103,83,,1482.915,1500,1154.25,1505.7
11.914715051651001,538,103,83,,1482.2750000000001,1500,1154.25,1505.7
11.937215089797974,539,103,82,,1481.74,1500,1154.5,1505.7
11.959719181060791,540,104,82,,1481.3499999999999,1500,1154.5,1505.5999999999999
11.982241153717041,541,104,82,,1480.9649999999999,1500,1154.5,1505.5999999999999
12.004778146743774,542,104,83,,1480.6849999999999,1500,1154.25,1505.5999999999999
12.027311086654663,543,105,83,,1480.5550000000001,1500,1154.25,1505.5
12.049823999404907,544,107,82,,1480.5699999999999,1500,1154.5,1505.3
12.072371006011963,545,109,82,,1480.6900000000001,1500,1154.5,1505.0999999999999
12.094897031784058,546,110,83,,1480.76,1500,1154.25,1505.0
12.117434024810791,547,112,81,,1480.9749999999999,1500,1154.75,1504.8
12.139954090118408,548,114,81,,1481.24,1500,1154.75,1504.5999999999999
12.162521123886108,549,116,79,,1481.615,1500,1155.25,1504.4000000000001
12.185062170028687,550,119,79,,1482.1400000000001,1500,1155.25,1504.0999999999999
12.207581043243408,551,122,78,,1482.71,1500,1155.5,1503.8
12.23010516166687,552,125,78,,1483.385,1500,1155.5,1503.5
12.25265121459961,553,127,76,,1484.0150000000001,1500,1156.0,1503.3
12.27518105506897,554,131,75,,1484.835,1500,1156.25,1502.9000000000001
12.29770302772522,555,140,74,,1486.1800000000001,1500,1156.5,1502.0
12.32020902633667,556,146,73,,1487.3199999999999,1500,1156.75,1501.4000000000001
12.342747211456299,557,152,72,,1488.5,1500,1157.0,1500.8
12.365286111831665,558,156,72,,1489.47,1500,1157.0,1500.4000000000001
12.387800216674805,559,162,71,,1490.74,1500,1157.25,1499.8
12.410315990447998,560,167,71,,1492.26,1500,1157.25,1499.3
12.433128118515015,561,175,70,,1494.2349999999999,1500,1157.5,1498.5
12.455685138702393,562,179,71,,1495.9849999999999,1500,1157.25,1498.0999999999999
12.478233098983765,563,186,70,,1498.1300000000001,1500,1157.5,1497.4000000000001
12.500749111175537,564,193,71,,1500.3800000000001,1500,1157.25,1496.7
12.523251056671143,565,207,71,,1503.0650000000001,1500,1157.25,1495.3
12.545786142349243,566,213,71,,1505.0699999999999,1500,1157.25,1494.7
12.56833004951477,567,220,71,,1507.05,1500,1157.25,1494.0
12.590838193893433,568,227,71,,1509.1949999999999,1500,1157.25,1493.3
12.61349105834961,569,233,71,,1511.3,1500,1157.25,1492.7
12.636017084121704,570,239,72,,1513.9400000000001,1500,1157.0,1492.0999999999999
12.658555030822754,571,242,73,,1516.1849999999999,1500,1156.75,1491.8
12.68108606338501,572,246,73,,1518.71,1500,1156.75,1491.4000000000001
12.703724145889282,573,249,73,,1520,1500,1156.75,1491.0999999999999
12.72617506980896,574,253,74,,1520,1500,1156.5,1490.7
12.748601198196411,575,260,75,,1520,1500,1156.25,1490.0
12.771006107330322,576,263,75,,1520,1500,1156.25,1489.7
12.793539047241211,577,266,76,,1520,1500,1156.0,1489.4000000000001
12.815953016281128,578,270,77,,1520,1500,1155.75,1489.0
12.838338136672974,579,273,77,,1520,1500,1155.75,1488.7
12.860737085342407,580,276,77,,1520,1500,1155.75,1488.4000000000001
12.883129119873047,581,278,78,,1520,1500,1155.5,1488.2
12.905517101287842,582,281,78,,1520,1500,1155.5,1487.9000000000001
12.927911043167114,583,283,78,,1520,1500,1155.5,1487.7
12.950325012207031,584,285,78,,1520,1500,1155.5,1487.5
12.97271203994751,585,286,79,,1520,1500,1155.25,1487.4000000000001
12.995113134384155,586,289,80,,1520,1500,1155.0,1487.0999999999999
13.01752519607544,587,290,80,,1520,1500,1155.0,1487.0
13.039897203445435,588,290,81,,1520,1500,1154.75,1487.0
13.062281131744385,589,290,81,,1520,1500,1154.75,1487.0
13.084672212600708,590,290,82,,1520,1500,1154.5,1487.0
13.107062101364136,591,289,82,,1520,1500,1154.5,1487.0999999999999
13.129502058029175,592,287,82,,1520,1500,1154.5,1487.3
13.151950120925903,593,286,82,,1520,1500,1154.5,1487.4000000000001
13.174418210983276,594,284,81,,1520,1500,1154.75,1487.5999999999999
