time,frame,x,y,size_inv,roll,pitch,thrust,yaw
0.00034809112548828125,1,152,79,0.0026041666666666665,1489.0,1487.6222826086957,1380.25,1500
0.02209615707397461,2,152,79,0.002717391304347826,1488.0,1490.0,1380.25,1500
0.043456077575683594,3,152,79,0.002717391304347826,1487.0,1490.0,1380.25,1500
0.06475496292114258,4,152,79,0.002777777777777778,1486.0,1491.268115942029,1380.25,1500
0.0859529972076416,5,152,80,0.002898550724637681,1485.0,1493.804347826087,1380.0,1500
0.10711503028869629,6,152,79,0.002717391304347826,1484.0,1490.0,1380.25,1500
0.12835907936096191,7,152,79,0.0026041666666666665,1483.0,1487.6222826086957,1380.25,1500
0.1498870849609375,8,151,80,0.0030303030303030303,1480.625,1496.5711462450593,1380.0,1500
0.17124700546264648,9,152,79,0.002717391304347826,1480.875,1490.0,1380.25,1500
0.19260096549987793,10,152,80,0.002898550724637681,1480,1493.804347826087,1380.0,1500
0.21400713920593262,11,152,79,0.002717391304347826,1480,1490.0,1380.25,1500
0.23555707931518555,12,152,79,0.002717391304347826,1480,1490.0,1380.25,1500
0.2570760250091553,13,151,79,0.002840909090909091,1480,1492.5938735177865,1380.25,1500
0.2786540985107422,14,152,79,0.002717391304347826,1480,1490.0,1380.25,1500
0.30015110969543457,15,152,79,0.002840909090909091,1480,1492.5938735177865,1380.25,1500
0.3217041492462158,16,152,79,0.0030303030303030303,1480,1496.5711462450593,1380.25,1500
0.3432331085205078,17,152,80,0.0030303030303030303,1480,1496.5711462450593,1380.0,1500
0.36480712890625,18,154,80,0.0026041666666666665,1482.625,1487.6222826086957,1380.0,1500
0.3864150047302246,19,154,81,0.002898550724637681,1482.875,1493.804347826087,1379.75,1500
0.40822505950927734,20,155,81,0.002717391304347826,1484.5,1490.0,1379.75,1500
0.4299280643463135,21,155,82,0.0030303030303030303,1484.875,1496.5711462450593,1379.5,1500
0.45156311988830566,22,155,83,0.0030303030303030303,1485.25,1496.5711462450593,1379.25,1500
0.47330403327941895,23,157,84,0.002898550724637681,1488.5,1493.804347826087,1379.0,1500
0.49506211280822754,24,157,85,0.0030303030303030303,1489.125,1496.5711462450593,1378.75,1500
0.5167670249938965,25,158,86,0.0030303030303030303,1491.125,1496.5711462450593,1378.5,1500
0.5385620594024658,26,158,87,0.002840909090909091,1491.875,1492.5938735177865,1378.25,1500
0.560276985168457,27,159,89,0.002777777777777778,1494.0,1491.268115942029,1377.75,1500
0.5820310115814209,28,158,89,0.003246753246753247,1493.25,1501.1166007905138,1377.75,1500
0.6037380695343018,29,159,90,0.002898550724637681,1495.125,1493.804347826087,1377.5,1500
0.6254920959472656,30,159,89,0.0030303030303030303,1495.625,1496.5711462450593,1377.75,1500
0.6471970081329346,31,160,89,0.002898550724637681,1497.5,1493.804347826087,1377.75,1500
0.669079065322876,32,160,89,0.002898550724637681,1498.125,1493.804347826087,1377.75,1500
0.6908011436462402,33,160,90,0.002898550724637681,1498.5,1493.804347826087,1377.5,1500
0.7125420570373535,34,161,91,0.002717391304347826,1500.25,1490.0,1377.25,1500
0.7342610359191895,35,161,93,0.002898550724637681,1500.625,1493.804347826087,1376.75,1500
0.756019115447998,36,161,94,0.002898550724637681,1501.0,1493.804347826087,1376.5,1500
0.7778029441833496,37,161,94,0.002717391304347826,1501.25,1490.0,1376.5,1500
0.7995569705963135,38,163,94,0.003289473684210526,1504.375,1502.0137299771168,1376.5,1500
0.821274995803833,39,161,95,0.0030303030303030303,1502.125,1496.5711462450593,1376.25,1500
0.8430089950561523,40,162,95,0.002898550724637681,1503.75,1493.804347826087,1376.25,1500
0.8647699356079102,41,162,95,0.002840909090909091,1504.0,1492.5938735177865,1376.25,1500
0.886707067489624,42,162,92,0.005050505050505051,1504.25,1510,1377.0,1500
0.9084010124206543,43,162,95,0.0030303030303030303,1504.5,1496.5711462450593,1376.25,1500
0.930156946182251,44,164,95,0.0033333333333333335,1507.375,1502.9347826086957,1376.25,1500
0.9518640041351318,45,162,95,0.0030303030303030303,1505.0,1496.5711462450593,1376.25,1500
0.9736189842224121,46,163,94,0.0030303030303030303,1506.5,1496.5711462450593,1376.5,1500
0.9953820705413818,47,165,93,0.0035087719298245615,1509.5,1506.6189931350114,1376.75,1500
1.0173990726470947,48,164,92,0.002717391304347826,1508.375,1490.0,1377.0,1500
1.0391860008239746,49,164,92,0.0030303030303030303,1508.75,1496.5711462450593,1377.0,1500
1.0609400272369385,50,165,92,0.002717391304347826,1510.375,1490.0,1377.0,1500
1.0826349258422852,51,165,92,0.002777777777777778,1510.75,1491.268115942029,1377.0,1500
1.1043829917907715,52,165,92,0.002898550724637681,1511.125,1493.804347826087,1377.0,1500
1.1260991096496582,53,166,92,0.002898550724637681,1512.875,1493.804347826087,1377.0,1500
1.1479170322418213,54,166,92,0.002898550724637681,1513.125,1493.804347826087,1377.0,1500
1.1696529388427734,55,166,92,0.002898550724637681,1513.625,1493.804347826087,1377.0,1500
1.1914050579071045,56,166,92,0.002777777777777778,1514.0,1491.268115942029,1377.0,1500
1.213118076324463,57,166,92,0.002777777777777778,1514.125,1491.268115942029,1377.0,1500
1.2348570823669434,58,166,91,0.002898550724637681,1514.375,1493.804347826087,1377.25,1500
1.2565679550170898,59,166,91,0.0030303030303030303,1514.625,1496.5711462450593,1377.25,1500
1.2783730030059814,60,167,91,0.002898550724637681,1516.125,1493.804347826087,1377.25,1500
1.3000690937042236,61,166,90,0.0030303030303030303,1515.0,1496.5711462450593,1377.5,1500
1.321871042251587,62,167,89,0.003105590062111801,1516.5,1498.1521739130435,1377.75,1500
1.3435649871826172,63,168,89,0.002898550724637681,1518.0,1493.804347826087,1377.75,1500
1.3653290271759033,64,168,87,0.003246753246753247,1518.25,1501.1166007905138,1378.25,1500
1.3870439529418945,65,168,87,0.002976190476190476,1518.5,1495.4347826086957,1378.25,1500
1.4088411331176758,66,167,86,0.003246753246753247,1517.375,1501.1166007905138,1378.5,1500
1.4305529594421387,67,168,86,0.003105590062111801,1518.875,1498.1521739130435,1378.5,1500
1.4522709846496582,68,168,86,0.002898550724637681,1519.125,1493.804347826087,1378.5,1500
1.4740221500396729,69,169,85,0.003105590062111801,1520,1498.1521739130435,1378.75,1500
1.4957821369171143,70,168,84,0.003105590062111801,1519.625,1498.1521739130435,1379.0,1500
1.5174901485443115,71,168,84,0.003246753246753247,1519.875,1501.1166007905138,1379.0,1500
1.5393731594085693,72,168,85,0.0030303030303030303,1520.0,1496.5711462450593,1378.75,1500
1.561079978942871,73,168,84,0.0033444816053511705,1520.0,1503.1688963210702,1379.0,1500
1.5828299522399902,74,168,84,0.003246753246753247,1520.0,1501.1166007905138,1379.0,1500
1.6045291423797607,75,168,84,0.002976190476190476,1520.0,1495.4347826086957,1379.0,1500
1.626317024230957,76,169,84,0.003105590062111801,1520,1498.1521739130435,1379.0,1500
1.6479930877685547,77,169,82,0.002976190476190476,1520,1495.4347826086957,1379.5,1500
1.6697230339050293,78,169,82,0.003105590062111801,1520,1498.1521739130435,1379.5,1500
1.6913840770721436,79,168,83,0.003105590062111801,1520,1498.1521739130435,1379.25,1500
1.7130820751190186,80,168,84,0.002898550724637681,1520,1493.804347826087,1379.0,1500
1.7351300716400146,81,168,83,0.003105590062111801,1520,1498.1521739130435,1379.25,1500
1.758263111114502,82,168,83,0.003105590062111801,1520,1498.1521739130435,1379.25,1500
1.7812931537628174,83,168,82,0.003787878787878788,1520,1510,1379.5,1500
1.8042161464691162,84,168,83,0.003105590062111801,1520,1498.1521739130435,1379.25,1500
1.8272080421447754,85,168,84,0.002898550724637681,1520,1493.804347826087,1379.0,1500
1.8504481315612793,86,167,84,0.003105590062111801,1518.875,1498.1521739130435,1379.0,1500
1.8735511302947998,87,167,85,0.002976190476190476,1518.625,1495.4347826086957,1378.75,1500
1.8967170715332031,88,167,84,0.002976190476190476,1518.375,1495.4347826086957,1379.0,1500
1.919800043106079,89,167,84,0.002898550724637681,1518.25,1493.804347826087,1379.0,1500
1.9429399967193604,90,166,84,0.003105590062111801,1516.75,1498.1521739130435,1379.0,1500
1.966041088104248,91,166,85,0.002898550724637681,1516.5,1493.804347826087,1378.75,1500
1.989267110824585,92,165,85,0.002976190476190476,1514.875,1495.4347826086957,1378.75,1500
2.012350082397461,93,164,86,0.0030303030303030303,1513.125,1496.5711462450593,1378.5,1500
2.0357589721679688,94,164,86,0.0030303030303030303,1512.625,1496.5711462450593,1378.5,1500
2.058889150619507,95,165,86,0.002898550724637681,1513.5,1493.804347826087,1378.5,1500
2.0820319652557373,96,165,86,0.003246753246753247,1513.25,1501.1166007905138,1378.5,1500
2.105104923248291,97,164,85,0.003105590062111801,1511.625,1498.1521739130435,1378.75,1500
2.128275156021118,98,163,85,0.003246753246753247,1509.875,1501.1166007905138,1378.75,1500
2.151430130004883,99,163,85,0.003105590062111801,1509.375,1498.1521739130435,1378.75,1500
2.1745569705963135,100,162,86,0.002777777777777778,1507.625,1491.268115942029,1378.5,1500
2.197688102722168,101,162,86,0.003105590062111801,1507.125,1498.1521739130435,1378.5,1500
2.2208781242370605,102,161,85,0.003246753246753247,1505.375,1501.1166007905138,1378.75,1500
2.2439820766448975,103,162,85,0.003968253968253968,1506.375,1510,1378.75,1500
2.267012119293213,104,161,85,0.003401360544217687,1504.75,1504.3633540372671,1378.75,1500
2.2901930809020996,105,160,84,0.003105590062111801,1502.875,1498.1521739130435,1379.0,1500
2.313328981399536,106,159,84,0.003246753246753247,1500.875,1501.1166007905138,1379.0,1500
2.3364369869232178,107,160,84,0.003105590062111801,1501.625,1498.1521739130435,1379.0,1500
2.3597559928894043,108,159,83,0.003105590062111801,1499.875,1498.1521739130435,1379.25,1500
2.382983922958374,109,159,83,0.0033444816053511705,1499.375,1503.1688963210702,1379.25,1500
2.4061081409454346,110,159,83,0.0033444816053511705,1499.0,1503.1688963210702,1379.25,1500
2.4290239810943604,111,159,83,0.004273504273504274,1498.625,1510,1379.25,1500
2.45180606842041,112,157,82,0.003246753246753247,1495.625,1501.1166007905138,1379.5,1500
2.474698066711426,113,157,82,0.003105590062111801,1495.0,1498.1521739130435,1379.5,1500
2.497542142868042,114,156,82,0.0033444816053511705,1493.125,1503.1688963210702,1379.5,1500
2.520566940307617,115,156,81,0.003105590062111801,1492.625,1498.1521739130435,1379.75,1500
2.5434110164642334,116,155,80,0.003246753246753247,1490.875,1501.1166007905138,1380.0,1500
2.566291093826294,117,155,80,0.0033444816053511705,1490.25,1503.1688963210702,1380.0,1500
2.589118003845215,118,156,79,0.0037593984962406013,1491.125,1510,1380.25,1500
2.611901044845581,119,153,80,0.0034965034965034965,1486.625,1506.3613560352692,1380.0,1500
2.6347360610961914,120,155,79,0.0037593984962406013,1488.625,1510,1380.25,1500
2.657555103302002,121,154,78,0.0037593984962406013,1486.75,1510,1380.5,1500
2.6804981231689453,122,153,78,0.0037593984962406013,1485.0,1510,1380.5,1500
2.7033121585845947,123,150,77,0.003105590062111801,1480.375,1498.1521739130435,1380.75,1500
2.726180076599121,124,149,77,0.003105590062111801,1480,1498.1521739130435,1380.75,1500
2.749058961868286,125,148,77,0.0034965034965034965,1480,1506.3613560352692,1380.75,1500
2.771857976913452,126,147,75,0.003246753246753247,1480,1501.1166007905138,1381.25,1500
2.7946460247039795,127,147,74,0.003105590062111801,1480,1498.1521739130435,1381.5,1500
2.8174030780792236,128,147,74,0.004273504273504274,1480,1510,1381.5,1500
2.8404901027679443,129,146,74,0.003968253968253968,1480,1510,1381.5,1500
2.863150119781494,130,144,74,0.003246753246753247,1480,1501.1166007905138,1381.5,1500
2.885967969894409,131,143,76,0.0034965034965034965,1480,1506.3613560352692,1381.0,1500
2.908740997314453,132,141,75,0.0034965034965034965,1480,1506.3613560352692,1381.25,1500
2.931550979614258,133,140,74,0.003246753246753247,1480,1501.1166007905138,1381.5,1500
2.954285144805908,134,142,74,0.0037593984962406013,1480,1510,1381.5,1500
2.9769561290740967,135,141,73,0.0037593984962406013,1480,1510,1381.75,1500
2.999629020690918,136,140,73,0.0037593984962406013,1480,1510,1381.75,1500
3.0223090648651123,137,138,73,0.003105590062111801,1480,1498.1521739130435,1381.75,1500
3.0450799465179443,138,137,73,0.003246753246753247,1480,1501.1166007905138,1381.75,1500
3.06794810295105,139,136,73,0.003246753246753247,1480,1501.1166007905138,1381.75,1500
3.0907559394836426,140,138,72,0.0037593984962406013,1480,1510,1382.0,1500
3.1137759685516357,141,135,71,0.003246753246753247,1480,1501.1166007905138,1382.25,1500
3.136626958847046,142,135,72,0.003105590062111801,1480,1498.1521739130435,1382.0,1500
3.15956711769104,143,134,72,0.003246753246753247,1480,1501.1166007905138,1382.0,1500
3.182340145111084,144,133,73,0.0030303030303030303,1480,1496.5711462450593,1381.75,1500
3.20513916015625,145,133,73,0.003246753246753247,1480,1501.1166007905138,1381.75,1500
3.2280609607696533,146,133,74,0.0033444816053511705,1480,1503.1688963210702,1381.5,1500
3.251075029373169,147,132,73,0.003246753246753247,1480,1501.1166007905138,1381.75,1500
3.273837089538574,148,132,74,0.003105590062111801,1480,1498.1521739130435,1381.5,1500
3.2966339588165283,149,131,74,0.003246753246753247,1480,1501.1166007905138,1381.5,1500
3.3194000720977783,150,130,74,0.003246753246753247,1480,1501.1166007905138,1381.5,1500
3.342211961746216,151,130,73,0.003105590062111801,1480,1498.1521739130435,1381.75,1500
3.364967107772827,152,129,72,0.003246753246753247,1480,1501.1166007905138,1382.0,1500
3.3878300189971924,153,129,72,0.003246753246753247,1480,1501.1166007905138,1382.0,1500
3.4106569290161133,154,129,73,0.002898550724637681,1480,1493.804347826087,1381.75,1500
3.433459997177124,155,128,73,0.002898550724637681,1480,1493.804347826087,1381.75,1500
3.4562089443206787,156,127,73,0.0030303030303030303,1480,1496.5711462450593,1381.75,1500
3.479030132293701,157,126,73,0.003246753246753247,1480,1501.1166007905138,1381.75,1500
3.5018341541290283,158,124,73,0.004464285714285714,1480,1510,1381.75,1500
3.524543046951294,159,124,73,0.004464285714285714,1480,1510,1381.75,1500
3.547183036804199,160,124,73,0.004464285714285714,1480,1510,1381.75,1500
3.5700719356536865,161,124,73,0.004464285714285714,1480,1510,1381.75,1500
3.5927209854125977,162,124,73,0.004464285714285714,1480,1510,1381.75,1500
3.615433931350708,163,124,73,0.004464285714285714,1480,1510,1381.75,1500
3.6382241249084473,164,124,73,0.004464285714285714,1480,1510,1381.75,1500
3.6613221168518066,165,124,73,0.004464285714285714,1480,1510,1381.75,1500
3.684307098388672,166,124,73,0.004464285714285714,1480,1510,1381.75,1500
3.7070720195770264,167,124,73,0.004464285714285714,1480,1510,1381.75,1500
3.7298500537872314,168,124,73,0.004464285714285714,1480,1510,1381.75,1500
3.752552032470703,169,124,73,0.004464285714285714,1480,1510,1381.75,1500
3.775141954421997,170,124,73,0.004464285714285714,1480,1510,1381.75,1500
3.7978429794311523,171,124,73,0.004464285714285714,1480,1510,1381.75,1500
3.8205180168151855,172,124,73,0.004464285714285714,1480,1510,1381.75,1500
3.843196153640747,173,124,73,0.004464285714285714,1480,1510,1381.75,1500
3.865792989730835,174,124,73,0.004464285714285714,1480,1510,1381.75,1500
3.889050006866455,175,124,73,0.004464285714285714,1480,1510,1381.75,1500
3.9119319915771484,176,124,73,0.004464285714285714,1480,1510,1381.75,1500
3.9346611499786377,177,124,73,0.004464285714285714,1480,1510,1381.75,1500
3.957296133041382,178,124,73,0.004464285714285714,1480,1510,1381.75,1500
3.9804530143737793,179,124,73,0.004464285714285714,1480,1510,1381.75,1500
4.003849983215332,180,124,73,0.004464285714285714,1480,1510,1381.75,1500
4.027290105819702,181,124,73,0.004464285714285714,1480,1510,1381.75,1500
4.0507800579071045,182,124,73,0.004464285714285714,1480,1510,1381.75,1500
4.073554992675781,183,124,73,0.004464285714285714,1480,1510,1381.75,1500
4.096230983734131,184,124,73,0.004464285714285714,1480,1510,1381.75,1500
4.11891508102417,185,124,73,0.004464285714285714,1480,1510,1381.75,1500
4.14151406288147,186,124,73,0.004464285714285714,1480,1510,1381.75,1500
4.164129972457886,187,124,73,0.004464285714285714,1480,1510,1381.75,1500
4.186699151992798,188,124,73,0.004464285714285714,1480,1510,1381.75,1500
4.209301948547363,189,124,73,0.004464285714285714,1480,1510,1381.75,1500
4.231861114501953,190,124,73,0.004464285714285714,1480,1510,1381.75,1500
4.254486083984375,191,124,73,0.004464285714285714,1480,1510,1381.75,1500
4.277055025100708,192,124,73,0.004464285714285714,1480,1510,1381.75,1500
4.3001549243927,193,124,73,0.004464285714285714,1480,1510,1381.75,1500
4.32279109954834,194,124,73,0.004464285714285714,1480,1510,1381.75,1500
4.345567941665649,195,124,73,0.004464285714285714,1480,1510,1381.75,1500
4.3685081005096436,196,124,73,0.004464285714285714,1480,1510,1381.75,1500
4.391525983810425,197,124,73,0.004464285714285714,1480,1510,1381.75,1500
4.41435694694519,198,124,73,0.004464285714285714,1480,1510,1381.75,1500
4.436979055404663,199,124,73,0.004464285714285714,1480,1510,1381.75,1500
4.459663152694702,200,124,73,0.004464285714285714,1480,1510,1381.75,1500
4.482238054275513,201,124,73,0.004464285714285714,1480,1510,1381.75,1500
4.504857063293457,202,124,73,0.004464285714285714,1480,1510,1381.75,1500
4.527415990829468,203,124,73,0.004464285714285714,1480,1510,1381.75,1500
4.550374984741211,204,124,73,0.004464285714285714,1480,1510,1381.75,1500
4.572947978973389,205,124,73,0.004464285714285714,1480,1510,1381.75,1500
4.595574140548706,206,124,73,0.004464285714285714,1480,1510,1381.75,1500
4.618297100067139,207,124,73,0.004464285714285714,1480,1510,1381.75,1500
4.641113996505737,208,124,73,0.004464285714285714,1480,1510,1381.75,1500
4.663694143295288,209,124,73,0.004464285714285714,1480,1510,1381.75,1500
4.686403036117554,210,124,73,0.004464285714285714,1480,1510,1381.75,1500
4.709187984466553,211,124,73,0.004464285714285714,1480,1510,1381.75,1500
4.731838941574097,212,124,73,0.004464285714285714,1480,1510,1381.75,1500
4.754446029663086,213,124,73,0.004464285714285714,1480,1510,1381.75,1500
4.777066946029663,214,124,73,0.004464285714285714,1480,1510,1381.75,1500
4.799804925918579,215,124,73,0.004464285714285714,1480,1510,1381.75,1500
