time,frame,x,y,size_inv,roll,pitch,thrust,yaw
0,1,154,88,5.2709255745308875e-05,1499.4,1480,1224.0,1500
0.05,2,146,98,5.615453728661276e-05,1498.6,1480,1204.0,1500
0.1,3,136,94,4.6904315196998124e-05,1497.6,1480,1212.0,1500
0.15000000000000002,4,146,115,0.00012610340479192938,1498.6,1480,1170.0,1500
0.2,5,139,102,5.562972852692479e-05,1497.9,1480,1196.0,1500
0.25,6,146,107,7.090187180941577e-05,1498.6,1480,1186.0,1500
0.3,7,164,99,7.764577995185961e-05,1500.4,1480,1202.0,1500
0.35,8,173,64,0.00032938076416337287,1501.3,1480,1250,1500
0.39999999999999997,9,184,104,0.00012406947890818859,1502.4,1480,1192.0,1500
0.44999999999999996,10,215,119,0.0006901311249137336,1505.5,1481.9013112491373,1162.0,1500
0.49999999999999994,11,189,104,0.00027808676307007786,1502.9,1480,1192.0,1500
0.5499999999999999,12,164,85,0.00011022927689594356,1500.4,1480,1230.0,1500
0.6,13,193,106,0.0001824817518248175,1503.3,1480,1188.0,1500
0.65,14,159,61,0.00036310820624546115,1499.9,1480,1250,1500
0.7000000000000001,15,232,112,0.000576036866359447,1507.2,1480.7603686635944,1176.0,1500
0.7500000000000001,16,199,114,0.00021164021164021165,1503.9,1480,1172.0,1500
0.8000000000000002,17,170,111,0.0001435544071202986,1501.0,1480,1178.0,1500
0.8500000000000002,18,153,99,7.793624814901411e-05,1499.3,1480,1202.0,1500
0.9000000000000002,19,156,124,0.000496031746031746,1499.6,1480,1152.0,1500
0.9500000000000003,20,135,126,0.00030525030525030525,1497.5,1480,1150,1500
1.0000000000000002,21,121,78,0.0003846153846153846,1496.1,1480,1244.0,1500
1.0500000000000003,22,120,81,0.0007974481658692185,1496.0,1482.9744816586922,1238.0,1500
1.1000000000000003,23,75,112,0.0032258064516129032,1491.5,1507.258064516129,1176.0,1500
1.1500000000000004,24,102,71,0.010526315789473684,1494.2,1520,1250,1500
1.2000000000000004,25,94,49,0.030303030303030304,1493.4,1520,1250,1500
1.2500000000000004,26,43,42,0.041666666666666664,1488.3,1520,1250,1500
1.3000000000000005,26,,,,1500.0,1500.0,1200.0,1500
1.3500000000000005,26,,,,1500.0,1500.0,1200.0,1500
1.4000000000000006,26,,,,1500.0,1500.0,1200.0,1500
1.4500000000000006,26,,,,1500.0,1500.0,1200.0,1500
1.5000000000000007,26,,,,1500.0,1500.0,1200.0,1500
1.5500000000000007,26,,,,1500.0,1500.0,1200.0,1500
1.6000000000000008,26,,,,1500.0,1500.0,1200.0,1500
1.6500000000000008,26,,,,1500.0,1500.0,1200.0,1500
1.7000000000000008,26,,,,1500.0,1500.0,1200.0,1500
1.7500000000000009,26,,,,1500.0,1500.0,1200.0,1500
1.800000000000001,26,,,,1500.0,1500.0,1200.0,1500
1.850000000000001,27,107,71,0.006666666666666667,1494.7,1520,1250,1500
1.900000000000001,28,121,93,0.006060606060606061,1496.1,1520,1214.0,1500
1.950000000000001,29,148,60,0.00101010101010101,1498.8,1485.1010101010102,1250,1500
2.000000000000001,30,187,99,0.0012254901960784314,1502.7,1487.2549019607843,1202.0,1500
2.0500000000000007,31,190,99,0.00117096018735363,1503.0,1486.7096018735363,1202.0,1500
2.1000000000000005,32,176,87,0.0005555555555555556,1501.6,1480.5555555555557,1226.0,1500
2.1500000000000004,33,156,88,0.0003546099290780142,1499.6,1480,1224.0,1500
2.2,34,193,104,0.00032092426187419767,1503.3,1480,1192.0,1500
2.25,35,204,95,0.0005081300813008131,1504.4,1480.081300813008,1210.0,1500
2.3,36,179,84,0.0003770739064856712,1501.9,1480,1232.0,1500
2.3499999999999996,37,195,102,0.00012218963831867058,1503.5,1480,1196.0,1500
2.3999999999999995,38,163,84,5.208333333333334e-05,1500.3,1480,1232.0,1500
2.4499999999999993,39,162,83,5.847953216374269e-05,1500.2,1480,1234.0,1500
2.499999999999999,40,169,79,7.086167800453515e-05,1500.9,1480,1242.0,1500
2.549999999999999,41,181,93,0.0001722652885443583,1502.1,1480,1214.0,1500
2.5999999999999988,42,210,95,0.0006009615384615385,1505.0,1481.0096153846155,1210.0,1500
2.6499999999999986,43,217,66,0.002457002457002457,1505.7,1499.5700245700245,1250,1500
2.6999999999999984,44,135,88,0.00641025641025641,1497.5,1520,1224.0,1500
2.7499999999999982,45,167,85,0.027777777777777776,1500.7,1520,1230.0,1500
2.799999999999998,46,190,54,0.005291005291005291,1503.0,1520,1250,1500
2.849999999999998,46,,,,1500.0,1500.0,1200.0,1500
2.8999999999999977,47,194,67,0.008,1503.4,1520,1250,1500
2.9499999999999975,48,182,91,0.006944444444444444,1502.2,1520,1218.0,1500
2.9999999999999973,49,184,94,0.0010141987829614604,1502.4,1485.1419878296147,1212.0,1500
3.049999999999997,50,153,98,0.0007739938080495357,1499.3,1482.7399380804954,1204.0,1500
3.099999999999997,51,170,108,0.0002158428663932657,1501.0,1480,1184.0,1500
3.149999999999997,52,183,104,0.00026752273943285177,1502.3,1480,1192.0,1500
3.1999999999999966,53,181,112,0.00018155410312273057,1502.1,1480,1176.0,1500
3.2499999999999964,54,170,125,0.00018338529249954154,1501.0,1480,1150.0,1500
3.2999999999999963,55,175,134,0.00017021276595744682,1501.5,1480,1150,1500
3.349999999999996,56,167,69,0.00012202562538133008,1500.7,1480,1250,1500
3.399999999999996,57,165,100,4.901960784313725e-05,1500.5,1480,1200.0,1500
3.4499999999999957,58,186,88,0.0001417233560090703,1502.6,1480,1224.0,1500
3.4999999999999956,59,179,106,5.668934240362812e-05,1501.9,1480,1188.0,1500
3.5499999999999954,60,197,97,5.401609679684546e-05,1503.7,1480,1206.0,1500
3.599999999999995,61,222,97,6.66000666000666e-05,1506.2,1480,1206.0,1500
3.649999999999995,62,236,98,7.368110816386678e-05,1507.6,1480,1204.0,1500
3.699999999999995,63,212,82,0.0006060606060606061,1505.2,1481.060606060606,1236.0,1500
3.7499999999999947,64,232,127,0.00267379679144385,1507.2,1501.7379679144385,1150,1500
3.7999999999999945,65,229,75,0.0018181818181818182,1506.9,1493.1818181818182,1250.0,1500
3.8499999999999943,66,245,67,0.0006451612903225806,1508.5,1481.4516129032259,1250,1500
3.899999999999994,67,196,108,0.00013020833333333333,1503.6,1480,1184.0,1500
3.949999999999994,68,194,108,8.911067545891998e-05,1503.4,1480,1184.0,1500
3.999999999999994,69,225,61,0.00022396416573348266,1506.5,1480,1250,1500
4.049999999999994,70,173,97,5.031952900920847e-05,1501.3,1480,1206.0,1500
4.099999999999993,71,175,85,0.000224517287831163,1501.5,1480,1230.0,1500
4.149999999999993,72,167,84,0.0001478852410529429,1500.7,1480,1232.0,1500
4.199999999999993,73,154,96,5.1179691898254774e-05,1499.4,1480,1208.0,1500
4.249999999999993,74,144,91,4.700352526439483e-05,1498.4,1480,1218.0,1500
4.299999999999993,75,148,86,7.4487895716946e-05,1498.8,1480,1228.0,1500
4.3499999999999925,76,152,64,0.00012202562538133008,1499.2,1480,1250,1500
4.399999999999992,77,125,32,0.0024509803921568627,1496.5,1499.5098039215686,1250,1500
4.449999999999992,78,173,1,0.008771929824561403,1501.3,1520,1250,1500
4.499999999999992,78,,,,1500.0,1500.0,1200.0,1500
4.549999999999992,78,,,,1500.0,1500.0,1200.0,1500
4.599999999999992,78,,,,1500.0,1500.0,1200.0,1500
4.6499999999999915,78,,,,1500.0,1500.0,1200.0,1500
4.699999999999991,78,,,,1500.0,1500.0,1200.0,1500
4.749999999999991,78,,,,1500.0,1500.0,1200.0,1500
4.799999999999991,78,,,,1500.0,1500.0,1200.0,1500
4.849999999999991,78,,,,1500.0,1500.0,1200.0,1500
4.899999999999991,78,,,,1500.0,1500.0,1200.0,1500
4.94999999999999,78,,,,1500.0,1500.0,1200.0,1500
4.99999999999999,78,,,,1500.0,1500.0,1200.0,1500
5.04999999999999,78,,,,1500.0,1500.0,1200.0,1500
5.09999999999999,78,,,,1500.0,1500.0,1200.0,1500
5.14999999999999,78,,,,1500.0,1500.0,1200.0,1500
5.1999999999999895,78,,,,1500.0,1500.0,1200.0,1500
5.249999999999989,78,,,,1500.0,1500.0,1200.0,1500
5.299999999999989,78,,,,1500.0,1500.0,1200.0,1500
5.349999999999989,78,,,,1500.0,1500.0,1200.0,1500
5.399999999999989,78,,,,1500.0,1500.0,1200.0,1500
5.449999999999989,79,181,20,0.015625,1502.1,1520,1250,1500
5.4999999999999885,80,182,34,0.007246376811594203,1502.2,1520,1250,1500
5.549999999999988,81,159,57,0.002136752136752137,1499.9,1496.3675213675215,1250,1500
5.599999999999988,82,196,68,0.0035842293906810036,1503.6,1510.84229390681,1250,1500
5.649999999999988,83,156,78,0.001092896174863388,1499.6,1485.9289617486338,1244.0,1500
5.699999999999988,84,106,80,0.006535947712418301,1494.6,1520,1240.0,1500
5.749999999999988,85,187,77,0.0043859649122807015,1502.7,1518.859649122807,1246.0,1500
5.799999999999987,86,187,70,0.0006341154090044388,1502.7,1481.3411540900445,1250,1500
5.849999999999987,87,178,84,0.0013020833333333333,1501.8,1488.0208333333333,1232.0,1500
5.899999999999987,88,168,84,0.004081632653061225,1500.8,1515.8163265306123,1232.0,1500
5.949999999999987,89,179,75,0.0003232062055591467,1501.9,1480,1250.0,1500
5.999999999999987,90,153,80,0.00013381506757660912,1499.3,1480,1240.0,1500
6.0499999999999865,91,171,78,0.00017152658662092623,1501.1,1480,1244.0,1500
6.099999999999986,92,141,72,0.0008012820512820513,1498.1,1483.0128205128206,1250,1500
6.149999999999986,93,157,85,0.00016589250165892502,1499.7,1480,1230.0,1500
6.199999999999986,94,175,95,0.0004347826086956522,1501.5,1480,1210.0,1500
6.249999999999986,95,149,83,0.0001139211665527455,1498.9,1480,1234.0,1500
6.299999999999986,96,178,98,0.000564652738565782,1501.8,1480.646527385658,1204.0,1500
6.349999999999985,97,175,97,0.0009107468123861566,1501.5,1484.1074681238615,1206.0,1500
6.399999999999985,98,182,58,0.0010964912280701754,1502.2,1485.9649122807018,1250,1500
6.449999999999985,99,176,73,0.00045454545454545455,1501.6,1480,1250,1500
6.499999999999985,100,167,62,0.011904761904761904,1500.7,1520,1250,1500
6.549999999999985,101,164,55,0.004166666666666667,1500.4,1516.6666666666667,1250,1500
6.5999999999999845,101,,,,1500.0,1500.0,1200.0,1500
6.649999999999984,102,193,56,0.047619047619047616,1503.3,1520,1250,1500
6.699999999999984,103,190,54,0.05555555555555555,1503.0,1520,1250,1500
6.749999999999984,104,190,53,0.037037037037037035,1503.0,1520,1250,1500
6.799999999999984,105,187,63,0.025,1502.7,1520,1250,1500
6.849999999999984,106,181,84,0.013157894736842105,1502.1,1520,1232.0,1500
6.8999999999999835,107,132,61,0.0030303030303030303,1497.2,1505.3030303030303,1250,1500
6.949999999999983,108,139,101,0.000925925925925926,1497.9,1484.2592592592594,1198.0,1500
6.999999999999983,109,145,94,0.00024295432458697764,1498.5,1480,1212.0,1500
7.049999999999983,110,168,103,0.002173913043478261,1500.8,1496.7391304347825,1194.0,1500
7.099999999999983,111,157,119,0.0004725897920604915,1499.7,1480,1162.0,1500
7.149999999999983,112,145,101,0.00025284450063211124,1498.5,1480,1198.0,1500
7.199999999999982,113,131,108,0.00010351966873706004,1497.1,1480,1184.0,1500
7.249999999999982,114,135,109,0.00011137097672346586,1497.5,1480,1182.0,1500
7.299999999999982,115,119,92,5.843510781277391e-05,1495.9,1480,1216.0,1500
7.349999999999982,116,113,108,7.707129094412332e-05,1495.3,1480,1184.0,1500
7.399999999999982,117,120,97,6.81663258350375e-05,1496.0,1480,1206.0,1500
7.4499999999999815,118,137,96,8.309098462816784e-05,1497.7,1480,1208.0,1500
7.499999999999981,119,131,97,9.307520476545048e-05,1497.1,1480,1206.0,1500
7.549999999999981,120,135,98,0.00011375270162666363,1497.5,1480,1204.0,1500
7.599999999999981,121,135,93,0.00012735608762098828,1497.5,1480,1214.0,1500
7.649999999999981,122,138,95,0.00015644555694618273,1497.8,1480,1210.0,1500
7.699999999999981,123,142,97,0.00026939655172413793,1498.2,1480,1206.0,1500
7.7499999999999805,124,162,77,0.0006775067750677507,1500.2,1481.7750677506774,1246.0,1500
7.79999999999998,125,153,71,0.008620689655172414,1499.3,1520,1250,1500
7.84999999999998,126,180,78,0.019230769230769232,1502.0,1520,1244.0,1500
7.89999999999998,127,164,57,0.016666666666666666,1500.4,1520,1250,1500
7.94999999999998,128,178,77,0.0125,1501.8,1520,1246.0,1500
7.99999999999998,128,,,,1500.0,1500.0,1200.0,1500
8.04999999999998,129,172,72,0.047619047619047616,1501.2,1520,1250,1500
8.09999999999998,130,147,62,0.007407407407407408,1498.7,1520,1250,1500
8.14999999999998,131,144,71,0.0044444444444444444,1498.4,1519.4444444444443,1250,1500
8.199999999999982,132,165,89,0.0020242914979757085,1500.5,1495.2429149797572,1222.0,1500
8.249999999999982,133,106,98,0.002564102564102564,1494.6,1500.6410256410256,1204.0,1500
8.299999999999983,134,144,120,0.0012121212121212121,1498.4,1487.121212121212,1160.0,1500
8.349999999999984,135,136,111,0.00017325017325017325,1497.6,1480,1178.0,1500
8.399999999999984,136,123,105,9.319664492078285e-05,1496.3,1480,1190.0,1500
8.449999999999985,137,130,105,8.865248226950355e-05,1497.0,1480,1190.0,1500
8.499999999999986,138,121,102,7.02000702000702e-05,1496.1,1480,1196.0,1500
8.549999999999986,139,141,102,7.527853056308341e-05,1498.1,1480,1196.0,1500
8.599999999999987,140,144,100,6.764069264069264e-05,1498.4,1480,1200.0,1500
8.649999999999988,141,155,98,7.77363184079602e-05,1499.5,1480,1204.0,1500
8.699999999999989,142,162,80,5.507821105970478e-05,1500.2,1480,1240.0,1500
8.74999999999999,143,174,85,6.578947368421052e-05,1501.4,1480,1230.0,1500
8.79999999999999,144,185,72,4.792715073088905e-05,1502.5,1480,1250,1500
8.84999999999999,145,187,77,5.629679671226707e-05,1502.7,1480,1246.0,1500
8.899999999999991,146,177,76,5.847953216374269e-05,1501.7,1480,1248.0,1500
8.949999999999992,147,165,76,5.664438654129376e-05,1500.5,1480,1248.0,1500
8.999999999999993,148,151,69,5.060728744939271e-05,1499.1,1480,1250,1500
9.049999999999994,149,139,76,5.693788077207766e-05,1497.9,1480,1248.0,1500
9.099999999999994,150,144,78,0.00011870845204178538,1498.4,1480,1244.0,1500
9.149999999999995,151,150,61,0.00015202189115232594,1499.0,1480,1250,1500
9.199999999999996,152,157,30,0.002178649237472767,1499.7,1496.7864923747277,1250,1500
9.249999999999996,152,,,,1500.0,1500.0,1200.0,1500
9.299999999999997,152,,,,1500.0,1500.0,1200.0,1500
9.349999999999998,152,,,,1500.0,1500.0,1200.0,1500
9.399999999999999,152,,,,1500.0,1500.0,1200.0,1500
9.45,152,,,,1500.0,1500.0,1200.0,1500
9.5,152,,,,1500.0,1500.0,1200.0,1500
9.55,152,,,,1500.0,1500.0,1200.0,1500
9.600000000000001,152,,,,1500.0,1500.0,1200.0,1500
9.650000000000002,152,,,,1500.0,1500.0,1200.0,1500
9.700000000000003,152,,,,1500.0,1500.0,1200.0,1500
9.750000000000004,152,,,,1500.0,1500.0,1200.0,1500
9.800000000000004,152,,,,1500.0,1500.0,1200.0,1500
9.850000000000005,152,,,,1500.0,1500.0,1200.0,1500
9.900000000000006,152,,,,1500.0,1500.0,1200.0,1500
9.950000000000006,152,,,,1500.0,1500.0,1200.0,1500
10.000000000000007,152,,,,1500.0,1500.0,1200.0,1500
10.050000000000008,152,,,,1500.0,1500.0,1200.0,1500
10.100000000000009,152,,,,1500.0,1500.0,1200.0,1500
10.15000000000001,152,,,,1500.0,1500.0,1200.0,1500
10.20000000000001,152,,,,1500.0,1500.0,1200.0,1500
10.25000000000001,152,,,,1500.0,1500.0,1200.0,1500
10.300000000000011,152,,,,1500.0,1500.0,1200.0,1500
10.350000000000012,152,,,,1500.0,1500.0,1200.0,1500
10.400000000000013,152,,,,1500.0,1500.0,1200.0,1500
10.450000000000014,152,,,,1500.0,1500.0,1200.0,1500
10.500000000000014,152,,,,1500.0,1500.0,1200.0,1500
10.550000000000015,152,,,,1500.0,1500.0,1200.0,1500
10.600000000000016,152,,,,1500.0,1500.0,1200.0,1500
10.650000000000016,152,,,,1500.0,1500.0,1200.0,1500
10.700000000000017,152,,,,1500.0,1500.0,1200.0,1500
10.750000000000018,152,,,,1500.0,1500.0,1200.0,1500
10.800000000000018,152,,,,1500.0,1500.0,1200.0,1500
10.85000000000002,152,,,,1500.0,1500.0,1200.0,1500
10.90000000000002,152,,,,1500.0,1500.0,1200.0,1500
10.95000000000002,152,,,,1500.0,1500.0,1200.0,1500
11.000000000000021,152,,,,1500.0,1500.0,1200.0,1500
11.050000000000022,152,,,,1500.0,1500.0,1200.0,1500
11.100000000000023,152,,,,1500.0,1500.0,1200.0,1500
11.150000000000023,152,,,,1500.0,1500.0,1200.0,1500
11.200000000000024,152,,,,1500.0,1500.0,1200.0,1500
11.250000000000025,152,,,,1500.0,1500.0,1200.0,1500
11.300000000000026,152,,,,1500.0,1500.0,1200.0,1500
11.350000000000026,152,,,,1500.0,1500.0,1200.0,1500
11.400000000000027,152,,,,1500.0,1500.0,1200.0,1500
11.450000000000028,152,,,,1500.0,1500.0,1200.0,1500
11.500000000000028,152,,,,1500.0,1500.0,1200.0,1500
11.55000000000003,152,,,,1500.0,1500.0,1200.0,1500
11.60000000000003,153,176,41,0.00980392156862745,1501.6,1520,1250,1500
11.65000000000003,154,175,39,0.005434782608695652,1501.5,1520,1250,1500
11.700000000000031,155,168,37,0.0025974025974025974,1500.8,1500.974025974026,1250,1500
11.750000000000032,156,107,46,0.0022172949002217295,1494.7,1497.1729490022174,1250,1500
11.800000000000033,157,103,58,0.01098901098901099,1494.3,1520,1250,1500
11.850000000000033,158,188,64,0.000946969696969697,1502.8,1484.469696969697,1250,1500
11.900000000000034,159,125,43,0.00048590864917395527,1496.5,1480,1250,1500
11.950000000000035,160,172,67,0.001092896174863388,1501.2,1485.9289617486338,1250,1500
12.000000000000036,161,166,41,0.010416666666666666,1500.6,1520,1250,1500
12.050000000000036,162,192,59,0.0007352941176470588,1503.2,1482.3529411764705,1250,1500
12.100000000000037,163,157,77,0.00016469038208168644,1499.7,1480,1246.0,1500
12.150000000000038,164,141,85,0.00032299741602067185,1498.1,1480,1230.0,1500
12.200000000000038,165,121,73,0.0001069747539580659,1496.1,1480,1250,1500
12.250000000000039,166,99,44,0.0012804097311139564,1493.9,1487.8040973111395,1250,1500
12.30000000000004,167,87,69,0.004761904761904762,1492.7,1520,1250,1500
12.35000000000004,168,71,61,0.03333333333333333,1491.1,1520,1250,1500
12.400000000000041,169,58,113,0.016666666666666666,1489.8,1520,1174.0,1500
12.450000000000042,169,,,,1500.0,1500.0,1200.0,1500
12.500000000000043,170,76,84,0.014705882352941176,1491.6,1520,1232.0,1500
12.550000000000043,171,85,57,0.027777777777777776,1492.5,1520,1250,1500
12.600000000000044,172,111,75,0.006493506493506494,1495.1,1520,1250.0,1500
12.650000000000045,173,97,111,0.006493506493506494,1493.7,1520,1178.0,1500
12.700000000000045,174,163,81,0.0028011204481792717,1500.3,1503.0112044817927,1238.0,1500
12.750000000000046,175,127,89,0.0002133560913164071,1496.7,1480,1222.0,1500
12.800000000000047,176,172,82,0.0010741138560687433,1501.2,1485.7411385606874,1236.0,1500
12.850000000000048,177,149,77,0.0010683760683760685,1498.9,1485.6837606837607,1246.0,1500
12.900000000000048,178,115,91,0.0034965034965034965,1495.5,1509.9650349650349,1218.0,1500
12.950000000000049,179,142,90,0.00026455026455026457,1498.2,1480,1220.0,1500
13.00000000000005,180,170,97,0.0009233610341643582,1501.0,1484.2336103416435,1206.0,1500
13.05000000000005,181,157,87,0.0003156565656565657,1499.7,1480,1226.0,1500
13.100000000000051,182,120,66,0.0005263157894736842,1496.0,1480.2631578947369,1250,1500
13.150000000000052,183,114,70,0.0007142857142857143,1495.4,1482.142857142857,1250,1500
13.200000000000053,184,74,64,0.017857142857142856,1491.4,1520,1250,1500
13.250000000000053,185,32,107,0.03333333333333333,1487.2,1520,1186.0,1500
13.300000000000054,186,53,62,0.030303030303030304,1489.3,1520,1250,1500
13.350000000000055,186,,,,1500.0,1500.0,1200.0,1500
13.400000000000055,186,,,,1500.0,1500.0,1200.0,1500
13.450000000000056,186,,,,1500.0,1500.0,1200.0,1500
13.500000000000057,186,,,,1500.0,1500.0,1200.0,1500
13.550000000000058,186,,,,1500.0,1500.0,1200.0,1500
13.600000000000058,187,75,69,0.03333333333333333,1491.5,1520,1250,1500
13.650000000000059,188,107,46,0.009523809523809525,1494.7,1520,1250,1500
13.70000000000006,189,141,114,0.005,1498.1,1520,1172.0,1500
13.75000000000006,190,145,78,0.0008291873963515755,1498.5,1483.2918739635159,1244.0,1500
13.800000000000061,191,107,75,0.0017543859649122807,1494.7,1492.5438596491229,1250.0,1500
13.850000000000062,192,221,73,0.0010683760683760685,1506.1,1485.6837606837607,1250,1500
13.900000000000063,193,166,84,0.0015384615384615385,1500.6,1490.3846153846155,1232.0,1500
13.950000000000063,194,162,88,0.0014124293785310734,1500.2,1489.1242937853108,1224.0,1500
14.000000000000064,195,169,88,0.0005611672278338945,1500.9,1480.611672278339,1224.0,1500
14.050000000000065,196,138,85,0.00020580366330520683,1497.8,1480,1230.0,1500
14.100000000000065,197,185,81,0.0008333333333333334,1502.5,1483.3333333333333,1238.0,1500
14.150000000000066,198,136,88,9.7551458394303e-05,1497.6,1480,1224.0,1500
14.200000000000067,199,104,94,0.00030339805825242716,1494.4,1480,1212.0,1500
14.250000000000068,200,97,61,0.0022222222222222222,1493.7,1497.2222222222222,1250,1500
14.300000000000068,201,94,75,0.01098901098901099,1493.4,1520,1250.0,1500
14.350000000000069,202,51,68,0.009523809523809525,1489.1,1520,1250,1500
14.40000000000007,203,58,61,0.02564102564102564,1489.8,1520,1250,1500
14.45000000000007,203,,,,1500.0,1500.0,1200.0,1500
14.500000000000071,203,,,,1500.0,1500.0,1200.0,1500
14.550000000000072,204,69,52,0.03333333333333333,1490.9,1520,1250,1500
14.600000000000072,205,81,126,0.006578947368421052,1492.1,1520,1150,1500
14.650000000000073,206,101,53,0.006493506493506494,1494.1,1520,1250,1500
14.700000000000074,207,111,106,0.0011737089201877935,1495.1,1486.737089201878,1188.0,1500
14.750000000000075,208,149,79,0.0009389671361502347,1498.9,1484.3896713615025,1242.0,1500
14.800000000000075,209,139,96,0.00018518518518518518,1497.9,1480,1208.0,1500
14.850000000000076,210,149,93,0.00011415525114155251,1498.9,1480,1214.0,1500
14.900000000000077,211,162,91,0.00014208581983518045,1500.2,1480,1218.0,1500
14.950000000000077,212,146,101,0.00016534391534391533,1498.6,1480,1198.0,1500
15.000000000000078,213,160,93,0.00012899896800825592,1500.0,1480,1214.0,1500
15.050000000000079,214,154,84,9.784735812133073e-05,1499.4,1480,1232.0,1500
15.10000000000008,215,174,98,0.00038095238095238096,1501.4,1480,1204.0,1500
15.15000000000008,216,175,58,0.001488095238095238,1501.5,1489.8809523809523,1250,1500
15.200000000000081,217,160,91,0.01,1500.0,1520,1218.0,1500
15.250000000000082,218,140,95,0.006802721088435374,1498.0,1520,1210.0,1500
15.300000000000082,219,163,53,0.020833333333333332,1500.3,1520,1250,1500
15.350000000000083,219,,,,1500.0,1500.0,1200.0,1500
15.400000000000084,220,179,63,0.041666666666666664,1501.9,1520,1250,1500
15.450000000000085,220,,,,1500.0,1500.0,1200.0,1500
15.500000000000085,220,,,,1500.0,1500.0,1200.0,1500
15.550000000000086,221,191,61,0.037037037037037035,1503.1,1520,1250,1500
15.600000000000087,222,184,59,0.020833333333333332,1502.4,1520,1250,1500
15.650000000000087,223,153,57,0.004347826086956522,1499.3,1518.4782608695652,1250,1500
15.700000000000088,224,166,69,0.005291005291005291,1500.6,1520,1250,1500
15.750000000000089,225,187,104,0.002079002079002079,1502.7,1495.790020790021,1192.0,1500
15.80000000000009,226,113,97,0.0009643201542912247,1495.3,1484.6432015429123,1206.0,1500
15.85000000000009,227,138,109,0.00019519812609798947,1497.8,1480,1182.0,1500
15.900000000000091,228,151,109,0.0001124859392575928,1499.1,1480,1182.0,1500
15.950000000000092,229,138,84,4.3708204029896414e-05,1497.8,1480,1232.0,1500
16.000000000000092,230,120,107,4.905808477237049e-05,1496.0,1480,1186.0,1500
16.050000000000093,231,133,105,5.242463958060288e-05,1497.3,1480,1190.0,1500
16.100000000000094,232,141,102,5.526693931690063e-05,1498.1,1480,1196.0,1500
16.150000000000095,233,143,112,8.764241893076249e-05,1498.3,1480,1176.0,1500
16.200000000000095,234,150,88,6.124448799608035e-05,1499.0,1480,1224.0,1500
16.250000000000096,235,146,85,6.341154090044388e-05,1498.6,1480,1230.0,1500
16.300000000000097,236,170,86,0.00011761938367442955,1501.0,1480,1228.0,1500
16.350000000000097,237,164,99,0.00030303030303030303,1500.4,1480,1202.0,1500
16.400000000000098,238,155,99,0.003472222222222222,1499.5,1509.7222222222222,1202.0,1500
16.4500000000001,239,113,86,0.01,1495.3,1520,1228.0,1500
16.5000000000001,240,126,65,0.041666666666666664,1496.6,1520,1250,1500
16.5500000000001,241,164,67,0.0125,1500.4,1520,1250,1500
16.6000000000001,242,176,61,0.0625,1501.6,1520,1250,1500
16.6500000000001,243,192,66,0.03571428571428571,1503.2,1520,1250,1500
16.700000000000102,243,,,,1500.0,1500.0,1200.0,1500
16.750000000000103,244,185,82,0.022222222222222223,1502.5,1520,1236.0,1500
16.800000000000104,245,180,60,0.0125,1502.0,1520,1250,1500
16.850000000000104,246,174,77,0.023809523809523808,1501.4,1520,1246.0,1500
16.900000000000105,247,132,69,0.0025252525252525255,1497.2,1500.2525252525252,1250,1500
16.950000000000106,248,136,106,0.0006153846153846154,1497.6,1481.1538461538462,1188.0,1500
17.000000000000107,249,150,119,0.0004302925989672978,1499.0,1480,1162.0,1500
17.050000000000107,250,143,121,0.0002331002331002331,1498.3,1480,1158.0,1500
17.100000000000108,251,99,98,0.002,1493.9,1495.0,1204.0,1500
17.15000000000011,252,141,117,0.00021786492374727668,1498.1,1480,1166.0,1500
17.20000000000011,253,142,112,0.0001443001443001443,1498.2,1480,1176.0,1500
17.25000000000011,254,122,109,0.00010245901639344262,1496.2,1480,1182.0,1500
17.30000000000011,255,140,95,0.00130718954248366,1498.0,1488.0718954248366,1210.0,1500
17.35000000000011,256,120,65,0.0008818342151675485,1496.0,1483.8183421516756,1250,1500
17.400000000000112,257,128,82,0.027777777777777776,1496.8,1520,1236.0,1500
17.450000000000113,258,95,59,0.020833333333333332,1493.5,1520,1250,1500
17.500000000000114,258,,,,1500.0,1500.0,1200.0,1500
17.550000000000114,258,,,,1500.0,1500.0,1200.0,1500
17.600000000000115,258,,,,1500.0,1500.0,1200.0,1500
17.650000000000116,258,,,,1500.0,1500.0,1200.0,1500
17.700000000000117,258,,,,1500.0,1500.0,1200.0,1500
17.750000000000117,258,,,,1500.0,1500.0,1200.0,1500
17.800000000000118,258,,,,1500.0,1500.0,1200.0,1500
17.85000000000012,258,,,,1500.0,1500.0,1200.0,1500
17.90000000000012,258,,,,1500.0,1500.0,1200.0,1500
17.95000000000012,258,,,,1500.0,1500.0,1200.0,1500
18.00000000000012,258,,,,1500.0,1500.0,1200.0,1500
18.05000000000012,258,,,,1500.0,1500.0,1200.0,1500
18.100000000000122,258,,,,1500.0,1500.0,1200.0,1500
18.150000000000123,258,,,,1500.0,1500.0,1200.0,1500
18.200000000000124,258,,,,1500.0,1500.0,1200.0,1500
18.250000000000124,258,,,,1500.0,1500.0,1200.0,1500
18.300000000000125,258,,,,1500.0,1500.0,1200.0,1500
18.350000000000126,258,,,,1500.0,1500.0,1200.0,1500
18.400000000000126,258,,,,1500.0,1500.0,1200.0,1500
18.450000000000127,258,,,,1500.0,1500.0,1200.0,1500
18.500000000000128,258,,,,1500.0,1500.0,1200.0,1500
18.55000000000013,258,,,,1500.0,1500.0,1200.0,1500
18.60000000000013,258,,,,1500.0,1500.0,1200.0,1500
18.65000000000013,258,,,,1500.0,1500.0,1200.0,1500
18.70000000000013,258,,,,1500.0,1500.0,1200.0,1500
18.75000000000013,258,,,,1500.0,1500.0,1200.0,1500
18.800000000000132,258,,,,1500.0,1500.0,1200.0,1500
18.850000000000133,258,,,,1500.0,1500.0,1200.0,1500
18.900000000000134,258,,,,1500.0,1500.0,1200.0,1500
18.950000000000134,258,,,,1500.0,1500.0,1200.0,1500
19.000000000000135,258,,,,1500.0,1500.0,1200.0,1500
19.050000000000136,258,,,,1500.0,1500.0,1200.0,1500
19.100000000000136,258,,,,1500.0,1500.0,1200.0,1500
19.150000000000137,258,,,,1500.0,1500.0,1200.0,1500
