time,frame,x,y,size_inv,roll,pitch,thrust,yaw
0.00043892860412597656,1,,,,1500.0,1490.0,1150.0,1500
0.022958993911743164,2,,,,1500.0,1490.0,1150.0,1500
0.04499101638793945,3,,,,1500.0,1490.0,1150.0,1500
0.06691098213195801,4,,,,1500.0,1490.0,1150.0,1500
0.0888829231262207,5,,,,1500.0,1490.0,1150.0,1500
0.11096501350402832,6,,,,1500.0,1490.0,1150.0,1500
0.13297700881958008,7,,,,1500.0,1490.0,1150.0,1500
0.1549549102783203,8,,,,1500.0,1490.0,1150.0,1500
0.1769390106201172,9,,,,1500.0,1490.0,1150.0,1500
0.1990809440612793,10,,,,1500.0,1490.0,1150.0,1500
0.221513032913208,11,,,,1500.0,1490.0,1150.0,1500
0.24401593208312988,12,,,,1500.0,1490.0,1150.0,1500
0.26650190353393555,13,,,,1500.0,1490.0,1150.0,1500
0.28905200958251953,14,,,,1500.0,1490.0,1150.0,1500
0.31158900260925293,15,,,,1500.0,1490.0,1150.0,1500
0.3340630531311035,16,,,,1500.0,1490.0,1150.0,1500
0.3565380573272705,17,,,,1500.0,1490.0,1150.0,1500
0.37906312942504883,18,,,,1500.0,1490.0,1150.0,1500
0.4015929698944092,19,,,,1500.0,1490.0,1150.0,1500
0.4240880012512207,20,,,,1500.0,1490.0,1150.0,1500
0.44656801223754883,21,,,,1500.0,1490.0,1150.0,1500
0.46908998489379883,22,,,,1500.0,1490.0,1150.0,1500
0.4916670322418213,23,,,,1500.0,1490.0,1150.0,1500
0.514164924621582,24,,,,1500.0,1490.0,1150.0,1500
0.5366590023040771,25,,,,1500.0,1490.0,1150.0,1500
0.5592000484466553,26,,,,1500.0,1490.0,1150.0,1500
0.5817530155181885,27,,,,1500.0,1490.0,1150.0,1500
0.6042590141296387,28,,,,1500.0,1490.0,1150.0,1500
0.6267979145050049,29,,,,1500.0,1490.0,1150.0,1500
0.6493220329284668,30,,,,1500.0,1490.0,1150.0,1500
0.6719160079956055,31,,,,1500.0,1490.0,1150.0,1500
0.6944539546966553,32,,,,1500.0,1490.0,1150.0,1500
0.7169461250305176,33,,,,1500.0,1490.0,1150.0,1500
0.7394700050354004,34,,,,1500.0,1490.0,1150.0,1500
0.7619690895080566,35,,,,1500.0,1490.0,1150.0,1500
0.7844409942626953,36,,,,1500.0,1490.0,1150.0,1500
0.806920051574707,37,,,,1500.0,1490.0,1150.0,1500
0.8294210433959961,38,,,,1500.0,1490.0,1150.0,1500
0.8518829345703125,39,,,,1500.0,1490.0,1150.0,1500
0.8743910789489746,40,,,,1500.0,1490.0,1150.0,1500
0.8968899250030518,41,,,,1500.0,1490.0,1150.0,1500
0.9195919036865234,42,309,70,0.00909090909090909,1514.155,1500,1157.5,1500
0.9424779415130615,43,305,69,0.007352941176470588,1513.03,1500,1157.75,1500
0.9652540683746338,44,301,76,0.0035714285714285713,1511.925,1500,1156.0,1500
0.9880409240722656,45,287,54,0.0021645021645021645,1509.8900000000001,1500,1161.5,1500
1.0108399391174316,46,285,84,0.007352941176470588,1509.0650000000001,1500,1154.0,1500
1.0336229801177979,47,277,57,0.0021645021645021645,1516.6199999999999,1500,1160.75,1500
1.0563769340515137,48,287,65,0.003003003003003003,1520,1500,1158.75,1500
1.0790960788726807,49,281,75,0.0018181818181818182,1520,1500,1156.25,1500
1.101844072341919,50,277,57,0.0017006802721088435,1520,1500,1160.75,1500
1.1245489120483398,51,284,54,0.0011363636363636363,1520,1500,1161.5,1500
1.147226095199585,52,300,73,0.002898550724637681,1520,1500,1156.75,1500
1.1698729991912842,53,275,53,0.0027472527472527475,1520,1500,1161.75,1500
1.192533016204834,54,271,51,0.0020161290322580645,1520,1500,1162.25,1500
1.2151920795440674,55,265,53,0.0016025641025641025,1520,1500,1161.75,1500
1.2378649711608887,56,265,62,0.0024691358024691358,1520,1500,1159.5,1500
1.2605359554290771,57,262,70,0.002403846153846154,1520,1500,1157.5,1500
1.2831940650939941,58,260,65,0.0020833333333333333,1520,1500,1158.75,1500
1.3058369159698486,59,261,74,0.004081632653061225,1520,1500,1156.5,1500
1.3284859657287598,60,256,63,0.0008488964346349745,1520,1500,1159.25,1500
1.3512699604034424,61,247,62,0.0029585798816568047,1520,1500,1159.5,1500
1.373966932296753,62,245,45,0.002352941176470588,1520,1500,1163.75,1500
1.3966150283813477,63,239,63,0.0035087719298245615,1520,1500,1159.25,1500
1.4193310737609863,64,248,71,0.002840909090909091,1520,1500,1157.25,1500
1.4420640468597412,65,257,70,0.0014814814814814814,1520,1500,1157.5,1500
1.4647140502929688,66,245,63,0.0010869565217391304,1520,1500,1159.25,1500
1.4873619079589844,67,249,70,0.001451378809869376,1520,1500,1157.5,1500
1.5103790760040283,68,244,74,0.007407407407407408,1520,1500,1156.5,1500
1.5330920219421387,69,246,59,0.0018796992481203006,1520,1500,1160.25,1500
1.5557489395141602,70,255,68,0.0029411764705882353,1520,1500,1158.0,1500
1.5784220695495605,71,245,74,0.0031746031746031746,1520,1500,1156.5,1500
1.601215124130249,72,248,73,0.002079002079002079,1520,1500,1156.75,1500
1.623918056488037,73,247,75,0.0024630541871921183,1520,1500,1156.25,1500
1.6465799808502197,74,253,76,0.0020833333333333333,1520,1500,1156.0,1500
1.6692800521850586,75,260,68,0.0011098779134295228,1520,1500,1158.0,1500
1.6920809745788574,76,255,77,0.0011750881316098707,1520,1500,1155.75,1500
1.7147679328918457,77,258,78,0.0011961722488038277,1520,1500,1155.5,1500
1.7374029159545898,78,257,80,0.002840909090909091,1520,1500,1155.0,1500
1.760051965713501,79,260,72,0.0013605442176870747,1520,1500,1157.0,1500
1.7827019691467285,80,263,80,0.0012285012285012285,1520,1500,1155.0,1500
1.8054521083831787,81,260,88,0.002288329519450801,1520,1500,1153.0,1500
1.8289380073547363,82,280,92,0.0012345679012345679,1520,1500,1152.0,1500
1.851789951324463,83,273,88,0.0008210180623973727,1520,1500,1153.0,1500
1.8744680881500244,84,270,79,0.0008718395815170009,1520,1500,1155.25,1500
1.8971290588378906,85,273,100,0.0035714285714285713,1520,1500,1150.0,1500
1.919766902923584,86,272,71,0.0035714285714285713,1520,1500,1157.25,1500
1.9424281120300293,87,279,77,0.0016025641025641025,1520,1500,1155.75,1500
1.965090036392212,88,282,99,0.0018315018315018315,1520,1500,1150.25,1500
1.987725019454956,89,270,84,0.0026666666666666666,1520,1500,1154.0,1500
2.010369062423706,90,276,81,0.001422475106685633,1520,1500,1154.75,1500
2.0330350399017334,91,285,84,0.0008928571428571428,1520,1500,1154.0,1500
2.0556869506835938,92,266,97,0.004629629629629629,1520,1500,1150.75,1500
2.078346014022827,93,275,94,0.002457002457002457,1520,1500,1151.5,1500
2.1011340618133545,94,279,97,0.000945179584120983,1520,1500,1150.75,1500
2.1238350868225098,95,279,100,0.0012239902080783353,1520,1500,1150.0,1500
2.146497964859009,96,280,101,0.0012787723785166241,1520,1500,1149.75,1500
2.169196128845215,97,279,101,0.0012626262626262627,1520,1500,1149.75,1500
2.1919169425964355,98,274,99,0.002932551319648094,1520,1500,1150.25,1500
2.2145750522613525,99,274,94,0.0016339869281045752,1520,1500,1151.5,1500
2.237333059310913,100,278,103,0.0021929824561403508,1520,1500,1149.25,1500
2.2602710723876953,101,283,86,0.0017482517482517483,1520,1500,1153.5,1500
2.2830309867858887,102,280,102,0.0010741138560687433,1520,1500,1149.5,1500
2.305701971054077,103,280,100,0.0008163265306122449,1520,1500,1150.0,1500
2.3283591270446777,104,276,101,0.001488095238095238,1520,1500,1149.75,1500
2.351155996322632,105,267,85,0.002777777777777778,1520,1500,1153.75,1500
2.373811960220337,106,278,94,0.0006211180124223603,1520,1500,1151.5,1500
2.396461009979248,107,281,99,0.0012345679012345679,1520,1500,1150.25,1500
2.419174909591675,108,283,85,0.00101010101010101,1520,1500,1153.75,1500
2.441915988922119,109,280,100,0.001388888888888889,1520,1500,1150.0,1500
2.4645769596099854,110,283,83,0.0012987012987012987,1520,1500,1154.25,1500
2.4872848987579346,111,280,96,0.0007288629737609329,1520,1497.7271832252725,1151.0,1500
2.5100769996643066,112,278,94,0.0010582010582010583,1520,1500,1151.5,1500
2.5327630043029785,113,287,102,0.0024509803921568627,1520,1500,1149.5,1500
2.5554211139678955,114,282,91,0.0005865102639296188,1520,1497.0208122164706,1152.25,1500
2.578205108642578,115,280,101,0.00125,1520,1500,1149.75,1500
2.6008570194244385,116,266,88,0.0013227513227513227,1520,1500,1153.0,1500
2.6235709190368652,117,279,98,0.0012626262626262627,1520,1500,1150.5,1500
2.646243095397949,118,265,91,0.0015625,1520,1500,1152.25,1500
2.6689770221710205,119,276,86,0.0006734006734006734,1520,1496.9285409795348,1153.5,1500
2.6918880939483643,120,260,85,0.0016,1520,1500,1153.75,1500
2.714560031890869,121,272,83,0.0007496251874062968,1520,1498.0128470345351,1154.25,1500
2.737661123275757,122,256,77,0.003246753246753247,1520,1500,1155.75,1500
2.7603540420532227,123,254,82,0.002380952380952381,1520,1500,1154.5,1500
2.7830209732055664,124,267,89,0.0004926108374384236,1520,1497.4673282857129,1152.75,1500
2.8057749271392822,125,267,88,0.0004901960784313725,1520,1496.6833767740736,1153.0,1500
2.8285670280456543,126,265,87,0.000531632110579479,1520,1496.3066178833828,1153.25,1500
2.8514881134033203,127,264,81,0.0011111111111111111,1520,1500,1154.75,1500
2.874197006225586,128,263,87,0.000505050505050505,1520,1494.8318371816285,1153.25,1500
2.89701509475708,129,260,84,0.0006613756613756613,1520,1496.3830637328551,1154.0,1500
2.9197990894317627,130,258,85,0.0005659309564233164,1520,1494.394547639755,1153.75,1500
2.9425740242004395,131,266,94,0.002136752136752137,1520,1500,1151.5,1500
2.9652199745178223,132,261,82,0.001851851851851852,1520,1500,1154.5,1500
2.987847089767456,133,253,82,0.001488095238095238,1520,1500,1154.5,1500
3.0105140209198,134,246,76,0.0016233766233766235,1520,1500,1156.0,1500
3.0331969261169434,135,249,81,0.0008873114463176575,1520,1498.2356021041101,1154.75,1500
3.055954933166504,136,248,82,0.0007541478129713424,1520,1497.1264814730389,1154.5,1500
3.0787339210510254,137,242,76,0.0024813895781637717,1520,1500,1156.0,1500
3.101555109024048,138,251,82,0.0006720430107526882,1520,1497.8427044236071,1154.5,1500
3.124376058578491,139,244,78,0.0013550135501355014,1520,1500,1155.5,1500
3.1470699310302734,140,248,82,0.0005973715651135006,1520,1497.8210684646654,1154.5,1500
3.1698410511016846,141,245,82,0.0010351966873706005,1520,1500,1154.5,1500
3.192505121231079,142,246,77,0.0017730496453900709,1520,1500,1155.75,1500
3.215161085128784,143,236,78,0.0013850415512465374,1520,1500,1155.5,1500
3.2378320693969727,144,252,88,0.0008183306055646482,1520,1497.9422015086727,1153.0,1500
3.260611057281494,145,251,84,0.0030303030303030303,1520,1500,1154.0,1500
3.28328800201416,146,243,80,0.0006265664160401002,1520,1498.0399698004815,1155.0,1500
3.306062936782837,147,238,81,0.0005787037037037037,1520,1495.6586568026573,1154.75,1500
3.3289101123809814,148,241,77,0.0007836990595611285,1520,1497.8202664100402,1155.75,1500
3.351767063140869,149,241,82,0.0013333333333333333,1520,1500,1154.5,1500
3.374433994293213,150,240,76,0.0017857142857142857,1520,1500,1156.0,1500
3.397084951400757,151,245,84,0.0011750881316098707,1520,1500,1154.0,1500
3.4197239875793457,152,242,79,0.00130718954248366,1520,1500,1155.25,1500
3.442384958267212,153,242,77,0.0011337868480725624,1520,1500,1155.75,1500
3.4650259017944336,154,237,80,0.0010121457489878543,1520,1500,1155.0,1500
3.487668991088867,155,241,74,0.0021929824561403508,1520,1500,1156.5,1500
3.5103371143341064,156,237,77,0.0009881422924901185,1520,1500,1155.75,1500
3.5330379009246826,157,234,78,0.00089126559714795,1520,1499.5160032670206,1155.5,1500
3.555814027786255,158,240,87,0.002380952380952381,1520,1500,1153.25,1500
3.5784740447998047,159,240,76,0.002232142857142857,1520,1500,1156.0,1500
3.6012470722198486,160,235,80,0.002136752136752137,1520,1500,1155.0,1500
3.623955011367798,161,234,74,0.0016666666666666668,1520,1500,1156.5,1500
3.6466119289398193,162,231,71,0.0017006802721088435,1520,1500,1157.25,1500
3.669343948364258,163,230,77,0.0008305647840531562,1520,1500,1155.75,1500
3.69213604927063,164,235,71,0.0026041666666666665,1520,1500,1157.25,1500
3.714808940887451,165,223,78,0.00046598322460391424,1520,1498.5571491246237,1155.5,1500
3.7375800609588623,166,233,77,0.0020408163265306124,1520,1500,1155.75,1500
3.7602360248565674,167,221,71,0.0010775862068965517,1520,1500,1157.25,1500
3.7829020023345947,168,218,65,0.0009337068160597573,1520,1500,1158.75,1500
3.805561065673828,169,223,78,0.0005446623093681918,1520,1497.4482085033885,1155.5,1500
3.8283281326293945,170,225,75,0.0010582010582010583,1520,1500,1156.25,1500
3.8511130809783936,171,220,71,0.0012515644555694619,1520,1500,1157.25,1500
3.873795986175537,172,214,66,0.0013736263736263737,1520,1500,1158.5,1500
3.8964669704437256,173,222,68,0.0020242914979757085,1520,1500,1158.0,1500
3.9194610118865967,174,218,69,0.002136752136752137,1520,1500,1157.75,1500
3.942167043685913,175,206,71,0.0008920606601248885,1520,1500,1157.25,1500
3.9648609161376953,176,211,69,0.0012004801920768306,1520,1500,1157.75,1500
3.987523078918457,177,208,66,0.0013227513227513227,1519.9749999999999,1500,1158.5,1500
4.010312080383301,178,199,70,0.0013333333333333333,1519.4100000000001,1500,1157.5,1500
4.0330469608306885,179,204,71,0.0009033423667570009,1519.7049999999999,1500,1157.25,1500
4.055866956710815,180,204,69,0.0011574074074074073,1518.6700000000001,1500,1157.75,1500
4.07863712310791,181,165,58,0.0030303030303030303,1514.5050000000001,1500,1160.5,1500
4.101551055908203,182,204,66,0.0033333333333333335,1518.095,1500,1158.5,1500
4.124359130859375,183,198,73,0.002232142857142857,1516.2349999999999,1500,1156.75,1500
4.147151947021484,184,194,70,0.002380952380952381,1515.115,1500,1157.5,1500
4.169907093048096,185,187,69,0.0010351966873706005,1514.3900000000001,1500,1157.75,1500
4.192687034606934,186,186,67,0.0018315018315018315,1511.655,1500,1158.25,1500
4.215476989746094,187,183,65,0.0035714285714285713,1511.24,1500,1158.75,1500
4.238229036331177,188,164,61,0.002857142857142857,1509.4549999999999,1500,1159.75,1500
4.261128902435303,189,181,68,0.006493506493506494,1510.6700000000001,1500,1158.0,1500
4.283921003341675,190,176,65,0.0035714285714285713,1509.29,1500,1158.75,1500
4.3066840171813965,191,147,67,0.005952380952380952,1507.74,1500,1158.25,1500
4.329514026641846,192,148,62,0.007936507936507936,1506.8599999999999,1500,1159.5,1500
4.352370977401733,193,150,63,0.022222222222222223,1505.26,1500,1159.25,1500
4.375171899795532,194,171,68,0.0078125,1506.6949999999999,1500,1158.0,1500
4.3979339599609375,195,166,61,0.006944444444444444,1505.6400000000001,1500,1159.75,1500
4.420691013336182,196,164,74,0.005555555555555556,1503.21,1500,1156.5,1500
4.443475961685181,197,144,54,0.003134796238244514,1499.3050000000001,1500,1161.5,1500
4.46624493598938,198,112,47,0.006944444444444444,1495.5250000000001,1500,1163.25,1500
4.48907208442688,199,131,51,0.007352941176470588,1497.075,1500,1162.25,1500
4.511913061141968,200,141,58,0.002702702702702703,1497.6500000000001,1500,1160.5,1500
4.5347089767456055,201,156,61,0.004608294930875576,1500.125,1500,1159.75,1500
4.557451963424683,202,153,59,0.003968253968253968,1499.5599999999999,1500,1160.25,1500
4.580214977264404,203,160,46,0.004132231404958678,1497.9300000000001,1500,1163.5,1500
4.602994918823242,204,130,50,0.002932551319648094,1492.7349999999999,1500,1162.5,1500
4.625847101211548,205,141,52,0.0004391743522178305,1492.46,1500,1162.0,1500
4.648612976074219,206,144,74,0.000835421888053467,1492.3800000000001,1500,1156.5,1500
4.671536922454834,207,145,70,0.000744047619047619,1493.0150000000001,1500,1157.5,1500
4.694386959075928,208,144,56,0.000744047619047619,1495.635,1500,1161.0,1500
4.717155933380127,209,149,63,0.000380517503805175,1495.9849999999999,1500,1159.25,1500
4.739933013916016,210,145,70,0.0007704160246533128,1495.5650000000001,1500,1157.5,1500
4.762717008590698,211,144,70,0.0008741258741258741,1494.8050000000001,1500,1157.5,1500
4.785538911819458,212,146,70,0.0008,1494.5599999999999,1498.6525336055577,1157.5,1500
4.808422088623047,213,151,72,0.00089126559714795,1494.145,1496.3242237692264,1157.0,1500
4.8314690589904785,214,154,73,0.0009302325581395349,1495.4649999999999,1494.7115746176337,1156.75,1500
4.854404926300049,215,150,54,0.0011904761904761906,1495.26,1498.0653127792586,1161.5,1500
4.877315998077393,216,150,68,0.0023148148148148147,1495.23,1500,1158.0,1500
4.900125026702881,217,161,67,0.00042517006802721087,1496.3099999999999,1491.5727669305097,1158.25,1500
4.9230170249938965,218,158,81,0.0012077294685990338,1496.3599999999999,1499.8620427857795,1154.75,1500
4.945899963378906,219,155,82,0.001402524544179523,1496.3299999999999,1500,1154.5,1500
4.968652009963989,220,152,83,0.0025,1496.2950000000001,1500,1154.25,1500
4.991518974304199,221,149,83,0.0015384615384615385,1496.3299999999999,1500,1154.25,1500
5.014318943023682,222,144,68,0.0025252525252525255,1496.74,1500,1158.0,1500
5.0374181270599365,223,147,80,0.0010582010582010583,1497.48,1500,1155.0,1500
5.060220003128052,224,140,62,0.0014245014245014246,1496.9100000000001,1500,1159.5,1500
5.083018064498901,225,140,58,0.001443001443001443,1497.0799999999999,1500,1160.5,1500
5.10578989982605,226,139,80,0.0013605442176870747,1496.9749999999999,1500,1155.0,1500
5.128611087799072,227,136,74,0.0009319664492078285,1495.78,1500,1156.5,1500
5.151518106460571,228,131,78,0.0016339869281045752,1494.7550000000001,1500,1155.5,1500
5.174284934997559,229,130,70,0.0008410428931875525,1493.8800000000001,1500,1157.5,1500
5.197082996368408,230,124,67,0.0008333333333333334,1492.7,1499.9236251442717,1158.25,1500
5.219995975494385,231,126,64,0.0005941770647653001,1492.415,1496.5877779848952,1159.0,1500
5.242890119552612,232,116,60,0.0006377551020408163,1491.075,1495.1360609344385,1160.0,1500
5.265773057937622,233,109,59,0.0010131712259371835,1489.605,1498.8451923411383,1160.25,1500
5.288671970367432,234,112,47,0.00043591979075850045,1489.4449999999999,1492.0840963556086,1163.25,1500
5.311716079711914,235,106,50,0.0003225806451612903,1488.0550000000001,1489.8302841017965,1162.5,1500
5.3346240520477295,236,104,51,0.00028011204481792715,1487.25,1488.3251659254936,1162.25,1500
5.357501983642578,237,101,49,0.000257201646090535,1485.925,1487.4212971351023,1162.75,1500
5.380419015884399,238,94,55,0.0003341129301703976,1484.0899999999999,1486.8905359779669,1161.25,1500
5.403324127197266,239,90,41,0.0005341880341880342,1482.8099999999999,1488.5844321591437,1164.75,1500
5.426214933395386,240,78,46,0.00022768670309653916,1480.76,1484.9137722179919,1163.5,1500
5.449167966842651,241,78,46,0.0001923076923076923,1480,1484.1581127376458,1163.5,1500
5.472027063369751,242,67,53,0.000397456279809221,1480,1485.9692997904294,1161.75,1500
5.494836091995239,243,69,41,0.00024709661477637757,1480,1483.6996285289404,1164.75,1500
5.517646074295044,244,62,52,0.0004418912947414936,1480,1485.6535468325744,1162.0,1500
5.540441036224365,245,57,38,0.0002870264064293915,1480,1484.0693437107216,1165,1500
5.563154935836792,246,56,40,0.00021795989537925023,1480,1483.3165264507813,1165.0,1500
5.585961103439331,247,51,40,0.0002304147465437788,1480,1483.4142880628799,1165.0,1500
5.608892917633057,248,51,37,0.00022401433691756272,1480,1483.240185373365,1165,1500
5.6319899559021,249,43,35,0.00026737967914438503,1480,1483.4070304405896,1165,1500
5.654788970947266,250,35,34,0.00029239766081871346,1480,1483.7219212150551,1165,1500
5.677577018737793,251,39,39,0.00022675736961451248,1480,1483.0999679803199,1165,1500
5.700352907180786,252,33,36,0.0004032258064516129,1480,1484.8704218753332,1165,1500
5.723052024841309,253,28,32,0.0003380662609871535,1480,1484.3097960668995,1165,1500
5.745739936828613,254,28,38,0.000278473962684489,1480,1483.5504557518157,1165,1500
5.768444061279297,255,31,38,0.000248015873015873,1480,1483.206864321716,1165,1500
5.7913289070129395,256,31,43,0.00021114864864864866,1480,1482.8313808313133,1164.25,1500
5.814148902893066,257,27,43,0.00026652452025586353,1480,1483.4212493210975,1164.25,1500
5.836936950683594,258,28,41,0.0002876042565429968,1480,1483.6956366035943,1164.75,1500
5.859738111495972,259,29,45,0.00024509803921568627,1480,1483.2482927903925,1163.75,1500
5.882555961608887,260,30,38,0.00030432136335970786,1480,1483.8524497343735,1165,1500
5.905281066894531,261,29,50,0.0002487562189054726,1480,1483.3187971391221,1162.5,1500
5.928096055984497,262,32,48,0.00020755500207555002,1480,1482.711114166447,1163.0,1500
5.950881004333496,263,32,43,0.00024813895781637717,1480,1483.0270264206845,1164.25,1500
5.973665952682495,264,35,44,0.00022716946842344388,1480,1482.7660270324941,1164.0,1500
5.996459007263184,265,35,46,0.00023474178403755868,1480,1482.8284760996569,1163.5,1500
6.01932692527771,266,38,48,0.0002035002035002035,1480,1482.508411849135,1163.0,1500
6.042186975479126,267,42,48,0.00022598870056497175,1480,1482.6927610000917,1163.0,1500
6.065007925033569,268,47,46,0.00025974025974025974,1480,1483.0024125950417,1163.5,1500
6.088145971298218,269,49,51,0.00023496240601503758,1480,1482.744498424589,1162.25,1500
6.111004114151001,270,51,52,0.00022727272727272727,1480,1482.5905530010789,1162.0,1500
6.133843898773193,271,52,49,0.00025,1480,1482.8190695094461,1162.75,1500
6.156619071960449,272,52,51,0.00026143790849673205,1480,1482.9873315008347,1162.25,1500
6.179481029510498,273,51,50,0.0002870264064293915,1480,1483.2821039287742,1162.5,1500
6.20235800743103,274,52,48,0.0002955082742316785,1480,1483.4352614126053,1163.0,1500
6.225147008895874,275,57,49,0.00022732439190725165,1480,1482.7460051972307,1162.75,1500
6.2479469776153564,276,54,47,0.0002598752598752599,1480,1483.1278889332859,1163.25,1500
6.2707679271698,277,57,48,0.00026860059092130003,1480,1483.2577541341027,1163.0,1500
6.293591022491455,278,58,48,0.00025974025974025974,1480,1483.1691508222923,1163.0,1500
6.316391944885254,279,59,48,0.0002702702702702703,1480,1483.3097587918476,1163.0,1500
6.339255094528198,280,63,49,0.00024509803921568627,1480,1483.0758617932447,1162.75,1500
6.362133979797363,281,63,50,0.0002420721374969741,1480,1483.0376749135546,1162.5,1500
6.384927988052368,282,58,48,0.00030193236714975844,1480,1483.6767716687355,1163.0,1500
6.407696008682251,283,59,48,0.00029761904761904765,1480,1483.6442311146179,1163.0,1500
6.430516004562378,284,64,50,0.00025303643724696357,1480,1483.1559331739124,1162.5,1500
6.45331597328186,285,64,52,0.00023741690408357076,1480,1483.0098303544548,1162.0,1500
6.476089954376221,286,52,38,0.000975609756097561,1480,1491.1074933708171,1165,1500
6.4989190101623535,287,66,45,0.0003465003465003465,1480,1484.894299030424,1163.75,1500
6.5218610763549805,288,63,62,0.00037537537537537537,1480,1485.2986844348093,1159.5,1500
6.5446789264678955,289,63,50,0.00025974025974025974,1480,1484.131803267928,1162.5,1500
6.567536115646362,290,66,44,0.00029394473838918284,1480,1484.5226947535909,1164.0,1500
6.590563058853149,291,50,56,0.0005263157894736842,1480,1487.1306489164126,1161.0,1500
6.613465070724487,292,44,43,0.001388888888888889,1480,1496.8433364323037,1164.25,1500
6.636331081390381,293,64,49,0.0002190580503833516,1480,1485.0664670500128,1162.75,1500
6.659192085266113,294,55,47,0.0002841716396703609,1480,1485.7487381453061,1163.25,1500
6.68212103843689,295,54,49,0.00026954177897574127,1480,1485.6345644132521,1162.75,1500
6.7049829959869385,296,60,48,0.0002361275088547816,1480,1484.5609394647997,1163.0,1500
6.7278149127960205,297,56,46,0.00025303643724696357,1480,1484.6365648394683,1163.5,1500
6.750623941421509,298,59,47,0.0002204585537918871,1480,1484.1558691833341,1163.25,1500
6.77341103553772,299,59,46,0.00022361359570661896,1480,1484.1512929384476,1163.5,1500
6.796205997467041,300,61,45,0.00023730422401518748,1480,1484.2315587071594,1163.75,1500
6.819076061248779,301,60,48,0.00020885547201336674,1480,1483.6296108696808,1163.0,1500
6.841975927352905,302,53,46,0.0002446183953033268,1480,1482.842969608995,1163.5,1500
6.864793062210083,303,51,56,0.0003654970760233918,1480,1484.1981954418357,1161.0,1500
6.88759708404541,304,54,36,0.00034626038781163435,1480,1484.0679173078593,1165,1500
6.9103169441223145,305,46,42,0.0002941176470588235,1480,1483.5710657684142,1164.5,1500
6.933110952377319,306,48,44,0.00026574541589157585,1480,1483.3169613637785,1164.0,1500
6.955924987792969,307,51,41,0.0002204585537918871,1480,1482.8315148593265,1164.75,1500
6.978744983673096,308,51,45,0.0001816860465116279,1480,1482.4050172792438,1163.75,1500
7.001657962799072,309,50,44,0.00019751135690302193,1480,1482.5371681443542,1164.0,1500
7.024450063705444,310,44,43,0.00022675736961451248,1480,1482.8190814170682,1164.25,1500
7.047259092330933,311,48,40,0.00023452157598499062,1480,1482.9223895847447,1165.0,1500
7.0700860023498535,312,48,44,0.00018535681186283596,1480,1482.3714803600826,1164.0,1500
7.0928850173950195,313,45,37,0.00023014959723820482,1480,1482.6840607350512,1165,1500
7.115615129470825,314,45,41,0.0001899335232668566,1480,1482.1255731307929,1164.75,1500
7.138430118560791,315,42,38,0.00019425019425019425,1480,1482.0688723878177,1165,1500
7.162086009979248,316,40,35,0.0002035002035002035,1480,1482.0991272679264,1165,1500
7.184986114501953,317,37,32,0.0002405002405002405,1480,1482.489169324635,1165,1500
7.207708120346069,318,41,28,0.00023946360153256704,1480,1482.5365804899793,1165,1500
7.230448961257935,319,41,22,0.00030441400304414006,1480,1483.292987151236,1165,1500
7.253137111663818,320,42,22,0.0003244646333549643,1480,1483.5912007180848,1165,1500
7.2758331298828125,321,43,17,0.0005555555555555556,1480,1486.2231439196614,1165,1500
7.2985520362854,322,46,13,0.0008417508417508417,1480,1489.7414908115022,1165,1500
7.321497917175293,323,47,9,0.0015082956259426848,1480,1497.6850846821251,1165,1500
7.344193935394287,324,45,4,0.002564102564102564,1480,1500,1165,1500
7.366660118103027,325,33,1,0.03333333333333333,1480,1500,1165,1500
7.3890299797058105,326,,,,1480,1500,1150.0,1500
7.411427974700928,327,,,,1480,1500,1150.0,1500
7.43374490737915,328,,,,1480,1500,1150.0,1500
7.456062078475952,329,,,,1480,1500,1150.0,1500
7.47835111618042,330,,,,1480,1500,1150.0,1500
7.500795125961304,331,,,,1480,1500,1150.0,1500
7.523133039474487,332,,,,1480.4749999999999,1500,1150.0,1500
7.545577049255371,333,,,,1486.6900000000001,1500,1150.0,1500
7.567975997924805,334,,,,1493.0150000000001,1500,1150.0,1500
7.590384006500244,335,,,,1500.0,1490.0,1150.0,1500
7.612854957580566,336,,,,1500.0,1490.0,1150.0,1500
7.6353559494018555,337,,,,1500.0,1490.0,1150.0,1500
7.657814025878906,338,,,,1500.0,1490.0,1150.0,1500
7.680314064025879,339,,,,1500.0,1490.0,1150.0,1500
7.702831029891968,340,,,,1500.0,1490.0,1150.0,1500
7.725312948226929,341,,,,1500.0,1490.0,1150.0,1500
7.7478110790252686,342,,,,1500.0,1490.0,1150.0,1500
7.770298004150391,343,,,,1500.0,1490.0,1150.0,1500
7.7927470207214355,344,,,,1500.0,1490.0,1150.0,1500
7.815217971801758,345,,,,1500.0,1490.0,1150.0,1500
7.837690114974976,346,,,,1500.0,1490.0,1150.0,1500
7.860148906707764,347,,,,1500.0,1490.0,1150.0,1500
7.882630109786987,348,,,,1500.0,1490.0,1150.0,1500
7.905115127563477,349,,,,1500.0,1490.0,1150.0,1500
7.927572965621948,350,,,,1500.0,1490.0,1150.0,1500
7.9500439167022705,351,,,,1500.0,1490.0,1150.0,1500
7.972508907318115,352,,,,1500.0,1490.0,1150.0,1500
7.994961977005005,353,,,,1500.0,1490.0,1150.0,1500
8.017429113388062,354,,,,1500.0,1490.0,1150.0,1500
8.039917945861816,355,,,,1500.0,1490.0,1150.0,1500
8.06240200996399,356,,,,1500.0,1490.0,1150.0,1500
8.084863901138306,357,,,,1500.0,1490.0,1150.0,1500
8.107358932495117,358,,,,1500.0,1490.0,1150.0,1500
8.129868030548096,359,,,,1500.0,1490.0,1150.0,1500
8.152338027954102,360,,,,1500.0,1490.0,1150.0,1500
8.17478609085083,361,,,,1500.0,1490.0,1150.0,1500
8.19727110862732,362,,,,1500.0,1490.0,1150.0,1500
8.219742059707642,363,,,,1500.0,1490.0,1150.0,1500
8.242201089859009,364,,,,1500.0,1490.0,1150.0,1500
8.264678955078125,365,,,,1500.0,1490.0,1150.0,1500
8.287158012390137,366,,,,1500.0,1490.0,1150.0,1500
8.309636116027832,367,,,,1500.0,1490.0,1150.0,1500
8.332107067108154,368,,,,1500.0,1490.0,1150.0,1500
8.354564905166626,369,,,,1500.0,1490.0,1150.0,1500
8.377026081085205,370,,,,1500.0,1490.0,1150.0,1500
8.39951491355896,371,,,,1500.0,1490.0,1150.0,1500
8.421987056732178,372,,,,1500.0,1490.0,1150.0,1500
8.444461107254028,373,,,,1500.0,1490.0,1150.0,1500
8.466928958892822,374,,,,1500.0,1490.0,1150.0,1500
8.489422082901001,375,,,,1500.0,1490.0,1150.0,1500
8.511909008026123,376,,,,1500.0,1490.0,1150.0,1500
8.534389972686768,377,,,,1500.0,1490.0,1150.0,1500
8.556864976882935,378,,,,1500.0,1490.0,1150.0,1500
8.57937502861023,379,,,,1500.0,1490.0,1150.0,1500
8.601857900619507,380,,,,1500.0,1490.0,1150.0,1500
8.624440908432007,381,,,,1500.0,1490.0,1150.0,1500
8.64691710472107,382,,,,1500.0,1490.0,1150.0,1500
8.66944694519043,383,,,,1500.0,1490.0,1150.0,1500
8.692018032073975,384,,,,1500.0,1490.0,1150.0,1500
8.71449899673462,385,,,,1500.0,1490.0,1150.0,1500
8.736998081207275,386,,,,1500.0,1490.0,1150.0,1500
8.75947904586792,387,,,,1500.0,1490.0,1150.0,1500
8.782274007797241,388,,,,1500.0,1490.0,1150.0,1500
8.804785013198853,389,,,,1500.0,1490.0,1150.0,1500
8.82724905014038,390,,,,1500.0,1490.0,1150.0,1500
8.849724054336548,391,,,,1500.0,1490.0,1150.0,1500
8.872211933135986,392,,,,1500.0,1490.0,1150.0,1500
8.89484190940857,393,5,1,0.030303030303030304,1485.2750000000001,1500,1165,1500
8.917546033859253,394,9,5,0.004545454545454545,1486.4300000000001,1500,1165,1500
8.94025206565857,395,10,7,0.002976190476190476,1487.28,1500,1165,1500
8.962927103042603,396,10,13,0.0016233766233766235,1488.03,1500,1165,1500
8.98560094833374,397,11,16,0.0015527950310559005,1488.875,1500,1165,1500
9.008284091949463,398,11,19,0.0014992503748125937,1480.3199999999999,1500,1165,1500
9.031107902526855,399,10,22,0.001466275659824047,1480,1500,1165,1500
9.053569078445435,400,12,25,0.00125,1480,1500,1165,1500
9.075974941253662,401,11,24,0.0014492753623188406,1480,1500,1165,1500
9.098424911499023,402,11,25,0.0013175230566534915,1480,1500,1165,1500
9.121093034744263,403,12,28,0.001098901098901099,1480,1500,1165,1500
9.14353895187378,404,10,28,0.0013774104683195593,1480,1500,1165,1500
9.165975093841553,405,11,31,0.0012626262626262627,1480,1500,1165,1500
9.18841290473938,406,10,32,0.0014204545454545455,1480,1500,1165,1500
9.210983037948608,407,11,33,0.001358695652173913,1480,1500,1165,1500
9.233437061309814,408,11,36,0.0013175230566534915,1480,1500,1165,1500
9.255867004394531,409,12,38,0.0011111111111111111,1480,1500,1165,1500
9.278301000595093,410,12,39,0.001201923076923077,1480,1500,1165,1500
9.300770044326782,411,12,41,0.001142857142857143,1480,1500,1164.75,1500
9.323489904403687,412,12,41,0.0008741258741258741,1480,1498.9068870304047,1164.75,1500
9.346286058425903,413,12,43,0.0011312217194570137,1480,1500,1164.25,1500
9.369024991989136,414,12,44,0.0009615384615384616,1480,1499.3974615183056,1164.0,1500
9.391885995864868,415,13,45,0.000925925925925926,1480,1498.7046358254797,1163.75,1500
9.414686918258667,416,13,44,0.001152073732718894,1480,1500,1164.0,1500
9.437360048294067,417,13,48,0.0009033423667570009,1480,1497.7550661356381,1163.0,1500
9.460145950317383,418,13,46,0.0009746588693957114,1480,1498.1253669747673,1163.5,1500
9.482939958572388,419,11,45,0.0011261261261261261,1480,1499.6550545570865,1163.75,1500
9.50574803352356,420,12,45,0.001098901098901099,1480,1499.2797823068142,1163.75,1500
9.528511047363281,421,11,42,0.0013440860215053765,1480,1500,1164.5,1500
9.55129599571228,422,11,36,0.0020833333333333333,1480,1500,1165,1500
9.573839902877808,423,10,44,0.0012285012285012285,1480,1500,1164.0,1500
9.596766948699951,424,11,45,0.001358695652173913,1480,1500,1163.75,1500
9.619548082351685,425,10,43,0.001336898395721925,1480,1500,1164.25,1500
9.64233112335205,426,10,42,0.0014005602240896359,1480,1500,1164.5,1500
9.66502594947815,427,9,45,0.0016666666666666668,1480,1500,1163.75,1500
9.687739133834839,428,11,43,0.0014992503748125937,1480,1500,1164.25,1500
9.710413932800293,429,11,36,0.002717391304347826,1480,1500,1165,1500
9.732892036437988,430,11,44,0.001358695652173913,1480,1500,1164.0,1500
9.755563020706177,431,12,43,0.001379310344827586,1480,1500,1164.25,1500
9.778225898742676,432,11,46,0.0012626262626262627,1480,1500,1163.5,1500
9.801017999649048,433,9,44,0.001594896331738437,1480,1500,1164.0,1500
9.823710918426514,434,10,44,0.0012285012285012285,1480,1500,1164.0,1500
9.846380949020386,435,8,41,0.0017921146953405018,1480,1500,1164.75,1500
9.869105100631714,436,9,39,0.001851851851851852,1480,1500,1165,1500
9.89165711402893,437,10,37,0.0015360983102918587,1480,1500,1165,1500
9.914106130599976,438,9,33,0.002105263157894737,1480,1500,1165,1500
9.93653392791748,439,7,27,0.0022988505747126436,1480,1500,1165,1500
9.959007024765015,440,7,22,0.002564102564102564,1480,1500,1165,1500
9.981475114822388,441,6,16,0.0021645021645021645,1480,1500,1165,1500
10.003911972045898,442,5,14,0.0033333333333333335,1480,1500,1165,1500
10.026384115219116,443,5,11,0.0036231884057971015,1480,1500,1165,1500
10.048873901367188,444,5,9,0.004784688995215311,1480,1500,1165,1500
10.071681022644043,445,5,3,0.011363636363636364,1480,1500,1165,1500
10.094022035598755,446,,,,1480,1500,1150.0,1500
10.116373062133789,447,,,,1480,1500,1150.0,1500
10.138705968856812,448,,,,1480,1500,1150.0,1500
10.161109924316406,449,,,,1480,1500,1150.0,1500
10.183403015136719,450,,,,1480,1500,1150.0,1500
10.205699920654297,451,,,,1480,1500,1150.0,1500
10.227992057800293,452,,,,1480,1500,1150.0,1500
10.250283002853394,453,,,,1482.95,1500,1150.0,1500
10.2726891040802,454,,,,1491.4749999999999,1500,1150.0,1500
10.295110940933228,455,,,,1500.0,1490.0,1150.0,1500
10.317600965499878,456,,,,1500.0,1490.0,1150.0,1500
10.340107917785645,457,,,,1500.0,1490.0,1150.0,1500
10.362566947937012,458,,,,1500.0,1490.0,1150.0,1500
10.38504695892334,459,,,,1500.0,1490.0,1150.0,1500
10.407527923583984,460,,,,1500.0,1490.0,1150.0,1500
10.429999113082886,461,,,,1500.0,1490.0,1150.0,1500
10.452399015426636,462,,,,1500.0,1490.0,1150.0,1500
10.474806070327759,463,,,,1500.0,1490.0,1150.0,1500
10.497195959091187,464,,,,1500.0,1490.0,1150.0,1500
10.519712924957275,465,,,,1500.0,1490.0,1150.0,1500
10.542185068130493,466,,,,1500.0,1490.0,1150.0,1500
10.564654111862183,467,,,,1500.0,1490.0,1150.0,1500
10.58708906173706,468,,,,1500.0,1490.0,1150.0,1500
10.609605073928833,469,,,,1500.0,1490.0,1150.0,1500
10.632136106491089,470,,,,1500.0,1490.0,1150.0,1500
10.654627084732056,471,,,,1500.0,1490.0,1150.0,1500
10.677105903625488,472,,,,1500.0,1490.0,1150.0,1500
10.699630975723267,473,,,,1500.0,1490.0,1150.0,1500
10.722132921218872,474,,,,1500.0,1490.0,1150.0,1500
10.744600057601929,475,,,,1500.0,1490.0,1150.0,1500
10.76709508895874,476,,,,1500.0,1490.0,1150.0,1500
10.789552927017212,477,,,,1500.0,1490.0,1150.0,1500
10.812037944793701,478,,,,1500.0,1490.0,1150.0,1500
10.834537982940674,479,,,,1500.0,1490.0,1150.0,1500
10.85702395439148,480,,,,1500.0,1490.0,1150.0,1500
10.879493951797485,481,,,,1500.0,1490.0,1150.0,1500
10.901997089385986,482,,,,1500.0,1490.0,1150.0,1500
10.924484014511108,483,,,,1500.0,1490.0,1150.0,1500
10.94696593284607,484,,,,1500.0,1490.0,1150.0,1500
10.96943998336792,485,,,,1500.0,1490.0,1150.0,1500
10.991935968399048,486,,,,1500.0,1490.0,1150.0,1500
11.014424085617065,487,,,,1500.0,1490.0,1150.0,1500
11.036917924880981,488,,,,1500.0,1490.0,1150.0,1500
11.059416055679321,489,,,,1500.0,1490.0,1150.0,1500
11.081830024719238,490,,,,1500.0,1490.0,1150.0,1500
11.104303121566772,491,,,,1500.0,1490.0,1150.0,1500
11.12679409980774,492,,,,1500.0,1490.0,1150.0,1500
11.1492280960083,493,,,,1500.0,1490.0,1150.0,1500
11.171616077423096,494,,,,1500.0,1490.0,1150.0,1500
11.194134950637817,495,,,,1500.0,1490.0,1150.0,1500
11.216691970825195,496,,,,1500.0,1490.0,1150.0,1500
11.239241123199463,497,,,,1500.0,1490.0,1150.0,1500
11.261724948883057,498,,,,1500.0,1490.0,1150.0,1500
11.28416109085083,499,,,,1500.0,1490.0,1150.0,1500
11.306684017181396,500,,,,1500.0,1490.0,1150.0,1500
11.329320907592773,501,,,,1500.0,1490.0,1150.0,1500
11.35215711593628,502,,,,1500.0,1490.0,1150.0,1500
11.374711036682129,503,,,,1500.0,1490.0,1150.0,1500
11.397197008132935,504,,,,1500.0,1490.0,1150.0,1500
11.419683933258057,505,,,,1500.0,1490.0,1150.0,1500
11.442182064056396,506,,,,1500.0,1490.0,1150.0,1500
11.464662075042725,507,,,,1500.0,1490.0,1150.0,1500
11.487131118774414,508,,,,1500.0,1490.0,1150.0,1500
11.509642124176025,509,,,,1500.0,1490.0,1150.0,1500
11.53217601776123,510,,,,1500.0,1490.0,1150.0,1500
11.554654121398926,511,,,,1500.0,1490.0,1150.0,1500
11.577120065689087,512,,,,1500.0,1490.0,1150.0,1500
11.599743127822876,513,10,3,0.006802721088435374,1485.75,1500,1165,1500
11.622448921203613,514,11,8,0.0025575447570332483,1486.595,1500,1165,1500
11.645113945007324,515,10,14,0.001567398119122257,1487.2449999999999,1500,1165,1500
11.667829990386963,516,10,17,0.0012626262626262627,1487.9949999999999,1500,1165,1500
11.690611124038696,517,11,19,0.0010869565217391304,1488.8399999999999,1500,1165,1500
11.713356971740723,518,12,22,0.0008695652173913044,1480.6800000000001,1500,1165,1500
11.736058950424194,519,13,28,0.0010504201680672268,1480,1500,1165,1500
11.758875131607056,520,14,29,0.0010775862068965517,1480,1500,1165,1500
11.781387090682983,521,13,26,0.0006988120195667365,1480,1500,1165,1500
11.803822040557861,522,14,37,0.0009319664492078285,1480,1500,1165,1500
11.826290130615234,523,15,37,0.0009487666034155598,1480,1499.5393083592216,1165,1500
11.849071979522705,524,15,27,0.000576036866359447,1480,1493.8305030979868,1165,1500
11.871869087219238,525,14,43,0.0008333333333333334,1480,1495.6694029819366,1164.25,1500
11.894721031188965,526,16,44,0.0007215007215007215,1480,1494.009951322485,1164.0,1500
11.917539119720459,527,15,48,0.0008012820512820513,1480,1494.5220901498412,1163.0,1500
11.940339088439941,528,15,50,0.0006793478260869565,1480,1493.1125305065859,1162.5,1500
11.963115930557251,529,17,54,0.0005194805194805195,1480,1490.9829177919348,1161.5,1500
11.985908031463623,530,17,54,0.0006968641114982578,1480,1492.376031616714,1161.5,1500
12.008688926696777,531,17,57,0.0005714285714285715,1480,1490.994292767879,1160.75,1500
12.03160309791565,532,17,48,0.0004553734061930783,1480,1489.3571480725093,1163.0,1500
12.054418087005615,533,15,52,0.000496031746031746,1480,1489.3109966135121,1162.0,1500
12.077218055725098,534,17,59,0.0006349206349206349,1480,1490.7587692709621,1160.25,1500
12.100044965744019,535,16,56,0.0004391743522178305,1480,1488.4071474628188,1161.0,1500
12.122896909713745,536,17,64,0.000496031746031746,1480,1488.750252425489,1159.0,1500
12.145689010620117,537,18,57,0.00038066235249333843,1480,1487.175938791316,1160.75,1500
12.168499946594238,538,18,62,0.0004314063848144953,1480,1487.4354376732551,1159.5,1500
12.191424131393433,539,17,60,0.00040241448692152917,1480,1487.0284526617666,1160.0,1500
12.214229106903076,540,18,66,0.00045045045045045046,1480,1487.2623986360079,1158.5,1500
12.237054109573364,541,18,64,0.0004873294346978557,1480,1487.5470893417512,1159.0,1500
12.259865045547485,542,19,65,0.0004837929366231253,1480,1487.5401438914339,1158.75,1500
12.282673120498657,543,17,65,0.0005102040816326531,1480,1487.8184276771301,1158.75,1500
12.3055100440979,544,19,67,0.0004748338081671415,1480,1487.3046381157217,1158.25,1500
12.328328132629395,545,18,58,0.00037593984962406017,1480,1486.252464027697,1160.5,1500
12.35127305984497,546,18,65,0.0004616805170821791,1480,1487.0755194733285,1158.75,1500
12.374080896377563,547,18,59,0.00039872408293460925,1480,1486.4640168622941,1160.25,1500
12.396878004074097,548,17,66,0.0005012531328320802,1480,1487.5591541092865,1158.5,1500
12.419678926467896,549,18,66,0.0005005005005005005,1480,1487.6497137995498,1158.5,1500
12.442474126815796,550,17,63,0.00051440329218107,1480,1487.8526945580859,1159.25,1500
12.465275049209595,551,17,60,0.00040816326530612246,1480,1486.7111281199448,1160.0,1500
12.488091945648193,552,18,65,0.0004873294346978557,1480,1487.5063263119368,1158.75,1500
12.510905027389526,553,18,64,0.00046992481203007516,1480,1487.2920008156564,1159.0,1500
12.533806085586548,554,19,60,0.0003663003663003663,1480,1486.1472229164926,1160.0,1500
12.556822061538696,555,18,52,0.0007518796992481203,1480,1490.3789560955943,1162.0,1500
12.579662084579468,556,16,57,0.000588235294117647,1480,1488.8690668213249,1160.75,1500
12.602513074874878,557,17,48,0.00042643923240938164,1480,1487.2788213537171,1163.0,1500
12.625363111495972,558,15,45,0.0009191176470588235,1480,1492.6234700144382,1163.75,1500
12.648158073425293,559,14,44,0.0009074410163339383,1480,1492.9136442230229,1164.0,1500
12.670984029769897,560,14,36,0.0009578544061302681,1480,1493.8612292349353,1165,1500
12.693768978118896,561,12,22,0.0008361204013377926,1480,1493.0718463230421,1165,1500
12.716485977172852,562,11,20,0.0010162601626016261,1480,1495.4021746635842,1165,1500
12.739257097244263,563,11,18,0.0011261261261261261,1480,1497.1570356129253,1165,1500
12.762041091918945,564,11,17,0.0011574074074074073,1480,1498.2609554668452,1165,1500
12.784740924835205,565,12,11,0.0016025641025641025,1480,1500,1165,1500
12.807197093963623,566,13,8,0.00205761316872428,1480,1500,1165,1500
12.829961061477661,567,13,5,0.002976190476190476,1480,1500,1165,1500
12.852450132369995,568,13,2,0.006172839506172839,1480,1500,1165,1500
12.87477993965149,569,,,,1480,1500,1150.0,1500
12.89714002609253,570,,,,1480,1500,1150.0,1500
12.919461011886597,571,,,,1480,1500,1150.0,1500
12.941761016845703,572,,,,1480,1500,1150.0,1500
12.964042901992798,573,,,,1480,1500,1150.0,1500
12.98633098602295,574,,,,1480,1500,1150.0,1500
13.008626937866211,575,,,,1480,1499.4066431510876,1150.0,1500
13.031173944473267,576,,,,1483.8299999999999,1497.9490299823633,1150.0,1500
13.053713083267212,577,,,,1491.915,1495.5728395061728,1150.0,1500
13.076250076293945,578,,,,1500.0,1490.0,1150.0,1500
13.098737955093384,579,,,,1500.0,1490.0,1150.0,1500
13.121441125869751,580,,,,1500.0,1490.0,1150.0,1500
13.143912076950073,581,,,,1500.0,1490.0,1150.0,1500
13.166398048400879,582,,,,1500.0,1490.0,1150.0,1500
13.188946962356567,583,,,,1500.0,1490.0,1150.0,1500
13.2114999294281,584,,,,1500.0,1490.0,1150.0,1500
13.233989000320435,585,,,,1500.0,1490.0,1150.0,1500
13.256478071212769,586,,,,1500.0,1490.0,1150.0,1500
13.279029130935669,587,,,,1500.0,1490.0,1150.0,1500
13.301599979400635,588,,,,1500.0,1490.0,1150.0,1500
13.324105978012085,589,,,,1500.0,1490.0,1150.0,1500
13.34657597541809,590,,,,1500.0,1490.0,1150.0,1500
13.369087934494019,591,,,,1500.0,1490.0,1150.0,1500
13.391649961471558,592,,,,1500.0,1490.0,1150.0,1500
13.414137125015259,593,,,,1500.0,1490.0,1150.0,1500
13.436654090881348,594,,,,1500.0,1490.0,1150.0,1500
13.459206104278564,595,,,,1500.0,1490.0,1150.0,1500
13.481725931167603,596,,,,1500.0,1490.0,1150.0,1500
13.504220008850098,597,,,,1500.0,1490.0,1150.0,1500
13.52672004699707,598,,,,1500.0,1490.0,1150.0,1500
13.549262046813965,599,,,,1500.0,1490.0,1150.0,1500
13.571799039840698,600,,,,1500.0,1490.0,1150.0,1500
13.59427809715271,601,,,,1500.0,1490.0,1150.0,1500
13.616751909255981,602,,,,1500.0,1490.0,1150.0,1500
13.639352083206177,603,,,,1500.0,1490.0,1150.0,1500
13.661893129348755,604,,,,1500.0,1490.0,1150.0,1500
13.684427976608276,605,,,,1500.0,1490.0,1150.0,1500
13.70696210861206,606,,,,1500.0,1490.0,1150.0,1500
13.729471921920776,607,,,,1500.0,1490.0,1150.0,1500
13.751950025558472,608,,,,1500.0,1490.0,1150.0,1500
13.774430990219116,609,,,,1500.0,1490.0,1150.0,1500
13.796891927719116,610,,,,1500.0,1490.0,1150.0,1500
13.819418907165527,611,,,,1500.0,1490.0,1150.0,1500
13.841974973678589,612,,,,1500.0,1490.0,1150.0,1500
13.864434003829956,613,,,,1500.0,1490.0,1150.0,1500
13.886933088302612,614,,,,1500.0,1490.0,1150.0,1500
13.909451961517334,615,,,,1500.0,1490.0,1150.0,1500
13.931941032409668,616,,,,1500.0,1490.0,1150.0,1500
13.954421043395996,617,,,,1500.0,1490.0,1150.0,1500
13.976884126663208,618,,,,1500.0,1490.0,1150.0,1500
13.999452114105225,619,,,,1500.0,1490.0,1150.0,1500
14.022053956985474,620,,,,1500.0,1490.0,1150.0,1500
14.044532060623169,621,,,,1500.0,1490.0,1150.0,1500
14.066983938217163,622,,,,1500.0,1490.0,1150.0,1500
14.089469909667969,623,,,,1500.0,1490.0,1150.0,1500
14.111953973770142,624,,,,1500.0,1490.0,1150.0,1500
14.134454011917114,625,,,,1500.0,1490.0,1150.0,1500
14.156934976577759,626,,,,1500.0,1490.0,1150.0,1500
14.179433107376099,627,,,,1500.0,1490.0,1150.0,1500
14.201910972595215,628,,,,1500.0,1490.0,1150.0,1500
14.224404096603394,629,,,,1500.0,1490.0,1150.0,1500
14.246882915496826,630,,,,1500.0,1490.0,1150.0,1500
14.269429922103882,631,,,,1500.0,1490.0,1150.0,1500
14.291981935501099,632,,,,1500.0,1490.0,1150.0,1500
14.314448118209839,633,,,,1500.0,1490.0,1150.0,1500
14.336930990219116,634,,,,1500.0,1490.0,1150.0,1500
14.359426975250244,635,,,,1500.0,1490.0,1150.0,1500
14.382033109664917,636,58,5,0.002331002331002331,1490.3099999999999,1500,1165,1500
14.40476107597351,637,55,11,0.0008333333333333334,1490.5350000000001,1494.297668997669,1165,1500
14.427592039108276,638,64,20,0.0003465003465003465,1491.915,1489.1758394758394,1165,1500
14.450401067733765,639,68,31,0.0001718213058419244,1492.7750000000001,1487.0008703750973,1165,1500
14.473221063613892,640,70,34,0.00016129032258064516,1493.425,1486.456850865065,1165,1500
14.496342897415161,641,72,37,0.00014880952380952382,1487.9449999999999,1485.8808524011633,1165,1500
14.519246101379395,642,66,40,0.00017295053614666206,1481.5150000000001,1485.6952130606815,1165.0,1500
14.542227029800415,643,71,43,0.0001633986928104575,1480,1485.1630933201297,1164.25,1500
14.56502103805542,644,71,47,0.00016869095816464237,1480,1484.7847069318364,1163.25,1500
14.58782696723938,645,73,50,0.0001670843776106934,1480,1484.3357255039075,1162.5,1500
14.610652923583984,646,73,52,0.0001670843776106934,1480,1482.171807550516,1162.0,1500
14.633466005325317,647,73,52,0.00015576323987538941,1480,1481.381026079705,1162.0,1500
14.656280994415283,648,72,59,0.00016420361247947455,1480,1481.2831330717249,1160.25,1500
14.679173946380615,649,73,59,0.00014467592592592592,1480,1481.0607108262734,1160.25,1500
14.702083110809326,650,74,61,0.0001386001386001386,1480,1480.977262769035,1159.75,1500
14.724889993667603,651,71,62,0.00015169902912621358,1480,1481.1111411796123,1159.5,1500
14.747666120529175,652,66,64,0.00016542597187758478,1480,1481.240886042857,1159.0,1500
14.770479917526245,653,64,65,0.00017286084701815038,1480,1481.3246969484703,1158.75,1500
14.793265104293823,654,60,64,0.00018477457501847746,1480,1481.4599178453275,1159.0,1500
14.816054105758667,655,77,66,0.0001278772378516624,1480,1480.8517373339002,1158.5,1500
14.838921070098877,656,52,66,0.0002331002331002331,1480,1481.9699831418757,1158.5,1500
14.861846923828125,657,59,51,0.0004962779156327543,1480,1484.9422746429582,1162.25,1500
14.88468313217163,658,52,49,0.0008012820512820513,1480,1488.6293944382537,1162.75,1500
14.907525062561035,659,53,53,0.0005941770647653001,1480,1487.0078457119255,1161.75,1500
14.930335998535156,660,52,53,0.000625,1480,1487.8024749256724,1161.75,1500
14.953063011169434,661,40,89,0.0009319664492078285,1480,1491.6524068378324,1152.75,1500
14.975940942764282,662,53,63,0.0003225806451612903,1480,1485.7157034706506,1159.25,1500
14.99874496459961,663,53,61,0.0004288164665523156,1480,1487.034017304095,1159.75,1500
15.02181100845337,664,46,68,0.0006313131313131314,1480,1489.505522507998,1158.0,1500
15.044663906097412,665,60,59,0.0004222972972972973,1480,1487.7097842272851,1160.25,1500
15.067479133605957,666,51,66,0.0003850596842510589,1480,1487.4893675479736,1158.5,1500
15.090306997299194,667,51,51,0.0010869565217391304,1480,1495.0990145289607,1162.25,1500
15.11312198638916,668,50,50,0.0015479876160990713,1480,1500,1162.5,1500
15.13584589958191,669,40,97,0.0011111111111111111,1480,1496.6042000338434,1150.75,1500
15.158648014068604,670,52,58,0.0009250693802035153,1480,1495.0438521049709,1160.5,1500
15.181570053100586,671,55,57,0.0006666666666666666,1480,1492.1945251870613,1160.75,1500
15.204385042190552,672,55,54,0.0010131712259371835,1480,1496.3501613605424,1161.5,1500
15.227205991744995,673,53,50,0.0016611295681063123,1480,1500,1162.5,1500
15.249902963638306,674,46,67,0.001081081081081081,1480,1498.7113409633032,1158.25,1500
15.2727210521698,675,43,87,0.0015873015873015873,1480,1500,1153.25,1500
15.295423030853271,676,57,54,0.0008865248226950354,1480,1498.4322478078911,1161.5,1500
15.31820797920227,677,55,85,0.0007309941520467836,1480,1496.5209787317162,1153.75,1500
15.341136932373047,678,39,99,0.001838235294117647,1480,1500,1150.25,1500
15.36384391784668,679,61,56,0.0007547169811320754,1480,1496.6920605706086,1161.0,1500
15.386651039123535,680,47,87,0.0013227513227513227,1480,1500,1153.25,1500
15.409409046173096,681,61,56,0.0005649717514124294,1480,1495.0905953007057,1161.0,1500
15.432286024093628,682,60,54,0.0007002801120448179,1480,1496.1307877931372,1161.5,1500
15.455101013183594,683,60,53,0.0007558578987150416,1480,1495.7812939904481,1161.75,1500
15.477900981903076,684,58,60,0.000462962962962963,1480,1492.2342265148093,1160.0,1500
15.500701904296875,685,62,50,0.0014184397163120568,1480,1500,1162.5,1500
15.523392915725708,686,58,55,0.0011904761904761906,1480,1499.6444482867332,1161.25,1500
15.546217918395996,687,54,100,0.0009433962264150943,1480,1497.3860507204906,1150.0,1500
15.56934905052185,688,53,96,0.0018018018018018018,1480,1500,1151.0,1500
15.592117071151733,689,65,51,0.0012755102040816326,1480,1500,1162.25,1500
15.614815950393677,690,64,58,0.0012254901960784314,1480,1500,1160.5,1500
15.63753604888916,691,62,49,0.0017543859649122807,1480,1500,1162.75,1500
15.66024899482727,692,69,54,0.0008163265306122449,1480,1497.8079129984901,1161.5,1500
15.683062076568604,693,66,50,0.002197802197802198,1480,1500,1162.5,1500
15.705795049667358,694,55,87,0.0005341880341880342,1480,1496.4996974045603,1153.25,1500
15.728590965270996,695,67,51,0.0010683760683760685,1480,1500,1162.25,1500
15.751384973526001,696,71,45,0.0011574074074074073,1480,1500,1163.75,1500
15.774065971374512,697,70,47,0.0009930486593843098,1480,1500,1163.25,1500
15.796735048294067,698,71,43,0.0010964912280701754,1480,1500,1164.25,1500
15.819461107254028,699,68,51,0.0005611672278338945,1480,1495.0163557930041,1162.25,1500
15.842339992523193,700,70,46,0.0007861635220125787,1480,1496.8269920607249,1163.5,1500
15.86514401435852,701,70,47,0.0011695906432748538,1480,1500,1163.25,1500
15.887831926345825,702,80,46,0.002380952380952381,1480,1500,1163.5,1500
15.91054892539978,703,74,41,0.0008525149190110827,1480,1497.1250492806216,1164.75,1500
15.933342933654785,704,73,44,0.0005649717514124294,1480,1494.2804013218595,1164.0,1500
15.95615005493164,705,76,41,0.0009337068160597573,1480,1497.8330827160164,1164.75,1500
15.978977918624878,706,79,38,0.0011441647597254005,1480,1499.924419504991,1165,1500
16.00175404548645,707,75,34,0.0008873114463176575,1480,1497.2501491578469,1165,1500
16.0244460105896,708,78,35,0.0006506180871828237,1480,1494.4373424256112,1165,1500
16.047138929367065,709,80,37,0.00065359477124183,1480,1494.5595368096092,1165,1500
16.069847106933594,710,75,34,0.0011441647597254005,1480,1499.8232379321576,1165,1500
16.092565059661865,711,79,32,0.0006666666666666666,1480,1494.545333024962,1165,1500
16.115296125411987,712,77,45,0.0004177109440267335,1480,1490.092534361637,1163.75,1500
16.13813591003418,713,68,70,0.0006868131868131869,1480,1492.6178550573038,1157.5,1500
16.16093897819519,714,85,36,0.0006868131868131869,1480,1492.7396964927045,1165,1500
16.183636903762817,715,84,44,0.0007122507122507123,1480,1492.7726156432707,1164.0,1500
16.20643711090088,716,84,52,0.0006706908115358819,1480,1491.883542687933,1162.0,1500
16.229317903518677,717,84,41,0.00039277297721916735,1480,1488.6098258756672,1164.75,1500
16.252150058746338,718,85,42,0.0009337068160597573,1480,1494.3022529929501,1164.5,1500
16.27495312690735,719,59,57,0.003076923076923077,1480,1500,1160.75,1500
16.29764199256897,720,86,31,0.0005070993914807302,1480,1491.8224416845965,1165,1500
16.320353984832764,721,109,54,0.0001282051282051282,1480,1487.4950375133787,1161.5,1500
16.34317111968994,722,90,16,0.0006277463904582549,1480,1492.7004855823416,1165,1500
16.36587405204773,723,101,37,0.00013290802764486976,1480,1487.1981967950394,1165,1500
16.388587951660156,724,101,23,0.00022893772893772894,1480,1487.7006183500926,1165,1500
16.411433935165405,725,102,30,0.0001853911753800519,1480,1486.7382932776452,1165,1500
16.434137105941772,726,105,21,0.00027056277056277056,1480,1487.1898811884992,1165,1500
16.4568510055542,727,107,24,0.00029239766081871346,1480,1487.3078547746582,1165,1500
16.479541063308716,728,110,17,0.0004268032437046522,1480,1488.1450070311625,1165,1500
16.502228021621704,729,113,19,0.0009337068160597573,1480,1491.0708264938503,1165,1500
16.524946928024292,730,125,8,0.0020833333333333333,1481.365,1500,1165,1500
16.547521114349365,731,,,,1484.3699999999999,1489.7817871469001,1150.0,1500
16.57006311416626,732,,,,1485.04,1489.7540407564418,1150.0,1500
16.592570066452026,733,,,,1485.2850000000001,1490.2211327287971,1150.0,1500
16.615087032318115,734,,,,1485.71,1490.5921949998592,1150.0,1500
16.637643098831177,735,,,,1486.8,1491.0068038244792,1150.0,1500
16.660165071487427,736,,,,1489.825,1491.3362410539164,1150.0,1500
16.68270993232727,737,,,,1492.74,1491.6438433930978,1150.0,1500
16.705557107925415,738,,,,1495.49,1491.8170401493931,1150.0,1500
16.728132009506226,739,,,,1498.075,1491.4833333333333,1150.0,1500
16.750641107559204,740,,,,1500.0,1490.0,1150.0,1500
16.77311110496521,741,,,,1500.0,1490.0,1150.0,1500
16.795591115951538,742,,,,1500.0,1490.0,1150.0,1500
16.81805396080017,743,,,,1500.0,1490.0,1150.0,1500
16.840548038482666,744,,,,1500.0,1490.0,1150.0,1500
16.863038063049316,745,,,,1500.0,1490.0,1150.0,1500
16.885499000549316,746,,,,1500.0,1490.0,1150.0,1500
16.907982110977173,747,,,,1500.0,1490.0,1150.0,1500
16.93045711517334,748,,,,1500.0,1490.0,1150.0,1500
16.952928066253662,749,,,,1500.0,1490.0,1150.0,1500
16.97539210319519,750,,,,1500.0,1490.0,1150.0,1500
16.997868061065674,751,,,,1500.0,1490.0,1150.0,1500
17.020355939865112,752,,,,1500.0,1490.0,1150.0,1500
17.042850971221924,753,,,,1500.0,1490.0,1150.0,1500
17.06532597541809,754,,,,1500.0,1490.0,1150.0,1500
17.08781409263611,755,,,,1500.0,1490.0,1150.0,1500
17.11031699180603,756,,,,1500.0,1490.0,1150.0,1500
17.132818937301636,757,,,,1500.0,1490.0,1150.0,1500
17.155309915542603,758,,,,1500.0,1490.0,1150.0,1500
17.177804946899414,759,,,,1500.0,1490.0,1150.0,1500
17.200284957885742,760,,,,1500.0,1490.0,1150.0,1500
17.222770929336548,761,,,,1500.0,1490.0,1150.0,1500
17.24525213241577,762,,,,1500.0,1490.0,1150.0,1500
17.267718076705933,763,,,,1500.0,1490.0,1150.0,1500
17.290194988250732,764,,,,1500.0,1490.0,1150.0,1500
17.312681913375854,765,,,,1500.0,1490.0,1150.0,1500
17.335161924362183,766,,,,1500.0,1490.0,1150.0,1500
17.357628107070923,767,,,,1500.0,1490.0,1150.0,1500
17.38011598587036,768,,,,1500.0,1490.0,1150.0,1500
17.402596950531006,769,,,,1500.0,1490.0,1150.0,1500
17.425132989883423,770,,,,1500.0,1490.0,1150.0,1500
17.447623014450073,771,,,,1500.0,1490.0,1150.0,1500
17.470096111297607,772,,,,1500.0,1490.0,1150.0,1500
17.49261212348938,773,,,,1500.0,1490.0,1150.0,1500
17.515100955963135,774,,,,1500.0,1490.0,1150.0,1500
17.537598133087158,775,,,,1500.0,1490.0,1150.0,1500
17.560089111328125,776,,,,1500.0,1490.0,1150.0,1500
17.582576036453247,777,,,,1500.0,1490.0,1150.0,1500
17.605070114135742,778,,,,1500.0,1490.0,1150.0,1500
17.62759804725647,779,,,,1500.0,1490.0,1150.0,1500
17.65010094642639,780,,,,1500.0,1490.0,1150.0,1500
17.67262101173401,781,,,,1500.0,1490.0,1150.0,1500
17.695142030715942,782,,,,1500.0,1490.0,1150.0,1500
17.71761703491211,783,,,,1500.0,1490.0,1150.0,1500
17.740108013153076,784,,,,1500.0,1490.0,1150.0,1500
17.762587070465088,785,,,,1500.0,1490.0,1150.0,1500
17.785046100616455,786,,,,1500.0,1490.0,1150.0,1500
17.80751895904541,787,,,,1500.0,1490.0,1150.0,1500
17.830020904541016,788,,,,1500.0,1490.0,1150.0,1500
17.85248899459839,789,,,,1500.0,1490.0,1150.0,1500
17.874978065490723,790,,,,1500.0,1490.0,1150.0,1500
17.897468090057373,791,,,,1500.0,1490.0,1150.0,1500
17.9199481010437,792,,,,1500.0,1490.0,1150.0,1500
17.942445993423462,793,,,,1500.0,1490.0,1150.0,1500
17.96493697166443,794,,,,1500.0,1490.0,1150.0,1500
17.987525939941406,795,115,2,0.041666666666666664,1495.7249999999999,1500,1165,1500
18.010227918624878,796,117,9,0.004807692307692308,1496.1400000000001,1500,1165,1500
18.032922983169556,797,117,11,0.0017543859649122807,1496.355,1500,1165,1500
18.055630922317505,798,130,16,0.0005952380952380953,1497.8050000000001,1500,1165,1500
18.078365087509155,799,129,20,0.0004203446826397646,1497.8599999999999,1500,1165,1500
18.101221084594727,800,116,14,0.0009881422924901185,1494.0799999999999,1500,1165,1500
18.123945951461792,801,127,14,0.0006211180124223603,1492.7650000000001,1500,1165,1500
18.146640062332153,802,120,13,0.0015873015873015873,1489.6849999999999,1500,1165,1500
18.169363975524902,803,117,40,0.0029585798816568047,1487.8,1500,1165.0,1500
18.192210912704468,804,107,9,0.0012578616352201257,1485.2049999999999,1500,1165,1500
18.214904069900513,805,117,8,0.0014367816091954023,1486.2550000000001,1500,1165,1500
18.237587928771973,806,110,17,0.0005561735261401557,1486.1900000000001,1495.7376625486183,1165,1500
18.260381937026978,807,103,15,0.0011337868480725624,1485.74,1500,1165,1500
18.283931016921997,808,107,9,0.0012121212121212121,1485.4749999999999,1500,1165,1500
18.306836128234863,809,103,10,0.00641025641025641,1483.885,1500,1165,1500
18.329565048217773,810,88,27,0.0030864197530864196,1482.585,1500,1165,1500
18.352251052856445,811,110,6,0.004807692307692308,1483.8499999999999,1500,1165,1500
18.374948978424072,812,112,8,0.0020833333333333333,1483.0699999999999,1500,1165,1500
18.397624969482422,813,125,9,0.003205128205128205,1483.73,1500,1165,1500
18.42021107673645,814,118,7,0.006211180124223602,1482.7349999999999,1500,1165,1500
18.44286298751831,815,126,19,0.007518796992481203,1481.75,1500,1165,1500
18.46557092666626,816,95,30,0.005494505494505495,1480,1500,1165,1500
18.48802900314331,817,139,30,0.0125,1483.4849999999999,1500,1165,1500
18.510728120803833,818,118,17,0.004608294930875576,1482.4100000000001,1500,1165,1500
18.533447980880737,819,102,21,0.010416666666666666,1481.7149999999999,1500,1165,1500
18.556144952774048,820,137,26,0.008771929824561403,1487.25,1500,1165,1500
18.578860998153687,821,100,41,0.005050505050505051,1482.7,1500,1164.75,1500
18.60169506072998,822,106,30,0.014705882352941176,1484.95,1500,1165,1500
18.624428033828735,823,124,18,0.003952569169960474,1486.335,1500,1165,1500
18.64709997177124,824,115,33,0.008695652173913044,1484.49,1500,1165,1500
18.669765949249268,825,110,22,0.008928571428571428,1484.73,1500,1165,1500
18.692487001419067,826,128,28,0.011494252873563218,1486.665,1500,1165,1500
18.715192079544067,827,94,60,0.011111111111111112,1481.51,1500,1160.0,1500
18.737968921661377,828,90,58,0.03125,1481.6099999999999,1500,1160.5,1500
18.760765075683594,829,117,19,0.007142857142857143,1485.0150000000001,1500,1165,1500
18.78346610069275,830,120,13,0.018518518518518517,1483.78,1500,1165,1500
18.806150913238525,831,128,24,0.007575757575757576,1486.1199999999999,1500,1165,1500
