time,x,y,size_inv,roll,pitch,thrust,yaw
0.00047397613525390625,180,58,0.0058823529411764705,1520,1494.0,1350,1520.0
0.022327184677124023,181,58,0.007142857142857143,1520,1494.0,1350,1520
0.043856143951416016,181,58,0.007142857142857143,1520,1494.0,1350,1520
0.06524515151977539,181,58,0.007142857142857143,1520,1494.0,1350,1520
0.08663105964660645,181,58,0.007142857142857143,1520,1494.0,1350,1520
0.10811018943786621,180,58,0.006535947712418301,1520,1494.0,1350,1520.0
0.12964320182800293,181,58,0.007142857142857143,1520,1494.0,1350,1520
0.15111613273620605,181,58,0.007142857142857143,1520,1494.0,1350,1520
0.172698974609375,180,58,0.0058823529411764705,1520,1494.0,1350,1520.0
0.19423508644104004,182,58,0.006666666666666667,1520,1494.0,1350,1520
0.2159101963043213,180,58,0.0058823529411764705,1520,1494.0,1350,1520.0
0.2377471923828125,180,58,0.0058823529411764705,1520,1494.0,1350,1520.0
0.2596151828765869,179,58,0.005555555555555556,1520,1494.0,1350,1519.0
0.2814970016479492,179,58,0.0058823529411764705,1520,1494.0,1350,1519.0
0.30330920219421387,179,58,0.007142857142857143,1520,1494.0,1350,1519.0
0.32518506050109863,177,58,0.0058823529411764705,1520,1494.0,1350,1517.0
0.34702515602111816,176,57,0.007936507936507936,1520,1494.0,1350,1516.0
0.3688521385192871,174,55,0.007936507936507936,1520,1494.0,1350,1514.0
0.3907351493835449,171,54,0.007936507936507936,1520,1494.0,1350,1511.0
0.41263818740844727,168,54,0.007936507936507936,1520,1494.0,1350,1508.0
0.43453216552734375,165,55,0.007936507936507936,1520,1494.0,1350,1505.0
0.4563770294189453,162,56,0.007936507936507936,1520,1494.0,1350,1502.0
0.47821998596191406,160,56,0.007142857142857143,1520,1494.0,1350,1500.0
0.5000979900360107,157,57,0.0058823529411764705,1520,1494.0,1350,1497.0
0.5220000743865967,155,58,0.0058823529411764705,1520,1494.0,1350,1495.0
0.5438661575317383,154,58,0.007142857142857143,1520,1494.0,1350,1494.0
0.5656449794769287,153,59,0.007407407407407408,1505.0,1494.0,1350,1493.0
0.5874500274658203,150,59,0.005555555555555556,1480,1494.0,1350,1490.0
0.609626054763794,150,61,0.007142857142857143,1480,1494.0,1350,1490.0
0.6314661502838135,148,62,0.0058823529411764705,1480,1494.0,1350,1488.0
0.6532931327819824,149,64,0.007407407407407408,1480,1494.0,1350,1489.0
0.6750760078430176,147,65,0.005555555555555556,1480,1494.0,1350,1487.0
0.6968550682067871,149,67,0.007142857142857143,1480,1494.0,1350,1489.0
0.7186570167541504,148,68,0.0058823529411764705,1480,1494.0,1350,1488.0
0.740447998046875,150,70,0.007936507936507936,1480,1494.0,1350,1490.0
0.7622320652008057,149,70,0.005555555555555556,1480,1494.0,1350,1489.0
0.784013032913208,150,71,0.0058823529411764705,1480,1494.0,1350,1490.0
0.8057692050933838,150,72,0.0058823529411764705,1480,1494.0,1350,1490.0
0.8275392055511475,152,73,0.007142857142857143,1480,1494.0,1350,1492.0
0.8493220806121826,151,74,0.0058823529411764705,1480,1494.0,1350,1491.0
0.87123703956604,152,76,0.007936507936507936,1480,1494.0,1350,1492.0
0.8930990695953369,152,77,0.007936507936507936,1480,1494.0,1350,1492.0
0.9148900508880615,151,78,0.005555555555555556,1480,1494.0,1350,1491.0
0.9366681575775146,151,79,0.006172839506172839,1480,1494.0,1350,1491.0
0.9584801197052002,152,80,0.0058823529411764705,1480,1494.0,1350,1492.0
0.9802680015563965,152,81,0.006535947712418301,1480,1494.0,1350,1492.0
1.0020551681518555,152,81,0.005555555555555556,1480,1494.0,1350,1492.0
1.0238430500030518,155,82,0.006666666666666667,1480,1494.0,1350,1495.0
1.045638084411621,154,82,0.007142857142857143,1480,1494.0,1350,1494.0
1.0674080848693848,153,83,0.005555555555555556,1480,1494.0,1350,1493.0
1.0891501903533936,153,84,0.005555555555555556,1480,1494.0,1350,1493.0
1.1109399795532227,153,86,0.005050505050505051,1480,1494.0,1346.4000000000001,1493.0
1.1327919960021973,153,87,0.005555555555555556,1480,1494.0,1343.0,1493.0
1.1546130180358887,153,88,0.005555555555555556,1480,1494.0,1338.8,1493.0
1.176457166671753,153,89,0.005555555555555556,1480,1494.0,1334.5999999999999,1493.0
1.1982851028442383,153,90,0.005555555555555556,1480,1494.0,1330.4000000000001,1493.0
1.2203960418701172,155,92,0.006493506493506494,1480,1494.0,1325.4000000000001,1495.0
1.2422749996185303,154,93,0.0058823529411764705,1480,1494.0,1321.5999999999999,1494.0
1.2641220092773438,155,94,0.007142857142857143,1480,1494.0,1318.0,1495.0
1.2859630584716797,154,95,0.005555555555555556,1480,1494.0,1314.4000000000001,1494.0
1.3078391551971436,154,96,0.005555555555555556,1480,1494.0,1310.8,1494.0
1.3297240734100342,156,99,0.006493506493506494,1480,1494.0,1304.2,1496.0
1.351647138595581,156,100,0.007142857142857143,1480,1494.0,1300.0,1496.0
1.3735740184783936,156,101,0.007142857142857143,1480,1494.0,1295.8,1496.0
1.3953981399536133,155,103,0.005050505050505051,1480,1494.0,1289.8,1495.0
1.417222023010254,155,104,0.005555555555555556,1480,1494.0,1285.0,1495.0
1.4390301704406738,156,105,0.007142857142857143,1480,1494.0,1281.5999999999999,1496.0
1.4608471393585205,155,107,0.005050505050505051,1480,1494.0,1276.4000000000001,1495.0
1.4826741218566895,155,108,0.005050505050505051,1480,1494.0,1272.4000000000001,1495.0
1.5045020580291748,155,109,0.005050505050505051,1480,1494.0,1269.2,1495.0
1.526339054107666,155,109,0.0058823529411764705,1480,1494.0,1267.8,1495.0
1.5482051372528076,155,110,0.0058823529411764705,1480,1494.0,1264.8,1495.0
1.5701770782470703,155,111,0.0053475935828877,1480,1494.0,1262.5999999999999,1495.0
1.5920400619506836,155,112,0.0053475935828877,1480,1494.0,1260.4000000000001,1495.0
1.613887071609497,156,112,0.007142857142857143,1480,1494.0,1259.8,1496.0
1.6357111930847168,155,113,0.0058823529411764705,1480,1494.0,1257.2,1495.0
1.657541036605835,155,114,0.005555555555555556,1480,1494.0,1254.5999999999999,1495.0
1.6793830394744873,155,115,0.005555555555555556,1480,1494.0,1251.8,1495.0
1.7012121677398682,155,116,0.005050505050505051,1480,1494.0,1250,1495.0
1.7230710983276367,155,116,0.005050505050505051,1480,1494.0,1250,1495.0
1.7448630332946777,155,116,0.005555555555555556,1480,1494.0,1250,1495.0
1.7666430473327637,155,117,0.005050505050505051,1480,1494.0,1250,1495.0
1.7884039878845215,155,117,0.005050505050505051,1480,1494.0,1250,1495.0
1.8101801872253418,155,118,0.005050505050505051,1480,1494.0,1250,1495.0
1.8319602012634277,156,118,0.0053475935828877,1480,1494.0,1250,1496.0
1.8537201881408691,156,118,0.005050505050505051,1480,1494.0,1250,1496.0
1.875488042831421,156,118,0.005050505050505051,1480,1494.0,1250,1496.0
1.8972501754760742,156,118,0.005050505050505051,1480,1494.0,1250,1496.0
1.9190211296081543,157,118,0.005050505050505051,1480,1494.0,1250,1497.0
1.9408111572265625,157,117,0.005050505050505051,1480,1494.0,1250,1497.0
1.9625940322875977,157,117,0.005050505050505051,1480,1494.0,1250,1497.0
1.9843671321868896,158,116,0.005263157894736842,1480,1494.0,1250,1498.0
2.0061511993408203,158,116,0.005050505050505051,1480,1494.0,1250,1498.0
2.0280439853668213,158,115,0.005050505050505051,1480,1494.0,1251.4000000000001,1498.0
2.049894094467163,158,115,0.005050505050505051,1480,1494.0,1252.4000000000001,1498.0
2.0717930793762207,159,115,0.005050505050505051,1480,1494.0,1253.4000000000001,1499.0
2.0937230587005615,159,114,0.005555555555555556,1480,1494.0,1255.4000000000001,1499.0
2.1156890392303467,159,114,0.005050505050505051,1480,1494.0,1256.2,1499.0
2.1376991271972656,160,113,0.005555555555555556,1483.0,1494.0,1258.0,1500.0
2.1597771644592285,160,112,0.005555555555555556,1486.0,1494.0,1260.5999999999999,1500.0
2.1818881034851074,160,111,0.005555555555555556,1489.0,1494.0,1263.8,1500.0
2.2039480209350586,160,111,0.005050505050505051,1491.0,1494.0,1265.2,1500.0
2.225959062576294,161,109,0.005555555555555556,1496.0,1494.0,1270.2,1501.0
2.247972011566162,161,109,0.005050505050505051,1499.0,1494.0,1272.2,1501.0
2.270003080368042,161,108,0.005050505050505051,1502.0,1494.0,1275.2,1501.0
2.292081117630005,162,106,0.005263157894736842,1507.0,1494.0,1279.8,1502.0
2.314100980758667,162,106,0.005050505050505051,1510.0,1494.0,1282.2,1502.0
2.33624005317688,162,104,0.005050505050505051,1513.0,1494.0,1286.5999999999999,1502.0
2.3583600521087646,162,103,0.005050505050505051,1515.0,1494.0,1290.5999999999999,1502.0
2.3805830478668213,164,102,0.006493506493506494,1520,1494.0,1294.5999999999999,1504.0
2.402637004852295,162,101,0.005050505050505051,1520,1494.0,1297.8,1502.0
2.4246151447296143,164,100,0.006060606060606061,1520,1494.0,1301.5999999999999,1504.0
2.4466161727905273,165,99,0.006060606060606061,1520,1494.0,1304.8,1505.0
2.4686360359191895,164,97,0.007142857142857143,1520,1494.0,1309.5999999999999,1504.0
2.490612030029297,164,96,0.006493506493506494,1520,1494.0,1313.2,1504.0
2.512632131576538,164,94,0.007142857142857143,1520,1494.0,1318.8,1504.0
2.534604072570801,162,92,0.005555555555555556,1520,1494.0,1324.8,1502.0
2.556565999984741,162,91,0.005555555555555556,1520,1494.0,1329.8,1502.0
2.5785679817199707,163,90,0.007936507936507936,1520,1494.0,1334.0,1503.0
2.600520133972168,163,88,0.007142857142857143,1520,1494.0,1340.0,1503.0
2.6225171089172363,162,87,0.005263157894736842,1520,1494.0,1344.0,1502.0
2.6446030139923096,161,84,0.005555555555555556,1520,1494.0,1350,1501.0
2.666544198989868,162,83,0.007936507936507936,1520,1494.0,1350,1502.0
2.688467025756836,161,81,0.005555555555555556,1520,1494.0,1350,1501.0
2.710479974746704,161,80,0.006535947712418301,1520,1494.0,1350,1501.0
2.7324090003967285,162,78,0.007142857142857143,1520,1494.0,1350,1502.0
2.754371166229248,160,77,0.006172839506172839,1517.0,1494.0,1350,1500.0
2.776358127593994,160,75,0.005555555555555556,1515.0,1494.0,1350,1500.0
2.7983481884002686,160,74,0.006172839506172839,1512.0,1494.0,1350,1500.0
2.8203840255737305,160,73,0.006172839506172839,1509.0,1494.0,1350,1500.0
2.842374086380005,161,71,0.007142857142857143,1510.0,1494.0,1350,1501.0
2.8644042015075684,160,70,0.006172839506172839,1507.0,1494.0,1350,1500.0
2.886444091796875,160,69,0.006172839506172839,1505.0,1494.0,1350,1500.0
2.9084250926971436,160,67,0.005555555555555556,1504.0,1494.0,1350,1500.0
2.930415153503418,160,66,0.005555555555555556,1503.0,1494.0,1350,1500.0
2.952444076538086,161,63,0.005555555555555556,1504.0,1494.0,1350,1501.0
2.974454164505005,161,63,0.005555555555555556,1505.0,1494.0,1350,1501.0
2.9964451789855957,161,62,0.0058823529411764705,1506.0,1494.0,1350,1501.0
3.0189361572265625,162,61,0.007142857142857143,1510.0,1494.0,1350,1502.0
3.0426230430603027,162,60,0.007142857142857143,1512.0,1494.0,1350,1502.0
3.066209077835083,162,59,0.007142857142857143,1513.0,1494.0,1350,1502.0
3.0897741317749023,161,58,0.006172839506172839,1512.0,1494.0,1350,1501.0
3.113704204559326,161,57,0.006172839506172839,1513.0,1494.0,1350,1501.0
3.1371850967407227,161,55,0.005555555555555556,1514.0,1494.0,1350,1501.0
3.160907030105591,162,54,0.007936507936507936,1518.0,1494.0,1350,1502.0
3.184699058532715,162,53,0.007936507936507936,1519.0,1494.0,1350,1502.0
3.208259105682373,162,52,0.007142857142857143,1520.0,1494.0,1350,1502.0
3.231973171234131,162,53,0.007142857142857143,1520,1494.0,1350,1502.0
3.2555861473083496,162,54,0.007936507936507936,1520,1494.0,1350,1502.0
3.2791991233825684,160,56,0.006172839506172839,1515.0,1494.0,1350,1500.0
3.302877187728882,160,60,0.007936507936507936,1513.0,1494.0,1350,1500.0
3.326510190963745,158,61,0.005555555555555556,1506.0,1494.0,1350,1498.0
3.3501181602478027,158,61,0.005555555555555556,1503.0,1494.0,1350,1498.0
3.374336004257202,160,60,0.006666666666666667,1506.0,1494.0,1350,1500.0
3.398015022277832,157,60,0.005555555555555556,1495.0,1494.0,1350,1497.0
3.4218862056732178,159,60,0.007142857142857143,1496.0,1494.0,1350,1499.0
3.4457080364227295,159,60,0.007142857142857143,1493.0,1494.0,1350,1499.0
3.4693620204925537,158,61,0.005555555555555556,1487.0,1494.0,1350,1498.0
3.4929120540618896,158,61,0.005555555555555556,1483.0,1494.0,1350,1498.0
3.516489028930664,158,62,0.005555555555555556,1481.0,1494.0,1350,1498.0
3.540058135986328,158,63,0.005555555555555556,1480,1494.0,1350,1498.0
3.563716173171997,158,64,0.005555555555555556,1480,1494.0,1350,1498.0
3.5873000621795654,159,65,0.007142857142857143,1482.0,1494.0,1350,1499.0
3.6108930110931396,159,67,0.007142857142857143,1481.0,1494.0,1350,1499.0
3.642789125442505,159,68,0.005263157894736842,1483.0,1494.0,1350,1499.0
3.666558027267456,158,70,0.005555555555555556,1480.0,1494.0,1350,1498.0
3.690242052078247,158,72,0.005555555555555556,1480,1494.0,1350,1498.0
3.7138609886169434,159,75,0.007142857142857143,1482.0,1494.0,1350,1499.0
3.7374930381774902,158,77,0.005555555555555556,1480.0,1494.0,1350,1498.0
3.76108717918396,157,78,0.005555555555555556,1480,1494.0,1350,1497.0
3.784741163253784,157,79,0.005555555555555556,1480,1494.0,1350,1497.0
3.808202028274536,157,80,0.005050505050505051,1480,1494.0,1350,1497.0
3.8317720890045166,158,80,0.007142857142857143,1480,1494.0,1350,1498.0
3.8553550243377686,157,81,0.005555555555555556,1480,1494.0,1350,1497.0
3.878880023956299,156,82,0.005555555555555556,1480,1494.0,1350,1496.0
3.9024240970611572,157,84,0.004784688995215311,1480,1494.0,1350,1497.0
3.925930976867676,156,85,0.005050505050505051,1480,1494.0,1348.5999999999999,1496.0
3.9495480060577393,156,86,0.005050505050505051,1480,1494.0,1344.8,1496.0
3.9731791019439697,156,87,0.005555555555555556,1480,1494.0,1340.8,1496.0
3.996796131134033,158,89,0.006060606060606061,1480,1494.0,1335.0,1498.0
4.020406007766724,156,90,0.005050505050505051,1480,1494.0,1331.2,1496.0
4.0442421436309814,157,92,0.005263157894736842,1480,1494.0,1325.5999999999999,1497.0
4.067852973937988,156,94,0.005050505050505051,1480,1494.0,1319.5999999999999,1496.0
4.091472148895264,156,95,0.005050505050505051,1480,1494.0,1314.8,1496.0
4.115092039108276,156,96,0.005050505050505051,1480,1494.0,1310.8,1496.0
4.138823986053467,156,97,0.005050505050505051,1480,1494.0,1306.5999999999999,1496.0
4.162543058395386,156,98,0.005050505050505051,1480,1494.0,1303.2,1496.0
4.186146974563599,158,100,0.006493506493506494,1480,1494.0,1298.8,1498.0
4.2097320556640625,157,101,0.005050505050505051,1480,1494.0,1295.5999999999999,1497.0
4.233967065811157,157,102,0.005050505050505051,1480,1494.0,1292.2,1497.0
4.257580995559692,157,103,0.004629629629629629,1480,1494.0,1288.8,1497.0
4.281182050704956,157,105,0.005050505050505051,1480,1494.0,1283.4000000000001,1497.0
4.304877996444702,157,106,0.005050505050505051,1480,1494.0,1279.8,1497.0
4.328503131866455,157,107,0.005050505050505051,1480,1494.0,1276.2,1497.0
4.352406978607178,157,108,0.004629629629629629,1480,1494.0,1272.5999999999999,1497.0
4.3760600090026855,157,109,0.004629629629629629,1480,1494.0,1269.0,1497.0
4.399661064147949,158,110,0.0043859649122807015,1480,1494.0,1266.2,1498.0
4.423318147659302,158,111,0.004784688995215311,1480,1494.0,1263.2,1498.0
4.447017192840576,157,112,0.005050505050505051,1480,1494.0,1260.2,1497.0
4.470808982849121,158,113,0.0053475935828877,1480,1494.0,1257.2,1498.0
4.494495153427124,158,114,0.005050505050505051,1480,1494.0,1254.2,1498.0
4.51813817024231,158,115,0.005050505050505051,1480,1494.0,1251.0,1498.0
4.541835069656372,158,115,0.005050505050505051,1480,1494.0,1250,1498.0
4.565368175506592,160,115,0.006060606060606061,1480,1494.0,1250,1500.0
4.588837146759033,158,115,0.004629629629629629,1480,1494.0,1250,1498.0
4.612475156784058,159,116,0.004784688995215311,1480.0,1494.0,1250,1499.0
4.636051177978516,159,116,0.005050505050505051,1481.0,1494.0,1250,1499.0
4.659754991531372,159,116,0.004629629629629629,1482.0,1494.0,1250,1499.0
4.683332204818726,159,116,0.004629629629629629,1484.0,1494.0,1250,1499.0
4.70691704750061,160,116,0.0043859649122807015,1488.0,1494.0,1250,1500.0
4.730488061904907,160,116,0.005050505050505051,1490.0,1494.0,1250,1500.0
4.754154205322266,160,115,0.004629629629629629,1492.0,1494.0,1250.0,1500.0
4.777809143066406,161,115,0.0043859649122807015,1497.0,1494.0,1250.8,1501.0
4.801554203033447,161,115,0.004048582995951417,1498.0,1494.0,1251.5999999999999,1501.0
4.825432062149048,162,114,0.0043859649122807015,1504.0,1494.0,1254.2,1502.0
4.849125146865845,161,113,0.004629629629629629,1504.0,1494.0,1257.2,1501.0
4.872802019119263,161,113,0.005050505050505051,1506.0,1494.0,1258.2,1501.0
4.896481990814209,162,112,0.004901960784313725,1511.0,1494.0,1261.0,1502.0
4.920521974563599,162,112,0.0053475935828877,1514.0,1494.0,1262.5999999999999,1502.0
4.944339990615845,163,111,0.0043859649122807015,1519.0,1494.0,1265.2,1503.0
4.9680681228637695,162,109,0.004629629629629629,1519.0,1494.0,1269.4000000000001,1502.0
4.991778135299683,162,109,0.005050505050505051,1520,1494.0,1271.4000000000001,1502.0
5.015426158905029,163,108,0.005050505050505051,1520,1494.0,1274.4000000000001,1503.0
5.039029121398926,163,107,0.005050505050505051,1520,1494.0,1278.0,1503.0
5.062585115432739,163,106,0.005050505050505051,1520,1494.0,1281.5999999999999,1503.0
5.086305141448975,163,105,0.005050505050505051,1520,1494.0,1284.4000000000001,1503.0
5.109899044036865,163,104,0.005050505050505051,1520,1494.0,1287.8,1503.0
5.133747100830078,163,102,0.005050505050505051,1520,1494.0,1293.0,1503.0
5.157343149185181,163,101,0.005050505050505051,1520,1494.0,1296.8,1503.0
5.1809351444244385,163,99,0.005555555555555556,1520,1494.0,1302.4000000000001,1503.0
5.204702138900757,164,98,0.006493506493506494,1520,1494.0,1307.0,1504.0
5.2283711433410645,164,96,0.007142857142857143,1520,1494.0,1313.2,1504.0
5.252138137817383,164,95,0.007142857142857143,1520,1494.0,1317.4000000000001,1504.0
5.275747060775757,164,92,0.007142857142857143,1520,1494.0,1325.2,1504.0
5.299333095550537,162,91,0.005050505050505051,1520,1494.0,1329.8,1502.0
5.322895050048828,162,89,0.005555555555555556,1520,1494.0,1336.2,1502.0
5.346467971801758,163,88,0.007142857142857143,1520,1494.0,1340.5999999999999,1503.0
5.370074987411499,163,87,0.006493506493506494,1520,1494.0,1345.2,1503.0
5.393723011016846,164,85,0.006060606060606061,1520,1494.0,1350.0,1504.0
5.417314052581787,163,84,0.006493506493506494,1520,1494.0,1350,1503.0
5.440800189971924,161,80,0.005555555555555556,1520,1494.0,1350,1501.0
5.464505195617676,161,79,0.005555555555555556,1520,1494.0,1350,1501.0
5.488088130950928,162,78,0.006493506493506494,1520,1494.0,1350,1502.0
5.511617183685303,162,76,0.007142857142857143,1520,1494.0,1350,1502.0
5.5352091789245605,163,75,0.006060606060606061,1520,1494.0,1350,1503.0
5.558701038360596,160,73,0.005555555555555556,1520,1494.0,1350,1500.0
5.582271099090576,160,72,0.005555555555555556,1519.0,1494.0,1350,1500.0
5.606068134307861,159,69,0.005555555555555556,1513.0,1494.0,1350,1499.0
5.6296470165252686,159,68,0.005050505050505051,1508.0,1494.0,1350,1499.0
5.653235197067261,159,67,0.005050505050505051,1504.0,1494.0,1350,1499.0
5.676791191101074,160,65,0.007142857142857143,1505.0,1494.0,1350,1500.0
5.70038104057312,160,64,0.006493506493506494,1504.0,1494.0,1350,1500.0
5.72428297996521,161,63,0.006060606060606061,1505.0,1494.0,1350,1501.0
5.747948169708252,159,62,0.005050505050505051,1498.0,1494.0,1350,1499.0
5.77167010307312,159,59,0.005555555555555556,1494.0,1494.0,1350,1499.0
5.795270204544067,160,59,0.006493506493506494,1496.0,1494.0,1350,1500.0
5.819217205047607,159,58,0.005050505050505051,1493.0,1494.0,1350,1499.0
5.842792987823486,159,57,0.005050505050505051,1493.0,1494.0,1350,1499.0
5.866389989852905,159,56,0.0053475935828877,1493.0,1494.0,1350,1499.0
5.8899900913238525,161,55,0.006060606060606061,1499.0,1494.0,1350,1501.0
5.913573980331421,159,54,0.005050505050505051,1494.0,1494.0,1350,1499.0
5.937205076217651,159,53,0.005555555555555556,1493.0,1494.0,1350,1499.0
5.960780143737793,160,53,0.006493506493506494,1494.0,1494.0,1350,1500.0
5.9846031665802,159,52,0.005555555555555556,1492.0,1494.0,1350,1499.0
6.008183002471924,160,51,0.007142857142857143,1495.0,1494.0,1350,1500.0
6.032049179077148,161,51,0.006060606060606061,1498.0,1494.0,1350,1501.0
6.055791139602661,158,51,0.005050505050505051,1491.0,1494.0,1350,1498.0
6.079455137252808,158,51,0.005050505050505051,1490.0,1494.0,1350,1498.0
6.10312819480896,157,51,0.005555555555555556,1486.0,1494.0,1350,1497.0
6.1266961097717285,158,52,0.007142857142857143,1485.0,1494.0,1350,1498.0
6.150308132171631,159,53,0.006060606060606061,1487.0,1494.0,1350,1499.0
6.174063205718994,157,54,0.005555555555555556,1481.0,1494.0,1350,1497.0
6.197751998901367,158,55,0.006493506493506494,1481.0,1494.0,1350,1498.0
6.221660137176514,157,56,0.005050505050505051,1480,1494.0,1350,1497.0
6.245199203491211,157,56,0.005555555555555556,1480,1494.0,1350,1497.0
6.268704175949097,158,57,0.006493506493506494,1480,1494.0,1350,1498.0
6.292262077331543,157,58,0.005050505050505051,1480,1494.0,1350,1497.0
6.315796136856079,157,59,0.005050505050505051,1480,1494.0,1350,1497.0
6.3393189907073975,158,60,0.006493506493506494,1480,1494.0,1350,1498.0
6.362833023071289,157,61,0.004784688995215311,1480,1494.0,1350,1497.0
6.386353015899658,156,62,0.005555555555555556,1480,1494.0,1350,1496.0
6.409840106964111,156,63,0.005050505050505051,1480,1494.0,1350,1496.0
6.4334352016448975,156,64,0.005050505050505051,1480,1494.0,1350,1496.0
6.4569361209869385,157,64,0.0043859649122807015,1480,1494.0,1350,1497.0
6.4804182052612305,156,65,0.005050505050505051,1480,1494.0,1350,1496.0
6.503981113433838,157,66,0.0043859649122807015,1480,1494.0,1350,1497.0
6.527482986450195,157,67,0.006493506493506494,1480,1494.0,1350,1497.0
6.55121111869812,156,70,0.004784688995215311,1480,1494.0,1350,1496.0
6.574814081192017,156,71,0.0043859649122807015,1480,1494.0,1350,1496.0
6.598318099975586,156,72,0.004901960784313725,1480,1494.0,1350,1496.0
6.621859073638916,157,74,0.006060606060606061,1480,1494.0,1350,1497.0
6.645376205444336,155,74,0.004629629629629629,1480,1494.0,1350,1495.0
6.669087171554565,156,75,0.004166666666666667,1480,1494.0,1350,1496.0
6.692584991455078,156,76,0.0043859649122807015,1480,1494.0,1350,1496.0
6.716291189193726,156,77,0.004166666666666667,1480,1494.0,1350,1496.0
6.739822149276733,156,78,0.0043859649122807015,1480,1494.0,1350,1496.0
6.763387203216553,156,79,0.0043859649122807015,1480,1494.0,1350,1496.0
6.786875009536743,157,80,0.006060606060606061,1480,1494.0,1350,1497.0
6.810352087020874,156,81,0.004166666666666667,1480,1494.0,1350,1496.0
6.835144996643066,155,82,0.004629629629629629,1480,1494.0,1350,1495.0
6.858710050582886,157,85,0.0043859649122807015,1480,1494.0,1349.8,1497.0
6.882373094558716,158,86,0.005208333333333333,1480,1494.0,1345.4000000000001,1498.0
6.9060211181640625,156,87,0.004629629629629629,1480,1494.0,1341.0,1496.0
6.929647207260132,156,89,0.004273504273504274,1480,1494.0,1334.8,1496.0
6.9533491134643555,156,90,0.004629629629629629,1480,1494.0,1329.8,1496.0
6.9769511222839355,157,91,0.0043859649122807015,1480,1494.0,1326.4000000000001,1497.0
7.000578165054321,156,92,0.004629629629629629,1480,1494.0,1323.0,1496.0
7.024394989013672,158,95,0.0043859649122807015,1480,1494.0,1316.0,1498.0
7.0480310916900635,157,96,0.004629629629629629,1480,1494.0,1312.2,1497.0
7.07175612449646,158,98,0.004048582995951417,1480,1494.0,1306.5999999999999,1498.0
7.095373153686523,157,99,0.004629629629629629,1480,1494.0,1301.8,1497.0
7.118962049484253,157,100,0.004629629629629629,1480,1494.0,1297.0,1497.0
7.1425621509552,158,102,0.0038461538461538464,1480,1494.0,1292.0,1498.0
7.16618013381958,158,103,0.0038461538461538464,1480,1494.0,1288.0,1498.0
7.189787149429321,159,105,0.0038461538461538464,1480,1494.0,1283.0,1499.0
7.213346004486084,158,106,0.004273504273504274,1480,1494.0,1279.2,1498.0
7.2369301319122314,158,106,0.004629629629629629,1480,1494.0,1277.2,1498.0
7.260577201843262,158,107,0.004273504273504274,1480,1494.0,1274.4000000000001,1498.0
7.284191131591797,159,108,0.0038461538461538464,1480,1494.0,1271.5999999999999,1499.0
7.307806015014648,159,109,0.0038461538461538464,1480,1494.0,1269.4000000000001,1499.0
7.331484079360962,161,111,0.003663003663003663,1487.0,1494.0,1265.4000000000001,1501.0
7.355230093002319,160,111,0.0043859649122807015,1488.0,1494.0,1263.5999999999999,1500.0
7.378888130187988,159,112,0.004273504273504274,1487.0,1494.0,1260.4000000000001,1499.0
7.402583122253418,161,113,0.003663003663003663,1494.0,1494.0,1257.2,1501.0
7.4262611865997314,161,113,0.003401360544217687,1496.0,1494.0,1255.5999999999999,1501.0
7.449930191040039,161,114,0.0034965034965034965,1499.0,1494.0,1253.5999999999999,1501.0
7.473570108413696,162,114,0.003663003663003663,1505.0,1494.0,1252.8,1502.0
7.4975690841674805,162,115,0.003663003663003663,1509.0,1494.0,1250.8,1502.0
7.521270036697388,162,115,0.003663003663003663,1512.0,1494.0,1250.5999999999999,1502.0
7.545060157775879,162,115,0.003663003663003663,1515.0,1494.0,1250.2,1502.0
7.568747043609619,162,115,0.003663003663003663,1516.0,1494.0,1250.2,1502.0
7.592444181442261,162,115,0.003663003663003663,1518.0,1494.0,1250.2,1502.0
7.616144180297852,162,115,0.003663003663003663,1520,1494.0,1250.8,1502.0
7.639726161956787,162,115,0.003663003663003663,1520,1494.0,1251.2,1502.0
7.663279056549072,164,114,0.004273504273504274,1520,1494.0,1253.4000000000001,1504.0
7.686856985092163,164,114,0.004273504273504274,1520,1494.0,1254.2,1504.0
7.710448980331421,164,113,0.004629629629629629,1520,1494.0,1256.8,1504.0
7.734127044677734,164,113,0.004273504273504274,1520,1494.0,1258.0,1504.0
7.757711172103882,163,112,0.003968253968253968,1520,1494.0,1261.0,1503.0
7.781261205673218,163,112,0.003663003663003663,1520,1494.0,1262.0,1503.0
7.804906129837036,164,110,0.004629629629629629,1520,1494.0,1266.5999999999999,1504.0
7.828519105911255,164,109,0.004629629629629629,1520,1494.0,1269.8,1504.0
7.852173089981079,164,108,0.004629629629629629,1520,1494.0,1273.5999999999999,1504.0
7.875792980194092,164,107,0.004629629629629629,1520,1494.0,1277.2,1504.0
7.899353981018066,162,106,0.003787878787878788,1520,1494.0,1281.5999999999999,1502.0
7.922903060913086,162,105,0.003968253968253968,1520,1494.0,1285.0,1502.0
7.946483135223389,163,105,0.004629629629629629,1520,1494.0,1286.5999999999999,1503.0
7.970103979110718,161,103,0.003787878787878788,1520,1494.0,1291.0,1501.0
7.993729114532471,161,101,0.003968253968253968,1520,1494.0,1296.0,1501.0
