time,x,y,size_inv,roll,pitch,thrust,yaw
0.0007112026214599609,162,70.0,1112.2167229371996,1500.46,1499.0,1337.2,1500.0
0.022967100143432617,161,70.0705,1112.2167229371996,1500.29,1499.0,1338.31258,1500.0
0.04500317573547363,161,70.094,1112.2167229371996,1500.3199999999999,1499.0,1339.48062,1500.0
0.06707501411437988,162,70.0705,1112.2167229371996,1500.5799999999999,1499.0,1340.7059999999999,1500.0
0.08926105499267578,161,70.0705,1112.2167229371996,1500.4100000000001,1499.0,1341.90318,1500.0
0.11136603355407715,161,70.0705,1112.2167229371996,1500.4400000000001,1499.0,1343.1003599999999,1500.0
0.13351106643676758,161,70.0705,1112.2167229371996,1500.47,1499.0,1344.29754,1500.0
0.15553021430969238,161,70.0705,1112.2167229371996,1500.5,1499.0,1345.4947199999999,1500.0
0.1775660514831543,162,70.0705,1112.2167229371996,1500.76,1499.0,1346.6919,1500.0
0.19957304000854492,162,70.0705,1112.2167229371996,1500.8199999999999,1499.0,1347.8890799999999,1500.0
0.22176098823547363,161,70.0705,1112.2167229371996,1502.79,1499.0,1347.9191600000001,1500.0
0.24415111541748047,162,70.094,1112.2167229371996,1505.22,1499.0,1347.8571200000001,1500.0
0.2664961814880371,162,70.0705,1112.2167229371996,1507.45,1499.0,1347.8533600000001,1500.0
0.2888150215148926,162,70.0705,1112.2167229371996,1507.45,1499.0,1347.8533600000001,1500.0
0.31109118461608887,162,69.0705,1112.2167229371996,1505.28,1499.0,1350,1500.0
0.33347010612487793,161,67.9295,1115.2227140802731,1505.0799999999999,1499.1037066944361,1350,1500.0
0.35576701164245605,161,66.9295,1118.2287052233467,1500.6800000000001,1499.2975931231642,1350,1500.0
0.3780531883239746,161,67.9765,1124.4076870174422,1496.28,1499.691127463645,1350,1500.0
0.4003720283508301,161,73.0705,1124.4076870174422,1494.05,1500.0568563860522,1350,1500.0
0.4226679801940918,161,77.2115,1124.4076870174422,1491.8199999999999,1500.4225853084595,1334.00836,1500.0
0.44499802589416504,161,80.3525,1127.4136781605157,1491.8199999999999,1500.7116614567185,1309.4382800000001,1500.0
0.46732521057128906,161,83.376,1127.4136781605157,1493.99,1500.8068511762492,1277.8234,1500.0
0.48962998390197754,161,85.376,1133.5926599546112,1496.1600000000001,1500.7444768600303,1250,1500.0
0.512019157409668,161,86.3525,1136.5986510976848,1498.3299999999999,1500.7580038201741,1250,1500.0
0.5344669818878174,161,88.3055,1142.7776328917803,1500.5,1500.9711786920705,1250,1500.0
0.5567770004272461,160,89.282,1145.9506235428021,1498.0699999999999,1501.1758365890614,1250,1500.0
0.5790650844573975,160,90.235,1145.9506235428021,1495.8399999999999,1501.4563957624148,1250,1500.0
0.6013920307159424,160,91.235,1142.7776328917803,1493.6099999999999,1501.4421173044852,1252.29324,1500.0
0.623769998550415,160,93.235,1145.7836240348538,1491.3800000000001,1501.365464530337,1258.0459600000002,1500.0
0.6461100578308105,160,94.235,1148.7896151779273,1489.1500000000001,1501.008252582835,1263.3953200000001,1500.0
0.6684432029724121,160,96.2115,1148.7896151779273,1491.3199999999999,1500.5373139704202,1263.1891599999999,1500.0
0.6907730102539062,159,97.2115,1154.9685969720226,1491.0599999999999,1500.2795502299016,1261.27124,1500.0
0.7131021022796631,159,97.188,1154.9685969720226,1491.0,1500.3697299641938,1260.6953599999999,1500.0
0.7354211807250977,159,96.1645,1154.9685969720226,1490.9400000000001,1500.3697299641938,1267.06528,1500.0
0.7577531337738037,159,96.141,1154.9685969720226,1490.8800000000001,1500.3747399494323,1272.4129599999999,1500.0
0.7800819873809814,158,94.094,1151.7956063210008,1486.22,1500.365471476741,1287.34268,1500.0
0.8024330139160156,158,93.0705,1151.7956063210008,1486.1600000000001,1499.9997425543338,1304.02196,1500.0
0.8247900009155273,158,92.047,1151.7956063210008,1486.0999999999999,1499.5388239123959,1320.74928,1500.0
0.8471260070800781,157,91.0235,1148.7896151779273,1483.6099999999999,1499.0643783103142,1333.36464,1500.0
0.8694701194763184,157,90.0235,1145.7836240348538,1481.3199999999999,1498.5899327082325,1345.9660000000001,1500.0
0.8918261528015137,157,88.047,1139.9257951406591,1483.4300000000001,1498.117298408506,1350,1500.0
0.9143819808959961,157,85.047,1130.8949755954425,1483.3699999999999,1497.5448305183165,1350,1500.0
0.9366610050201416,157,84.047,1119.154910186661,1483.3099999999999,1496.6079690594775,1350,1500.0
0.9589300155639648,156,82.047,1113.2970812924664,1485.22,1495.7022022667127,1350,1500.0
0.9812300205230713,156,81.047,1101.5570158836849,1487.3299999999999,1494.5981229159531,1350,1500.0
1.0035719871520996,156,79.094,1095.6991869894905,1487.27,1493.6010587768044,1350,1500.0
1.0265920162200928,155,78.1175,1089.8413580952958,1484.78,1492.970108943543,1350,1500.0
1.05082106590271,155,77.141,1083.9835292011012,1482.49,1492.8678281679825,1350,1500.0
1.075134038925171,155,76.1645,1081.1316914499801,1482.4300000000001,1492.9548092193916,1350,1500.0
1.0995659828186035,155,76.188,1081.1316914499801,1482.3699999999999,1493.6688477309156,1350,1500.0
1.1238951683044434,154,74.188,1083.9835292011012,1480,1494.657009511679,1350,1500.0
1.1480371952056885,154,73.2115,1086.8353669522223,1481.99,1495.8112715722712,1350,1500.0
1.1722722053527832,154,72.2115,1095.4024417099818,1484.0999999999999,1497.2475322135142,1350,1500.0
1.1965091228485107,153,71.235,1101.2602706041762,1481.6099999999999,1498.8427115134386,1350,1500.0
1.2206830978393555,154,70.2115,1109.8273453619356,1481.75,1500.3548927002184,1350,1500.0
1.2449760437011719,153,68.2115,1115.6851742561303,1483.6600000000001,1501.6837720155447,1350,1500.0
1.2691521644592285,153,68.188,1118.5370120072514,1483.5999999999999,1502.7378343713679,1350,1500.0
1.2933521270751953,152,67.188,1121.3888497583725,1481.1099999999999,1503.1876925074332,1350,1500.0
1.3175411224365234,152,66.1645,1124.2406875094935,1483.22,1503.286080909847,1350,1500.0
1.3417940139770508,152,65.141,1124.2406875094935,1480.9300000000001,1502.8576115569151,1350,1500.0
1.366058111190796,151,65.1175,1124.2406875094935,1480,1502.1632276028652,1350,1500.0
1.390192985534668,152,63.1175,1121.3888497583725,1480,1501.2849001138677,1350,1500.0
1.414297103881836,152,63.1175,1118.382858615299,1482.9200000000001,1500.40160117798,1350,1500.0
1.4384751319885254,152,63.1175,1115.3768674722255,1485.0899999999999,1499.4327471095587,1350,1500.0
1.462693214416504,152,63.1175,1109.5190385780309,1489.4300000000001,1498.5323371471641,1350,1500.0
1.486882209777832,152,63.1175,1103.6612096838362,1496.0,1497.6319271847697,1350,1500.0
1.5110411643981934,152,64.1175,1103.6612096838362,1498.1700000000001,1497.01454285,1350,1500.0
1.5354671478271484,152,64.094,1100.8093719327151,1498.1700000000001,1496.5646847139346,1350,1500.0
1.5596351623535156,151,64.094,1097.9575341815939,1495.74,1496.2951860464536,1350,1500.0
1.5838220119476318,151,65.0705,1097.9575341815939,1493.51,1496.3899903825045,1350,1500.0
1.6080191135406494,151,66.0705,1097.9575341815939,1489.1099999999999,1496.8362644522069,1344.1514400000001,1500.0
1.632357120513916,151,67.094,1100.8093719327151,1486.8800000000001,1497.2953717917894,1339.9970800000001,1500.0
1.6567130088806152,151,70.1175,1100.8093719327151,1484.6500000000001,1497.8225763922669,1329.0230799999999,1500.0
1.6809840202331543,151,72.141,1100.8093719327151,1486.8199999999999,1498.4307115235194,1316.3352400000001,1500.0
1.7053911685943604,151,73.1645,1100.8093719327151,1488.99,1498.8631117879461,1306.1077599999999,1500.0
1.7296581268310547,151,75.188,1100.8093719327151,1491.1600000000001,1499.119777185547,1294.5664400000001,1500.0
1.7539360523223877,151,77.1645,1100.8093719327151,1493.3299999999999,1499.2053323180808,1281.74116,1500.0
1.778217077255249,151,79.141,1100.8093719327151,1495.5,1499.2053323180808,1274.5674799999999,1500.0
1.8025150299072266,152,80.1175,1100.8093719327151,1497.9300000000001,1499.119777185547,1272.8534399999999,1500.0
1.8268260955810547,152,82.094,1095.2482883180292,1500.1600000000001,1498.8423646683068,1268.6310000000001,1500.0
1.8510851860046387,152,83.0705,1089.6872047033432,1502.3900000000001,1498.3981196426259,1268.5082,1500.0
1.8754920959472656,152,85.047,1084.1261210886573,1504.6199999999999,1497.8725972410382,1268.4814800000001,1500.0
1.8998000621795654,152,86.047,1078.5650374739712,1506.8499999999999,1497.1802423310096,1269.6088,1500.0
1.9244019985198975,153,88.047,1070.4268663305284,1507.1099999999999,1496.2321453927987,1266.6383600000001,1500.0
1.948695182800293,153,90.047,1067.7176204669634,1507.1700000000001,1495.5608662593211,1264.9301600000001,1500.0
1.972985029220581,153,91.047,1065.0083746033984,1507.23,1495.1419747668178,1262.9642000000001,1500.0
1.9972710609436035,154,92.0705,1056.8702034599553,1509.72,1494.788172993133,1262.3423600000001,1500.0
2.02160906791687,154,93.0705,1054.1609575963903,1512.01,1494.711189024182,1260.4206799999999,1500.0
2.0459790229797363,155,95.0705,1051.4517117328253,1514.5,1495.0412179479304,1258.6909599999999,1500.0
2.070240020751953,155,95.0705,1048.8746242040684,1516.79,1495.290251201696,1262.2732000000001,1500.0
2.094480037689209,155,96.0705,1048.8746242040684,1519.0799999999999,1495.5466035927145,1264.6874,1500.0
2.1187310218811035,156,96.0705,1046.2975366753112,1519.4000000000001,1496.035504224157,1268.47936,1500.0
2.143005132675171,155,97.094,1046.2975366753112,1517.0899999999999,1496.531723992852,1271.00928,1500.0
2.1672730445861816,156,97.094,1046.2975366753112,1515.1800000000001,1496.9463533790577,1277.6474000000001,1500.0
2.191601037979126,156,98.1175,1046.2975366753112,1513.0699999999999,1497.4343306410817,1278.86348,1500.0
2.216085195541382,156,98.141,1049.0067825388765,1510.96,1497.9344995094918,1282.6857199999999,1500.0
2.2405431270599365,156,98.1645,1054.2931159311981,1506.6199999999999,1498.5153353909734,1285.0821599999999,1500.0
2.2650420665740967,156,98.1645,1054.2931159311981,1506.6800000000001,1498.9911053962824,1289.0126,1500.0
2.2893362045288086,156,97.1645,1057.0023617947631,1504.51,1499.4790670079774,1292.86304,1500.0
2.3135571479797363,156,96.1645,1062.2886951870851,1502.3399999999999,1500.0599028894587,1301.01928,1500.0
2.337799072265625,156,95.1645,1064.9979410506501,1500.1700000000001,1500.5478645011538,1309.32132,1500.0
2.3620951175689697,156,94.1645,1070.284274442972,1500.1700000000001,1500.8115203790958,1319.12916,1500.0
2.386435031890869,157,93.1645,1070.284274442972,1500.4300000000001,1501.0513877567723,1328.98504,1500.0
2.4106950759887695,157,92.1645,1072.8613619717289,1502.6600000000001,1501.2176099023773,1337.48092,1500.0
2.4352240562438965,157,91.1645,1072.8613619717289,1504.8900000000001,1501.0550551505632,1343.2248400000001,1500.0
2.4594931602478027,156,88.1645,1067.575028579407,1504.6900000000001,1500.6288445208074,1350,1500.0
2.4836552143096924,156,88.188,1059.8343261120785,1504.6900000000001,1499.8007781544243,1350,1500.0
2.507801055908203,156,87.2115,1057.2572385833216,1500.29,1498.9186354294022,1350,1500.0
2.5319721698760986,156,86.2115,1051.9709051909999,1495.8900000000001,1497.7923632204058,1350,1500.0
2.5562171936035156,155,86.235,1044.2302027236715,1489.0599999999999,1496.5814152783219,1350,1500.0
2.580381155014038,155,84.235,1036.489500256343,1486.8299999999999,1495.5367036416644,1350,1500.0
2.604530096054077,155,83.235,1026.408585415171,1484.5999999999999,1494.8020657538987,1350,1500.0
2.6286771297454834,154,82.235,1019.0369164375639,1482.1099999999999,1494.0130946549161,1350,1500.0
2.652837038040161,154,81.235,1011.6652474599568,1480,1493.3974661160075,1350,1500.0
2.6768879890441895,154,80.2115,1004.2935784823497,1481.9300000000001,1493.0251296558104,1350,1500.0
2.7010490894317627,154,80.2115,997.26515794937643,1481.8699999999999,1492.7493373438949,1350,1500.0
2.7253401279449463,153,78.2115,990.55654914435831,1480,1492.6463597370553,1350,1500.0
2.7493669986724854,152,77.2115,981.39357126433367,1480,1492.6224356457708,1350,1500.0
2.77339506149292,152,77.2115,970.18884287843389,1480,1492.53689196252,1350,1500.0
2.797452211380005,151,77.2115,961.43848356754074,1480,1492.4099612254163,1350,1500.0
2.8215889930725098,151,76.235,950.73325675102262,1480,1492.1425609380003,1350,1500.0
2.845767021179199,150,76.2585,942.36824230834793,1480,1491.7348302560524,1350,1500.0
2.8698410987854004,149,76.282,930.33286438572418,1480,1491.2781502042392,1350,1500.0
2.8942201137542725,148,76.3055,918.29748646310031,1480,1490.9115424485731,1350,1500.0
2.9183340072631836,147,76.329,906.26210854047656,1480,1490.4877448445536,1349.653,1500.0
2.9425580501556396,147,76.329,894.73549886640012,1480,1490.1518994004323,1344.1096,1500.0
2.966825008392334,146,76.329,883.68602554048812,1480,1489.7873594725102,1341.3520000000001,1500.0
2.9910311698913574,146,77.3525,871.04287817718489,1480,1489.4835869294773,1337.31816,1500.0
3.0153701305389404,145,77.376,858.90794592528596,1480,1489.2040342106693,1334.5162800000001,1500.0
3.0395820140838623,145,77.3995,846.77301367338714,1480,1489.020045420335,1331.7463600000001,1500.0
3.063760995864868,144,78.4465,835.11621113984506,1480,1488.8589439136761,1327.5685999999998,1500.0
3.0879390239715576,144,78.4465,822.0363703749357,1480,1488.7110614783032,1324.61528,1500.0
3.112248182296753,143,79.47,812.6268930899754,1480,1488.6949388641608,1321.79376,1500.0
3.136620044708252,143,80.47,800.52113284031884,1480,1488.6705447666229,1317.59428,1500.0
3.1607940196990967,143,81.4935,788.41537259066229,1480,1488.6500124590302,1311.9266,1500.0
3.1851000785827637,142,82.4935,776.75627315021711,1480,1488.6353270036561,1307.77872,1500.0
3.209256172180176,142,83.4935,766.75459470865883,1480,1488.7813558356474,1302.19084,1500.0
3.233438014984131,142,83.4935,757.11151621122417,1480,1488.8249802286628,1299.2768000000001,1500.0
3.2576420307159424,143,84.4935,747.80806815143501,1480,1488.9533271642761,1296.4908,1500.0
3.2818751335144043,142,85.4935,737.34985955963452,1480,1489.125029067164,1295.0986399999999,1500.0
3.30611515045166,143,87.517,727.25087856283324,1484.8099999999999,1489.3452199547455,1290.9405200000001,1500.0
3.330336093902588,143,87.517,717.49290211917071,1491.3800000000001,1489.4819115530529,1292.0106000000001,1500.0
3.3545970916748047,144,87.517,707.73492567550807,1498.21,1489.6221642493474,1291.6887200000001,1500.0
3.378906011581421,144,88.5405,699.62501207075763,1500.4400000000001,1489.7215698963721,1290.1048000000001,1500.0
3.403226137161255,145,89.5405,689.51395095314672,1509.5,1489.7729582540792,1288.51712,1500.0
3.4276461601257324,145,89.564,680.68129986190047,1511.79,1489.8212858007621,1292.3732,1500.0
3.4522061347961426,146,89.5405,671.84864877065411,1516.51,1489.8900620480806,1294.9595200000001,1500.0
3.476551055908203,147,88.5405,664.25107177267523,1519.0599999999999,1490.0326550505763,1300.1576400000001,1500.0
3.500797986984253,148,88.5405,657.8473997315217,1520,1490.1960018386342,1305.66156,1500.0
3.525118112564087,149,86.5405,652.5984882223795,1520,1490.4999951131147,1317.8854799999999,1500.0
3.5492920875549316,150,85.5405,649.45226721952974,1520,1490.9460535003589,1327.6632400000001,1500.0
3.5734341144561768,151,85.564,646.40289958088522,1520,1491.5382864707474,1336.1131600000001,1500.0
3.5975730419158936,151,84.564,643.35353194224069,1520,1492.2021537385453,1344.43128,1500.0
3.6217780113220215,152,83.611,642.33756474340385,1520,1492.9856152066841,1350,1500.0
3.645946979522705,153,83.6345,642.33756474340385,1520,1493.7852513842379,1350,1500.0
3.67002010345459,154,82.658,642.33756474340385,1520,1494.5086812892253,1350,1500.0
3.6940860748291016,154,81.658,642.33756474340385,1520,1495.1500937197939,1350,1500.0
3.718151092529297,155,79.658,643.32274505742748,1520,1495.7805296195756,1350,1500.0
3.7422561645507812,155,79.6345,645.32389257028797,1520,1496.3444196678336,1350,1500.0
3.766378164291382,156,78.611,647.32504008314845,1520,1496.810876796203,1350,1500.0
3.79044508934021,156,77.5875,648.34100728198541,1520,1497.2089929990391,1350,1500.0
3.814526081085205,156,75.564,651.39037492062994,1520,1497.6162595038541,1350,1500.0
3.838581085205078,156,75.564,653.39152243349031,1520,1497.9282515954883,1350,1500.0
3.862683057785034,156,74.5405,655.45570975811131,1517.53,1498.1519051192772,1350,1500.0
3.88683819770813,156,74.5405,658.50507739675584,1511.02,1498.3514041328672,1350,1500.0
3.910994052886963,155,74.517,661.55444503540036,1504.25,1498.581426143686,1350,1500.0
3.9354281425476074,155,74.517,664.60381267404489,1497.6800000000001,1498.7199671253454,1350,1500.0
3.959942102432251,154,75.4935,665.61977987288174,1490.8499999999999,1498.7893233796401,1350,1500.0
3.9841740131378174,153,75.47,665.61977987288174,1481.79,1498.7902909674485,1349.4404,1500.0
4.008460998535156,153,75.4465,665.61977987288174,1480,1498.668330922324,1342.62808,1500.0
4.032680988311768,152,75.3995,665.61977987288174,1480,1498.3938878348461,1337.2377999999999,1500.0
4.0569281578063965,152,75.376,663.55559254826073,1480,1497.9567492555093,1334.6051199999999,1500.0
4.081101179122925,150,75.3525,662.53962534942389,1480,1497.4929250442292,1334.7404799999999,1500.0
4.105427980422974,149,76.329,659.49025771077936,1480,1496.990395121549,1333.59584,1500.0
4.129611015319824,149,76.282,655.48511812569393,1480,1496.4548910667168,1333.68128,1500.0
4.153809070587158,148,76.2585,651.47997854060861,1480,1495.8907138534912,1333.67272,1500.0
4.178009033203125,148,77.2585,646.54717794868361,1480,1495.3897104166138,1330.9301600000001,1500.0
4.202272176742554,148,78.2585,641.76182520053885,1480,1494.8372469604842,1325.35376,1500.0
4.2265520095825195,145,80.2585,635.25104948968294,1480,1494.2646578880156,1318.46352,1500.0
4.250720024108887,143,81.282,628.74027377882692,1480,1493.7370539193264,1311.1716000000001,1500.0
4.275006055831909,143,83.282,621.40273289833851,1480,1493.2259116560642,1299.826,1500.0
4.299176216125488,141,84.3055,615.08115921668684,1480,1492.7637364505242,1291.0103200000001,1500.0
4.323361158370972,140,85.282,608.75958553503528,1480,1492.3685561834582,1283.6768400000001,1500.0
4.347529172897339,139,86.282,602.61907809831268,1480,1492.0891410048848,1279.1471200000001,1500.0
4.371793031692505,138,87.282,597.43434260803087,1480,1491.9289770904606,1276.1071200000001,1500.0
4.396062135696411,137,88.282,591.46722586133274,1480,1491.9063772232585,1277.25908,1500.0
4.420248985290527,137,88.282,586.42777012147417,1480,1491.9680785615326,1281.1168400000001,1500.0
4.444416046142578,136,88.282,582.28908666361929,1480,1492.1454067097948,1286.3488,1500.0
4.468574047088623,134,88.282,579.87582616847578,1480,1492.4312086214127,1291.66076,1500.0
4.492746114730835,133,88.282,577.46256567333216,1480,1492.7603735762675,1298.38076,1500.0
4.516890048980713,132,87.282,575.11455259157594,1480,1493.1572925304172,1307.8207600000001,1500.0
4.541056156158447,132,87.3055,572.76653950981961,1480,1493.5964912260558,1314.6067600000001,1500.0
4.5653581619262695,132,86.3525,570.41852642806339,1480,1494.0239233262637,1322.6088399999999,1500.0
4.589526176452637,131,86.376,568.87462741540162,1480,1494.3692373760098,1328.04528,1500.0
4.613718032836914,131,86.3995,566.58925058744853,1480,1494.6319070357483,1332.08788,1500.0
4.637928009033203,131,84.423,565.82773283120321,1480,1494.8404558111267,1337.2166399999999,1500.0
4.66215705871582,131,83.4465,565.06621507495788,1480,1495.0158561665276,1342.61736,1500.0
4.68638801574707,131,82.47,564.30469731871267,1480,1495.1851312704105,1346.75584,1500.0
4.710524082183838,131,81.47,563.54317956246734,1480,1495.3517969675115,1350,1500.0
4.7345921993255615,130,80.47,562.78166180622202,1480,1495.5603419267482,1350,1500.0
4.758663177490234,130,78.47,563.54317956246734,1480,1495.7738367514005,1350,1500.0
4.782715082168579,131,76.4465,563.54317956246734,1480,1495.9591554190715,1350,1500.0
4.806781053543091,131,75.423,564.30469731871267,1481.04,1496.1459971222553,1350,1500.0
4.830933094024658,131,74.3995,565.06621507495788,1481.04,1496.355058453121,1350,1500.0
4.85525107383728,131,73.3995,566.56921064649464,1485.4400000000001,1496.589676061838,1350,1500.0
4.879446029663086,131,72.376,568.11310965915641,1489.8399999999999,1496.8022581083576,1350,1500.0
4.90362811088562,133,70.3525,569.65700867181806,1494.7,1497.0383115925699,1350,1500.0
4.92781400680542,133,70.329,572.00502175357428,1499.1600000000001,1497.2798873844836,1350,1500.0
4.9520721435546875,134,70.329,574.35303483533062,1506.05,1497.5233669707879,1350,1500.0
4.97637414932251,134,70.329,576.70104791708695,1510.5699999999999,1497.7242616825656,1350,1500.0
5.00087308883667,135,70.329,579.11430841223046,1517.52,1497.9280594144852,1350,1500.0
5.025230169296265,136,71.3525,582.28908666361929,1520,1498.1378933830899,1350,1500.0
5.049355983734131,137,72.3525,586.42777012147417,1520,1498.3581901766413,1350,1500.0
5.073431015014648,137,73.3525,590.56645357932905,1520,1498.5846122217106,1342.09564,1500.0
5.097568988800049,138,74.329,595.60590931918762,1520,1498.8704804964852,1330.9879599999999,1500.0
5.121767997741699,138,74.3055,600.79064480946931,1520,1499.2140659355164,1322.5060800000001,1500.0
5.146014213562012,138,75.3055,605.97538029975112,1520,1499.5690237145525,1316.9737600000001,1500.0
5.170180082321167,139,77.3055,613.31292118023953,1519.5799999999999,1499.9759147292407,1310.1934000000001,1500.0
5.194429159164429,139,78.282,620.65046206072805,1517.53,1500.425051355325,1306.0350800000001,1500.0
5.218680143356323,139,78.2585,629.03622306700049,1511.0799999999999,1500.8985508502244,1305.8448000000001,1500.0
5.242937088012695,140,79.235,637.67725258186931,1509.23,1501.3937436242963,1302.9825599999999,1500.0
5.267197132110596,140,80.235,646.31828209673802,1509.3499999999999,1501.9323265019389,1300.06016,1500.0
5.291529178619385,140,80.2115,654.3513988411645,1507.24,1502.3930753253535,1302.6397999999999,1500.0
5.315884113311768,141,82.2115,663.5392761176023,1507.5599999999999,1502.8185649403617,1301.2854400000001,1500.0
5.340155124664307,140,82.2115,673.02028606886154,1507.4200000000001,1503.177841962764,1300.93724,1500.0
5.364400148391724,141,83.188,682.80870910654869,1505.51,1503.4692353290018,1300.7772399999999,1500.0
5.388675212860107,140,83.188,692.59713214423584,1500.97,1503.6913616801867,1303.2290399999999,1500.0
5.412960052490234,140,83.1645,702.03111327629244,1498.8,1503.9330516985071,1302.9570799999999,1500.0
5.437206983566284,140,83.141,714.26034807710653,1492.23,1504.2230509921897,1306.99092,1500.0
5.461518049240112,140,83.141,725.44136275213646,1490.0599999999999,1504.5264759686697,1311.0285200000001,1500.0
5.485867023468018,140,82.1175,737.01708153620598,1485.6600000000001,1504.8508741803473,1319.1743199999999,1500.0
5.510148048400879,139,82.1175,748.59280032027539,1483.23,1505.1944694587319,1324.7319199999999,1500.0
5.534409999847412,139,82.1175,760.5845443065466,1481.0,1505.5746438045239,1330.25568,1500.0
5.558691024780273,139,81.1175,773.01520179819761,1480.9400000000001,1505.871595216084,1335.63364,1500.0
5.582945108413696,139,81.094,785.90937533191027,1480,1506.1710270738806,1339.87364,1500.0
5.6071250438690186,139,80.094,797.56847477235544,1480,1506.4137836455575,1342.5316,1500.0
5.631399154663086,139,79.0705,810.95264504837655,1480.8199999999999,1506.6649377083613,1346.6916000000001,1500.0
5.6557581424713135,139,78.0705,821.73433777072694,1482.99,1506.7913461986298,1350,1500.0
5.679970026016235,138,78.0705,829.72077682431996,1482.73,1506.7658068135217,1350,1500.0
5.704110145568848,138,78.0705,839.5041646649712,1482.6700000000001,1506.6036353614033,1350,1500.0
5.728244066238403,138,77.047,849.68422941124504,1482.6099999999999,1506.3963764948439,1350,1500.0
5.752479076385498,138,77.047,859.86429415751877,1480.3800000000001,1506.0387409176333,1350,1500.0
5.776702165603638,138,77.047,868.51082350932188,1480,1505.6464510679489,1350,1500.0
5.800779104232788,137,78.047,877.51854632935897,1480,1505.4197516550064,1347.79468,1500.0
5.8251190185546875,137,78.047,884.86884815050928,1480,1505.2059248377759,1343.7165600000001,1500.0
5.849321126937866,137,78.047,896.39545782458572,1480,1505.0956587945429,1338.1326399999998,1500.0
5.87350606918335,137,78.0235,906.19699666308611,1480,1505.0623973212089,1334.00272,1500.0
5.8976640701293945,136,78.0,915.99853550158639,1480,1505.1278410335922,1331.2666400000001,1500.0
5.921877145767212,137,78.0,925.80007434008678,1480,1505.1864607135362,1331.3023599999999,1500.0
5.946125030517578,137,77.9765,933.80466439152883,1480,1505.329615351432,1331.40012,1500.0
5.970323085784912,137,77.953,939.93583975008005,1481.9300000000001,1505.2620802459101,1332.9236799999999,1500.0
5.994614124298096,136,77.953,948.30085419275474,1481.6700000000001,1505.1728574616252,1334.3532399999999,1500.0
6.01922607421875,137,78.953,959.00608100927298,1488.4400000000001,1505.0866259877623,1333.077,1500.0
6.0435450077056885,136,78.953,967.75644032016612,1486.01,1504.9362477437419,1331.64076,1500.0
6.067820072174072,136,78.953,978.96116870606579,1483.78,1504.8732896636839,1330.1387199999999,1500.0
6.092270135879517,136,78.953,985.98958923903922,1481.55,1504.9803185829862,1328.57088,1500.0
6.116734981536865,136,79.953,993.01800977201253,1483.72,1505.0903454168722,1324.395,1500.0
6.141024112701416,137,79.953,1000.046430304986,1481.75,1505.0629574229115,1324.25108,1500.0
6.165638208389282,137,80.9295,1009.6519383667162,1486.1500000000001,1505.1043561711833,1321.5291999999999,1500.0
6.189905166625977,137,80.9295,1019.2574464284465,1490.55,1505.0017741596964,1320.01108,1500.0
6.214189052581787,137,81.953,1028.8629544901769,1494.95,1504.9495874188397,1315.8228799999999,1500.0
6.238474130630493,137,82.953,1036.2346234677839,1497.1800000000001,1504.9377436727343,1313.02288,1500.0
6.262797117233276,138,82.953,1041.2660800715475,1499.6099999999999,1504.9657642415766,1310.06288,1500.0
6.287089109420776,137,82.953,1046.2975366753112,1497.24,1504.8309088041549,1309.83708,1500.0
6.311531066894531,137,82.953,1051.5838700676329,1495.0699999999999,1504.6156016819245,1309.6112799999999,1500.0
6.336038112640381,138,82.953,1056.8702034599548,1495.3299999999999,1504.1934066937492,1312.25128,1500.0
6.360328197479248,139,83.9295,1065.0083746033977,1497.8199999999999,1503.79674258709,1313.75332,1500.0
6.384638071060181,139,83.9295,1073.1465457468407,1497.8800000000001,1503.5531888344974,1316.42716,1500.0
6.40893816947937,140,83.9295,1078.7076293615266,1504.77,1503.4511485420921,1317.77296,1500.0
6.43321418762207,140,82.9295,1087.2747041192861,1511.46,1503.590632690876,1321.7587599999999,1500.0
6.4574902057647705,140,83.9295,1099.0147695280677,1513.75,1504.0675824981656,1320.5126,1500.0
6.481931209564209,141,83.953,1110.7548349368492,1514.0699999999999,1504.6295940684402,1321.7785999999999,1500.0
6.5064191818237305,141,83.953,1125.8492047481398,1516.3599999999999,1505.3221845323712,1323.0727999999999,1500.0
6.530728101730347,141,83.953,1140.9435745594303,1512.0799999999999,1506.2848847718726,1324.367,1500.0
6.555166006088257,140,83.953,1153.3286985071559,1505.3699999999999,1507.2515126397238,1322.8611999999998,1500.0
6.579440116882324,141,83.953,1169.2654388810674,1503.46,1508.166411069953,1324.1554000000001,1500.0
6.603692054748535,141,83.9765,1186.1172074104188,1499.1199999999999,1509.1307213925388,1324.1253200000001,1500.0
6.627955198287964,141,83.9765,1202.9689759397702,1494.78,1509.9390677166307,1324.1234400000001,1500.0
6.652314186096191,141,83.9765,1219.8207444691218,1492.6099999999999,1510.5141374163666,1324.12156,1500.0
6.676640033721924,141,83.953,1237.6688168811208,1494.8399999999999,1511.1430374618033,1325.5417199999999,1500.0
6.700884103775024,141,82.9295,1256.6044062501232,1492.6700000000001,1511.7408965544455,1328.2757200000001,1500.0
6.725516080856323,142,82.906,1271.2794880111001,1495.0999999999999,1512.1009316661832,1329.8774000000001,1500.0
6.749873161315918,142,81.8355,1282.6002653695682,1497.3299999999999,1512.2272207114413,1334.277,1500.0
6.774151086807251,142,79.812,1298.1815503360617,1499.5599999999999,1512.281845572508,1342.73404,1500.0
6.798418998718262,142,78.7885,1313.7628353025552,1499.6199999999999,1512.1045783562813,1350,1500.0
6.822739124298096,142,78.7415,1330.3370452914232,1501.8499999999999,1511.7709724513986,1350,1500.0
6.847081184387207,142,77.7415,1338.5998479251698,1499.6800000000001,1511.272897442652,1350,1500.0
6.871335029602051,143,77.7415,1346.8626505589164,1499.9400000000001,1510.8490129272905,1350,1500.0
6.895610094070435,143,77.718,1359.6699946412234,1500.0,1510.4004751288076,1350,1500.0
6.919790983200073,142,77.7415,1368.4750436978097,1497.6300000000001,1509.7986435487767,1350,1500.0
6.9439849853515625,142,77.7415,1377.8775432465559,1495.46,1509.0551905641612,1350,1500.0
6.968193054199219,142,77.7415,1391.5405504033274,1495.46,1508.6852843732893,1346.8150800000001,1500.0
6.992808103561401,142,77.7415,1405.2035575600992,1491.0599999999999,1508.5691235598497,1341.2472399999999,1500.0
7.017153978347778,142,77.7415,1414.6060571088451,1486.6600000000001,1508.4148633526929,1338.36556,1500.0
7.041623115539551,142,78.7415,1424.0085566575913,1486.6600000000001,1508.481813737598,1334.3016399999999,1500.0
7.06610107421875,141,78.7415,1428.8665147577767,1484.23,1508.6071287557315,1331.50164,1500.0
7.090360164642334,141,78.7415,1438.2690143065229,1482.0,1508.463072846452,1330.0616400000001,1500.0
7.114613056182861,140,78.718,1447.6715138552688,1480,1508.0291955732409,1328.6836800000001,1500.0
7.138792991638184,140,79.7415,1457.7344270627959,1480,1507.7202479072648,1324.60744,1500.0
7.16296911239624,140,79.7415,1467.7973402703228,1480,1507.4131891362872,1324.5274400000001,1500.0
7.187144041061401,139,80.7415,1473.0022953776645,1480,1507.2310157075301,1321.80744,1500.0
7.211453199386597,139,80.765,1478.2072504850062,1480,1507.0507311737717,1320.2254,1500.0
7.235796213150024,139,80.765,1483.4122055923476,1480,1506.8723355350121,1318.6057599999999,1500.0
7.259968996047974,139,80.7885,1494.2076680372043,1480,1506.7212612466278,1319.78988,1500.0
7.284166097640991,139,81.7885,1499.4126231445459,1480,1506.3794785224554,1317.0021999999999,1500.0
7.308371067047119,138,81.7885,1504.6175782518876,1480,1506.0272858880685,1318.21452,1500.0
7.332709074020386,138,81.7885,1509.8225333592293,1480,1505.8010195869238,1319.4926399999999,1500.0
7.3569982051849365,138,81.7885,1515.027488466571,1480,1505.7006796190212,1320.8027199999999,1500.0
7.3811421394348145,137,81.7885,1515.027488466571,1480,1505.23107700267,1320.78664,1500.0
7.405705213546753,137,81.7885,1515.027488466571,1480,1504.7510644761039,1323.5705600000001,1500.0
7.429902076721191,137,81.7885,1515.027488466571,1480,1504.1149032963178,1324.9944800000001,1500.0
7.454113006591797,137,81.7885,1515.027488466571,1480,1503.3225934633115,1326.38644,1500.0
7.478295087814331,136,81.7885,1515.027488466571,1480,1502.3741349770846,1327.7783999999999,1500.0
7.502468109130859,136,81.7885,1509.4369811290558,1480,1501.5566678610594,1329.1384,1500.0
7.526843070983887,136,81.812,1515.027488466571,1480,1501.1133791844175,1329.07636,1500.0
7.551091194152832,136,81.859,1520.6179958040859,1480,1500.9939543811213,1328.9184399999999,1500.0
7.575379133224487,135,82.859,1526.2085031416009,1480,1501.1983934511707,1326.1769200000001,1500.0
7.599529981613159,135,83.906,1526.2085031416009,1480,1501.5338238914217,1321.87132,1500.0
7.62372899055481,135,83.9295,1531.7990104791159,1480,1502.3975572750676,1318.76008,1500.0
7.647932052612305,134,83.953,1537.3895178166308,1480,1503.0935754385882,1315.6808000000001,1500.0
7.672279119491577,135,84.9765,1537.3895178166308,1480,1503.4290058788392,1310.0592799999999,1500.0
7.696660995483398,135,84.9765,1537.3895178166308,1480,1503.4290058788392,1308.46596,1500.0
7.720874071121216,135,83.9765,1542.980025154146,1480,1503.6218783819834,1312.44424,1500.0
7.7454540729522705,135,83.953,1548.570532491661,1480.9300000000001,1503.4793204448767,1315.3503599999999,1500.0
7.769741058349609,135,82.953,1548.570532491661,1487.5,1503.143890004626,1320.90212,1500.0
7.793992042541504,135,83.953,1542.980025154146,1489.6700000000001,1502.7833022813563,1325.4157599999999,1500.0
7.818278074264526,135,82.953,1542.980025154146,1489.6700000000001,1502.6155870612308,1332.4094,1500.0
7.84263801574707,136,82.953,1548.570532491661,1492.0999999999999,1502.3053139039987,1333.97912,1500.0
7.867026090621948,136,84.0,1542.980025154146,1494.3299999999999,1501.609295740478,1332.6869999999999,1500.0
7.891355037689209,136,84.0235,1542.980025154146,1494.3900000000001,1501.1061500801018,1329.75728,1500.0
7.915716171264648,136,84.047,1548.570532491661,1496.6199999999999,1501.1313073631206,1328.2017599999999,1500.0
7.940024137496948,136,84.0705,1554.1610398291759,1498.8499999999999,1501.3241798662648,1323.8124,1500.0
7.964356184005737,137,84.0705,1554.1610398291759,1499.1099999999999,1501.3241798662648,1320.81124,1500.0
7.988999128341675,137,84.0705,1560.1815861926536,1499.1700000000001,1502.0350343761811,1320.7736400000001,1500.0
8.01332402229309,137,84.047,1566.2021325561313,1499.23,1502.9265052770018,1322.22388,1500.0
8.03761601448059,137,83.0235,1577.813186257124,1499.29,1503.6883194114946,1325.05376,1500.0
8.062067985534668,137,83.0235,1583.8337326206015,1499.3499999999999,1504.2701622136221,1328.08124,1500.0
8.086574077606201,138,82.0,1596.3564690566352,1499.6099999999999,1505.4246621842826,1333.8107600000001,1500.0
8.110897064208984,138,82.0,1614.4697128301839,1499.6700000000001,1506.6187687492343,1336.88816,1500.0
8.135426998138428,139,81.0,1626.9924492662176,1502.1600000000001,1507.8021673424396,1342.5077999999999,1500.0
8.159711122512817,139,81.0,1639.5151857022513,1504.45,1508.8323000267917,1344.0296799999999,1500.0
8.183986186981201,139,81.0235,1652.037922138285,1506.74,1510.0445972425414,1345.4575600000001,1500.0
8.2082200050354,140,81.0235,1664.5606585743185,1509.23,1510.8812123652103,1344.04784,1500.0
8.232524156570435,139,81.0235,1678.1068878921433,1509.0899999999999,1511.2226418498735,1342.6381200000001,1500.0
8.256885051727295,140,80.0,1691.6531172099683,1507.1800000000001,1511.3997104188136,1341.1623999999999,1500.0
8.281261205673218,140,80.0,1705.1993465277933,1505.0699999999999,1511.5801332921562,1339.8504399999999,1500.0
8.305813074111938,141,78.953,1718.7455758456185,1505.3900000000001,1511.596195249776,1341.3683599999999,1500.0
8.33011507987976,141,78.9295,1725.7896150908873,1503.28,1511.4186364363463,1343.0838800000001,1500.0
8.354393005371094,141,77.906,1732.8336543361561,1505.5699999999999,1511.1830223544116,1347.47324,1500.0
8.378689050674438,141,75.8355,1747.5342579784567,1505.6300000000001,1510.985789255544,1350,1500.0
8.402892112731934,141,75.812,1754.5782972237255,1505.6900000000001,1510.5283311282594,1350,1500.0
8.427096128463745,142,74.7885,1769.2789008660261,1503.78,1510.109253984042,1350,1500.0
8.451484203338623,141,74.765,1776.3229401112949,1501.4100000000001,1509.8200832157609,1350,1500.0
8.475903034210205,141,73.765,1783.9795045083265,1497.0699999999999,1509.7471102673921,1350,1500.0
8.500108003616333,142,73.7415,1791.6360689053581,1497.3299999999999,1509.4281849119313,1350,1500.0
8.524310111999512,142,73.7415,1799.2926333023897,1497.3900000000001,1509.3227010132,1350,1500.0
8.548505067825317,141,73.718,1806.9491976994213,1492.79,1508.9712647073761,1350,1500.0
8.572763204574585,141,73.718,1814.605762096453,1492.79,1508.6382041561053,1350,1500.0
8.596984148025513,141,73.718,1822.2623264934846,1492.79,1508.2867678502816,1350,1500.0
8.62117314338684,141,74.718,1814.605762096453,1488.3900000000001,1507.6183497784207,1345.2008800000001,1500.0
8.64582109451294,141,74.718,1822.2623264934846,1483.99,1507.0004650315802,1340.97884,1500.0
8.670096158981323,141,74.718,1822.2623264934846,1486.1600000000001,1506.3297499904004,1338.08296,1500.0
8.694362163543701,141,75.718,1829.9188908905162,1486.1600000000001,1505.675113734454,1332.5790400000001,1500.0
8.718631982803345,141,75.718,1829.9188908905162,1486.1600000000001,1504.7563260068105,1329.6351199999999,1500.0
8.742915153503418,140,76.7415,1822.2623264934846,1485.9000000000001,1504.2624776032019,1326.8211199999998,1500.0
8.767187118530273,141,77.7415,1814.605762096453,1488.27,1503.3092353357713,1322.5953200000001,1500.0
8.791637182235718,140,77.7415,1814.605762096453,1485.8399999999999,1502.6201445400386,1319.60148,1500.0
8.816118001937866,140,78.7415,1806.9491976994213,1483.6099999999999,1501.4372053406971,1316.76764,1500.0
8.840402126312256,140,78.7415,1799.2926333023897,1481.3800000000001,1500.2542661413559,1315.1338000000001,1500.0
8.864678144454956,140,78.765,1806.9491976994213,1483.55,1499.5996298854095,1314.94372,1500.0
8.888957023620605,140,79.765,1799.2926333023897,1481.3199999999999,1499.3354784137121,1314.94184,1500.0
8.913255214691162,140,80.7885,1791.6360689053581,1483.49,1498.8416300101035,1313.4379200000001,1500.0
8.937532186508179,139,80.7885,1783.9795045083265,1483.23,1498.8071754703167,1314.6022,1500.0
8.968137979507446,139,81.7885,1776.3229401112949,1483.1700000000001,1499.002417862441,1313.1264800000001,1500.0
8.992700099945068,140,81.812,1776.3229401112949,1483.3699999999999,1498.5430239986192,1311.4625599999999,1500.0
9.017174005508423,140,81.812,1776.3229401112949,1485.54,1498.3133270667083,1311.26684,1500.0
9.041624069213867,140,81.812,1761.6223364689945,1485.54,1498.0358531729598,1313.9369200000001,1500.0
9.066100120544434,140,82.8355,1761.6223364689945,1489.9400000000001,1498.0542289275127,1312.5449599999999,1500.0
9.090396165847778,139,82.8355,1761.6223364689945,1491.9100000000001,1498.3023016139766,1315.1812,1500.0
9.11468505859375,140,82.859,1746.9217328266939,1492.1099999999999,1498.2729004066919,1317.7892400000001,1500.0
9.138981103897095,140,83.8825,1739.8776935814251,1492.1099999999999,1497.8369356299249,1316.3634400000001,1500.0
9.163255214691162,139,83.906,1732.8336543361561,1489.6800000000001,1497.8419889624272,1314.7118399999999,1500.0
9.187525033950806,140,83.906,1725.7896150908873,1487.71,1497.40602418566,1315.95424,1500.0
9.211969137191772,140,83.906,1718.7455758456185,1489.9400000000001,1496.5290412996242,1315.83664,1500.0
9.236505031585693,139,83.906,1711.7015366003495,1487.51,1496.3227734547681,1315.75288,1500.0
9.260785102844238,140,83.906,1704.6574973550807,1487.71,1496.3278267872702,1318.5349199999998,1500.0
9.285418033599854,140,83.906,1704.6574973550807,1492.1099999999999,1496.346202541823,1321.38276,1500.0
9.30967116355896,140,83.953,1697.6134581098117,1492.1099999999999,1496.5442012971303,1322.7145599999999,1500.0
9.33397102355957,140,83.9765,1690.569418864543,1489.9400000000001,1496.9535212297956,1324.04072,1500.0
9.358273029327393,140,85.0,1684.0672287919872,1494.3399999999999,1497.1518380270086,1322.6610800000001,1500.0
9.38274598121643,140,85.0235,1684.0672287919872,1494.3399999999999,1497.5907358569061,1321.05564,1500.0
9.407249212265015,140,85.047,1684.0672287919872,1492.1700000000001,1497.8183125094456,1319.3844000000001,1500.0
9.43169617652893,141,86.0705,1677.5650387194314,1494.5999999999999,1498.0328847818398,1315.17092,1500.0
9.456188201904297,140,86.0705,1671.0628486468754,1494.4000000000001,1498.2637125294157,1312.25144,1500.0
9.48048710823059,141,85.047,1671.0628486468754,1494.6600000000001,1498.7026103593132,1314.8998000000001,1500.0
9.504775047302246,141,85.047,1664.5606585743196,1496.8900000000001,1498.7058614543494,1316.3857600000001,1500.0
9.529085159301758,141,84.0235,1658.0584685017639,1499.1199999999999,1498.5140468472091,1320.6395600000001,1500.0
9.553399085998535,141,84.0235,1651.5562784292081,1496.95,1498.3059767648872,1326.46704,1500.0
9.577678203582764,141,83.0235,1651.5562784292081,1499.1800000000001,1498.3059767648872,1334.90256,1500.0
