time,x,y,size_inv,roll,pitch,thrust,yaw
0.0005929470062255859,167,53,0.004629629629629629,1520,1494.0,1325,1507.0
0.022717952728271484,167,53,0.004629629629629629,1520,1494.0,1325,1507.0
0.04446101188659668,167,53,0.004629629629629629,1520,1494.0,1325,1507.0
0.0661458969116211,167,53,0.004629629629629629,1520,1494.0,1325,1507.0
0.08780407905578613,167,53,0.004629629629629629,1520,1494.0,1325,1507.0
0.1094510555267334,167,53,0.004629629629629629,1520,1494.0,1325,1507.0
0.13106107711791992,167,53,0.004629629629629629,1520,1494.0,1325,1507.0
0.15269899368286133,167,53,0.004629629629629629,1520,1494.0,1325,1507.0
0.17422699928283691,167,53,0.004629629629629629,1520,1494.0,1325,1507.0
0.19578909873962402,167,53,0.004629629629629629,1520,1494.0,1325,1507.0
0.21744489669799805,167,53,0.004629629629629629,1520,1494.0,1325,1507.0
0.2395169734954834,167,53,0.004629629629629629,1520,1494.0,1325,1507.0
0.2615358829498291,168,54,0.006493506493506494,1520,1494.0,1325,1508.0
0.2835550308227539,166,54,0.004629629629629629,1520,1494.0,1325,1506.0
0.30556797981262207,165,55,0.005050505050505051,1520,1494.0,1325,1505.0
0.32758307456970215,164,55,0.005050505050505051,1520,1494.0,1325,1504.0
0.34961605072021484,163,54,0.005555555555555556,1520,1494.0,1325,1503.0
0.371675968170166,162,54,0.005050505050505051,1520,1494.0,1325,1502.0
0.3937239646911621,161,54,0.005050505050505051,1520,1494.0,1325,1501.0
0.41579198837280273,160,54,0.005050505050505051,1520,1494.0,1325,1500.0
0.4378318786621094,159,55,0.005555555555555556,1520,1494.0,1325,1499.0
0.45989298820495605,159,58,0.006493506493506494,1520,1494.0,1325,1499.0
0.4819319248199463,157,60,0.005050505050505051,1510.0,1494.0,1325,1497.0
0.5040929317474365,156,61,0.004629629629629629,1498.0,1494.0,1325,1496.0
0.5261669158935547,156,62,0.004629629629629629,1489.0,1494.0,1325,1496.0
0.54823899269104,156,62,0.0043859649122807015,1481.0,1494.0,1325,1496.0
0.5703160762786865,155,62,0.004629629629629629,1480,1494.0,1325,1495.0
0.5924069881439209,156,61,0.0043859649122807015,1480,1494.0,1325,1496.0
0.6145009994506836,155,62,0.005050505050505051,1480,1494.0,1325,1495.0
0.6365249156951904,157,62,0.005952380952380952,1480,1494.0,1325,1497.0
0.6585690975189209,156,64,0.005050505050505051,1480,1494.0,1325,1496.0
0.680609941482544,156,65,0.004629629629629629,1480,1494.0,1325,1496.0
0.7027440071105957,156,67,0.005050505050505051,1480,1494.0,1325,1496.0
0.7248859405517578,157,68,0.0043859649122807015,1480,1494.0,1325,1497.0
0.7469179630279541,156,70,0.005050505050505051,1480,1494.0,1325,1496.0
0.7689509391784668,158,71,0.004329004329004329,1480,1494.0,1325,1498.0
0.7910380363464355,158,72,0.004329004329004329,1480,1494.0,1324.04,1498.0
0.8133749961853027,158,72,0.003968253968253968,1480,1494.0,1323.5799999999999,1498.0
0.8356349468231201,158,73,0.003968253968253968,1480,1494.0,1322.22,1498.0
0.8577370643615723,156,74,0.004629629629629629,1480,1494.0,1321.0799999999999,1496.0
0.8798370361328125,155,75,0.005050505050505051,1480,1494.0,1319.9000000000001,1495.0
0.9019160270690918,157,76,0.004329004329004329,1480,1494.0,1318.72,1497.0
0.9240829944610596,156,77,0.006493506493506494,1480,1494.0,1317.3199999999999,1496.0
0.9461820125579834,156,78,0.006493506493506494,1480,1494.0,1315.9200000000001,1496.0
0.9682650566101074,156,79,0.004329004329004329,1480,1494.0,1314.48,1496.0
0.9903500080108643,156,80,0.004329004329004329,1480,1494.0,1313.04,1496.0
1.0124590396881104,156,81,0.005555555555555556,1480,1494.0,1311.5999999999999,1496.0
1.0345969200134277,155,82,0.006493506493506494,1480,1494.0,1310.2,1495.0
1.0563790798187256,154,82,0.0043859649122807015,1480,1494.0,1309.8399999999999,1494.0
1.0783069133758545,155,83,0.003968253968253968,1480,1494.0,1308.5799999999999,1495.0
1.1002280712127686,155,84,0.004329004329004329,1480,1494.0,1307.3199999999999,1495.0
1.1220240592956543,155,84,0.003968253968253968,1480,1494.0,1307.0999999999999,1495.0
1.1438798904418945,153,85,0.004629629629629629,1480,1494.0,1305.98,1493.0
1.165653944015503,154,85,0.005952380952380952,1480,1494.0,1305.72,1494.0
1.1876471042633057,154,86,0.003968253968253968,1480,1494.0,1304.5599999999999,1494.0
1.2094390392303467,154,87,0.003968253968253968,1480,1494.0,1303.4000000000001,1494.0
1.2311930656433105,155,88,0.004273504273504274,1480,1494.0,1302.0599999999999,1495.0
1.2529559135437012,154,88,0.003968253968253968,1480,1494.0,1301.76,1494.0
1.274718999862671,154,89,0.003968253968253968,1480,1494.0,1300.4200000000001,1494.0
1.2964930534362793,153,90,0.004166666666666667,1480,1494.0,1299.0799999999999,1493.0
1.3182520866394043,154,91,0.003968253968253968,1480,1494.0,1297.74,1494.0
1.339996099472046,154,92,0.003663003663003663,1480,1494.0,1296.4400000000001,1494.0
1.3617479801177979,153,92,0.0043859649122807015,1480,1494.0,1296.0,1493.0
1.3835029602050781,155,93,0.003663003663003663,1480,1494.0,1294.7,1495.0
1.4053289890289307,156,93,0.0043859649122807015,1480,1494.0,1294.4400000000001,1496.0
1.4272410869598389,155,94,0.003968253968253968,1480,1494.0,1293.28,1495.0
1.449064016342163,155,94,0.003968253968253968,1480,1494.0,1293.1600000000001,1495.0
1.4708449840545654,155,95,0.003663003663003663,1480,1494.0,1292.0,1495.0
1.492621898651123,155,95,0.003968253968253968,1480,1494.0,1291.8800000000001,1495.0
1.5144309997558594,155,96,0.003663003663003663,1480,1494.0,1290.6800000000001,1495.0
1.5362000465393066,156,97,0.003663003663003663,1480,1494.0,1289.48,1496.0
1.557960033416748,156,97,0.003968253968253968,1480,1494.0,1289.1400000000001,1496.0
1.579732894897461,154,97,0.004629629629629629,1480,1494.0,1288.98,1494.0
1.60148286819458,156,98,0.003663003663003663,1480,1494.0,1287.74,1496.0
1.6232340335845947,156,98,0.003968253968253968,1480,1494.0,1287.5799999999999,1496.0
1.6449899673461914,154,98,0.004629629629629629,1480,1494.0,1287.5599999999999,1494.0
1.6667530536651611,155,99,0.0038461538461538464,1480,1494.0,1286.5,1495.0
1.6884980201721191,155,99,0.004273504273504274,1480,1494.0,1286.3,1495.0
1.710252046585083,157,99,0.003663003663003663,1480,1494.0,1286.28,1497.0
1.7319960594177246,157,100,0.003663003663003663,1480,1494.0,1285.1800000000001,1497.0
1.7538459300994873,156,100,0.0038461538461538464,1480,1494.0,1284.9400000000001,1496.0
1.7756099700927734,156,100,0.004048582995951417,1480,1494.0,1284.8800000000001,1496.0
1.7973639965057373,158,100,0.003663003663003663,1480,1494.0,1284.8199999999999,1498.0
1.819122076034546,158,100,0.003968253968253968,1480,1494.0,1284.72,1498.0
1.840872049331665,156,100,0.004273504273504274,1480,1494.0,1284.8,1496.0
1.8626549243927002,158,100,0.003968253968253968,1480,1494.0,1284.8800000000001,1498.0
1.884458065032959,158,101,0.003663003663003663,1480,1494.0,1283.8800000000001,1498.0
1.9062268733978271,158,101,0.004048582995951417,1480,1494.0,1283.78,1498.0
1.9280149936676025,158,101,0.004048582995951417,1480,1494.0,1283.6800000000001,1498.0
1.949779987335205,159,100,0.003663003663003663,1480,1494.0,1284.5799999999999,1499.0
1.9715280532836914,157,100,0.004273504273504274,1480,1494.0,1284.5799999999999,1497.0
1.9932770729064941,159,100,0.003663003663003663,1480,1494.0,1284.76,1499.0
2.015031099319458,158,100,0.004048582995951417,1480,1494.0,1284.9400000000001,1498.0
2.036776065826416,158,100,0.0038461538461538464,1480,1494.0,1285.1199999999999,1498.0
2.058537006378174,159,100,0.0038461538461538464,1480.0,1494.0,1285.1199999999999,1499.0
2.080322027206421,160,99,0.003968253968253968,1484.0,1494.0,1286.1600000000001,1500.0
2.102097988128662,160,99,0.003663003663003663,1486.0,1494.0,1286.26,1500.0
2.123979091644287,160,99,0.003663003663003663,1488.0,1494.0,1286.3599999999999,1500.0
2.145796060562134,160,99,0.003663003663003663,1490.0,1494.0,1286.46,1500.0
2.1675798892974854,162,98,0.004273504273504274,1497.0,1494.0,1287.6400000000001,1502.0
2.189387083053589,161,98,0.003663003663003663,1499.0,1494.0,1287.74,1501.0
2.211185932159424,159,97,0.004273504273504274,1495.0,1494.0,1288.8800000000001,1499.0
2.2329840660095215,161,96,0.003968253968253968,1502.0,1494.0,1290.1600000000001,1501.0
2.25478196144104,161,96,0.003663003663003663,1505.0,1494.0,1290.54,1501.0
2.2767999172210693,161,95,0.003663003663003663,1507.0,1494.0,1291.78,1501.0
2.298633098602295,161,94,0.003968253968253968,1508.0,1494.0,1293.2,1501.0
2.3204269409179688,161,93,0.003968253968253968,1509.0,1494.0,1294.5799999999999,1501.0
2.3422210216522217,160,93,0.004273504273504274,1507.0,1494.0,1294.8800000000001,1500.0
2.3640999794006348,162,92,0.004166666666666667,1513.0,1494.0,1296.22,1502.0
2.385922908782959,160,91,0.004629629629629629,1507.0,1494.0,1297.5599999999999,1500.0
2.4077398777008057,160,91,0.004273504273504274,1506.0,1494.0,1297.8199999999999,1500.0
2.430039882659912,160,90,0.004629629629629629,1507.0,1494.0,1298.98,1500.0
2.453411102294922,162,89,0.003968253968253968,1512.0,1494.0,1300.3199999999999,1502.0
2.476696014404297,161,89,0.0038461538461538464,1510.0,1494.0,1300.5799999999999,1501.0
2.4999730587005615,160,88,0.004629629629629629,1507.0,1494.0,1301.74,1500.0
2.5234079360961914,161,86,0.004629629629629629,1509.0,1494.0,1304.1199999999999,1501.0
2.546869993209839,163,86,0.003968253968253968,1515.0,1494.0,1304.5599999999999,1503.0
2.5701448917388916,162,85,0.0043859649122807015,1515.0,1494.0,1305.8599999999999,1502.0
2.5934529304504395,161,84,0.004629629629629629,1512.0,1494.0,1307.3399999999999,1501.0
2.616729974746704,162,83,0.0043859649122807015,1516.0,1494.0,1308.8199999999999,1502.0
2.64001202583313,161,82,0.004629629629629629,1515.0,1494.0,1310.0799999999999,1501.0
2.6634140014648438,163,81,0.005952380952380952,1520,1494.0,1311.52,1503.0
2.6866419315338135,163,80,0.005952380952380952,1520,1494.0,1312.96,1503.0
2.709820032119751,163,79,0.006493506493506494,1520,1494.0,1314.3599999999999,1503.0
2.7331740856170654,162,78,0.005050505050505051,1520,1494.0,1315.76,1502.0
2.7565689086914062,163,77,0.006493506493506494,1520,1494.0,1317.2,1503.0
2.779776096343994,163,76,0.006493506493506494,1520,1494.0,1318.5999999999999,1503.0
2.8031320571899414,161,75,0.005050505050505051,1520,1494.0,1320.0,1501.0
2.8264830112457275,161,74,0.005050505050505051,1520,1494.0,1321.4000000000001,1501.0
2.849682092666626,161,73,0.004629629629629629,1520,1494.0,1322.8,1501.0
2.873008966445923,161,72,0.005050505050505051,1520,1494.0,1324.2,1501.0
2.8963589668273926,162,71,0.006493506493506494,1520,1494.0,1325,1502.0
2.919456958770752,161,70,0.004629629629629629,1520.0,1494.0,1325,1501.0
2.942786931991577,161,70,0.005050505050505051,1518.0,1494.0,1325,1501.0
2.9661591053009033,161,69,0.005050505050505051,1517.0,1494.0,1325,1501.0
2.9893438816070557,162,69,0.006493506493506494,1518.0,1494.0,1325,1502.0
3.0126779079437256,163,68,0.005555555555555556,1520.0,1494.0,1325,1503.0
3.036055088043213,162,68,0.005952380952380952,1519.0,1494.0,1325,1502.0
3.0592429637908936,162,67,0.005952380952380952,1520.0,1494.0,1325,1502.0
3.0825719833374023,160,67,0.005050505050505051,1515.0,1494.0,1325,1500.0
3.105926036834717,161,66,0.0043859649122807015,1517.0,1494.0,1325,1501.0
3.1290979385375977,160,66,0.005050505050505051,1513.0,1494.0,1325,1500.0
3.152343988418579,160,66,0.005050505050505051,1512.0,1494.0,1325,1500.0
3.1758310794830322,160,65,0.004629629629629629,1511.0,1494.0,1325,1500.0
3.199038028717041,161,65,0.006493506493506494,1513.0,1494.0,1325,1501.0
3.2222039699554443,159,64,0.004629629629629629,1506.0,1494.0,1325,1499.0
3.2457618713378906,159,64,0.005050505050505051,1502.0,1494.0,1325,1499.0
3.268928050994873,160,63,0.006493506493506494,1502.0,1494.0,1325,1500.0
3.292098045349121,159,62,0.004629629629629629,1497.0,1494.0,1325,1499.0
3.315516948699951,159,62,0.004629629629629629,1496.0,1494.0,1325,1499.0
3.3387179374694824,159,62,0.005050505050505051,1494.0,1494.0,1325,1499.0
3.3619110584259033,159,62,0.004629629629629629,1493.0,1494.0,1325,1499.0
3.3853399753570557,160,62,0.0043859649122807015,1495.0,1494.0,1325,1500.0
3.4085700511932373,159,63,0.005050505050505051,1492.0,1494.0,1325,1499.0
3.4317750930786133,160,63,0.006493506493506494,1493.0,1494.0,1325,1500.0
3.45524001121521,159,62,0.0043859649122807015,1491.0,1494.0,1325,1499.0
3.4786078929901123,158,62,0.004629629629629629,1488.0,1494.0,1325,1498.0
3.5020999908447266,159,62,0.005952380952380952,1489.0,1494.0,1325,1499.0
3.525441884994507,158,62,0.005050505050505051,1486.0,1494.0,1325,1498.0
3.548646926879883,158,62,0.005050505050505051,1485.0,1494.0,1325,1498.0
3.571821928024292,158,63,0.005050505050505051,1484.0,1494.0,1325,1498.0
3.5951290130615234,158,64,0.005050505050505051,1483.0,1494.0,1325,1498.0
3.6183090209960938,159,64,0.006493506493506494,1484.0,1494.0,1325,1499.0
3.641474962234497,158,65,0.005050505050505051,1481.0,1494.0,1325,1498.0
3.664639949798584,158,65,0.004784688995215311,1480,1494.0,1325,1498.0
3.6877059936523438,157,66,0.005050505050505051,1480,1494.0,1325,1497.0
3.710789918899536,157,66,0.005050505050505051,1480,1494.0,1325,1497.0
3.7338578701019287,158,67,0.004784688995215311,1480,1494.0,1325,1498.0
3.756959915161133,158,67,0.005050505050505051,1480,1494.0,1325,1498.0
3.7800328731536865,159,68,0.006493506493506494,1480,1494.0,1325,1499.0
3.803169012069702,158,68,0.004629629629629629,1480,1494.0,1325,1498.0
3.826333999633789,158,69,0.005050505050505051,1480,1494.0,1325,1498.0
3.8494369983673096,158,70,0.005050505050505051,1480,1494.0,1325,1498.0
3.8725860118865967,158,70,0.005050505050505051,1480,1494.0,1325,1498.0
3.8957560062408447,158,70,0.005050505050505051,1480,1494.0,1325,1498.0
3.9188249111175537,158,70,0.005050505050505051,1480,1494.0,1325,1498.0
3.941904067993164,158,70,0.005050505050505051,1480,1494.0,1325,1498.0
3.96514892578125,159,70,0.0043859649122807015,1480.0,1494.0,1325,1499.0
3.9883060455322266,158,71,0.005050505050505051,1480,1494.0,1325,1498.0
4.011368989944458,158,71,0.004629629629629629,1480,1494.0,1325,1498.0
4.0344390869140625,158,72,0.004629629629629629,1480,1494.0,1324.5999999999999,1498.0
4.057631015777588,159,73,0.0043859649122807015,1480.0,1494.0,1323.3199999999999,1499.0
4.080852031707764,158,74,0.005050505050505051,1480,1494.0,1321.8599999999999,1498.0
4.1040380001068115,158,74,0.004629629629629629,1480,1494.0,1321.48,1498.0
4.127227067947388,158,76,0.004629629629629629,1480,1494.0,1319.02,1498.0
4.150418996810913,158,77,0.005050505050505051,1480,1494.0,1317.5,1498.0
4.173579931259155,158,77,0.004629629629629629,1480,1494.0,1317.0599999999999,1498.0
4.196753025054932,158,78,0.004629629629629629,1480,1494.0,1315.76,1498.0
4.219928026199341,158,79,0.004629629629629629,1480,1494.0,1314.28,1498.0
4.2431769371032715,158,80,0.004629629629629629,1480,1494.0,1313.02,1498.0
4.266462087631226,159,81,0.0038461538461538464,1480.0,1494.0,1311.76,1499.0
4.289715051651001,158,81,0.004629629629629629,1480,1494.0,1311.3599999999999,1498.0
4.312970876693726,159,81,0.0043859649122807015,1480.0,1494.0,1311.0999999999999,1499.0
4.336323976516724,159,82,0.004629629629629629,1481.0,1494.0,1309.98,1499.0
4.3595850467681885,159,82,0.004629629629629629,1482.0,1494.0,1309.8599999999999,1499.0
4.382894992828369,162,83,0.004524886877828055,1492.0,1494.0,1308.8399999999999,1502.0
4.406250953674316,160,83,0.0043859649122807015,1490.0,1494.0,1308.72,1500.0
4.429547071456909,159,83,0.004629629629629629,1489.0,1494.0,1308.5599999999999,1499.0
4.452931880950928,159,84,0.004629629629629629,1490.0,1494.0,1307.5,1499.0
4.476250886917114,159,85,0.004629629629629629,1491.0,1494.0,1306.26,1499.0
4.499517917633057,159,86,0.004629629629629629,1491.0,1494.0,1305.02,1499.0
4.5228800773620605,159,86,0.004629629629629629,1492.0,1494.0,1304.6800000000001,1499.0
4.546281099319458,159,87,0.004629629629629629,1492.0,1494.0,1303.3,1499.0
4.569567918777466,159,87,0.004629629629629629,1492.0,1494.0,1302.96,1499.0
4.592901945114136,159,88,0.004629629629629629,1492.0,1494.0,1301.76,1499.0
4.6162378787994385,159,88,0.004629629629629629,1489.0,1494.0,1301.5999999999999,1499.0
4.639509916305542,159,89,0.005050505050505051,1488.0,1494.0,1300.4000000000001,1499.0
4.662832021713257,159,90,0.004273504273504274,1488.0,1494.0,1299.24,1499.0
4.68618106842041,161,90,0.005555555555555556,1494.0,1494.0,1298.9400000000001,1501.0
4.709445953369141,160,91,0.004273504273504274,1493.0,1494.0,1297.74,1500.0
4.733134984970093,160,91,0.004629629629629629,1494.0,1494.0,1297.4000000000001,1500.0
4.7567338943481445,160,91,0.004629629629629629,1495.0,1494.0,1297.24,1500.0
4.780091047286987,160,92,0.004629629629629629,1496.0,1494.0,1296.1800000000001,1500.0
4.80339789390564,161,92,0.0043859649122807015,1500.0,1494.0,1296.02,1501.0
4.826677083969116,161,92,0.004629629629629629,1502.0,1494.0,1296.0,1501.0
4.849915027618408,161,93,0.005050505050505051,1504.0,1494.0,1294.9400000000001,1501.0
4.873243093490601,161,93,0.005050505050505051,1506.0,1494.0,1294.74,1501.0
4.896595001220703,162,93,0.0043859649122807015,1511.0,1494.0,1294.6800000000001,1502.0
4.919863939285278,163,93,0.005555555555555556,1515.0,1494.0,1294.6199999999999,1503.0
4.943204879760742,162,93,0.0043859649122807015,1515.0,1494.0,1294.52,1502.0
4.966569900512695,162,93,0.004629629629629629,1517.0,1494.0,1294.5999999999999,1502.0
4.989819049835205,164,94,0.005555555555555556,1520,1494.0,1293.6400000000001,1504.0
5.013051986694336,164,94,0.005555555555555556,1520,1494.0,1293.54,1504.0
5.03629207611084,164,94,0.005555555555555556,1520,1494.0,1293.4400000000001,1504.0
5.059464931488037,161,94,0.005050505050505051,1520,1494.0,1293.3399999999999,1501.0
5.082690000534058,161,94,0.005050505050505051,1520,1494.0,1293.2,1501.0
5.105921983718872,161,94,0.005050505050505051,1520,1494.0,1293.24,1501.0
5.129071950912476,161,93,0.004629629629629629,1520,1494.0,1294.3199999999999,1501.0
5.15225887298584,161,93,0.005050505050505051,1520,1494.0,1294.5,1501.0
5.17554497718811,161,93,0.005050505050505051,1520,1494.0,1294.6800000000001,1501.0
5.198716878890991,161,93,0.005050505050505051,1520,1494.0,1294.8599999999999,1501.0
5.221894979476929,161,93,0.005050505050505051,1518.0,1494.0,1295.0,1501.0
5.2453930377960205,161,92,0.005050505050505051,1515.0,1494.0,1296.0,1501.0
5.268635988235474,163,92,0.006493506493506494,1518.0,1494.0,1296.0999999999999,1503.0
5.2919020652771,161,92,0.005050505050505051,1514.0,1494.0,1296.2,1501.0
5.3152899742126465,163,91,0.006493506493506494,1520.0,1494.0,1297.3399999999999,1503.0
5.338557958602905,163,91,0.006493506493506494,1520,1494.0,1297.5799999999999,1503.0
5.361741065979004,162,90,0.005050505050505051,1520,1494.0,1298.72,1502.0
5.385143041610718,161,89,0.005050505050505051,1519.0,1494.0,1300.0,1501.0
5.408431053161621,161,89,0.005050505050505051,1519.0,1494.0,1300.3800000000001,1501.0
5.4317100048065186,161,88,0.004629629629629629,1519.0,1494.0,1301.6199999999999,1501.0
5.455152988433838,161,88,0.005050505050505051,1519.0,1494.0,1301.96,1501.0
5.478431940078735,161,87,0.004629629629629629,1519.0,1494.0,1303.2,1501.0
5.501686096191406,161,87,0.005050505050505051,1517.0,1494.0,1303.3599999999999,1501.0
5.525075912475586,160,86,0.005050505050505051,1514.0,1494.0,1304.5599999999999,1500.0
5.548386096954346,161,85,0.0043859649122807015,1514.0,1494.0,1305.76,1501.0
5.571676015853882,160,85,0.005050505050505051,1509.0,1494.0,1306.0599999999999,1500.0
5.595016002655029,161,84,0.006493506493506494,1510.0,1494.0,1307.26,1501.0
5.618289947509766,161,83,0.006493506493506494,1510.0,1494.0,1308.6400000000001,1501.0
5.641542911529541,160,82,0.005050505050505051,1507.0,1494.0,1309.98,1500.0
5.664812088012695,161,81,0.005952380952380952,1509.0,1494.0,1311.3199999999999,1501.0
5.688076019287109,160,80,0.004629629629629629,1506.0,1494.0,1312.8,1500.0
5.711338996887207,160,79,0.0043859649122807015,1505.0,1494.0,1314.28,1500.0
5.734659910202026,159,79,0.005050505050505051,1501.0,1494.0,1314.6800000000001,1499.0
5.758183002471924,159,79,0.005050505050505051,1500.0,1494.0,1314.9400000000001,1499.0
5.781537055969238,159,78,0.005050505050505051,1498.0,1494.0,1316.0999999999999,1499.0
5.804835081100464,160,78,0.006493506493506494,1500.0,1494.0,1316.1800000000001,1500.0
5.828089952468872,160,77,0.006493506493506494,1499.0,1494.0,1317.1600000000001,1500.0
5.851378917694092,159,76,0.005050505050505051,1495.0,1494.0,1318.3199999999999,1499.0
5.87466287612915,159,75,0.005050505050505051,1494.0,1494.0,1319.6600000000001,1499.0
5.8982250690460205,158,74,0.005050505050505051,1489.0,1494.0,1321.0,1498.0
5.921487092971802,160,73,0.006493506493506494,1493.0,1494.0,1322.52,1500.0
5.944751024246216,158,72,0.005050505050505051,1487.0,1494.0,1324.04,1498.0
5.968021869659424,158,72,0.005050505050505051,1486.0,1494.0,1324.48,1498.0
5.991266965866089,158,71,0.005050505050505051,1485.0,1494.0,1325,1498.0
6.014431953430176,158,70,0.005555555555555556,1484.0,1494.0,1325,1498.0
6.037615060806274,158,70,0.005050505050505051,1482.0,1494.0,1325,1498.0
6.060791969299316,160,70,0.006493506493506494,1486.0,1494.0,1325,1500.0
6.083962917327881,159,69,0.005555555555555556,1484.0,1494.0,1325,1499.0
6.107115030288696,159,69,0.005050505050505051,1484.0,1494.0,1325,1499.0
6.1302809715271,159,69,0.005050505050505051,1485.0,1494.0,1325,1499.0
6.153436899185181,160,69,0.005050505050505051,1487.0,1494.0,1325,1500.0
6.176626920700073,161,69,0.006493506493506494,1492.0,1494.0,1325,1501.0
6.199858903884888,161,69,0.006060606060606061,1495.0,1494.0,1325,1501.0
6.223150968551636,159,69,0.005050505050505051,1492.0,1494.0,1325,1499.0
6.246469020843506,159,69,0.005050505050505051,1493.0,1494.0,1325,1499.0
6.26963210105896,159,69,0.005050505050505051,1494.0,1494.0,1325,1499.0
6.292872905731201,159,68,0.005555555555555556,1493.0,1494.0,1325,1499.0
6.316111087799072,158,68,0.005050505050505051,1490.0,1494.0,1325,1498.0
6.339273929595947,158,68,0.005050505050505051,1489.0,1494.0,1325,1498.0
6.36254096031189,159,67,0.007142857142857143,1491.0,1494.0,1325,1499.0
6.385852098464966,158,67,0.005050505050505051,1487.0,1494.0,1325,1498.0
6.409066915512085,158,65,0.005555555555555556,1484.0,1494.0,1325,1498.0
6.432254076004028,158,65,0.005555555555555556,1481.0,1494.0,1325,1498.0
6.455588102340698,158,65,0.005050505050505051,1480.0,1494.0,1325,1498.0
6.478769063949585,160,65,0.006060606060606061,1485.0,1494.0,1325,1500.0
6.501941919326782,159,65,0.005050505050505051,1483.0,1494.0,1325,1499.0
6.525280952453613,159,65,0.005050505050505051,1483.0,1494.0,1325,1499.0
6.5484840869903564,159,64,0.005555555555555556,1484.0,1494.0,1325,1499.0
6.571677923202515,159,64,0.005050505050505051,1485.0,1494.0,1325,1499.0
6.594887018203735,159,64,0.005050505050505051,1485.0,1494.0,1325,1499.0
6.618035078048706,159,64,0.005555555555555556,1486.0,1494.0,1325,1499.0
6.641196012496948,159,65,0.005050505050505051,1487.0,1494.0,1325,1499.0
6.66438102722168,159,66,0.005050505050505051,1488.0,1494.0,1325,1499.0
6.687551021575928,159,66,0.005555555555555556,1489.0,1494.0,1325,1499.0
6.710737943649292,159,67,0.005050505050505051,1488.0,1494.0,1325,1499.0
6.733929872512817,159,68,0.005050505050505051,1488.0,1494.0,1325,1499.0
6.75710391998291,159,68,0.005050505050505051,1488.0,1494.0,1325,1499.0
6.78026008605957,158,67,0.005050505050505051,1485.0,1494.0,1325,1498.0
6.803417921066284,158,67,0.005050505050505051,1484.0,1494.0,1325,1498.0
6.826587915420532,158,67,0.005050505050505051,1483.0,1494.0,1325,1498.0
6.849755048751831,158,68,0.005050505050505051,1482.0,1494.0,1325,1498.0
6.872976064682007,158,68,0.005050505050505051,1481.0,1494.0,1325,1498.0
6.896214008331299,158,69,0.005050505050505051,1480.0,1494.0,1325,1498.0
6.919370889663696,158,70,0.005050505050505051,1480,1494.0,1325,1498.0
6.9425270557403564,158,70,0.005050505050505051,1480,1494.0,1325,1498.0
6.96572208404541,159,70,0.004784688995215311,1480.0,1494.0,1325,1499.0
6.9888880252838135,159,70,0.004784688995215311,1480.0,1494.0,1325,1499.0
7.012049913406372,159,69,0.0043859649122807015,1481.0,1494.0,1325,1499.0
7.035367012023926,159,70,0.004784688995215311,1482.0,1494.0,1325,1499.0
7.058568000793457,160,70,0.006060606060606061,1486.0,1494.0,1325,1500.0
7.081727981567383,159,71,0.005050505050505051,1485.0,1494.0,1325,1499.0
7.105046987533569,158,72,0.005050505050505051,1483.0,1494.0,1324.8800000000001,1498.0
7.128330945968628,159,73,0.004629629629629629,1486.0,1494.0,1323.4200000000001,1499.0
7.151603937149048,159,74,0.005050505050505051,1487.0,1494.0,1321.96,1499.0
7.174875974655151,159,75,0.005050505050505051,1488.0,1494.0,1320.3599999999999,1499.0
7.198467016220093,159,76,0.005050505050505051,1488.0,1494.0,1318.8,1499.0
7.221760988235474,159,76,0.005050505050505051,1488.0,1494.0,1318.3199999999999,1499.0
7.245264053344727,160,76,0.0043859649122807015,1491.0,1494.0,1318.0599999999999,1500.0
7.268573999404907,159,77,0.005050505050505051,1489.0,1494.0,1316.9000000000001,1499.0
7.291858911514282,161,77,0.006060606060606061,1494.0,1494.0,1316.8199999999999,1501.0
7.3152549266815186,161,77,0.005681818181818182,1496.0,1494.0,1316.8800000000001,1501.0
7.338517904281616,160,77,0.005050505050505051,1496.0,1494.0,1316.9000000000001,1500.0
7.361783027648926,160,77,0.004629629629629629,1497.0,1494.0,1316.8800000000001,1500.0
7.385251045227051,160,78,0.005050505050505051,1498.0,1494.0,1315.96,1500.0
7.4085469245910645,160,78,0.005050505050505051,1499.0,1494.0,1315.9000000000001,1500.0
7.431919097900391,160,79,0.005050505050505051,1500.0,1494.0,1314.76,1500.0
7.4555768966674805,160,79,0.005050505050505051,1501.0,1494.0,1314.52,1500.0
7.478913068771362,160,80,0.005050505050505051,1501.0,1494.0,1313.24,1500.0
7.502173900604248,160,80,0.005050505050505051,1502.0,1494.0,1313.0,1500.0
7.525646924972534,160,81,0.005050505050505051,1501.0,1494.0,1311.72,1500.0
7.548955917358398,161,81,0.004784688995215311,1503.0,1494.0,1311.52,1501.0
7.572225093841553,160,81,0.005050505050505051,1501.0,1494.0,1311.3199999999999,1500.0
7.595650911331177,160,81,0.004629629629629629,1501.0,1494.0,1311.3,1500.0
7.618926048278809,160,82,0.005050505050505051,1501.0,1494.0,1310.2,1500.0
7.642175912857056,163,82,0.005555555555555556,1510.0,1494.0,1310.1800000000001,1503.0
7.66562294960022,161,83,0.005050505050505051,1507.0,1494.0,1309.0799999999999,1501.0
7.6889488697052,161,83,0.005050505050505051,1508.0,1494.0,1308.8800000000001,1501.0
7.712224960327148,161,83,0.005050505050505051,1509.0,1494.0,1308.6400000000001,1501.0
7.735621929168701,162,83,0.006493506493506494,1513.0,1494.0,1308.5799999999999,1502.0
7.758918046951294,161,84,0.005050505050505051,1512.0,1494.0,1307.4400000000001,1501.0
7.782183885574341,161,84,0.005050505050505051,1512.0,1494.0,1307.3800000000001,1501.0
7.80558705329895,161,85,0.005050505050505051,1513.0,1494.0,1306.28,1501.0
7.828854084014893,160,85,0.005050505050505051,1511.0,1494.0,1306.0799999999999,1500.0
7.852113962173462,160,85,0.005050505050505051,1511.0,1494.0,1305.8399999999999,1500.0
7.875500917434692,160,85,0.005050505050505051,1508.0,1494.0,1305.78,1500.0
7.898776054382324,160,85,0.005555555555555556,1507.0,1494.0,1305.6800000000001,1500.0
7.922031879425049,160,85,0.005555555555555556,1506.0,1494.0,1305.76,1500.0
7.945559024810791,160,86,0.005050505050505051,1505.0,1494.0,1304.8,1500.0
7.9688560962677,162,86,0.006060606060606061,1509.0,1494.0,1304.74,1502.0
7.992110967636108,162,86,0.006493506493506494,1510.0,1494.0,1304.6400000000001,1502.0
8.0155029296875,161,86,0.005050505050505051,1508.0,1494.0,1304.54,1501.0
8.038784980773926,162,86,0.006493506493506494,1511.0,1494.0,1304.4000000000001,1502.0
8.06206202507019,161,86,0.005050505050505051,1510.0,1494.0,1304.4400000000001,1501.0
8.085479974746704,161,86,0.005050505050505051,1511.0,1494.0,1304.48,1501.0
8.10873007774353,160,86,0.005050505050505051,1509.0,1494.0,1304.52,1500.0
8.131998062133789,160,86,0.005050505050505051,1509.0,1494.0,1304.5599999999999,1500.0
8.15541696548462,160,86,0.005050505050505051,1509.0,1494.0,1304.5999999999999,1500.0
8.178699016571045,161,86,0.006493506493506494,1512.0,1494.0,1304.5999999999999,1501.0
8.201956033706665,160,85,0.005555555555555556,1508.0,1494.0,1305.6400000000001,1500.0
8.225358963012695,162,85,0.006060606060606061,1512.0,1494.0,1305.78,1502.0
8.248651027679443,162,85,0.006060606060606061,1513.0,1494.0,1305.9200000000001,1502.0
8.271914005279541,160,85,0.005050505050505051,1507.0,1494.0,1306.0599999999999,1500.0
8.295324087142944,161,85,0.006493506493506494,1509.0,1494.0,1306.2,1501.0
8.31858491897583,160,84,0.005050505050505051,1506.0,1494.0,1307.2,1500.0
8.341835021972656,159,84,0.005050505050505051,1503.0,1494.0,1307.3,1499.0
8.365559101104736,159,83,0.005050505050505051,1502.0,1494.0,1308.4400000000001,1499.0
8.388880014419556,160,83,0.006493506493506494,1504.0,1494.0,1308.6800000000001,1500.0
8.412184953689575,160,83,0.006493506493506494,1503.0,1494.0,1308.9200000000001,1500.0
8.435606956481934,159,83,0.005050505050505051,1500.0,1494.0,1309.02,1499.0
8.458920001983643,159,82,0.005050505050505051,1497.0,1494.0,1310.1600000000001,1499.0
8.482204914093018,159,82,0.005050505050505051,1494.0,1494.0,1310.22,1499.0
8.505603075027466,161,81,0.006060606060606061,1499.0,1494.0,1311.3199999999999,1501.0
8.528927087783813,160,81,0.006493506493506494,1496.0,1494.0,1311.52,1500.0
8.552206039428711,158,81,0.005050505050505051,1490.0,1494.0,1311.76,1498.0
8.57569408416748,158,80,0.005555555555555556,1489.0,1494.0,1312.8599999999999,1498.0
8.5990149974823,159,80,0.007142857142857143,1491.0,1494.0,1313.0999999999999,1499.0
8.622289896011353,158,80,0.005050505050505051,1487.0,1494.0,1313.1600000000001,1498.0
8.645864963531494,158,80,0.005050505050505051,1485.0,1494.0,1313.22,1498.0
8.669178009033203,158,79,0.005050505050505051,1484.0,1494.0,1314.3199999999999,1498.0
8.692537069320679,158,78,0.005555555555555556,1483.0,1494.0,1315.4200000000001,1498.0
8.715902090072632,158,78,0.005050505050505051,1482.0,1494.0,1315.6199999999999,1498.0
8.73917293548584,158,77,0.005050505050505051,1480,1494.0,1316.9000000000001,1498.0
8.762471914291382,159,76,0.005555555555555556,1480.0,1494.0,1318.3199999999999,1499.0
8.78581690788269,159,76,0.005050505050505051,1481.0,1494.0,1318.6600000000001,1499.0
8.8090980052948,160,76,0.006493506493506494,1485.0,1494.0,1318.8599999999999,1500.0
8.832432985305786,159,75,0.005050505050505051,1483.0,1494.0,1320.0999999999999,1499.0
8.855801105499268,159,75,0.005050505050505051,1484.0,1494.0,1320.26,1499.0
8.879072904586792,159,74,0.005050505050505051,1485.0,1494.0,1321.28,1499.0
8.90239405632019,159,74,0.005050505050505051,1486.0,1494.0,1321.4400000000001,1499.0
8.925743103027344,159,73,0.005050505050505051,1487.0,1494.0,1322.6800000000001,1499.0
8.949038028717041,160,73,0.004784688995215311,1491.0,1494.0,1322.8399999999999,1500.0
8.97238302230835,159,72,0.005050505050505051,1490.0,1494.0,1324.0799999999999,1499.0
8.99572205543518,159,72,0.005050505050505051,1490.0,1494.0,1324.28,1499.0
9.018946886062622,159,71,0.005555555555555556,1490.0,1494.0,1325,1499.0
9.04213809967041,159,71,0.005050505050505051,1489.0,1494.0,1325,1499.0
9.06547498703003,159,71,0.005050505050505051,1489.0,1494.0,1325,1499.0
9.088644981384277,159,71,0.005050505050505051,1489.0,1494.0,1325,1499.0
9.111800909042358,159,71,0.005050505050505051,1489.0,1494.0,1325,1499.0
9.135098934173584,159,71,0.005555555555555556,1489.0,1494.0,1325,1499.0
9.158271074295044,159,71,0.005555555555555556,1489.0,1494.0,1325,1499.0
9.181427001953125,159,71,0.005555555555555556,1488.0,1494.0,1325,1499.0
9.204607009887695,159,71,0.005050505050505051,1488.0,1494.0,1325,1499.0
9.227760076522827,161,70,0.007142857142857143,1494.0,1494.0,1325,1501.0
9.25092601776123,160,69,0.005555555555555556,1493.0,1494.0,1325,1500.0
9.274087905883789,161,69,0.006493506493506494,1497.0,1494.0,1325,1501.0
9.297245025634766,160,69,0.005050505050505051,1496.0,1494.0,1325,1500.0
9.32040810585022,161,68,0.006666666666666667,1500.0,1494.0,1325,1501.0
9.343669891357422,161,68,0.006493506493506494,1502.0,1494.0,1325,1501.0
9.367120027542114,161,68,0.007142857142857143,1504.0,1494.0,1325,1501.0
9.390407085418701,159,69,0.005050505050505051,1500.0,1494.0,1325,1499.0
9.413810968399048,159,69,0.005050505050505051,1500.0,1494.0,1325,1499.0
9.437057971954346,159,69,0.005050505050505051,1500.0,1494.0,1325,1499.0
9.460272073745728,159,69,0.005555555555555556,1498.0,1494.0,1325,1499.0
9.48344898223877,159,70,0.005050505050505051,1497.0,1494.0,1325,1499.0
9.506618022918701,160,69,0.007142857142857143,1498.0,1494.0,1325,1500.0
9.529784917831421,160,69,0.006493506493506494,1498.0,1494.0,1325,1500.0
9.553021907806396,159,68,0.005050505050505051,1494.0,1494.0,1325,1499.0
9.576627969741821,160,67,0.007142857142857143,1495.0,1494.0,1325,1500.0
9.59982705116272,159,68,0.005050505050505051,1491.0,1494.0,1325,1499.0
9.62309193611145,159,68,0.005050505050505051,1491.0,1494.0,1325,1499.0
9.646424055099487,159,68,0.005050505050505051,1491.0,1494.0,1325,1499.0
9.669611930847168,159,67,0.005555555555555556,1491.0,1494.0,1325,1499.0
9.692852020263672,159,67,0.005555555555555556,1491.0,1494.0,1325,1499.0
9.716115951538086,159,67,0.005050505050505051,1491.0,1494.0,1325,1499.0
9.739269971847534,159,67,0.005555555555555556,1490.0,1494.0,1325,1499.0
9.762530088424683,159,68,0.005050505050505051,1489.0,1494.0,1325,1499.0
9.785759925842285,159,68,0.005050505050505051,1489.0,1494.0,1325,1499.0
9.808871030807495,159,68,0.005050505050505051,1488.0,1494.0,1325,1499.0
9.832029104232788,159,68,0.005555555555555556,1488.0,1494.0,1325,1499.0
9.855385065078735,159,69,0.005050505050505051,1488.0,1494.0,1325,1499.0
9.878582954406738,159,68,0.005555555555555556,1488.0,1494.0,1325,1499.0
9.901763916015625,159,68,0.005555555555555556,1488.0,1494.0,1325,1499.0
9.925082921981812,159,68,0.005050505050505051,1488.0,1494.0,1325,1499.0
9.948288917541504,160,68,0.004784688995215311,1491.0,1494.0,1325,1500.0
