time,x,y,size_inv,roll,pitch,thrust,yaw
0.0008661746978759766,193,57,0.005050505050505051,1520,1494.0,1325,1520
0.02392101287841797,194,57,0.004784688995215311,1520,1494.0,1325,1520
0.046586036682128906,193,57,0.005050505050505051,1520,1494.0,1325,1520
0.06914305686950684,193,57,0.005050505050505051,1520,1494.0,1325,1520
0.09172320365905762,193,57,0.005050505050505051,1520,1494.0,1325,1520
0.1142880916595459,193,57,0.005050505050505051,1520,1494.0,1325,1520
0.13680100440979004,193,57,0.005050505050505051,1520,1494.0,1325,1520
0.15977001190185547,193,57,0.005050505050505051,1520,1494.0,1325,1520
0.1827101707458496,193,57,0.005050505050505051,1520,1494.0,1325,1520
0.2056570053100586,193,57,0.005050505050505051,1520,1494.0,1325,1520
0.2286970615386963,193,57,0.005050505050505051,1520,1494.0,1325,1520
0.2521190643310547,193,57,0.005050505050505051,1520,1494.0,1325,1520
0.27538514137268066,193,57,0.005050505050505051,1520,1494.0,1325,1520
0.29868102073669434,191,57,0.005050505050505051,1520,1494.0,1325,1520
0.3218660354614258,190,57,0.005555555555555556,1520,1494.0,1325,1520
0.34516406059265137,190,57,0.006493506493506494,1520,1494.0,1325,1520
0.36834716796875,187,55,0.005555555555555556,1520,1494.0,1325,1520
0.39157819747924805,186,55,0.006493506493506494,1520,1494.0,1325,1520
0.4147469997406006,183,55,0.005050505050505051,1520,1494.0,1325,1520
0.4380631446838379,181,55,0.006666666666666667,1520,1494.0,1325,1520
0.46146416664123535,178,56,0.006060606060606061,1520,1494.0,1325,1518.0
0.4850161075592041,172,58,0.006060606060606061,1520,1494.0,1325,1512.0
0.5083789825439453,169,58,0.005208333333333333,1520,1494.0,1325,1509.0
0.5316681861877441,166,59,0.006060606060606061,1520,1494.0,1325,1506.0
0.555103063583374,163,60,0.006060606060606061,1520,1494.0,1325,1503.0
0.5783841609954834,159,60,0.005050505050505051,1520,1494.0,1325,1499.0
0.6017191410064697,158,60,0.005555555555555556,1520,1494.0,1325,1498.0
0.6250920295715332,156,61,0.006060606060606061,1520,1494.0,1325,1496.0
0.6485910415649414,151,62,0.005050505050505051,1520,1494.0,1325,1491.0
0.6720421314239502,150,63,0.004629629629629629,1502.0,1494.0,1325,1490.0
0.6953911781311035,149,65,0.005050505050505051,1480,1494.0,1325,1489.0
0.7186951637268066,147,66,0.004629629629629629,1480,1494.0,1325,1487.0
0.7420351505279541,147,68,0.004784688995215311,1480,1494.0,1325,1487.0
0.7653841972351074,147,69,0.004784688995215311,1480,1494.0,1325,1487.0
0.7889621257781982,146,69,0.004629629629629629,1480,1494.0,1325,1486.0
0.8126180171966553,147,70,0.004629629629629629,1480,1494.0,1325,1487.0
0.8359091281890869,147,70,0.004629629629629629,1480,1494.0,1325,1487.0
0.8593220710754395,148,70,0.004629629629629629,1480,1494.0,1325,1488.0
0.8826169967651367,148,71,0.005050505050505051,1480,1494.0,1325,1488.0
0.9060821533203125,150,72,0.006493506493506494,1480,1494.0,1325,1490.0
0.9295811653137207,149,73,0.005050505050505051,1480,1494.0,1325,1489.0
0.9528679847717285,151,74,0.006493506493506494,1480,1494.0,1325,1491.0
0.9763081073760986,150,76,0.005050505050505051,1480,1494.0,1325,1490.0
0.9996201992034912,150,77,0.005050505050505051,1480,1494.0,1325,1490.0
1.0230941772460938,151,78,0.005050505050505051,1480,1494.0,1325,1491.0
1.0466439723968506,152,79,0.006493506493506494,1480,1494.0,1322.8,1492.0
1.0700900554656982,153,80,0.006493506493506494,1480,1494.0,1320.5,1493.0
1.0936939716339111,152,80,0.005050505050505051,1480,1494.0,1320.8,1492.0
1.1173551082611084,152,81,0.005050505050505051,1480,1494.0,1319.0999999999999,1492.0
1.1410510540008545,152,82,0.005050505050505051,1480,1494.0,1317.4000000000001,1492.0
1.1648201942443848,153,82,0.005050505050505051,1480,1494.0,1317.8499999999999,1493.0
1.1882860660552979,153,82,0.005050505050505051,1480,1494.0,1318.45,1493.0
1.211717128753662,154,82,0.005952380952380952,1480,1494.0,1318.75,1494.0
1.2352399826049805,154,83,0.006493506493506494,1480,1494.0,1317.05,1494.0
1.2588579654693604,153,83,0.005050505050505051,1480,1494.0,1317.5,1493.0
1.2823710441589355,153,83,0.004629629629629629,1480,1494.0,1317.8,1493.0
1.3062281608581543,154,84,0.006493506493506494,1480,1494.0,1315.8,1494.0
1.3297901153564453,153,84,0.005050505050505051,1480,1494.0,1315.8,1493.0
1.3536059856414795,153,84,0.004629629629629629,1480,1494.0,1315.95,1493.0
1.3772361278533936,153,85,0.005050505050505051,1480,1494.0,1313.8,1493.0
1.4009490013122559,153,85,0.004629629629629629,1480,1494.0,1313.6500000000001,1493.0
1.4246211051940918,153,86,0.005050505050505051,1480,1494.0,1311.6500000000001,1493.0
1.4480299949645996,153,87,0.004629629629629629,1480,1494.0,1309.5,1493.0
1.4715900421142578,153,88,0.004629629629629629,1480,1494.0,1307.05,1493.0
1.495030164718628,154,89,0.004784688995215311,1480,1494.0,1304.75,1494.0
1.5185251235961914,153,89,0.004629629629629629,1480,1494.0,1304.45,1493.0
1.5420641899108887,153,90,0.005050505050505051,1480,1494.0,1302.1500000000001,1493.0
1.565580129623413,153,90,0.005050505050505051,1480,1494.0,1302.1500000000001,1493.0
1.5889661312103271,153,90,0.005050505050505051,1480,1494.0,1302.45,1493.0
1.612555980682373,154,90,0.0043859649122807015,1480,1494.0,1302.9000000000001,1494.0
1.6360349655151367,154,90,0.0043859649122807015,1480,1494.0,1303.3499999999999,1494.0
1.6595940589904785,154,90,0.0043859649122807015,1480,1494.0,1303.95,1494.0
1.6829781532287598,153,91,0.005050505050505051,1480,1494.0,1302.25,1493.0
1.7064330577850342,154,91,0.004629629629629629,1480,1494.0,1302.4000000000001,1494.0
1.7298500537872314,154,91,0.004629629629629629,1480,1494.0,1302.4000000000001,1494.0
1.7536120414733887,154,92,0.004629629629629629,1480,1494.0,1300.25,1494.0
1.7770800590515137,154,92,0.004629629629629629,1480,1494.0,1299.95,1494.0
1.8006951808929443,154,93,0.005050505050505051,1480,1494.0,1297.8,1494.0
1.8243310451507568,154,93,0.005050505050505051,1480,1494.0,1297.6500000000001,1494.0
1.847884178161621,155,93,0.0043859649122807015,1480,1494.0,1297.5,1495.0
1.8714191913604736,155,93,0.004784688995215311,1480,1494.0,1297.6500000000001,1495.0
1.8951470851898193,154,92,0.004629629629629629,1480,1494.0,1299.95,1494.0
1.918666124343872,154,92,0.004629629629629629,1480,1494.0,1300.4000000000001,1494.0
1.9421000480651855,155,92,0.0043859649122807015,1480,1494.0,1300.8499999999999,1495.0
1.965602159500122,155,92,0.004629629629629629,1480,1494.0,1301.3,1495.0
1.98917818069458,155,92,0.004629629629629629,1480,1494.0,1301.5999999999999,1495.0
2.0127689838409424,155,92,0.004629629629629629,1480,1494.0,1301.5999999999999,1495.0
2.036180019378662,155,92,0.004629629629629629,1480,1494.0,1301.45,1495.0
2.059818983078003,157,92,0.0043859649122807015,1480,1494.0,1301.3,1497.0
2.0838820934295654,157,92,0.0043859649122807015,1480,1494.0,1301.1500000000001,1497.0
2.1078059673309326,157,92,0.0043859649122807015,1480,1494.0,1301.0,1497.0
2.1315419673919678,156,92,0.004629629629629629,1480,1494.0,1301.0,1496.0
2.1550910472869873,156,91,0.004629629629629629,1480,1494.0,1303.1500000000001,1496.0
2.1787071228027344,157,91,0.0043859649122807015,1480,1494.0,1303.3,1497.0
2.2021000385284424,157,91,0.004629629629629629,1480,1494.0,1303.45,1497.0
2.2257931232452393,157,91,0.005050505050505051,1480,1494.0,1303.5999999999999,1497.0
2.2493491172790527,157,91,0.005050505050505051,1480,1494.0,1303.75,1497.0
2.2730159759521484,158,90,0.0043859649122807015,1480,1494.0,1305.75,1498.0
2.296462059020996,160,90,0.006060606060606061,1480,1494.0,1305.75,1500.0
2.3198740482330322,158,89,0.004629629629629629,1480,1494.0,1307.9000000000001,1498.0
2.343487024307251,159,89,0.0043859649122807015,1480,1494.0,1308.05,1499.0
2.366873025894165,158,88,0.004629629629629629,1480,1494.0,1310.3499999999999,1498.0
2.3904922008514404,158,88,0.004629629629629629,1480,1494.0,1310.5,1498.0
2.4142441749572754,159,87,0.004629629629629629,1480,1494.0,1312.8,1499.0
2.437791109085083,159,86,0.004629629629629629,1481.0,1494.0,1314.95,1499.0
2.461351156234741,159,86,0.004629629629629629,1483.0,1494.0,1315.0999999999999,1499.0
2.4850549697875977,160,85,0.004629629629629629,1488.0,1494.0,1317.0999999999999,1500.0
2.5086960792541504,160,85,0.004629629629629629,1490.0,1494.0,1317.25,1500.0
2.5326061248779297,161,84,0.0043859649122807015,1493.0,1494.0,1319.25,1501.0
2.556300163269043,160,84,0.004629629629629629,1493.0,1494.0,1319.0999999999999,1500.0
2.5800139904022217,161,83,0.004629629629629629,1497.0,1494.0,1321.0999999999999,1501.0
2.6039211750030518,163,82,0.005555555555555556,1506.0,1494.0,1323.0999999999999,1503.0
2.6274940967559814,161,82,0.005050505050505051,1505.0,1494.0,1323.0999999999999,1501.0
2.6510770320892334,161,81,0.004629629629629629,1507.0,1494.0,1325,1501.0
2.6746411323547363,161,81,0.005050505050505051,1509.0,1494.0,1325,1501.0
2.6981940269470215,163,80,0.006060606060606061,1517.0,1494.0,1325,1503.0
2.721729040145874,162,79,0.0043859649122807015,1517.0,1494.0,1325,1502.0
2.7451159954071045,161,78,0.005050505050505051,1516.0,1494.0,1325,1501.0
2.7686691284179688,161,77,0.004629629629629629,1516.0,1494.0,1325,1501.0
2.792186975479126,161,77,0.005050505050505051,1517.0,1494.0,1325,1501.0
2.815577983856201,161,76,0.005050505050505051,1517.0,1494.0,1325,1501.0
2.839130163192749,161,75,0.005050505050505051,1515.0,1494.0,1325,1501.0
2.8626630306243896,162,75,0.005050505050505051,1518.0,1494.0,1325,1502.0
2.886057138442993,163,74,0.007142857142857143,1520,1494.0,1325,1503.0
2.9094340801239014,162,74,0.005050505050505051,1520,1494.0,1325,1502.0
2.9330060482025146,162,73,0.005050505050505051,1520.0,1494.0,1325,1502.0
2.956439971923828,162,73,0.005050505050505051,1520.0,1494.0,1325,1502.0
2.979978084564209,162,73,0.005050505050505051,1520,1494.0,1325,1502.0
3.003674030303955,162,73,0.005050505050505051,1520,1494.0,1325,1502.0
3.0270230770111084,162,72,0.005555555555555556,1520,1494.0,1325,1502.0
3.0505011081695557,164,72,0.006060606060606061,1520,1494.0,1325,1504.0
3.0740530490875244,162,71,0.005050505050505051,1520,1494.0,1325,1502.0
3.097388982772827,163,70,0.007142857142857143,1520,1494.0,1325,1503.0
3.1208550930023193,163,70,0.006493506493506494,1520,1494.0,1325,1503.0
3.144487142562866,163,69,0.006493506493506494,1520,1494.0,1325,1503.0
3.1680331230163574,161,68,0.005050505050505051,1520,1494.0,1325,1501.0
3.191394090652466,161,68,0.005050505050505051,1520,1494.0,1325,1501.0
3.2149009704589844,161,68,0.005050505050505051,1520,1494.0,1325,1501.0
3.23846697807312,161,69,0.005050505050505051,1520,1494.0,1325,1501.0
3.2617900371551514,161,69,0.004784688995215311,1520,1494.0,1325,1501.0
3.2851500511169434,160,69,0.005050505050505051,1516.0,1494.0,1325,1500.0
3.3086111545562744,160,69,0.005050505050505051,1514.0,1494.0,1325,1500.0
3.3319971561431885,160,69,0.005050505050505051,1511.0,1494.0,1325,1500.0
3.3554670810699463,160,68,0.005050505050505051,1508.0,1494.0,1325,1500.0
3.3789072036743164,160,68,0.005050505050505051,1505.0,1494.0,1325,1500.0
3.4024250507354736,161,67,0.004784688995215311,1507.0,1494.0,1325,1501.0
3.4259281158447266,160,67,0.005050505050505051,1504.0,1494.0,1325,1500.0
3.4494822025299072,160,67,0.005050505050505051,1503.0,1494.0,1325,1500.0
3.4730560779571533,160,67,0.005050505050505051,1502.0,1494.0,1325,1500.0
3.4964981079101562,162,67,0.006060606060606061,1507.0,1494.0,1325,1502.0
3.5199661254882812,160,67,0.005050505050505051,1503.0,1494.0,1325,1500.0
3.5436151027679443,160,67,0.005050505050505051,1503.0,1494.0,1325,1500.0
3.567049980163574,161,67,0.006493506493506494,1506.0,1494.0,1325,1501.0
3.5906620025634766,161,66,0.007142857142857143,1507.0,1494.0,1325,1501.0
3.6143720149993896,160,67,0.005050505050505051,1505.0,1494.0,1325,1500.0
3.637782096862793,160,67,0.005050505050505051,1504.0,1494.0,1325,1500.0
3.661375045776367,161,68,0.006493506493506494,1507.0,1494.0,1325,1501.0
3.6849441528320312,161,68,0.006493506493506494,1508.0,1494.0,1325,1501.0
3.70849609375,161,68,0.007142857142857143,1509.0,1494.0,1325,1501.0
3.731904983520508,159,69,0.005050505050505051,1502.0,1494.0,1325,1499.0
3.755390167236328,159,69,0.005050505050505051,1501.0,1494.0,1325,1499.0
3.7789950370788574,160,69,0.006493506493506494,1503.0,1494.0,1325,1500.0
3.8024280071258545,159,69,0.005050505050505051,1499.0,1494.0,1325,1499.0
3.8261210918426514,158,69,0.005555555555555556,1494.0,1494.0,1325,1498.0
3.849630117416382,158,70,0.005050505050505051,1492.0,1494.0,1325,1498.0
3.8734211921691895,160,70,0.006060606060606061,1496.0,1494.0,1325,1500.0
3.8969709873199463,159,70,0.007142857142857143,1492.0,1494.0,1325,1499.0
3.92061710357666,158,70,0.005555555555555556,1487.0,1494.0,1325,1498.0
3.94425106048584,158,70,0.005555555555555556,1484.0,1494.0,1325,1498.0
3.9676990509033203,159,70,0.007142857142857143,1486.0,1494.0,1325,1499.0
3.9913711547851562,157,70,0.005555555555555556,1480.0,1494.0,1325,1497.0
4.0149171352386475,157,70,0.005555555555555556,1480,1494.0,1325,1497.0
4.038228988647461,157,71,0.005050505050505051,1480,1494.0,1325,1497.0
4.061805009841919,157,71,0.005050505050505051,1480,1494.0,1325,1497.0
4.085137128829956,157,71,0.005050505050505051,1480,1494.0,1325,1497.0
4.108607053756714,157,71,0.005050505050505051,1480,1494.0,1325,1497.0
4.1321961879730225,157,71,0.005050505050505051,1480,1494.0,1325,1497.0
4.155526161193848,157,71,0.005050505050505051,1480,1494.0,1325,1497.0
4.178879976272583,157,70,0.005555555555555556,1480,1494.0,1325,1497.0
4.202277183532715,158,70,0.005555555555555556,1480,1494.0,1325,1498.0
4.225592136383057,158,71,0.005050505050505051,1480,1494.0,1325,1498.0
4.249045133590698,158,71,0.005555555555555556,1480,1494.0,1325,1498.0
4.2725629806518555,158,72,0.005555555555555556,1480,1494.0,1325,1498.0
4.296041965484619,158,73,0.005050505050505051,1480,1494.0,1325,1498.0
4.3194050788879395,159,74,0.004784688995215311,1480,1494.0,1325,1499.0
4.342929124832153,158,74,0.005555555555555556,1480,1494.0,1325,1498.0
4.366352081298828,160,75,0.006493506493506494,1481.0,1494.0,1325,1500.0
4.39002799987793,160,75,0.007142857142857143,1484.0,1494.0,1325,1500.0
4.413769006729126,159,76,0.005050505050505051,1484.0,1494.0,1325,1499.0
4.437381029129028,160,76,0.006493506493506494,1488.0,1494.0,1325,1500.0
4.461047172546387,159,76,0.005555555555555556,1487.0,1494.0,1325,1499.0
4.484681129455566,159,77,0.004784688995215311,1488.0,1494.0,1325,1499.0
4.508139133453369,158,77,0.005555555555555556,1486.0,1494.0,1325,1498.0
4.5315752029418945,158,78,0.005555555555555556,1486.0,1494.0,1325,1498.0
4.555018186569214,158,79,0.005050505050505051,1485.0,1494.0,1325,1498.0
4.578556060791016,158,79,0.005555555555555556,1485.0,1494.0,1325,1498.0
4.602039098739624,158,80,0.005050505050505051,1483.0,1494.0,1323.05,1498.0
4.625606060028076,158,80,0.005050505050505051,1481.0,1494.0,1322.9000000000001,1498.0
4.649325132369995,158,80,0.005555555555555556,1480.0,1494.0,1322.9000000000001,1498.0
4.67300820350647,158,80,0.005555555555555556,1480,1494.0,1323.2,1498.0
4.696686029434204,158,81,0.005050505050505051,1480,1494.0,1321.3499999999999,1498.0
4.720180034637451,159,81,0.005050505050505051,1480,1494.0,1321.6500000000001,1499.0
4.74399209022522,159,82,0.005050505050505051,1480.0,1494.0,1319.8,1499.0
4.767527103424072,159,82,0.005050505050505051,1481.0,1494.0,1319.8,1499.0
4.791118144989014,159,82,0.005555555555555556,1482.0,1494.0,1319.6500000000001,1499.0
4.814848184585571,159,83,0.005050505050505051,1483.0,1494.0,1317.6500000000001,1499.0
4.838464975357056,161,83,0.007142857142857143,1490.0,1494.0,1317.5,1501.0
4.861999988555908,160,84,0.005050505050505051,1490.0,1494.0,1315.5,1500.0
4.885418176651001,160,84,0.005050505050505051,1492.0,1494.0,1315.5,1500.0
4.90893816947937,160,84,0.005050505050505051,1494.0,1494.0,1315.5,1500.0
4.932559013366699,160,84,0.005050505050505051,1496.0,1494.0,1315.6500000000001,1500.0
4.95621919631958,160,84,0.005050505050505051,1497.0,1494.0,1315.8,1500.0
4.9796881675720215,160,84,0.005050505050505051,1498.0,1494.0,1316.0999999999999,1500.0
5.003468036651611,160,84,0.005050505050505051,1499.0,1494.0,1316.4000000000001,1500.0
5.027068138122559,160,84,0.005555555555555556,1500.0,1494.0,1316.7,1500.0
5.050816059112549,160,85,0.005050505050505051,1501.0,1494.0,1314.7,1500.0
5.074550151824951,160,85,0.005050505050505051,1500.0,1494.0,1314.7,1500.0
5.098062992095947,160,85,0.005050505050505051,1500.0,1494.0,1314.55,1500.0
5.121906995773315,161,85,0.0058823529411764705,1503.0,1494.0,1314.4000000000001,1501.0
5.145481109619141,162,85,0.007142857142857143,1507.0,1494.0,1314.25,1502.0
5.169088125228882,161,85,0.005555555555555556,1506.0,1494.0,1314.4000000000001,1501.0
5.192681074142456,161,85,0.005555555555555556,1507.0,1494.0,1314.55,1501.0
5.216170072555542,161,85,0.005555555555555556,1508.0,1494.0,1314.7,1501.0
5.239650011062622,163,85,0.007142857142857143,1515.0,1494.0,1314.8499999999999,1503.0
5.263413190841675,161,85,0.005555555555555556,1512.0,1494.0,1315.0,1501.0
5.287045001983643,161,85,0.005050505050505051,1513.0,1494.0,1315.0,1501.0
5.310587167739868,161,85,0.005555555555555556,1514.0,1494.0,1315.0,1501.0
5.334284067153931,161,85,0.005555555555555556,1515.0,1494.0,1315.0,1501.0
5.357860088348389,161,85,0.005555555555555556,1515.0,1494.0,1315.0,1501.0
5.38145899772644,161,85,0.005555555555555556,1514.0,1494.0,1315.0,1501.0
5.4051361083984375,163,85,0.007142857142857143,1520.0,1494.0,1315.0,1503.0
5.4287450313568115,161,85,0.005555555555555556,1516.0,1494.0,1315.0,1501.0
5.452413082122803,161,85,0.005555555555555556,1516.0,1494.0,1315.0,1501.0
5.476049184799194,161,85,0.005555555555555556,1514.0,1494.0,1315.0,1501.0
5.4996490478515625,161,84,0.0058823529411764705,1514.0,1494.0,1317.1500000000001,1501.0
5.523499965667725,162,84,0.007142857142857143,1517.0,1494.0,1317.3,1502.0
5.5471131801605225,162,83,0.007142857142857143,1518.0,1494.0,1319.5999999999999,1502.0
5.570917129516602,161,83,0.0058823529411764705,1516.0,1494.0,1319.9000000000001,1501.0
5.594559192657471,161,83,0.0058823529411764705,1516.0,1494.0,1320.2,1501.0
5.618126153945923,160,83,0.005555555555555556,1513.0,1494.0,1320.2,1500.0
5.6417059898376465,160,82,0.005555555555555556,1510.0,1494.0,1322.3499999999999,1500.0
5.6654791831970215,160,82,0.005555555555555556,1509.0,1494.0,1322.2,1500.0
5.689198970794678,162,82,0.006060606060606061,1514.0,1494.0,1322.05,1502.0
5.712762117385864,161,81,0.007142857142857143,1512.0,1494.0,1324.05,1501.0
5.7363951206207275,160,81,0.0058823529411764705,1509.0,1494.0,1324.2,1500.0
5.759989023208618,160,81,0.0053475935828877,1507.0,1494.0,1324.05,1500.0
5.783765077590942,161,80,0.007142857142857143,1508.0,1494.0,1325,1501.0
5.807433128356934,160,80,0.0058823529411764705,1505.0,1494.0,1325,1500.0
5.831144094467163,161,80,0.007142857142857143,1507.0,1494.0,1325,1501.0
5.854700088500977,161,80,0.007142857142857143,1508.0,1494.0,1325,1501.0
5.878275156021118,161,80,0.007142857142857143,1509.0,1494.0,1325,1501.0
5.901741981506348,161,80,0.007142857142857143,1510.0,1494.0,1325,1501.0
5.92522406578064,161,80,0.006493506493506494,1509.0,1494.0,1325,1501.0
5.948770999908447,160,79,0.0058823529411764705,1506.0,1494.0,1325,1500.0
5.9724671840667725,159,79,0.005555555555555556,1503.0,1494.0,1325,1499.0
5.995977163314819,159,79,0.005555555555555556,1502.0,1494.0,1325,1499.0
6.019487142562866,159,79,0.0053475935828877,1500.0,1494.0,1325,1499.0
6.0429511070251465,159,78,0.0058823529411764705,1499.0,1494.0,1325,1499.0
6.066549062728882,159,78,0.0058823529411764705,1497.0,1494.0,1325,1499.0
6.090031147003174,159,78,0.0058823529411764705,1495.0,1494.0,1325,1499.0
6.113694190979004,159,78,0.0058823529411764705,1493.0,1494.0,1325,1499.0
6.1372270584106445,159,78,0.0058823529411764705,1491.0,1494.0,1325,1499.0
6.160863161087036,159,77,0.005555555555555556,1489.0,1494.0,1325,1499.0
6.184566020965576,159,77,0.0058823529411764705,1488.0,1494.0,1325,1499.0
6.2079479694366455,160,77,0.007142857142857143,1491.0,1494.0,1325,1500.0
6.23142409324646,159,77,0.0058823529411764705,1489.0,1494.0,1325,1499.0
6.255202054977417,159,77,0.0058823529411764705,1489.0,1494.0,1325,1499.0
6.278860092163086,158,77,0.0058823529411764705,1486.0,1494.0,1325,1498.0
6.30246901512146,158,77,0.006535947712418301,1485.0,1494.0,1325,1498.0
6.325807094573975,159,76,0.007142857142857143,1487.0,1494.0,1325,1499.0
6.349239110946655,159,76,0.007142857142857143,1487.0,1494.0,1325,1499.0
6.372831106185913,159,76,0.007142857142857143,1487.0,1494.0,1325,1499.0
6.39660120010376,159,76,0.007142857142857143,1487.0,1494.0,1325,1499.0
6.420497179031372,159,76,0.007142857142857143,1487.0,1494.0,1325,1499.0
6.444275140762329,157,75,0.0058823529411764705,1480.0,1494.0,1325,1497.0
6.467828989028931,157,75,0.0058823529411764705,1480,1494.0,1325,1497.0
6.491288185119629,158,75,0.007936507936507936,1480,1494.0,1325,1498.0
6.514702081680298,158,74,0.007142857142857143,1480,1494.0,1325,1498.0
6.53816819190979,158,74,0.007936507936507936,1480,1494.0,1325,1498.0
6.561691999435425,157,73,0.0058823529411764705,1480,1494.0,1325,1497.0
6.5851380825042725,157,73,0.0058823529411764705,1480,1494.0,1325,1497.0
6.608503103256226,157,73,0.0058823529411764705,1480,1494.0,1325,1497.0
6.631911993026733,157,73,0.0058823529411764705,1480,1494.0,1325,1497.0
6.655225992202759,157,73,0.005555555555555556,1480,1494.0,1325,1497.0
6.678538084030151,158,73,0.0058823529411764705,1480,1494.0,1325,1498.0
6.70180606842041,159,74,0.007936507936507936,1480,1494.0,1325,1499.0
6.725259065628052,158,74,0.0058823529411764705,1480,1494.0,1325,1498.0
6.748668193817139,158,74,0.0058823529411764705,1480,1494.0,1325,1498.0
6.771967172622681,158,74,0.0058823529411764705,1480,1494.0,1325,1498.0
6.795344114303589,158,74,0.0058823529411764705,1480,1494.0,1325,1498.0
6.818626165390015,158,74,0.006535947712418301,1480,1494.0,1325,1498.0
6.841991186141968,158,73,0.005555555555555556,1480,1494.0,1325,1498.0
6.865401029586792,158,73,0.006172839506172839,1480,1494.0,1325,1498.0
6.888821125030518,159,72,0.0058823529411764705,1480.0,1494.0,1325,1499.0
6.912342071533203,159,72,0.0058823529411764705,1481.0,1494.0,1325,1499.0
6.935837984085083,159,72,0.0058823529411764705,1481.0,1494.0,1325,1499.0
6.959268093109131,159,74,0.006535947712418301,1482.0,1494.0,1325,1499.0
6.982795000076294,159,74,0.0058823529411764705,1483.0,1494.0,1325,1499.0
7.006210088729858,160,75,0.007142857142857143,1487.0,1494.0,1325,1500.0
7.029531002044678,159,75,0.006535947712418301,1486.0,1494.0,1325,1499.0
7.053168058395386,159,74,0.0058823529411764705,1487.0,1494.0,1325,1499.0
7.076653003692627,159,73,0.0058823529411764705,1488.0,1494.0,1325,1499.0
7.100200176239014,159,73,0.0058823529411764705,1489.0,1494.0,1325,1499.0
7.1238110065460205,159,73,0.0058823529411764705,1489.0,1494.0,1325,1499.0
7.147336006164551,159,73,0.0058823529411764705,1489.0,1494.0,1325,1499.0
7.171074151992798,158,73,0.005555555555555556,1486.0,1494.0,1325,1498.0
7.194624185562134,158,74,0.006172839506172839,1485.0,1494.0,1325,1498.0
7.218191146850586,159,74,0.0058823529411764705,1487.0,1494.0,1325,1499.0
7.241681098937988,159,74,0.0058823529411764705,1486.0,1494.0,1325,1499.0
7.2653491497039795,159,74,0.006535947712418301,1486.0,1494.0,1325,1499.0
7.28875207901001,159,73,0.0058823529411764705,1486.0,1494.0,1325,1499.0
7.3123390674591064,158,73,0.006666666666666667,1483.0,1494.0,1325,1498.0
7.335958003997803,160,73,0.006535947712418301,1488.0,1494.0,1325,1500.0
7.359569072723389,160,73,0.006535947712418301,1489.0,1494.0,1325,1500.0
7.383045196533203,160,73,0.006535947712418301,1490.0,1494.0,1325,1500.0
7.4064881801605225,158,73,0.007936507936507936,1486.0,1494.0,1325,1498.0
7.4299821853637695,161,73,0.006535947712418301,1495.0,1494.0,1325,1501.0
7.453782081604004,161,73,0.006535947712418301,1497.0,1494.0,1325,1501.0
7.477200031280518,160,73,0.006666666666666667,1496.0,1494.0,1325,1500.0
7.500693082809448,162,73,0.0058823529411764705,1503.0,1494.0,1325,1502.0
7.5242931842803955,162,74,0.006535947712418301,1506.0,1494.0,1325,1502.0
7.5478150844573975,162,74,0.006535947712418301,1510.0,1494.0,1325,1502.0
7.571333169937134,162,74,0.0058823529411764705,1512.0,1494.0,1325,1502.0
7.594897031784058,162,74,0.0058823529411764705,1514.0,1494.0,1325,1502.0
7.618484973907471,160,75,0.007936507936507936,1510.0,1494.0,1325,1500.0
7.641826152801514,161,75,0.011111111111111112,1515.0,1494.0,1325,1501.0
7.665313005447388,161,75,0.011111111111111112,1515.0,1494.0,1325,1501.0
7.688783168792725,161,74,0.01,1515.0,1494.0,1325,1501.0
7.7166101932525635,161,75,0.011111111111111112,1516.0,1494.0,1325,1501.0
7.740157127380371,161,75,0.011111111111111112,1515.0,1494.0,1325,1501.0
7.763740062713623,160,76,0.007936507936507936,1511.0,1494.0,1325,1500.0
7.787316083908081,160,76,0.007936507936507936,1509.0,1494.0,1325,1500.0
7.810866117477417,160,76,0.007142857142857143,1507.0,1494.0,1325,1500.0
7.8344080448150635,160,76,0.007142857142857143,1505.0,1494.0,1325,1500.0
7.857781171798706,162,76,0.01,1511.0,1494.0,1325,1502.0
7.881443977355957,161,76,0.007142857142857143,1509.0,1494.0,1325,1501.0
7.905034065246582,163,76,0.00909090909090909,1515.0,1494.0,1325,1503.0
7.92841100692749,162,76,0.006666666666666667,1514.0,1494.0,1325,1502.0
7.9518280029296875,161,77,0.007936507936507936,1512.0,1494.0,1325,1501.0
7.97532320022583,162,77,0.011111111111111112,1515.0,1494.0,1325,1502.0
7.998679161071777,162,77,0.011111111111111112,1517.0,1494.0,1325,1502.0
8.022181987762451,161,77,0.007142857142857143,1516.0,1494.0,1325,1501.0
8.045720100402832,162,77,0.01,1520.0,1494.0,1325,1502.0
8.069183111190796,161,77,0.007142857142857143,1519.0,1494.0,1325,1501.0
8.092792987823486,161,78,0.007936507936507936,1518.0,1494.0,1325,1501.0
8.116474151611328,162,78,0.011111111111111112,1520,1494.0,1325,1502.0
8.139931201934814,161,77,0.007142857142857143,1517.0,1494.0,1325,1501.0
8.163510084152222,161,77,0.006666666666666667,1516.0,1494.0,1325,1501.0
8.186971187591553,160,77,0.007142857142857143,1513.0,1494.0,1325,1500.0
8.21059799194336,160,77,0.007142857142857143,1511.0,1494.0,1325,1500.0
8.234304189682007,160,77,0.007142857142857143,1509.0,1494.0,1325,1500.0
8.257675170898438,160,77,0.007142857142857143,1508.0,1494.0,1325,1500.0
8.281350135803223,160,77,0.007142857142857143,1506.0,1494.0,1325,1500.0
8.304902076721191,161,77,0.011111111111111112,1508.0,1494.0,1325,1501.0
8.328336000442505,161,77,0.011111111111111112,1508.0,1494.0,1325,1501.0
8.351709127426147,161,77,0.011111111111111112,1507.0,1494.0,1325,1501.0
8.375251054763794,161,77,0.01,1507.0,1494.0,1325,1501.0
8.399312019348145,160,77,0.007142857142857143,1504.0,1494.0,1325,1500.0
8.42279314994812,160,78,0.007936507936507936,1504.0,1494.0,1325,1500.0
8.446305990219116,159,78,0.007936507936507936,1501.0,1494.0,1325,1499.0
8.469696998596191,159,78,0.007936507936507936,1500.0,1494.0,1325,1499.0
8.493340015411377,159,78,0.007936507936507936,1499.0,1494.0,1325,1499.0
8.516759157180786,160,78,0.011111111111111112,1501.0,1494.0,1325,1500.0
8.540182113647461,158,77,0.007936507936507936,1494.0,1494.0,1325,1498.0
8.563886165618896,159,77,0.007407407407407408,1494.0,1494.0,1325,1499.0
8.587481021881104,161,76,0.008333333333333333,1498.0,1494.0,1325,1501.0
8.610956192016602,159,76,0.006666666666666667,1492.0,1494.0,1325,1499.0
8.634499073028564,159,76,0.006666666666666667,1491.0,1494.0,1325,1499.0
8.658122062683105,158,77,0.007936507936507936,1487.0,1494.0,1325,1498.0
8.681689977645874,158,77,0.007936507936507936,1486.0,1494.0,1325,1498.0
8.705219030380249,158,77,0.007936507936507936,1485.0,1494.0,1325,1498.0
8.728638172149658,158,77,0.007936507936507936,1484.0,1494.0,1325,1498.0
8.75226616859436,158,77,0.007936507936507936,1482.0,1494.0,1325,1498.0
8.775689125061035,159,77,0.011111111111111112,1485.0,1494.0,1325,1499.0
8.799102067947388,158,77,0.007936507936507936,1482.0,1494.0,1325,1498.0
8.822601079940796,158,77,0.007936507936507936,1480,1494.0,1325,1498.0
8.846050024032593,159,77,0.011111111111111112,1481.0,1494.0,1325,1499.0
8.869590044021606,158,77,0.007142857142857143,1480,1494.0,1325,1498.0
8.893051147460938,158,78,0.007936507936507936,1480,1494.0,1325,1498.0
8.916363000869751,159,78,0.011111111111111112,1481.0,1494.0,1325,1499.0
8.939719200134277,159,78,0.011111111111111112,1482.0,1494.0,1325,1499.0
8.9634850025177,158,78,0.007936507936507936,1480.0,1494.0,1325,1498.0
8.986967086791992,159,78,0.011111111111111112,1483.0,1494.0,1325,1499.0
9.010653972625732,158,78,0.007936507936507936,1480.0,1494.0,1325,1498.0
9.03436803817749,157,78,0.007936507936507936,1480,1494.0,1325,1497.0
9.05798602104187,157,78,0.007936507936507936,1480,1494.0,1325,1497.0
9.081650018692017,157,78,0.007936507936507936,1480,1494.0,1325,1497.0
9.105794191360474,157,78,0.007936507936507936,1480,1494.0,1325,1497.0
9.12945008277893,159,78,0.011111111111111112,1480,1494.0,1325,1499.0
9.152891159057617,160,78,0.00909090909090909,1481.0,1494.0,1325,1500.0
9.176352977752686,159,78,0.01,1480,1494.0,1325,1499.0
9.1997811794281,157,79,0.007936507936507936,1480,1494.0,1325,1497.0
9.22334909439087,157,79,0.007936507936507936,1480,1494.0,1325,1497.0
9.24665904045105,157,79,0.007936507936507936,1480,1494.0,1325,1497.0
9.270033121109009,158,79,0.007407407407407408,1480,1494.0,1325,1498.0
9.293766975402832,158,78,0.007142857142857143,1480,1494.0,1325,1498.0
9.31715703010559,158,78,0.007936507936507936,1480,1494.0,1325,1498.0
9.34066104888916,158,77,0.007142857142857143,1480,1494.0,1325,1498.0
9.364220142364502,159,77,0.007407407407407408,1480,1494.0,1325,1499.0
9.387509107589722,159,77,0.007407407407407408,1480,1494.0,1325,1499.0
9.411059141159058,159,77,0.007407407407407408,1480,1494.0,1325,1499.0
9.434604167938232,160,77,0.011111111111111112,1483.0,1494.0,1325,1500.0
9.457950115203857,160,77,0.011111111111111112,1486.0,1494.0,1325,1500.0
9.481569051742554,161,77,0.00909090909090909,1492.0,1494.0,1325,1501.0
9.505073070526123,159,77,0.007142857142857143,1489.0,1494.0,1325,1499.0
9.528517007827759,159,77,0.007142857142857143,1490.0,1494.0,1325,1499.0
9.551935195922852,160,77,0.011111111111111112,1494.0,1494.0,1325,1500.0
9.575419187545776,159,77,0.007936507936507936,1493.0,1494.0,1325,1499.0
9.598950147628784,159,77,0.007936507936507936,1493.0,1494.0,1325,1499.0
9.62235403060913,159,77,0.007936507936507936,1493.0,1494.0,1325,1499.0
9.646131992340088,159,76,0.007142857142857143,1493.0,1494.0,1325,1499.0
9.669715166091919,159,77,0.007936507936507936,1492.0,1494.0,1325,1499.0
9.693461179733276,159,77,0.007936507936507936,1491.0,1494.0,1325,1499.0
9.716848134994507,159,77,0.007142857142857143,1489.0,1494.0,1325,1499.0
9.740269184112549,159,78,0.007936507936507936,1489.0,1494.0,1325,1499.0
9.764101028442383,160,78,0.011111111111111112,1492.0,1494.0,1325,1500.0
9.787590980529785,161,78,0.00909090909090909,1495.0,1494.0,1325,1501.0
9.811098098754883,159,79,0.007936507936507936,1491.0,1494.0,1325,1499.0
9.834695100784302,158,79,0.007936507936507936,1488.0,1494.0,1325,1498.0
9.858201026916504,159,79,0.006666666666666667,1490.0,1494.0,1325,1499.0
9.88172698020935,158,80,0.007936507936507936,1487.0,1494.0,1323.8,1498.0
9.905227184295654,158,80,0.007936507936507936,1486.0,1494.0,1323.6500000000001,1498.0
9.928853034973145,159,80,0.011111111111111112,1488.0,1494.0,1323.8,1499.0
9.952461004257202,159,80,0.011111111111111112,1488.0,1494.0,1323.95,1499.0
9.975987195968628,157,80,0.007936507936507936,1482.0,1494.0,1323.95,1497.0
9.999469995498657,157,79,0.007936507936507936,1480,1494.0,1325,1497.0
10.022860050201416,159,79,0.010101010101010102,1481.0,1494.0,1325,1499.0
10.046358108520508,157,79,0.007936507936507936,1480,1494.0,1325,1497.0
10.069785118103027,157,79,0.007936507936507936,1480,1494.0,1325,1497.0
10.093372106552124,158,78,0.006666666666666667,1480,1494.0,1325,1498.0
10.116902112960815,160,78,0.00909090909090909,1481.0,1494.0,1325,1500.0
10.140290021896362,159,78,0.011111111111111112,1480.0,1494.0,1325,1499.0
10.164055109024048,158,78,0.007936507936507936,1480,1494.0,1325,1498.0
10.187523126602173,158,78,0.007936507936507936,1480,1494.0,1325,1498.0
10.211090087890625,158,78,0.007936507936507936,1480,1494.0,1325,1498.0
10.234556198120117,158,77,0.007142857142857143,1480,1494.0,1325,1498.0
10.257966995239258,158,77,0.007936507936507936,1480,1494.0,1325,1498.0
10.28154706954956,159,77,0.007407407407407408,1481.0,1494.0,1325,1499.0
10.304993152618408,159,77,0.007936507936507936,1483.0,1494.0,1325,1499.0
10.328510999679565,159,77,0.007936507936507936,1484.0,1494.0,1325,1499.0
