time,x,y,size_inv,roll,pitch,thrust,yaw
0.0007839202880859375,154,36.0,3522.019622634466,1482.0,1495.0,1350,1494.0
0.023086071014404297,154,36.3055,3522.019622634466,1480,1495.0,1350,1494.0
0.04506397247314453,154,36.3055,3522.019622634466,1480,1495.0,1350,1494.0
0.06699705123901367,154,36.3055,3522.019622634466,1480,1495.0,1350,1494.0
0.0888969898223877,154,36.3055,3522.019622634466,1480,1495.0,1350,1494.0
0.11080193519592285,154,36.3055,3522.019622634466,1480,1495.0,1350,1494.0
0.1327359676361084,154,36.3055,3522.019622634466,1480,1495.0,1350,1494.0
0.15463495254516602,154,36.3055,3522.019622634466,1480,1495.0,1350,1494.0
0.1765289306640625,154,36.3055,3522.019622634466,1480,1495.0,1350,1494.0
0.19839906692504883,154,36.3055,3522.019622634466,1480,1495.0,1350,1494.0
0.2203841209411621,154,36.3055,3522.019622634466,1480,1495.0,1350,1494.0
0.24263906478881836,154,36.3055,3522.019622634466,1480,1495.0,1350,1494.0
0.26496005058288574,154,36.282,3522.019622634466,1480,1495.0,1350,1494.0
0.2872629165649414,156,35.235,3522.019622634466,1480,1495.0,1350,1496.0
0.30957603454589844,157,34.188,3554.0379828402342,1480,1495.0,1350,1497.0
0.33184099197387695,159,33.1175,3554.0379828402342,1480,1495.0,1350,1499.0
0.3541121482849121,161,33.141,3554.0379828402342,1480,1495.0,1350,1501.0
0.3763720989227295,162,34.235,3554.0379828402342,1480,1495.0,1350,1502.0
0.39864611625671387,164,37.423,3554.0379828402342,1483.0,1495.0,1350,1504.0
0.42097902297973633,164,39.423,3554.0379828402342,1493.0,1495.0,1350,1504.0
0.4433450698852539,165,41.5405,3554.0379828402342,1506.0,1495.0,1350,1505.0
0.4656651020050049,167,42.517,3586.0563430460024,1520,1495.0,1350,1507.0
0.487947940826416,169,44.517,3586.0563430460024,1520,1495.0,1341.8605200000002,1509.0
0.5102570056915283,169,44.4935,3586.0563430460024,1520,1495.0,1334.6828799999998,1509.0
0.5326180458068848,169,45.47,3554.0379828402342,1520,1495.0,1331.9229999999998,1509.0
0.5549521446228027,169,46.47,3554.0379828402342,1520,1495.0,1335.0798000000002,1509.0
0.5772581100463867,167,46.47,3554.0379828402342,1520,1495.0,1342.1388400000001,1507.0
0.5995631217956543,166,47.47,3554.0379828402342,1520,1495.0,1350,1506.0
0.6218409538269043,165,48.47,3554.0379828402342,1520,1495.0,1350,1505.0
0.6441190242767334,164,49.4465,3554.0379828402342,1520,1495.0,1350,1504.0
0.6663930416107178,163,50.4465,3554.0379828402342,1520,1495.0,1350,1503.0
0.6886711120605469,163,51.47,3522.019622634466,1520,1495.0,1350,1503.0
0.710961103439331,162,52.47,3522.019622634466,1520,1495.0,1347.0276399999998,1502.0
0.7332830429077148,162,53.47,3522.019622634466,1520,1495.0,1344.03568,1502.0
0.7555530071258545,161,55.47,3522.019622634466,1520,1495.0,1338.3698799999997,1501.0
0.7778301239013672,160,56.47,3522.019622634466,1520,1495.0,1333.9040800000002,1500.0
0.8000941276550293,160,57.47,3522.019622634466,1520,1495.0,1330.8640800000003,1500.0
0.8223631381988525,159,58.47,3522.019622634466,1517.0,1495.0,1327.8240800000003,1499.0
0.8446950912475586,159,59.376,3522.019622634466,1511.0,1495.0,1325.0322400000002,1499.0
0.8670439720153809,158,60.3525,3522.019622634466,1503.0,1495.0,1325.0216,1498.0
0.8893859386444092,158,60.3525,3494.927163998816,1498.0,1495.0,1327.62276,1498.0
0.9117131233215332,158,61.329,3467.834705363166,1493.0,1495.0,1329.0539999999999,1498.0
0.9340610504150391,158,62.3055,3440.742246727516,1489.0,1495.0,1330.51908,1498.0
0.9564290046691895,158,63.3055,3413.649788091866,1485.0,1495.0,1331.6927599999999,1498.0
0.9787869453430176,158,64.3055,3386.5573294562155,1482.0,1495.0,1331.44064,1498.0
1.001168966293335,158,65.282,3359.4648708205655,1480.0,1495.0,1328.4505600000002,1498.0
1.0235569477081299,158,67.282,3332.3724121849154,1480,1495.0,1322.7264799999998,1498.0
1.0458800792694092,158,69.282,3332.3724121849154,1480,1495.0,1315.4965999999999,1498.0
1.0681800842285156,159,70.282,3332.3724121849154,1480,1495.0,1309.59456,1499.0
1.0904841423034668,159,71.3055,3305.2799535492654,1480.0,1495.0,1303.6624400000001,1499.0
1.1129260063171387,159,72.3055,3305.2799535492654,1481.0,1495.0,1299.0527200000001,1499.0
1.135509967803955,159,74.3055,3332.3724121849154,1482.0,1495.0,1294.6349600000001,1499.0
1.157865047454834,159,75.3055,3359.4648708205655,1483.0,1495.0,1294.2491600000001,1499.0
1.180211067199707,159,76.3055,3386.5573294562155,1484.0,1495.0,1293.8633600000001,1499.0
1.202558994293213,159,77.282,3413.649788091866,1485.0,1495.0,1293.6054000000001,1499.0
1.224877119064331,159,78.282,3440.742246727516,1486.0,1495.0,1293.3512000000001,1499.0
1.2472150325775146,159,79.2585,3467.834705363166,1487.0,1495.0,1294.5990400000001,1499.0
1.2695679664611816,158,80.2585,3467.834705363166,1485.0,1495.0,1294.45868,1498.0
1.291929006576538,158,81.2585,3467.834705363166,1484.0,1495.0,1294.3183200000001,1498.0
1.3142719268798828,159,82.2585,3494.927163998816,1486.0,1495.0,1294.0801999999999,1499.0
1.3366129398345947,158,83.2585,3522.019622634466,1483.0,1495.0,1293.8420799999999,1498.0
1.3589470386505127,158,84.282,3522.019622634466,1482.0,1495.0,1292.1161199999999,1498.0
1.38132905960083,159,85.3055,3522.019622634466,1484.0,1495.0,1290.3563200000001,1499.0
1.4037010669708252,159,86.3055,3522.019622634466,1484.0,1495.0,1288.62472,1499.0
1.4260449409484863,158,86.3055,3494.927163998816,1481.0,1495.0,1289.5650800000001,1498.0
1.4484031200408936,158,87.329,3494.927163998816,1480.0,1495.0,1289.2434000000001,1498.0
1.4708070755004883,158,88.329,3494.927163998816,1480,1495.0,1289.0476800000001,1498.0
1.4931819438934326,158,88.329,3467.834705363166,1480,1495.0,1291.5577600000001,1498.0
1.5155010223388672,158,89.329,3467.834705363166,1480,1495.0,1292.8678400000001,1498.0
1.5385041236877441,157,90.329,3467.834705363166,1480,1495.0,1291.3779200000001,1497.0
1.5626881122589111,157,90.329,3440.742246727516,1480,1495.0,1292.5938000000001,1497.0
1.5868561267852783,157,91.3525,3413.649788091866,1480,1495.0,1292.51568,1497.0
1.6111350059509277,157,91.376,3386.5573294562155,1480,1495.0,1292.2117599999999,1497.0
1.6354749202728271,157,91.376,3359.4648708205655,1480,1495.0,1293.3760399999999,1497.0
1.6597211360931396,157,92.376,3359.4648708205655,1480,1495.0,1294.7003199999999,1497.0
1.683941125869751,158,92.376,3332.3724121849154,1480,1495.0,1295.8326399999999,1498.0
1.708143949508667,158,92.3525,3305.2799535492654,1480,1495.0,1298.5328,1498.0
1.7323501110076904,158,92.3525,3305.2799535492654,1480,1495.0,1301.2705599999999,1498.0
1.7565670013427734,158,93.3525,3254.9653875116301,1480,1495.0,1300.0083199999999,1498.0
1.7808520793914795,158,93.376,3227.8729288759805,1480,1495.0,1301.32404,1498.0
1.8051719665527344,159,93.376,3227.8729288759805,1480,1495.0,1302.66796,1499.0
1.8293890953063965,159,93.3525,3227.8729288759805,1480,1495.0,1302.61616,1499.0
1.853593111038208,159,93.376,3227.8729288759805,1480,1495.0,1302.4421600000001,1499.0
1.877798080444336,160,93.376,3227.8729288759805,1484.0,1495.0,1305.09636,1500.0
1.902116060256958,160,93.3525,3227.8729288759805,1487.0,1495.0,1306.5183999999999,1500.0
1.9265010356903076,161,93.3525,3204.6508214739952,1492.0,1495.0,1307.9122399999999,1501.0
1.950922966003418,162,92.3525,3204.6508214739952,1498.0,1495.0,1311.9122399999999,1502.0
1.9754409790039062,162,92.3525,3204.6508214739952,1502.0,1495.0,1314.7780399999999,1502.0
1.9999279975891113,163,92.3525,3227.8729288759805,1509.0,1495.0,1316.2838400000001,1503.0
2.024280071258545,163,92.3525,3227.8729288759805,1514.0,1495.0,1317.6918800000001,1503.0
2.0486350059509277,163,92.376,3227.8729288759805,1518.0,1495.0,1319.0378800000001,1503.0
2.0729119777679443,163,92.376,3227.8729288759805,1520,1495.0,1317.6440399999999,1503.0
2.097119092941284,163,92.376,3227.8729288759805,1520,1495.0,1316.2182399999999,1503.0
2.1214160919189453,163,92.376,3254.9653875116301,1520,1495.0,1314.7924399999999,1503.0
2.1457741260528564,163,91.376,3254.9653875116301,1520,1495.0,1316.0386000000001,1503.0
2.169975996017456,163,91.376,3278.1874949136159,1520,1495.0,1316.15056,1503.0
2.1941850185394287,163,90.376,3278.1874949136159,1520,1495.0,1320.26252,1503.0
2.218379020690918,162,90.376,3305.2799535492654,1520,1495.0,1323.1744799999999,1502.0
2.2428691387176514,161,89.376,3305.2799535492654,1520,1495.0,1328.7264399999999,1501.0
2.2670841217041016,162,89.3525,3305.2799535492654,1520,1495.0,1330.3404399999999,1502.0
2.2913291454315186,162,88.3525,3305.2799535492654,1520,1495.0,1334.5342800000001,1502.0
2.315639019012451,161,88.3525,3305.2799535492654,1520,1495.0,1334.72812,1501.0
2.339853048324585,161,87.376,3305.2799535492654,1520,1495.0,1337.49992,1501.0
2.3640570640563965,161,87.376,3278.1874949136154,1520,1495.0,1336.2999199999999,1501.0
2.388262987136841,160,87.3995,3278.1874949136154,1516.0,1495.0,1336.3320799999999,1500.0
2.4125289916992188,160,86.3995,3278.1874949136154,1513.0,1495.0,1336.23244,1500.0
2.4368209838867188,160,86.3995,3278.1874949136154,1510.0,1495.0,1336.2927999999999,1500.0
2.461199998855591,160,86.376,3227.8729288759801,1508.0,1495.0,1333.681,1500.0
2.48557710647583,161,85.376,3204.6508214739947,1510.0,1495.0,1335.0409999999999,1501.0
2.509864091873169,160,84.3525,3204.6508214739947,1506.0,1495.0,1338.0008,1500.0
2.534162998199463,161,84.3525,3181.4287140720094,1507.0,1495.0,1338.2924,1501.0
2.5584659576416016,160,84.376,3158.206606670024,1504.0,1495.0,1338.52196,1500.0
2.5827460289001465,161,84.3995,3134.9844992680387,1506.0,1495.0,1339.97992,1501.0
2.6070430278778076,161,84.3995,3111.7623918660533,1506.0,1495.0,1338.66608,1501.0
2.6314260959625244,160,83.3995,3111.7623918660533,1504.0,1495.0,1337.09448,1500.0
2.6558330059051514,160,83.3995,3111.7623918660533,1504.0,1495.0,1335.6828800000001,1500.0
2.6801230907440186,160,83.3995,3088.540284464068,1504.0,1495.0,1334.33708,1500.0
2.7045481204986572,160,82.3995,3111.7623918660533,1504.0,1495.0,1335.7290399999999,1500.0
2.728868007659912,160,82.3995,3134.9844992680387,1503.0,1495.0,1337.2809999999999,1500.0
2.7531590461730957,159,82.3995,3111.7623918660533,1500.0,1495.0,1337.4249199999999,1499.0
2.777472972869873,159,82.3995,3111.7623918660533,1498.0,1495.0,1337.5688400000001,1499.0
2.801846981048584,159,81.3995,3134.9844992680387,1497.0,1495.0,1340.3208,1499.0
2.826223134994507,159,81.376,3134.9844992680387,1495.0,1495.0,1339.10284,1499.0
2.8505311012268066,159,81.376,3134.9844992680387,1493.0,1495.0,1337.8566799999999,1499.0
2.875023126602173,159,80.376,3111.7623918660533,1492.0,1495.0,1340.61052,1499.0
2.8993310928344727,159,80.376,3088.540284464068,1491.0,1495.0,1342.16436,1499.0
2.923640012741089,159,80.376,3088.540284464068,1490.0,1495.0,1340.9181999999998,1499.0
2.947972059249878,159,80.376,3065.3181770620827,1489.0,1495.0,1340.96624,1499.0
2.9723000526428223,159,80.3995,3042.0960696600973,1488.0,1495.0,1340.9522400000001,1499.0
2.996612071990967,158,79.3995,3065.3181770620827,1485.0,1495.0,1340.8064400000001,1498.0
3.0210459232330322,158,79.3995,3088.540284464068,1484.0,1495.0,1339.46064,1498.0
3.0455150604248047,158,79.376,3065.3181770620827,1483.0,1495.0,1339.5368800000001,1498.0
3.069901943206787,158,79.376,3065.3181770620827,1482.0,1495.0,1339.61688,1498.0
3.094341993331909,158,79.3525,3065.3181770620827,1481.0,1495.0,1339.8247200000001,1498.0
3.118720054626465,158,78.3525,3088.540284464068,1480.0,1495.0,1341.20436,1498.0
3.1430649757385254,158,78.3525,3088.540284464068,1480,1495.0,1341.384,1498.0
3.167320966720581,158,78.3525,3088.540284464068,1480,1495.0,1341.49784,1498.0
3.1916370391845703,159,78.329,3088.540284464068,1480.0,1495.0,1341.67372,1499.0
3.2160160541534424,158,78.329,3088.540284464068,1480,1495.0,1341.7236399999999,1498.0
3.24025297164917,158,78.329,3065.3181770620827,1480,1495.0,1340.33356,1498.0
3.264660120010376,160,78.3055,3042.0960696600973,1483.0,1495.0,1339.0055199999999,1500.0
3.288975954055786,160,78.3055,3042.0960696600973,1485.0,1495.0,1337.6812400000001,1500.0
3.313288927078247,158,78.329,3042.0960696600973,1481.0,1495.0,1336.22912,1498.0
3.3375871181488037,158,78.329,3042.0960696600973,1481.0,1495.0,1334.83716,1498.0
3.361938953399658,158,78.329,3042.0960696600973,1481.0,1495.0,1334.8052,1498.0
3.38631010055542,157,78.329,3065.3181770620827,1480,1495.0,1334.7074400000001,1497.0
3.410550117492676,159,79.329,3065.3181770620827,1483.0,1495.0,1331.9696800000002,1499.0
3.435529947280884,159,79.329,3065.3181770620827,1483.0,1495.0,1330.5296800000001,1499.0
3.459973096847534,158,79.3055,3065.3181770620827,1481.0,1495.0,1329.1517200000001,1498.0
3.4842679500579834,158,78.282,3088.540284464068,1481.0,1495.0,1330.4476,1498.0
3.5085830688476562,158,78.282,3088.540284464068,1480,1495.0,1330.5472400000001,1498.0
3.532839059829712,157,78.282,3088.540284464068,1480,1495.0,1333.44688,1497.0
3.5570759773254395,157,78.282,3088.540284464068,1480,1495.0,1336.31456,1497.0
3.5813350677490234,157,78.282,3111.7623918660533,1480,1495.0,1339.11644,1497.0
3.6056411266326904,157,79.3055,3088.540284464068,1480,1495.0,1336.3504800000001,1497.0
3.6299049854278564,156,79.329,3065.3181770620827,1480,1495.0,1334.7506800000001,1496.0
3.6541781425476074,157,80.329,3065.3181770620827,1480,1495.0,1329.1790800000001,1497.0
3.6784050464630127,157,80.329,3045.1923506470289,1480,1495.0,1324.8074800000002,1497.0
3.702609062194824,157,81.329,3045.1923506470289,1480,1495.0,1317.8278400000002,1497.0
3.726820945739746,157,81.329,3021.9702432450435,1480,1495.0,1316.3059600000001,1497.0
3.7511191368103027,158,81.329,3001.8444168299893,1480,1495.0,1314.84988,1498.0
3.7754781246185303,158,81.329,2981.7185904149355,1480,1495.0,1316.1938,1498.0
3.799730062484741,159,81.329,2961.5927639998818,1480,1495.0,1317.53772,1499.0
3.8239569664001465,159,81.329,2918.2448301828417,1480,1495.0,1321.68164,1499.0
3.8481719493865967,159,82.329,2898.1190037677879,1480,1495.0,1321.7936,1499.0
3.8723840713500977,160,82.329,2877.9931773527342,1481.0,1495.0,1323.0735999999999,1500.0
3.8966729640960693,160,82.329,2857.8673509376799,1484.0,1495.0,1322.9936,1500.0
3.9210939407348633,161,82.329,2857.8673509376799,1490.0,1495.0,1322.9136000000001,1501.0
3.9456050395965576,162,83.329,2837.7415245226262,1497.0,1495.0,1318.8335999999999,1502.0
3.9699180126190186,162,83.3525,2817.6156981075719,1502.0,1495.0,1318.69156,1502.0
3.994225025177002,162,83.3525,2817.6156981075719,1506.0,1495.0,1318.57772,1502.0
4.018517017364502,162,83.376,2817.6156981075719,1510.0,1495.0,1318.40184,1502.0
4.042813062667847,163,84.376,2800.0055999943997,1516.0,1495.0,1315.6141599999999,1503.0
4.067137956619263,163,84.3995,2782.3955018812276,1520.0,1495.0,1316.7644399999999,1503.0
4.0914881229400635,163,84.3995,2782.3955018812276,1520,1495.0,1316.6487199999999,1503.0
4.115782022476196,163,84.3995,2782.3955018812276,1520,1495.0,1316.5329999999999,1503.0
4.140006065368652,163,83.3995,2782.3955018812276,1520,1495.0,1319.1230800000001,1503.0
4.164374113082886,163,83.376,2782.3955018812276,1520,1495.0,1323.3751999999999,1503.0
4.1886210441589355,163,82.3525,2782.3955018812276,1520,1495.0,1329.0069599999999,1503.0
4.212846040725708,163,81.3525,2782.3955018812276,1520,1495.0,1336.01856,1503.0
4.237055063247681,163,81.3525,2782.3955018812276,1520,1495.0,1341.83016,1503.0
4.261347055435181,163,81.3525,2802.5213282962814,1520,1495.0,1344.8098,1503.0
4.285674095153809,162,81.376,2840.2572528245078,1520,1495.0,1346.3016,1502.0
4.309906959533691,162,81.376,2877.9931773527342,1520,1495.0,1344.9238399999999,1502.0
4.3341591358184814,163,80.3995,2877.9931773527342,1520,1495.0,1343.32404,1503.0
4.358392953872681,163,80.3995,2877.9931773527342,1520,1495.0,1340.5524399999999,1503.0
4.382615089416504,163,80.3995,2877.9931773527342,1520,1495.0,1339.14084,1503.0
4.406820058822632,163,80.3995,2877.9931773527342,1520,1495.0,1337.827,1503.0
4.431150913238525,163,80.3995,2877.9931773527342,1520,1495.0,1337.9051199999999,1503.0
4.455533027648926,163,80.3995,2898.1190037677879,1520,1495.0,1336.6090399999998,1503.0
4.479767084121704,163,79.423,2898.1190037677879,1520,1495.0,1337.8909200000001,1503.0
4.503971099853516,163,80.423,2860.3830792395615,1520,1495.0,1335.3610000000001,1503.0
4.528178930282593,163,79.3995,2840.2572528245078,1520,1495.0,1336.7011600000001,1503.0
4.552410125732422,163,79.3995,2820.1314264094535,1520,1495.0,1336.81312,1503.0
4.576630115509033,163,79.3995,2820.1314264094535,1520,1495.0,1338.2531200000001,1503.0
4.601191997528076,162,79.3995,2820.1314264094535,1520,1495.0,1336.9589199999998,1502.0
4.625545024871826,162,80.3995,2802.5213282962814,1520,1495.0,1335.8247199999998,1502.0
4.649791955947876,162,80.3995,2784.9112301831092,1520,1495.0,1333.0247199999999,1502.0
4.6739959716796875,162,80.376,2767.3011320699366,1520,1495.0,1330.28676,1502.0
4.698203086853027,162,80.3525,2729.5652075417102,1520,1495.0,1327.5826399999999,1502.0
4.722424030303955,162,80.3525,2711.955109428538,1520,1495.0,1326.1783600000001,1502.0
4.746645927429199,161,80.3525,2711.955109428538,1520,1495.0,1326.21408,1501.0
4.770900011062622,161,80.3525,2678.806689450802,1520,1495.0,1327.64176,1501.0
4.79519510269165,160,81.3525,2661.1965913376293,1517.0,1495.0,1326.36364,1500.0
4.819472074508667,160,81.3525,2643.5864932244572,1514.0,1495.0,1326.2197200000001,1500.0
4.843773126602173,160,80.329,2610.4380732467207,1512.0,1495.0,1328.77784,1500.0
4.868077039718628,160,80.3055,2610.4380732467207,1510.0,1495.0,1328.8098,1500.0
4.892379999160767,159,80.282,2610.4380732467207,1505.0,1495.0,1328.8756000000001,1499.0
4.916646957397461,159,79.282,2594.8997513821569,1502.0,1495.0,1334.38516,1499.0
4.941000938415527,159,79.2585,2579.361429517593,1499.0,1495.0,1338.78872,1499.0
4.965419054031372,159,79.2585,2563.8231076530292,1496.0,1495.0,1340.2982800000002,1499.0
4.989715099334717,159,79.2585,2548.2847857884653,1494.0,1495.0,1341.7420400000001,1499.0
5.014019966125488,159,80.282,2563.8231076530292,1492.0,1495.0,1340.41796,1499.0
5.038336992263794,159,80.3055,2563.8231076530292,1491.0,1495.0,1336.10004,1499.0
5.062643051147461,159,80.329,2563.8231076530292,1490.0,1495.0,1331.6824799999999,1499.0
5.086940050125122,158,80.329,2579.361429517593,1486.0,1495.0,1328.68508,1498.0
5.111315011978149,158,80.329,2579.361429517593,1484.0,1495.0,1325.71964,1498.0
5.135666131973267,158,80.329,2579.361429517593,1483.0,1495.0,1325.6519599999999,1498.0
5.159961938858032,158,80.3055,2594.8997513821569,1482.0,1495.0,1327.07212,1498.0
5.184276103973389,158,79.282,2594.8997513821569,1481.0,1495.0,1331.26388,1498.0
5.208575963973999,158,79.2585,2610.4380732467207,1480.0,1495.0,1334.2894800000001,1498.0
5.232860088348389,157,79.2585,2625.9763951112845,1480,1495.0,1337.2868800000001,1497.0
5.257102012634277,157,79.2585,2625.9763951112845,1480,1495.0,1338.8923199999999,1497.0
5.281383991241455,157,80.282,2625.9763951112845,1480,1495.0,1337.69796,1497.0
5.305665969848633,157,80.3055,2625.9763951112845,1480,1495.0,1334.7719999999999,1497.0
5.329873085021973,157,81.329,2625.9763951112845,1480,1495.0,1329.1063999999999,1497.0
5.354112148284912,157,81.329,2625.9763951112845,1480,1495.0,1324.6690000000001,1497.0
5.378354072570801,156,81.329,2643.5864932244572,1480,1495.0,1320.2316000000001,1496.0
5.402574062347412,156,82.329,2643.5864932244572,1480,1495.0,1316.05196,1496.0
5.426788091659546,156,82.329,2659.124815089021,1480,1495.0,1314.53008,1496.0
5.451075077056885,156,82.329,2659.124815089021,1480,1495.0,1315.9059600000001,1496.0
5.475389003753662,155,82.3055,2659.124815089021,1480,1495.0,1317.3438799999999,1495.0
5.499618053436279,155,82.3055,2659.124815089021,1480,1495.0,1318.7536,1495.0
5.523868083953857,155,82.3055,2676.7349132021932,1480,1495.0,1321.5713599999999,1495.0
5.548140048980713,155,83.329,2676.7349132021932,1480,1495.0,1321.6551199999999,1495.0
5.5723490715026855,155,83.329,2694.3450113153658,1480,1495.0,1321.57512,1495.0
5.596558094024658,155,84.329,2694.3450113153658,1480,1495.0,1318.7893200000001,1495.0
5.620891094207764,155,84.329,2694.3450113153658,1480,1495.0,1317.20352,1495.0
5.645304918289185,155,84.3525,2711.955109428538,1480,1495.0,1314.19568,1495.0
5.66953706741333,156,85.3525,2711.955109428538,1480,1495.0,1311.44184,1496.0
5.6937620639801025,156,85.3525,2729.5652075417102,1480,1495.0,1309.8879999999999,1496.0
5.7179811000823975,156,85.3525,2747.1753056548828,1480,1495.0,1311.1661199999999,1496.0
5.742208003997803,157,86.3525,2747.1753056548828,1480,1495.0,1309.8042399999999,1497.0
5.766737937927246,157,86.3525,2729.5652075417102,1480,1495.0,1309.7081599999999,1497.0
5.791037082672119,157,86.329,2729.5652075417102,1480,1495.0,1311.0821599999999,1497.0
5.815352916717529,158,85.3055,2711.955109428538,1480,1495.0,1315.1300000000001,1498.0
5.839570999145508,158,85.282,2711.955109428538,1480,1495.0,1316.6516799999999,1498.0
5.8637919425964355,158,84.2585,2694.3450113153658,1480,1495.0,1323.6472000000001,1498.0
5.88798713684082,158,83.235,2661.1965913376293,1480,1495.0,1332.0846000000001,1498.0
5.912199974060059,159,83.235,2661.1965913376293,1480,1495.0,1337.8679999999999,1499.0
5.936430931091309,159,82.235,2628.0481713598933,1480,1495.0,1343.4256,1499.0
5.960730075836182,159,83.282,2610.4380732467207,1480,1495.0,1344.9533200000001,1499.0
5.985042095184326,160,83.3055,2610.4380732467207,1483.0,1495.0,1343.4495999999999,1500.0
6.00932502746582,159,83.3525,2594.8997513821569,1483.0,1495.0,1338.9841999999999,1499.0
6.033638954162598,160,84.3525,2594.8997513821569,1488.0,1495.0,1331.9671599999999,1500.0
6.057985067367554,160,84.376,2594.8997513821569,1490.0,1495.0,1324.68004,1500.0
6.082303047180176,160,83.3525,2579.361429517593,1492.0,1495.0,1323.08672,1500.0
6.106594085693359,160,83.3525,2579.361429517593,1494.0,1495.0,1321.7229599999998,1500.0
6.130998134613037,160,83.329,2594.8997513821569,1496.0,1495.0,1321.9448,1500.0
6.155590057373047,160,82.3055,2579.361429517593,1497.0,1495.0,1327.64048,1500.0
6.1799609661102295,161,82.3055,2594.8997513821569,1501.0,1495.0,1333.53376,1501.0
6.204296112060547,161,82.3055,2594.8997513821569,1503.0,1495.0,1335.13732,1501.0
6.228611946105957,161,82.3055,2594.8997513821569,1504.0,1495.0,1336.70892,1501.0
6.252918004989624,161,82.3055,2610.4380732467207,1506.0,1495.0,1338.1508000000001,1501.0
6.277214050292969,162,82.329,2610.4380732467207,1510.0,1495.0,1335.30484,1502.0
6.301567077636719,162,82.329,2628.0481713598933,1512.0,1495.0,1332.4551200000001,1502.0
6.325958013534546,163,82.329,2661.1965913376293,1517.0,1495.0,1330.9973600000001,1503.0
6.350273132324219,163,83.329,2661.1965913376293,1520.0,1495.0,1326.8996,1503.0
6.374686002731323,163,83.329,2678.806689450802,1520,1495.0,1324.0337999999999,1503.0
6.398895978927612,163,84.329,2694.3450113153658,1520,1495.0,1319.98576,1503.0
6.4231250286102295,164,84.329,2694.3450113153658,1520,1495.0,1317.1377199999999,1504.0
6.4473631381988525,164,84.329,2694.3450113153658,1520,1495.0,1314.2896800000001,1504.0
6.471630096435547,164,83.3055,2694.3450113153658,1520,1495.0,1316.9436800000001,1504.0
6.495908975601196,163,83.282,2694.3450113153658,1520,1495.0,1318.4315199999999,1503.0
6.520120143890381,163,82.2585,2694.3450113153658,1520,1495.0,1325.36124,1503.0
6.544579029083252,163,82.2585,2676.7349132021932,1520,1495.0,1331.06276,1503.0
6.568800926208496,163,81.235,2643.5864932244572,1520,1495.0,1339.46632,1503.0
6.593017101287842,163,81.235,2643.5864932244572,1520,1495.0,1342.41588,1503.0
6.617227077484131,162,80.235,2610.4380732467207,1520,1495.0,1347.9396400000001,1502.0
6.641519069671631,162,80.2585,2594.8997513821569,1520,1495.0,1347.9755599999999,1502.0
6.665816068649292,162,80.282,2579.361429517593,1520,1495.0,1347.9776399999998,1502.0
6.6900269985198975,162,81.3055,2579.361429517593,1520,1495.0,1342.4400800000001,1502.0
6.714386940002441,161,81.329,2579.361429517593,1520,1495.0,1339.46064,1501.0
6.738595008850098,161,81.3525,2579.361429517593,1520,1495.0,1333.67932,1501.0
6.76281213760376,161,81.3525,2579.361429517593,1520,1495.0,1329.3839599999999,1501.0
6.787035942077637,160,81.3525,2579.361429517593,1517.0,1495.0,1325.1543999999999,1500.0
6.8113861083984375,160,81.376,2594.8997513821569,1514.0,1495.0,1325.1205600000001,1500.0
6.835762977600098,160,81.376,2579.361429517593,1511.0,1495.0,1325.1807199999998,1500.0
6.860086917877197,159,81.3525,2579.361429517593,1506.0,1495.0,1326.7287199999998,1499.0
6.884571075439453,159,81.3525,2579.361429517593,1503.0,1495.0,1328.2165600000001,1499.0
6.90887713432312,159,82.3525,2594.8997513821569,1500.0,1495.0,1327.03244,1499.0
6.933193922042847,158,82.3525,2594.8997513821569,1494.0,1495.0,1325.72216,1498.0
6.957849979400635,158,82.329,2594.8997513821569,1491.0,1495.0,1324.4419600000001,1498.0
6.98218297958374,158,82.329,2594.8997513821569,1488.0,1495.0,1323.0358000000001,1498.0
7.006515026092529,158,82.3055,2594.8997513821569,1485.0,1495.0,1321.6916799999999,1498.0
7.0308849811553955,158,82.282,2594.8997513821569,1483.0,1495.0,1323.1814000000002,1498.0
7.055292129516602,157,82.282,2594.8997513821569,1480,1495.0,1324.6109600000002,1497.0
7.079519987106323,157,83.282,2610.4380732467207,1480,1495.0,1323.3347200000001,1497.0
7.103759050369263,157,83.3055,2625.9763951112845,1480,1495.0,1323.2284000000002,1497.0
7.128001928329468,157,84.3055,2641.5147169758484,1480,1495.0,1320.4444800000001,1497.0
7.152255058288574,157,84.3055,2641.5147169758484,1480,1495.0,1317.4347600000001,1497.0
7.176490068435669,157,84.282,2641.5147169758484,1480,1495.0,1314.4870800000001,1497.0
7.2007551193237305,157,83.282,2659.124815089021,1480,1495.0,1316.98316,1497.0
7.2250800132751465,157,83.282,2659.124815089021,1480,1495.0,1318.3450399999999,1497.0
7.2493369579315186,157,83.282,2659.124815089021,1480,1495.0,1322.5388800000001,1497.0
7.273591041564941,157,83.3055,2659.124815089021,1480,1495.0,1326.70264,1497.0
7.297819137573242,157,83.3055,2659.124815089021,1480,1495.0,1330.8288,1497.0
7.3221399784088135,157,83.282,2659.124815089021,1480,1495.0,1330.857,1497.0
7.346485137939453,157,82.282,2659.124815089021,1480,1495.0,1333.46504,1497.0
7.370718955993652,158,82.282,2659.124815089021,1480,1495.0,1333.5130799999999,1498.0
7.3950090408325195,158,82.3055,2659.124815089021,1480,1495.0,1333.5648800000001,1498.0
7.419240951538086,158,82.3055,2659.124815089021,1480,1495.0,1333.6768400000001,1498.0
7.443479061126709,159,82.329,2641.5147169758484,1480,1495.0,1335.0209600000001,1499.0
7.467733144760132,159,82.329,2641.5147169758484,1480,1495.0,1333.59328,1499.0
7.4920079708099365,159,82.3525,2641.5147169758484,1480,1495.0,1332.10356,1499.0
7.516318082809448,160,82.3525,2641.5147169758484,1482.0,1495.0,1330.67588,1500.0
7.540686130523682,160,82.3525,2641.5147169758484,1485.0,1495.0,1329.2482,1500.0
7.565115928649902,160,82.376,2641.5147169758484,1488.0,1495.0,1327.8562399999998,1500.0
7.589417934417725,161,83.376,2641.5147169758484,1494.0,1495.0,1325.2124799999999,1501.0
7.613732099533081,161,83.423,2641.5147169758484,1497.0,1495.0,1323.7104399999998,1501.0
7.6380720138549805,161,83.423,2625.9763951112845,1500.0,1495.0,1322.2328399999999,1501.0
7.662415027618408,161,84.4465,2610.4380732467207,1503.0,1495.0,1318.0532000000001,1501.0
7.686727046966553,161,84.4465,2594.8997513821569,1505.0,1495.0,1315.1356000000001,1501.0
7.711076021194458,161,84.3995,2579.361429517593,1507.0,1495.0,1315.1420800000001,1501.0
7.735477924346924,161,84.3525,2579.361429517593,1509.0,1495.0,1315.3158800000001,1501.0
7.7597880363464355,161,84.329,2579.361429517593,1510.0,1495.0,1315.49532,1501.0
7.784111022949219,161,84.3055,2579.361429517593,1511.0,1495.0,1318.5744,1501.0
7.808431148529053,161,84.3055,2579.361429517593,1512.0,1495.0,1321.5933199999999,1501.0
7.832728147506714,161,84.3055,2579.361429517593,1512.0,1495.0,1323.1206400000001,1501.0
7.857016086578369,161,83.282,2579.361429517593,1512.0,1495.0,1327.1544799999999,1501.0
7.881351947784424,161,83.282,2594.8997513821569,1512.0,1495.0,1329.8943200000001,1501.0
7.905745029449463,161,83.2585,2610.4380732467207,1512.0,1495.0,1331.2384400000001,1501.0
7.930069923400879,161,81.235,2643.5864932244572,1512.0,1495.0,1337.8964000000001,1501.0
7.954541921615601,161,81.2115,2659.124815089021,1512.0,1495.0,1342.2521200000001,1501.0
7.978848934173584,162,80.2115,2659.124815089021,1515.0,1495.0,1346.41776,1502.0
8.003164052963257,162,80.235,2659.124815089021,1516.0,1495.0,1349.3533199999999,1502.0
8.027465105056763,162,80.2585,2659.124815089021,1517.0,1495.0,1350,1502.0
8.051753044128418,162,80.282,2659.124815089021,1518.0,1495.0,1349.3894399999999,1502.0
8.076127052307129,161,81.329,2659.124815089021,1516.0,1495.0,1343.7560000000001,1501.0
8.100800037384033,161,81.329,2659.124815089021,1516.0,1495.0,1337.97092,1501.0
8.125216007232666,161,80.3055,2676.7349132021932,1516.0,1495.0,1334.9536800000001,1501.0
8.149542093276978,161,80.282,2676.7349132021932,1516.0,1495.0,1330.8680400000001,1501.0
8.173870086669922,161,79.2585,2676.7349132021932,1516.0,1495.0,1332.2740000000001,1501.0
8.198194026947021,161,79.235,2676.7349132021932,1516.0,1495.0,1335.4773599999999,1501.0
8.222511053085327,161,79.2115,2676.7349132021932,1515.0,1495.0,1340.07456,1501.0
8.246825933456421,161,79.2115,2676.7349132021932,1514.0,1495.0,1341.7457999999999,1501.0
8.271198987960815,160,79.235,2676.7349132021932,1510.0,1495.0,1343.2572399999999,1500.0
8.295604944229126,160,80.235,2676.7349132021932,1508.0,1495.0,1339.2591199999999,1500.0
8.31993293762207,160,80.2585,2676.7349132021932,1507.0,1495.0,1334.90924,1500.0
8.344250917434692,159,81.2585,2676.7349132021932,1503.0,1495.0,1327.88176,1499.0
8.368580102920532,158,82.2585,2659.124815089021,1498.0,1495.0,1320.8062399999999,1498.0
8.392905950546265,159,82.2585,2659.124815089021,1498.0,1495.0,1315.0284799999999,1499.0
8.417210102081299,158,82.235,2641.5147169758484,1493.0,1495.0,1313.5047199999999,1498.0
8.44160509109497,158,82.2115,2641.5147169758484,1490.0,1495.0,1312.11256,1498.0
8.466176986694336,158,82.188,2641.5147169758484,1487.0,1495.0,1313.5862,1498.0
8.490582942962646,158,82.188,2641.5147169758484,1484.0,1495.0,1317.8316400000001,1498.0
8.515054941177368,158,82.188,2641.5147169758484,1482.0,1495.0,1322.04512,1498.0
8.53938913345337,158,82.188,2641.5147169758484,1480.0,1495.0,1324.8327999999999,1498.0
8.563728094100952,158,82.188,2641.5147169758484,1480,1495.0,1327.5227199999999,1498.0
8.587975978851318,158,82.235,2625.9763951112845,1480,1495.0,1328.6627599999999,1498.0
8.612229108810425,158,83.2585,2625.9763951112845,1480,1495.0,1325.7971600000001,1498.0
8.636471033096313,158,83.282,2625.9763951112845,1480,1495.0,1324.09772,1498.0
8.660743951797485,159,83.3055,2625.9763951112845,1480,1495.0,1322.3964000000001,1499.0
8.685055017471313,158,83.3055,2625.9763951112845,1480,1495.0,1320.75524,1498.0
8.709326028823853,159,83.329,2625.9763951112845,1480.0,1495.0,1319.2156,1499.0
8.733659029006958,159,82.3055,2610.4380732467207,1481.0,1495.0,1323.2720000000002,1499.0
8.75795602798462,159,82.282,2610.4380732467207,1482.0,1495.0,1326.22804,1499.0
8.782248973846436,158,81.2585,2594.8997513821569,1480.0,1495.0,1331.92372,1498.0
8.806570053100586,159,81.2585,2594.8997513821569,1483.0,1495.0,1336.3912,1499.0
8.830950021743774,159,81.2585,2610.4380732467207,1484.0,1495.0,1340.8605600000001,1499.0
8.855363130569458,160,81.282,2594.8997513821569,1488.0,1495.0,1341.0101199999999,1500.0
8.879678964614868,159,82.329,2594.8997513821569,1487.0,1495.0,1338.3260399999999,1499.0
8.903962135314941,159,82.3525,2579.361429517593,1487.0,1495.0,1333.9385600000001,1499.0
8.928200960159302,160,82.3525,2563.8231076530292,1491.0,1495.0,1329.5792799999999,1500.0
8.952497005462646,160,82.329,2548.2847857884653,1492.0,1495.0,1325.25008,1500.0
8.976799011230469,160,83.329,2563.8231076530292,1493.0,1495.0,1319.7104400000001,1500.0
9.00114893913269,161,83.329,2563.8231076530292,1497.0,1495.0,1318.3343600000001,1501.0
9.025537014007568,161,83.3055,2579.361429517593,1500.0,1495.0,1318.4780800000001,1501.0
9.049844980239868,161,83.282,2579.361429517593,1502.0,1495.0,1318.6556399999999,1501.0
9.074135065078735,161,83.282,2563.8231076530292,1504.0,1495.0,1318.7392,1501.0
9.098439931869507,161,83.2585,2563.8231076530292,1505.0,1495.0,1321.65284,1501.0
9.122879028320312,161,83.235,2548.2847857884653,1507.0,1495.0,1323.1764000000001,1501.0
9.14739203453064,161,83.235,2563.8231076530292,1509.0,1495.0,1324.5740000000001,1501.0
9.171807050704956,161,82.2115,2563.8231076530292,1510.0,1495.0,1328.6078400000001,1501.0
9.196244955062866,162,82.2115,2563.8231076530292,1514.0,1495.0,1331.44544,1502.0
9.220574140548706,161,82.235,2548.2847857884653,1513.0,1495.0,1332.7952,1501.0
9.245156049728394,161,82.2585,2532.7464639239015,1513.0,1495.0,1334.0453199999999,1501.0
9.269813060760498,161,82.282,2517.2081420593377,1513.0,1495.0,1335.2935600000001,1501.0
9.294151067733765,161,82.3055,2501.6698201947738,1513.0,1495.0,1333.6741200000001,1501.0
9.318472146987915,161,82.3055,2517.2081420593377,1513.0,1495.0,1332.0828799999999,1501.0
9.34277892112732,161,81.3055,2517.2081420593377,1513.0,1495.0,1333.2293999999999,1501.0
9.36707091331482,161,80.282,2517.2081420593377,1513.0,1495.0,1335.9757200000001,1501.0
9.391431093215942,160,80.282,2501.6698201947738,1510.0,1495.0,1337.5596399999999,1500.0
9.41581106185913,160,79.282,2501.6698201947738,1509.0,1495.0,1343.2413200000001,1500.0
9.440052032470703,160,79.282,2501.6698201947738,1507.0,1495.0,1347.723,1500.0
9.464462041854858,159,79.3055,2501.6698201947738,1503.0,1495.0,1349.31068,1499.0
9.488794088363647,159,79.3055,2501.6698201947738,1501.0,1495.0,1348.0288,1499.0
9.513102054595947,159,80.329,2487.857978537384,1499.0,1495.0,1344.0129200000001,1499.0
9.537440061569214,159,80.3525,2487.857978537384,1497.0,1495.0,1338.33124,1499.0
9.561865091323853,159,81.376,2458.5078150154304,1495.0,1495.0,1329.9757199999999,1499.0
9.58626103401184,159,81.376,2458.5078150154304,1493.0,1495.0,1324.2742000000001,1499.0
9.61057710647583,159,82.376,2444.6959733580402,1491.0,1495.0,1317.3246399999998,1499.0
9.635090112686157,159,82.376,2444.6959733580402,1490.0,1495.0,1314.4408799999999,1499.0
9.659434080123901,159,83.3525,2430.8841317006504,1489.0,1495.0,1310.4049599999998,1499.0
9.683731079101562,159,83.3525,2417.0722900432602,1488.0,1495.0,1310.4066399999999,1499.0
9.708017110824585,158,84.3525,2403.2604483858704,1485.0,1495.0,1307.7363599999999,1498.0
9.732325077056885,158,85.3525,2389.4486067284806,1484.0,1495.0,1306.42608,1498.0
9.7566659450531,158,85.3525,2389.4486067284806,1483.0,1495.0,1304.9238399999999,1498.0
9.781036138534546,158,85.329,2375.6367650710904,1482.0,1495.0,1306.18588,1498.0
9.805426120758057,159,84.282,2389.4486067284806,1484.0,1495.0,1308.7918400000001,1499.0
9.829729080200195,159,84.235,2375.6367650710904,1484.0,1495.0,1313.06548,1499.0
9.854038000106812,159,83.2115,2375.6367650710904,1484.0,1495.0,1321.4247600000001,1499.0
9.878360033035278,159,82.188,2361.8249234137006,1484.0,1495.0,1331.2578800000001,1499.0
9.902681112289429,159,82.1645,2361.8249234137006,1484.0,1495.0,1338.5309999999999,1499.0
9.9270179271698,160,81.188,2361.8249234137006,1487.0,1495.0,1345.42228,1500.0
9.951410055160522,160,81.2115,2361.8249234137006,1489.0,1495.0,1349.5881199999999,1500.0
9.975808143615723,160,80.235,2349.4669598255095,1491.0,1495.0,1350,1500.0
10.00002908706665,161,81.282,2349.4669598255095,1496.0,1495.0,1347.8788400000001,1501.0
10.024474143981934,161,81.3055,2337.1089962373185,1499.0,1495.0,1344.78388,1501.0
10.048831939697266,162,82.329,2323.2971545799287,1504.0,1495.0,1337.7048,1502.0
10.0731360912323,162,82.3525,2323.2971545799287,1507.0,1495.0,1331.9215999999999,1502.0
10.097434997558594,162,82.3525,2323.2971545799287,1510.0,1495.0,1324.8243600000001,1502.0
10.121840000152588,162,82.329,2323.2971545799287,1513.0,1495.0,1322.1127200000001,1502.0
10.146291017532349,162,82.3055,2323.2971545799287,1516.0,1495.0,1319.53268,1502.0
10.170586109161377,163,82.282,2323.2971545799287,1520,1495.0,1321.1803199999999,1503.0
10.194934129714966,163,82.282,2323.2971545799287,1520,1495.0,1322.8336000000002,1503.0
10.219125032424927,163,82.2585,2335.6551181681198,1520,1495.0,1325.8769600000001,1503.0
10.24332594871521,163,82.2585,2335.6551181681198,1520,1495.0,1327.4023999999999,1503.0
10.267488956451416,163,82.2585,2335.6551181681198,1520,1495.0,1328.83008,1503.0
10.291722059249878,163,82.2585,2323.2971545799287,1520,1495.0,1328.8,1503.0
10.316021919250488,163,83.282,2323.2971545799287,1520,1495.0,1326.03592,1503.0
10.340242147445679,162,83.3055,2323.2971545799287,1520,1495.0,1324.3722,1502.0
10.364628076553345,162,83.3055,2310.9391909917376,1520,1495.0,1322.76864,1502.0
10.388843059539795,162,83.3525,2298.5812274035466,1520,1495.0,1321.07296,1502.0
10.413053035736084,162,83.3525,2286.2232638153555,1520,1495.0,1319.4656399999999,1502.0
10.437602043151855,162,83.376,2262.7431329977926,1520,1495.0,1320.6620800000001,1502.0
10.4619300365448,161,82.3995,2250.3851694096015,1520,1495.0,1324.5624399999999,1501.0
10.486227989196777,161,82.376,2226.9050385920382,1520,1495.0,1327.35304,1501.0
10.5104660987854,161,81.376,2215.7828713626664,1520,1495.0,1332.8870399999998,1501.0
10.534868955612183,160,81.3525,2204.6607041332945,1516.0,1495.0,1337.2830799999999,1500.0
10.559219121932983,160,80.3525,2171.1176601082043,1513.0,1495.0,1342.9647599999998,1500.0
10.583538055419922,160,80.3525,2137.5746160831141,1511.0,1495.0,1344.68028,1500.0
10.6078360080719,160,81.376,2126.4524488537422,1509.0,1495.0,1343.62796,1500.0
10.632236957550049,160,81.423,2105.2673684168431,1507.0,1495.0,1340.81584,1500.0
10.65662407875061,160,82.4465,2084.0822879799443,1505.0,1495.0,1335.2922800000001,1500.0
10.681106090545654,160,83.47,2064.8712718564834,1503.0,1495.0,1325.4629199999999,1500.0
10.705642938613892,160,83.4465,2043.6861914195845,1502.0,1495.0,1318.2518400000001,1500.0
10.729964017868042,161,83.3995,2024.4751752961238,1504.0,1495.0,1314.0344,1501.0
10.754276037216187,161,82.376,2014.4122620885967,1504.0,1495.0,1313.9541999999999,1501.0
10.778584957122803,160,82.3525,1995.201245965136,1502.0,1495.0,1315.6055999999999,1500.0
10.802895069122314,161,81.3055,1995.201245965136,1505.0,1495.0,1324.2186799999999,1501.0
10.827209949493408,160,81.282,2005.2641591726631,1503.0,1495.0,1331.5716,1500.0
10.85169506072998,161,79.2585,1995.201245965136,1506.0,1495.0,1342.7148,1501.0
10.876184940338135,161,79.235,2005.2641591726631,1507.0,1495.0,1348.56212,1501.0
10.900460004806519,160,78.235,2005.2641591726631,1505.0,1495.0,1350,1500.0
10.925090074539185,160,78.235,2024.4751752961238,1505.0,1495.0,1350,1500.0
10.949338912963867,159,77.2585,2034.5380885036509,1502.0,1495.0,1350,1499.0
10.973628044128418,159,77.2585,2053.7491046271116,1500.0,1495.0,1350,1499.0
10.997853994369507,159,77.282,2053.7491046271116,1498.0,1495.0,1350,1499.0
11.022241115570068,159,77.329,2062.8972075430452,1497.0,1495.0,1350,1499.0
11.046644926071167,159,78.3525,2062.8972075430452,1495.0,1495.0,1346.89896,1499.0
11.071145057678223,159,79.3525,2043.6861914195845,1494.0,1495.0,1337.21164,1499.0
11.095695972442627,159,80.376,2034.5380885036509,1492.0,1495.0,1328.77424,1499.0
11.120007038116455,159,80.376,2006.9744566743379,1490.0,1495.0,1321.6628000000001,1499.0
11.144560098648071,159,81.376,1997.8263537584039,1489.0,1495.0,1313.4029599999999,1499.0
11.168895959854126,159,81.376,1978.6153376349434,1488.0,1495.0,1309.20892,1499.0
11.193176031112671,159,81.3525,1959.4043215114827,1488.0,1495.0,1309.20496,1499.0
11.217472076416016,159,82.329,1940.1933053880221,1488.0,1495.0,1309.46064,1499.0
11.241950035095215,159,82.3055,1931.0452024720885,1488.0,1495.0,1310.9182000000001,1499.0
11.266448020935059,160,82.282,1921.8970995561547,1491.0,1495.0,1315.1456800000001,1500.0
11.290904998779297,160,82.235,1912.7489966402209,1492.0,1495.0,1318.07708,1500.0
11.315369129180908,160,82.235,1912.7489966402209,1493.0,1495.0,1319.52628,1500.0
11.339661121368408,160,82.2115,1912.7489966402209,1494.0,1495.0,1322.37976,1500.0
11.363996982574463,160,82.2115,1921.1016123460734,1495.0,1495.0,1325.13924,1500.0
11.388334035873413,159,82.2115,1912.7489966402209,1493.0,1495.0,1326.4729199999999,1499.0
11.41264009475708,159,82.235,1904.3963809343684,1493.0,1495.0,1327.6129599999999,1499.0
11.436973094940186,159,83.282,1896.0437652285159,1493.0,1495.0,1326.04908,1499.0
11.46147108078003,158,83.3055,1887.6911495226636,1490.0,1495.0,1324.2857200000001,1498.0
11.485996007919312,159,84.329,1871.6819694197795,1492.0,1495.0,1319.88048,1499.0
11.5103120803833,159,84.3525,1855.6727893168954,1491.0,1495.0,1316.67336,1499.0
11.534994125366211,158,83.3525,1832.6195699687426,1487.0,1495.0,1316.2641599999999,1498.0
11.559344053268433,158,83.329,1809.5663506205897,1485.0,1495.0,1317.6486,1498.0
11.583642959594727,158,83.329,1786.5131312724366,1483.0,1495.0,1319.1025999999999,1498.0
11.60826301574707,157,83.3055,1763.4599119242837,1480,1495.0,1323.4844399999999,1497.0
11.632578134536743,157,83.282,1748.7593082819833,1480,1495.0,1327.9659200000001,1497.0
11.656830072402954,156,83.2585,1734.0587046396827,1480,1495.0,1329.6492800000001,1496.0
11.681231021881104,156,83.2115,1712.8559109248265,1480,1495.0,1329.9388000000001,1496.0
11.705672025680542,157,82.1645,1698.1553072825259,1480,1495.0,1332.9040399999999,1497.0
11.729937076568604,157,82.141,1691.1112680372571,1480,1495.0,1333.2171599999999,1497.0
11.75419306755066,158,82.141,1684.0672287919883,1480,1495.0,1333.4043199999999,1498.0
11.77846908569336,158,82.141,1684.0672287919883,1480,1495.0,1334.8856799999999,1498.0
11.80272102355957,159,83.188,1684.0672287919883,1480,1495.0,1333.5033199999998,1499.0
11.826970100402832,159,84.235,1684.0672287919883,1480,1495.0,1327.6816799999999,1499.0
11.851295948028564,160,85.2585,1684.0672287919883,1480,1495.0,1320.3805600000001,1500.0
11.875663042068481,160,86.3055,1684.0672287919883,1480.0,1495.0,1311.5755200000001,1500.0
11.89999794960022,161,87.329,1684.0672287919883,1487.0,1495.0,1301.3568,1501.0
11.924508094787598,161,87.3055,1690.5694188645441,1492.0,1495.0,1295.4238400000002,1501.0
11.948859930038452,162,87.3055,1684.0672287919883,1499.0,1495.0,1293.8182000000002,1502.0
11.973181962966919,162,86.282,1677.5650387194323,1504.0,1495.0,1297.8123600000001,1502.0
11.99750304222107,162,85.2585,1665.0423022833988,1508.0,1495.0,1306.2119600000001,1502.0
12.022007942199707,164,84.235,1652.5195658473651,1518.0,1495.0,1318.9512,1504.0
12.046525001525879,164,84.2585,1639.9968294113314,1520,1495.0,1328.91048,1504.0
12.070925951004028,165,84.2585,1627.4740929752977,1520,1495.0,1337.4740400000001,1505.0
12.095351934432983,165,84.282,1614.951356539264,1520,1495.0,1341.7177999999999,1505.0
12.11958909034729,166,84.3055,1602.4286201032305,1520,1495.0,1341.6379999999999,1506.0
12.143834114074707,167,85.3055,1589.9058836671968,1520,1495.0,1334.6886400000001,1507.0
12.168061017990112,168,86.329,1577.3831472311631,1520,1495.0,1326.335,1508.0
12.192251920700073,169,87.376,1565.7720935301704,1520,1495.0,1316.4454800000001,1509.0
12.216413021087646,170,88.376,1554.1610398291778,1520,1495.0,1306.63012,1510.0
12.240587949752808,170,89.3995,1548.5705324916628,1520,1495.0,1296.7704799999999,1510.0
12.26520299911499,170,89.3995,1537.7750700468061,1520,1495.0,1292.3309999999999,1510.0
12.289436101913452,172,89.376,1526.9796076019495,1520,1495.0,1290.7873999999999,1512.0
12.313669919967651,172,89.3525,1516.1841451570929,1520,1495.0,1292.2092399999999,1512.0
12.337903022766113,173,88.329,1505.3886827122362,1520,1495.0,1299.07296,1513.0
12.362205982208252,173,88.3055,1494.5932202673796,1520,1495.0,1307.60436,1513.0
12.386488914489746,174,87.2585,1483.797757822523,1520,1495.0,1317.5116399999999,1514.0
12.410912990570068,174,85.235,1473.0022953776663,1520,1495.0,1330.0468000000001,1514.0
12.435372114181519,173,84.188,1462.9393821701392,1520,1495.0,1341.42812,1513.0
12.45959210395813,173,83.1645,1452.8764689626123,1520,1495.0,1350,1513.0
12.483719110488892,173,81.1645,1438.2690143065247,1520,1495.0,1350,1513.0
12.507839918136597,173,81.1645,1424.6060071497529,1520,1495.0,1350,1513.0
12.532115936279297,173,80.188,1410.9429999929812,1520,1495.0,1350,1513.0
12.556450128555298,172,81.2115,1389.5108319039277,1520,1495.0,1350,1512.0
12.580574989318848,171,81.282,1364.5270473886883,1520,1495.0,1350,1511.0
12.605067014694214,171,82.329,1339.5432628734488,1520,1495.0,1348.8874800000001,1511.0
12.629307985305786,170,83.3525,1308.0321833046783,1520,1495.0,1336.22072,1510.0
12.653581142425537,171,84.3525,1276.5211037359077,1520,1495.0,1322.1599200000001,1511.0
12.67776894569397,169,86.3525,1246.861991124249,1520,1495.0,1308.3088399999999,1509.0
12.702152967453003,168,87.3525,1211.6417948979044,1520,1495.0,1295.8071199999999,1508.0
12.72654414176941,167,88.329,1180.9661401201204,1520,1495.0,1287.5790400000001,1507.0
12.750926971435547,166,88.329,1151.973905421605,1520,1495.0,1283.3885599999999,1506.0
12.775666952133179,166,89.3055,1122.9816707230898,1520,1495.0,1280.7481599999999,1506.0
12.799931049346924,165,89.282,1101.7585969568561,1520,1495.0,1283.54964,1505.0
12.824167013168335,164,89.2585,1084.0871396168086,1520,1495.0,1289.08908,1504.0
12.848389148712158,163,88.2115,1066.4156822767611,1520,1495.0,1298.6746800000001,1503.0
12.872602939605713,163,88.188,1057.8486075190017,1520,1495.0,1305.6739600000001,1503.0
12.896810054779053,162,86.1645,1051.990778624807,1520,1495.0,1319.3612800000001,1502.0
12.921211004257202,162,85.1645,1049.1389408736859,1520,1495.0,1330.4746,1502.0
12.945698022842407,161,84.188,1049.1389408736859,1520,1495.0,1341.54008,1501.0
12.96993899345398,160,83.2115,1051.8481867372509,1520,1495.0,1349.75208,1500.0
12.99413800239563,160,83.235,1054.4252742660078,1520,1495.0,1350,1500.0
