time,frame,x,y,size_inv,roll,pitch,thrust,yaw
0,0,,,,1500.0,1500.0,1420.0,1500
0.05,0,,,,1500.0,1500.0,1420.0,1500
0.1,0,,,,1500.0,1500.0,1420.0,1500
0.15000000000000002,0,,,,1500.0,1500.0,1420.0,1500
0.2,0,,,,1500.0,1500.0,1420.0,1500
0.25,0,,,,1500.0,1500.0,1420.0,1500
0.3,0,,,,1500.0,1500.0,1420.0,1500
0.35,0,,,,1500.0,1500.0,1420.0,1500
0.39999999999999997,0,,,,1500.0,1500.0,1420.0,1500
0.44999999999999996,0,,,,1500.0,1500.0,1420.0,1500
0.49999999999999994,0,,,,1500.0,1500.0,1420.0,1500
0.5499999999999999,0,,,,1500.0,1500.0,1420.0,1500
0.6,0,,,,1500.0,1500.0,1420.0,1500
0.65,0,,,,1500.0,1500.0,1420.0,1500
0.7000000000000001,0,,,,1500.0,1500.0,1420.0,1500
0.7500000000000001,0,,,,1500.0,1500.0,1420.0,1500
0.8000000000000002,0,,,,1500.0,1500.0,1420.0,1500
0.8500000000000002,0,,,,1500.0,1500.0,1420.0,1500
0.9000000000000002,1,130,19,0.020833333333333332,1497.0,1520,1470,1500
0.9500000000000003,1,,,,1500.0,1500.0,1420.0,1500
1.0000000000000002,2,138,13,0.02564102564102564,1497.8,1520,1470,1500
1.0500000000000003,2,,,,1500.0,1500.0,1420.0,1500
1.1000000000000003,2,,,,1500.0,1500.0,1420.0,1500
1.1500000000000004,2,,,,1500.0,1500.0,1420.0,1500
1.2000000000000004,2,,,,1500.0,1500.0,1420.0,1500
1.2500000000000004,3,142,44,0.025,1498.2,1520,1470,1500
1.3000000000000005,4,146,44,0.041666666666666664,1498.6,1520,1470,1500
1.3500000000000005,5,148,49,0.009615384615384616,1498.8,1520,1470,1500
1.4000000000000006,6,152,51,0.037037037037037035,1499.2,1520,1470,1500
1.4500000000000006,7,131,66,0.017857142857142856,1497.1,1520,1470,1500
1.5000000000000007,8,149,68,0.047619047619047616,1498.9,1520,1470,1500
1.5500000000000007,9,151,79,0.007575757575757576,1499.1,1520,1462.0,1500
1.6000000000000008,10,158,95,0.014285714285714285,1499.8,1520,1430.0,1500
1.6500000000000008,11,160,81,0.012987012987012988,1500.0,1520,1458.0,1500
1.7000000000000008,12,148,98,0.0036363636363636364,1498.8,1511.3636363636363,1424.0,1500
1.7500000000000009,13,151,96,0.005681818181818182,1499.1,1520,1428.0,1500
1.800000000000001,14,168,102,0.0125,1500.8,1520,1416.0,1500
1.850000000000001,15,151,99,0.003246753246753247,1499.1,1507.4675324675325,1422.0,1500
1.900000000000001,16,166,87,0.011904761904761904,1500.6,1520,1446.0,1500
1.950000000000001,17,158,93,0.001644736842105263,1499.8,1491.4473684210527,1434.0,1500
2.000000000000001,18,159,99,0.004166666666666667,1499.9,1516.6666666666667,1422.0,1500
2.0500000000000007,19,155,83,0.011904761904761904,1499.5,1520,1454.0,1500
2.1000000000000005,20,149,86,0.00625,1498.9,1520,1448.0,1500
2.1500000000000004,21,159,86,0.01,1499.9,1520,1448.0,1500
2.2,22,157,96,0.013888888888888888,1499.7,1520,1428.0,1500
2.25,23,162,87,0.020833333333333332,1500.2,1520,1446.0,1500
2.3,24,158,99,0.005494505494505495,1499.8,1520,1422.0,1500
2.3499999999999996,25,159,98,0.009259259259259259,1499.9,1520,1424.0,1500
2.3999999999999995,26,158,98,0.007936507936507936,1499.8,1520,1424.0,1500
2.4499999999999993,27,143,89,0.020833333333333332,1498.3,1520,1442.0,1500
2.499999999999999,28,157,91,0.003105590062111801,1499.7,1506.055900621118,1438.0,1500
2.549999999999999,29,150,98,0.004761904761904762,1499.0,1520,1424.0,1500
2.5999999999999988,30,161,96,0.007518796992481203,1500.1,1520,1428.0,1500
2.6499999999999986,31,151,98,0.004201680672268907,1499.1,1517.0168067226891,1424.0,1500
2.6999999999999984,32,155,106,0.006211180124223602,1499.5,1520,1408.0,1500
2.7499999999999982,33,160,102,0.007352941176470588,1500.0,1520,1416.0,1500
2.799999999999998,34,156,104,0.007936507936507936,1499.6,1520,1412.0,1500
2.849999999999998,35,157,103,0.011904761904761904,1499.7,1520,1414.0,1500
2.8999999999999977,36,160,88,0.006535947712418301,1500.0,1520,1444.0,1500
2.9499999999999975,37,158,86,0.007936507936507936,1499.8,1520,1448.0,1500
2.9999999999999973,38,148,95,0.008333333333333333,1498.8,1520,1430.0,1500
3.049999999999997,39,164,90,0.013333333333333334,1500.4,1520,1440.0,1500
3.099999999999997,40,163,98,0.007407407407407408,1500.3,1520,1424.0,1500
3.149999999999997,41,161,94,0.014285714285714285,1500.1,1520,1432.0,1500
3.1999999999999966,42,162,94,0.00980392156862745,1500.2,1520,1432.0,1500
3.2499999999999964,43,167,101,0.0032679738562091504,1500.7,1507.6797385620914,1418.0,1500
3.2999999999999963,44,164,91,0.008,1500.4,1520,1438.0,1500
3.349999999999996,45,159,95,0.0078125,1499.9,1520,1430.0,1500
3.399999999999996,46,164,102,0.004347826086956522,1500.4,1518.4782608695652,1416.0,1500
3.4499999999999957,47,158,85,0.003968253968253968,1499.8,1514.6825396825398,1450.0,1500
3.4999999999999956,48,161,95,0.002777777777777778,1500.1,1502.7777777777778,1430.0,1500
3.5499999999999954,49,174,94,0.017857142857142856,1501.4,1520,1432.0,1500
3.599999999999995,50,163,84,0.005952380952380952,1500.3,1520,1452.0,1500
3.649999999999995,51,166,90,0.004464285714285714,1500.6,1519.642857142857,1440.0,1500
3.699999999999995,52,160,85,0.015384615384615385,1500.0,1520,1450.0,1500
3.7499999999999947,53,163,93,0.003703703703703704,1500.3,1512.037037037037,1434.0,1500
3.7999999999999945,54,173,102,0.013333333333333334,1501.3,1520,1416.0,1500
3.8499999999999943,55,171,79,0.022727272727272728,1501.1,1520,1462.0,1500
3.899999999999994,56,159,96,0.0035714285714285713,1499.9,1510.7142857142858,1428.0,1500
3.949999999999994,57,149,90,0.007518796992481203,1498.9,1520,1440.0,1500
3.999999999999994,58,158,101,0.008333333333333333,1499.8,1520,1418.0,1500
4.049999999999994,59,148,93,0.006944444444444444,1498.8,1520,1434.0,1500
4.099999999999993,60,158,92,0.002304147465437788,1499.8,1498.041474654378,1436.0,1500
4.149999999999993,61,170,85,0.007936507936507936,1501.0,1520,1450.0,1500
4.199999999999993,62,169,98,0.007142857142857143,1500.9,1520,1424.0,1500
4.249999999999993,63,169,82,0.013888888888888888,1500.9,1520,1456.0,1500
4.299999999999993,64,168,99,0.00909090909090909,1500.8,1520,1422.0,1500
4.3499999999999925,65,174,88,0.010416666666666666,1501.4,1520,1444.0,1500
4.399999999999992,66,156,90,0.007936507936507936,1499.6,1520,1440.0,1500
4.449999999999992,67,148,98,0.005494505494505495,1498.8,1520,1424.0,1500
4.499999999999992,68,171,76,0.016666666666666666,1501.1,1520,1468.0,1500
4.549999999999992,69,173,77,0.007518796992481203,1501.3,1520,1466.0,1500
4.599999999999992,70,163,85,0.004310344827586207,1500.3,1518.103448275862,1450.0,1500
4.6499999999999915,71,171,73,0.003472222222222222,1501.1,1509.7222222222222,1470,1500
4.699999999999991,72,160,72,0.002777777777777778,1500.0,1502.7777777777778,1470,1500
4.749999999999991,73,157,76,0.00909090909090909,1499.7,1520,1468.0,1500
4.799999999999991,74,167,74,0.004629629629629629,1500.7,1520,1470,1500
4.849999999999991,75,185,70,0.007575757575757576,1502.5,1520,1470,1500
4.899999999999991,76,166,86,0.0035714285714285713,1500.6,1510.7142857142858,1448.0,1500
4.94999999999999,77,185,92,0.005681818181818182,1502.5,1520,1436.0,1500
4.99999999999999,78,169,96,0.006535947712418301,1500.9,1520,1428.0,1500
5.04999999999999,79,187,62,0.0035842293906810036,1502.7,1510.84229390681,1470,1500
5.09999999999999,80,182,79,0.016666666666666666,1502.2,1520,1462.0,1500
5.14999999999999,81,171,71,0.0018315018315018315,1501.1,1493.3150183150183,1470,1500
5.1999999999999895,82,171,91,0.0030303030303030303,1501.1,1505.3030303030303,1438.0,1500
5.249999999999989,83,181,71,0.0015698587127158557,1502.1,1490.6985871271586,1470,1500
5.299999999999989,84,189,68,0.0006385696040868455,1502.9,1481.3856960408684,1470,1500
5.349999999999989,85,184,71,0.0011111111111111111,1502.4,1486.111111111111,1470,1500
5.399999999999989,86,192,55,0.0011695906432748538,1503.2,1486.6959064327486,1470,1500
5.449999999999989,87,194,68,0.0010893246187363835,1503.4,1485.8932461873637,1470,1500
5.4999999999999885,88,176,86,0.0024154589371980675,1501.6,1499.1545893719806,1448.0,1500
5.549999999999988,89,212,75,0.0021929824561403508,1505.2,1496.9298245614036,1470.0,1500
5.599999999999988,90,201,78,0.002702702702702703,1504.1,1502.027027027027,1464.0,1500
5.649999999999988,91,178,106,0.016666666666666666,1501.8,1520,1408.0,1500
5.699999999999988,92,193,67,0.0008771929824561404,1503.3,1483.7719298245613,1470,1500
5.749999999999988,93,202,71,0.002631578947368421,1504.2,1501.3157894736842,1470,1500
5.799999999999987,94,158,95,0.0010604453870625664,1499.8,1485.6044538706258,1430.0,1500
5.849999999999987,95,161,95,0.003076923076923077,1500.1,1505.7692307692307,1430.0,1500
5.899999999999987,96,196,97,0.0035714285714285713,1503.6,1510.7142857142858,1426.0,1500
5.949999999999987,97,189,77,0.0009881422924901185,1502.9,1484.8814229249012,1466.0,1500
5.999999999999987,98,153,102,0.0020242914979757085,1499.3,1495.2429149797572,1416.0,1500
6.0499999999999865,99,185,69,0.001388888888888889,1502.5,1488.888888888889,1470,1500
6.099999999999986,100,182,64,0.0038461538461538464,1502.2,1513.4615384615386,1470,1500
6.149999999999986,101,167,74,0.007936507936507936,1500.7,1520,1470,1500
6.199999999999986,102,145,96,0.004629629629629629,1498.5,1520,1428.0,1500
6.249999999999986,103,170,105,0.0032679738562091504,1501.0,1507.6797385620914,1410.0,1500
6.299999999999986,104,149,95,0.0016666666666666668,1498.9,1491.6666666666667,1430.0,1500
6.349999999999985,105,177,70,0.004464285714285714,1501.7,1519.642857142857,1470,1500
6.399999999999985,106,168,82,0.001524390243902439,1500.8,1490.2439024390244,1456.0,1500
6.449999999999985,107,149,84,0.003472222222222222,1498.9,1509.7222222222222,1452.0,1500
6.499999999999985,108,175,71,0.005714285714285714,1501.5,1520,1470,1500
6.549999999999985,109,164,74,0.005681818181818182,1500.4,1520,1470,1500
6.5999999999999845,110,165,81,0.00390625,1500.5,1514.0625,1458.0,1500
6.649999999999984,111,154,91,0.009523809523809525,1499.4,1520,1438.0,1500
6.699999999999984,112,159,88,0.003676470588235294,1499.9,1511.764705882353,1444.0,1500
6.749999999999984,113,145,100,0.008547008547008548,1498.5,1520,1420.0,1500
6.799999999999984,114,166,106,0.019230769230769232,1500.6,1520,1408.0,1500
6.849999999999984,115,142,98,0.011111111111111112,1498.2,1520,1424.0,1500
6.8999999999999835,116,167,105,0.007936507936507936,1500.7,1520,1410.0,1500
6.949999999999983,117,159,97,0.011111111111111112,1499.9,1520,1426.0,1500
6.999999999999983,118,157,92,0.011764705882352941,1499.7,1520,1436.0,1500
7.049999999999983,119,168,81,0.013888888888888888,1500.8,1520,1458.0,1500
7.099999999999983,120,160,96,0.004629629629629629,1500.0,1520,1428.0,1500
7.149999999999983,121,160,90,0.005494505494505495,1500.0,1520,1440.0,1500
7.199999999999982,122,146,101,0.025,1498.6,1520,1418.0,1500
7.249999999999982,123,168,90,0.022727272727272728,1500.8,1520,1440.0,1500
7.299999999999982,124,168,98,0.041666666666666664,1500.8,1520,1424.0,1500
7.349999999999982,125,151,91,0.013157894736842105,1499.1,1520,1438.0,1500
7.399999999999982,126,164,83,0.008333333333333333,1500.4,1520,1454.0,1500
7.4499999999999815,127,165,92,0.014285714285714285,1500.5,1520,1436.0,1500
7.499999999999981,128,156,86,0.0035714285714285713,1499.6,1510.7142857142858,1448.0,1500
7.549999999999981,129,155,86,0.002331002331002331,1499.5,1498.3100233100233,1448.0,1500
7.599999999999981,130,161,95,0.006666666666666667,1500.1,1520,1430.0,1500
7.649999999999981,131,146,94,0.011111111111111112,1498.6,1520,1432.0,1500
7.699999999999981,132,169,102,0.015625,1500.9,1520,1416.0,1500
7.7499999999999805,133,154,94,0.007352941176470588,1499.4,1520,1432.0,1500
7.79999999999998,134,167,86,0.001001001001001001,1500.7,1485.01001001001,1448.0,1500
7.84999999999998,135,164,90,0.013157894736842105,1500.4,1520,1440.0,1500
7.89999999999998,136,171,99,0.01020408163265306,1501.1,1520,1422.0,1500
7.94999999999998,137,178,75,0.004329004329004329,1501.8,1518.2900432900433,1470.0,1500
7.99999999999998,138,155,83,0.007692307692307693,1499.5,1520,1454.0,1500
8.04999999999998,139,164,86,0.003367003367003367,1500.4,1508.6700336700337,1448.0,1500
8.09999999999998,140,161,100,0.005291005291005291,1500.1,1520,1420.0,1500
8.14999999999998,141,166,81,0.0032258064516129032,1500.6,1507.258064516129,1458.0,1500
8.199999999999982,142,169,98,0.0033333333333333335,1500.9,1508.3333333333333,1424.0,1500
8.249999999999982,143,158,88,0.018518518518518517,1499.8,1520,1444.0,1500
8.299999999999983,144,165,90,0.004830917874396135,1500.5,1520,1440.0,1500
8.349999999999984,145,152,100,0.005208333333333333,1499.2,1520,1420.0,1500
8.399999999999984,146,158,98,0.004201680672268907,1499.8,1517.0168067226891,1424.0,1500
8.449999999999985,147,171,98,0.007142857142857143,1501.1,1520,1424.0,1500
8.499999999999986,148,170,100,0.0035714285714285713,1501.0,1510.7142857142858,1420.0,1500
8.549999999999986,149,173,84,0.003787878787878788,1501.3,1512.878787878788,1452.0,1500
8.599999999999987,150,162,90,0.008695652173913044,1500.2,1520,1440.0,1500
8.649999999999988,151,168,90,0.003076923076923077,1500.8,1505.7692307692307,1440.0,1500
8.699999999999989,152,170,86,0.003703703703703704,1501.0,1512.037037037037,1448.0,1500
8.74999999999999,153,175,106,0.007352941176470588,1501.5,1520,1408.0,1500
8.79999999999999,154,170,88,0.005847953216374269,1501.0,1520,1444.0,1500
8.84999999999999,155,154,102,0.005847953216374269,1499.4,1520,1416.0,1500
8.899999999999991,156,173,103,0.007936507936507936,1501.3,1520,1414.0,1500
8.949999999999992,157,155,94,0.0018975332068311196,1499.5,1493.9753320683112,1432.0,1500
8.999999999999993,158,170,85,0.004629629629629629,1501.0,1520,1450.0,1500
9.049999999999994,159,159,99,0.003787878787878788,1499.9,1512.878787878788,1422.0,1500
9.099999999999994,160,158,91,0.017857142857142856,1499.8,1520,1438.0,1500
9.149999999999995,161,169,85,0.009523809523809525,1500.9,1520,1450.0,1500
9.199999999999996,162,160,95,0.007936507936507936,1500.0,1520,1430.0,1500
9.249999999999996,163,147,99,0.007692307692307693,1498.7,1520,1422.0,1500
9.299999999999997,164,165,90,0.016666666666666666,1500.5,1520,1440.0,1500
9.349999999999998,165,154,107,0.01818181818181818,1499.4,1520,1406.0,1500
9.399999999999999,166,156,91,0.013157894736842105,1499.6,1520,1438.0,1500
9.45,167,150,96,0.007692307692307693,1499.0,1520,1428.0,1500
9.5,168,153,93,0.01818181818181818,1499.3,1520,1434.0,1500
9.55,169,145,106,0.01282051282051282,1498.5,1520,1408.0,1500
9.600000000000001,170,145,105,0.01818181818181818,1498.5,1520,1410.0,1500
9.650000000000002,171,141,105,0.016666666666666666,1498.1,1520,1410.0,1500
9.700000000000003,172,135,99,0.023809523809523808,1497.5,1520,1422.0,1500
9.750000000000004,172,,,,1500.0,1500.0,1420.0,1500
9.800000000000004,173,132,107,0.027777777777777776,1497.2,1520,1406.0,1500
9.850000000000005,174,137,90,0.037037037037037035,1497.7,1520,1440.0,1500
9.900000000000006,175,132,109,0.01818181818181818,1497.2,1520,1402.0,1500
9.950000000000006,176,134,109,0.03571428571428571,1497.4,1520,1402.0,1500
10.000000000000007,177,135,91,0.016666666666666666,1497.5,1520,1438.0,1500
10.050000000000008,178,136,90,0.047619047619047616,1497.6,1520,1440.0,1500
10.100000000000009,179,133,98,0.047619047619047616,1497.3,1520,1424.0,1500
10.15000000000001,179,,,,1500.0,1500.0,1420.0,1500
10.20000000000001,180,133,110,0.041666666666666664,1497.3,1520,1400.0,1500
