time,x,y,size_inv,roll,pitch,thrust,yaw
0.0004420280456542969,164,53,0.004629629629629629,1512.0,1500.0,1347.0,1504.0
0.022315025329589844,166,53,0.003968253968253968,1520,1500.0,1347.0,1506.0
0.04385089874267578,166,53,0.003968253968253968,1520,1500.0,1347.0,1506.0
0.06529688835144043,166,53,0.003968253968253968,1520,1500.0,1347.0,1506.0
0.0868079662322998,166,53,0.003968253968253968,1520,1500.0,1347.0,1506.0
0.10827493667602539,165,53,0.0043859649122807015,1520,1500.0,1347.0,1505.0
0.12975788116455078,166,53,0.003968253968253968,1520,1500.0,1347.0,1506.0
0.15122199058532715,165,53,0.0043859649122807015,1520,1500.0,1347.0,1505.0
0.17267894744873047,166,53,0.003968253968253968,1520,1500.0,1347.0,1506.0
0.19413089752197266,166,53,0.003968253968253968,1520,1500.0,1347.0,1506.0
0.21573805809020996,166,53,0.003968253968253968,1520,1500.0,1347.0,1506.0
0.23752903938293457,166,53,0.003968253968253968,1520,1500.0,1347.0,1506.0
0.2593379020690918,166,53,0.003968253968253968,1520,1500.0,1347.0,1506.0
0.28111696243286133,164,53,0.004629629629629629,1520,1500.0,1347.0,1504.0
0.3029060363769531,165,54,0.004329004329004329,1520,1500.0,1345.8499999999999,1505.0
0.32469892501831055,164,54,0.004329004329004329,1520,1500.0,1345.7,1504.0
0.34648704528808594,163,53,0.004329004329004329,1520,1500.0,1346.7,1503.0
0.36829400062561035,162,53,0.006493506493506494,1520,1500.0,1346.7,1502.0
0.39009594917297363,160,53,0.005050505050505051,1520,1500.0,1346.7,1500.0
0.41187095642089844,158,56,0.005050505050505051,1520,1500.0,1343.55,1498.0
0.4336888790130615,157,59,0.005050505050505051,1519.0,1500.0,1339.95,1497.0
0.45555591583251953,158,62,0.004329004329004329,1513.0,1500.0,1335.5999999999999,1498.0
0.47740602493286133,157,64,0.004329004329004329,1502.0,1500.0,1331.95,1497.0
0.4992399215698242,157,65,0.003968253968253968,1495.0,1500.0,1329.1500000000001,1497.0
0.5215840339660645,157,65,0.003968253968253968,1487.0,1500.0,1328.0999999999999,1497.0
0.5449690818786621,155,65,0.004629629629629629,1480,1500.0,1327.95,1495.0
0.5682289600372314,155,65,0.0043859649122807015,1480,1500.0,1328.8499999999999,1495.0
0.5915160179138184,157,64,0.003968253968253968,1480,1500.0,1331.5,1497.0
0.6147758960723877,157,64,0.003968253968253968,1480,1500.0,1333.45,1497.0
0.6380479335784912,156,64,0.004629629629629629,1480,1500.0,1334.95,1496.0
0.661323070526123,157,66,0.005050505050505051,1480,1500.0,1333.7,1497.0
0.6845719814300537,159,67,0.003968253968253968,1480,1500.0,1332.8499999999999,1499.0
0.7078208923339844,159,69,0.004329004329004329,1480,1500.0,1330.0999999999999,1499.0
0.7310659885406494,159,70,0.003968253968253968,1480,1500.0,1328.05,1499.0
0.7543389797210693,159,72,0.004329004329004329,1480,1500.0,1324.7,1499.0
0.7776088714599609,157,72,0.004629629629629629,1480,1500.0,1323.95,1497.0
0.8008599281311035,157,73,0.005050505050505051,1480,1500.0,1322.3499999999999,1497.0
0.8241479396820068,158,73,0.003968253968253968,1480,1500.0,1322.5,1498.0
0.8474118709564209,158,74,0.004329004329004329,1480,1500.0,1321.8,1498.0
0.8706619739532471,156,75,0.005050505050505051,1480,1500.0,1321.55,1496.0
0.8938989639282227,155,76,0.005050505050505051,1480,1500.0,1320.8499999999999,1495.0
0.9171559810638428,157,77,0.004329004329004329,1480,1500.0,1320.1500000000001,1497.0
0.9404199123382568,157,78,0.004329004329004329,1480,1500.0,1319.0,1497.0
0.9636728763580322,157,78,0.003968253968253968,1480,1500.0,1319.0,1497.0
0.9869179725646973,157,79,0.003968253968253968,1480,1500.0,1317.8499999999999,1497.0
1.0101768970489502,156,80,0.003787878787878788,1480,1500.0,1316.8499999999999,1496.0
1.0334398746490479,156,81,0.003968253968253968,1480,1500.0,1315.8499999999999,1496.0
1.056710958480835,156,81,0.003968253968253968,1480,1500.0,1316.1500000000001,1496.0
1.0799188613891602,156,81,0.003968253968253968,1480,1500.0,1316.3,1496.0
1.1032249927520752,156,82,0.003663003663003663,1480,1500.0,1315.45,1496.0
1.1265549659729004,156,82,0.003663003663003663,1480,1500.0,1315.75,1496.0
1.1498150825500488,156,82,0.003968253968253968,1480,1500.0,1316.2,1496.0
1.1734049320220947,156,83,0.003968253968253968,1480,1500.0,1315.3499999999999,1496.0
1.1966850757598877,156,84,0.003968253968253968,1480,1500.0,1314.3499999999999,1496.0
1.2199618816375732,156,85,0.003663003663003663,1480,1500.0,1313.3499999999999,1496.0
1.2432670593261719,156,85,0.003968253968253968,1480,1500.0,1313.2,1496.0
1.2665770053863525,156,86,0.003968253968253968,1480,1500.0,1311.75,1496.0
1.2898330688476562,156,87,0.003663003663003663,1480,1500.0,1310.45,1496.0
1.313188076019287,156,88,0.003663003663003663,1480,1500.0,1309.3,1496.0
1.3365700244903564,156,88,0.003663003663003663,1480,1500.0,1309.3,1496.0
1.3598339557647705,156,89,0.003663003663003663,1480,1500.0,1308.1500000000001,1496.0
1.3831498622894287,156,89,0.0034965034965034965,1480,1500.0,1308.3,1496.0
1.4064669609069824,156,89,0.0034965034965034965,1480,1500.0,1308.5999999999999,1496.0
1.4297308921813965,156,89,0.0034965034965034965,1480,1500.0,1309.05,1496.0
1.4530789852142334,157,89,0.003968253968253968,1480,1500.0,1309.3499999999999,1497.0
1.4763810634613037,157,90,0.003663003663003663,1480,1500.0,1308.8,1497.0
1.4996230602264404,157,90,0.003663003663003663,1480,1500.0,1309.0999999999999,1497.0
1.522963047027588,157,91,0.0034965034965034965,1480,1500.0,1308.0999999999999,1497.0
1.5463240146636963,157,91,0.0034965034965034965,1480,1500.0,1307.95,1497.0
1.5695810317993164,157,91,0.0034965034965034965,1480,1500.0,1307.8,1497.0
1.592885971069336,158,91,0.003663003663003663,1480,1500.0,1307.8,1498.0
1.6162340641021729,158,91,0.003663003663003663,1480,1500.0,1307.8,1498.0
1.639503002166748,158,91,0.003663003663003663,1480,1500.0,1308.0999999999999,1498.0
1.662848949432373,158,92,0.0034965034965034965,1480,1500.0,1307.25,1498.0
1.6861720085144043,160,92,0.004048582995951417,1480,1500.0,1307.4000000000001,1500.0
1.7094428539276123,158,92,0.0034965034965034965,1480,1500.0,1307.4000000000001,1498.0
1.7327508926391602,159,92,0.003663003663003663,1480,1500.0,1307.4000000000001,1499.0
1.7561280727386475,159,92,0.003401360544217687,1480.0,1500.0,1307.25,1499.0
1.7794580459594727,159,92,0.0034965034965034965,1482.0,1500.0,1307.4000000000001,1499.0
1.8028640747070312,159,92,0.0034965034965034965,1484.0,1500.0,1307.55,1499.0
1.8262760639190674,159,92,0.0034965034965034965,1485.0,1500.0,1307.7,1499.0
1.8496320247650146,159,92,0.0034965034965034965,1486.0,1500.0,1307.8499999999999,1499.0
1.8730530738830566,160,91,0.003401360544217687,1490.0,1500.0,1309.1500000000001,1500.0
1.8964650630950928,160,91,0.003246753246753247,1492.0,1500.0,1309.3,1500.0
1.919795036315918,160,91,0.0034965034965034965,1492.0,1500.0,1309.45,1500.0
1.9431779384613037,160,90,0.003246753246753247,1494.0,1500.0,1310.75,1500.0
1.9665639400482178,161,90,0.003663003663003663,1498.0,1500.0,1311.05,1501.0
1.989914894104004,161,90,0.003663003663003663,1500.0,1500.0,1311.05,1501.0
2.013331890106201,161,90,0.0034965034965034965,1502.0,1500.0,1311.05,1501.0
2.036810874938965,161,89,0.0034965034965034965,1504.0,1500.0,1312.2,1501.0
2.0601630210876465,161,89,0.0034965034965034965,1506.0,1500.0,1312.05,1501.0
2.08347487449646,162,89,0.003663003663003663,1511.0,1500.0,1311.9000000000001,1502.0
2.106786012649536,162,88,0.003663003663003663,1513.0,1500.0,1313.05,1502.0
2.130110025405884,162,88,0.003663003663003663,1515.0,1500.0,1313.2,1502.0
2.153449058532715,162,87,0.0034965034965034965,1517.0,1500.0,1314.2,1502.0
2.176776885986328,162,86,0.0034965034965034965,1519.0,1500.0,1315.5,1502.0
2.2000839710235596,162,86,0.0034965034965034965,1520.0,1500.0,1315.8,1502.0
2.2234480381011963,162,85,0.0034965034965034965,1520,1500.0,1316.95,1502.0
2.246757984161377,162,84,0.0034965034965034965,1520,1500.0,1318.25,1502.0
2.269998073577881,162,84,0.003663003663003663,1520,1500.0,1318.4000000000001,1502.0
2.293294906616211,162,83,0.003968253968253968,1520,1500.0,1319.4000000000001,1502.0
2.31659197807312,162,83,0.003663003663003663,1520,1500.0,1319.4000000000001,1502.0
2.3398640155792236,162,82,0.003787878787878788,1520,1500.0,1320.4000000000001,1502.0
2.36318302154541,162,82,0.0034965034965034965,1520,1500.0,1320.0999999999999,1502.0
2.3868229389190674,162,81,0.003968253968253968,1520,1500.0,1321.0999999999999,1502.0
2.410101890563965,162,80,0.003968253968253968,1520,1500.0,1322.0999999999999,1502.0
2.433332920074463,162,79,0.003787878787878788,1520,1500.0,1323.25,1502.0
2.4566149711608887,162,78,0.003968253968253968,1520,1500.0,1324.4000000000001,1502.0
2.479862928390503,162,78,0.003787878787878788,1520,1500.0,1324.7,1502.0
2.5031790733337402,162,77,0.003787878787878788,1520,1500.0,1325.8499999999999,1502.0
2.526526927947998,163,76,0.003968253968253968,1520,1500.0,1327.0,1503.0
2.5497729778289795,163,76,0.004329004329004329,1520,1500.0,1326.8499999999999,1503.0
2.5730819702148438,163,74,0.003968253968253968,1520,1500.0,1328.8499999999999,1503.0
2.5964300632476807,163,74,0.004329004329004329,1520,1500.0,1328.8499999999999,1503.0
2.619709014892578,163,73,0.003968253968253968,1520,1500.0,1329.8499999999999,1503.0
2.6430108547210693,163,72,0.003968253968253968,1520,1500.0,1330.8499999999999,1503.0
2.666322946548462,163,72,0.003968253968253968,1520,1500.0,1331.0,1503.0
2.689558982849121,162,71,0.003787878787878788,1520,1500.0,1331.8499999999999,1502.0
2.712920904159546,162,70,0.003787878787878788,1520,1500.0,1332.8499999999999,1502.0
2.736346960067749,162,69,0.003968253968253968,1520,1500.0,1333.8499999999999,1502.0
2.759608030319214,162,68,0.003968253968253968,1520,1500.0,1334.8499999999999,1502.0
2.7828750610351562,162,68,0.003968253968253968,1520,1500.0,1334.8499999999999,1502.0
2.806196928024292,162,68,0.003968253968253968,1520,1500.0,1334.8499999999999,1502.0
2.829474925994873,162,68,0.003968253968253968,1520,1500.0,1334.55,1502.0
2.852815866470337,161,68,0.003787878787878788,1520,1500.0,1334.0999999999999,1501.0
2.8761699199676514,161,68,0.003968253968253968,1520,1500.0,1333.5,1501.0
2.8994059562683105,161,67,0.003968253968253968,1519.0,1500.0,1334.05,1501.0
2.922822952270508,160,67,0.003787878787878788,1515.0,1500.0,1333.75,1500.0
2.9462530612945557,160,66,0.003968253968253968,1513.0,1500.0,1334.75,1500.0
2.969588041305542,160,66,0.003968253968253968,1511.0,1500.0,1334.9000000000001,1500.0
2.9929909706115723,161,65,0.004629629629629629,1512.0,1500.0,1336.3499999999999,1501.0
3.0164120197296143,160,65,0.003968253968253968,1508.0,1500.0,1336.5,1500.0
3.0397369861602783,160,65,0.003968253968253968,1506.0,1500.0,1336.6500000000001,1500.0
3.063145875930786,160,65,0.003968253968253968,1504.0,1500.0,1336.5,1500.0
3.0865418910980225,160,63,0.003968253968253968,1503.0,1500.0,1338.6500000000001,1500.0
3.1098690032958984,160,63,0.003968253968253968,1502.0,1500.0,1338.5,1500.0
3.133223056793213,159,63,0.003787878787878788,1498.0,1500.0,1338.5,1499.0
3.1566050052642822,159,63,0.003787878787878788,1497.0,1500.0,1338.5,1499.0
3.1799089908599854,159,63,0.004132231404958678,1496.0,1500.0,1338.6500000000001,1499.0
3.2033028602600098,159,62,0.003787878787878788,1495.0,1500.0,1339.3499999999999,1499.0
3.2267038822174072,159,62,0.003787878787878788,1493.0,1500.0,1339.2,1499.0
3.2500410079956055,159,61,0.003787878787878788,1492.0,1500.0,1340.2,1499.0
3.273376941680908,159,60,0.003787878787878788,1491.0,1500.0,1341.3499999999999,1499.0
3.2967278957366943,161,59,0.004629629629629629,1496.0,1500.0,1342.6500000000001,1501.0
3.3200759887695312,160,59,0.004329004329004329,1494.0,1500.0,1342.95,1500.0
3.3434150218963623,160,59,0.004329004329004329,1494.0,1500.0,1343.25,1500.0
3.3667140007019043,160,59,0.003968253968253968,1495.0,1500.0,1343.25,1500.0
3.390043020248413,161,59,0.004629629629629629,1499.0,1500.0,1342.95,1501.0
3.413383960723877,159,61,0.004329004329004329,1495.0,1500.0,1340.05,1499.0
3.436892032623291,159,61,0.003968253968253968,1495.0,1500.0,1339.3,1499.0
3.460782051086426,159,61,0.003968253968253968,1495.0,1500.0,1338.55,1499.0
3.4844138622283936,160,61,0.004629629629629629,1498.0,1500.0,1337.95,1500.0
3.508044958114624,160,61,0.004629629629629629,1499.0,1500.0,1337.5,1500.0
3.531653881072998,159,61,0.003968253968253968,1495.0,1500.0,1337.8,1499.0
3.555849075317383,159,61,0.003968253968253968,1494.0,1500.0,1338.0999999999999,1499.0
3.5795419216156006,159,62,0.003968253968253968,1493.0,1500.0,1337.25,1499.0
3.6032159328460693,159,62,0.003968253968253968,1492.0,1500.0,1337.4000000000001,1499.0
3.6268980503082275,158,63,0.003787878787878788,1487.0,1500.0,1336.4000000000001,1498.0
3.65053391456604,158,63,0.003968253968253968,1486.0,1500.0,1336.0999999999999,1498.0
3.6741528511047363,158,64,0.003968253968253968,1485.0,1500.0,1334.6500000000001,1498.0
3.697783946990967,157,64,0.003787878787878788,1481.0,1500.0,1334.5,1497.0
3.721374988555908,157,64,0.003787878787878788,1480,1500.0,1334.3499999999999,1497.0
3.744999885559082,157,65,0.003787878787878788,1480,1500.0,1333.3499999999999,1497.0
3.7685389518737793,157,65,0.003787878787878788,1480,1500.0,1333.3499999999999,1497.0
3.7920820713043213,157,66,0.0034965034965034965,1480,1500.0,1332.5,1497.0
3.8156938552856445,157,66,0.003787878787878788,1480,1500.0,1332.5,1497.0
3.8392529487609863,157,67,0.0034965034965034965,1480,1500.0,1331.3499999999999,1497.0
3.8629679679870605,157,68,0.0034965034965034965,1480,1500.0,1330.2,1497.0
3.8865580558776855,157,70,0.0034965034965034965,1480,1500.0,1327.75,1497.0
3.91007399559021,157,70,0.003787878787878788,1480,1500.0,1327.45,1497.0
3.9336600303649902,157,71,0.0034965034965034965,1480,1500.0,1326.0,1497.0
3.9572269916534424,157,72,0.0034965034965034965,1480,1500.0,1324.7,1497.0
3.980754852294922,158,73,0.003663003663003663,1480,1500.0,1323.4000000000001,1498.0
4.004279851913452,157,73,0.0034965034965034965,1480,1500.0,1323.7,1497.0
4.02783203125,158,73,0.003246753246753247,1480,1500.0,1323.8499999999999,1498.0
4.051385879516602,158,74,0.0034965034965034965,1480,1500.0,1323.1500000000001,1498.0
4.075000047683716,158,74,0.0034965034965034965,1480,1500.0,1323.5999999999999,1498.0
4.098562002182007,158,75,0.0034965034965034965,1480,1500.0,1323.05,1498.0
4.122092008590698,158,75,0.0034965034965034965,1480,1500.0,1323.2,1498.0
4.145730972290039,158,75,0.003246753246753247,1480,1500.0,1323.3499999999999,1498.0
4.169270038604736,158,75,0.003246753246753247,1480,1500.0,1323.6500000000001,1498.0
4.192873954772949,159,75,0.003105590062111801,1480,1500.0,1323.8,1499.0
4.216465950012207,159,75,0.003246753246753247,1480,1500.0,1324.0999999999999,1499.0
4.240031957626343,159,76,0.0034965034965034965,1481.0,1500.0,1323.25,1499.0
4.263627052307129,159,76,0.0034965034965034965,1482.0,1500.0,1323.4000000000001,1499.0
4.2872350215911865,159,76,0.003246753246753247,1483.0,1500.0,1323.4000000000001,1499.0
4.310833930969238,159,76,0.003246753246753247,1484.0,1500.0,1323.4000000000001,1499.0
4.334527969360352,159,77,0.0034965034965034965,1485.0,1500.0,1322.0999999999999,1499.0
4.358176946640015,160,77,0.003105590062111801,1489.0,1500.0,1322.0999999999999,1500.0
4.381820917129517,160,78,0.0033444816053511705,1491.0,1500.0,1320.95,1500.0
4.405627012252808,160,78,0.003246753246753247,1493.0,1500.0,1320.8,1500.0
4.429236888885498,160,78,0.003246753246753247,1494.0,1500.0,1320.6500000000001,1500.0
4.452908039093018,160,78,0.003246753246753247,1495.0,1500.0,1320.8,1500.0
4.47657585144043,160,78,0.003105590062111801,1496.0,1500.0,1320.8,1500.0
4.500164985656738,160,79,0.0034965034965034965,1497.0,1500.0,1319.95,1500.0
4.5237648487091064,160,79,0.003246753246753247,1498.0,1500.0,1320.0999999999999,1500.0
4.547425985336304,160,79,0.003246753246753247,1499.0,1500.0,1320.25,1500.0
4.571014881134033,160,79,0.003246753246753247,1500.0,1500.0,1320.25,1500.0
4.59469199180603,161,80,0.0033444816053511705,1503.0,1500.0,1319.0999999999999,1501.0
4.6182990074157715,160,80,0.0034965034965034965,1501.0,1500.0,1319.0999999999999,1500.0
4.641923904418945,161,80,0.0033444816053511705,1504.0,1500.0,1319.0999999999999,1501.0
4.665745973587036,161,80,0.003246753246753247,1505.0,1500.0,1319.0999999999999,1501.0
4.689367055892944,161,80,0.003246753246753247,1506.0,1500.0,1319.0999999999999,1501.0
4.7131688594818115,161,80,0.003246753246753247,1507.0,1500.0,1319.4000000000001,1501.0
4.736865043640137,162,80,0.003105590062111801,1511.0,1500.0,1319.55,1502.0
4.760760068893433,162,80,0.003246753246753247,1513.0,1500.0,1319.7,1502.0
4.784345865249634,162,80,0.0034965034965034965,1515.0,1500.0,1319.8499999999999,1502.0
4.807971954345703,162,80,0.0034965034965034965,1517.0,1500.0,1320.0,1502.0
4.8315839767456055,162,80,0.0034965034965034965,1518.0,1500.0,1320.0,1502.0
4.855382919311523,162,79,0.003246753246753247,1520.0,1500.0,1321.1500000000001,1502.0
4.878987073898315,162,79,0.003246753246753247,1520,1500.0,1321.3,1502.0
4.902606964111328,162,79,0.003246753246753247,1520,1500.0,1321.45,1502.0
4.9262049198150635,162,79,0.0034965034965034965,1520,1500.0,1321.5999999999999,1502.0
4.949815988540649,163,79,0.0033444816053511705,1520,1500.0,1321.75,1503.0
4.973361968994141,162,79,0.0034965034965034965,1520,1500.0,1321.5999999999999,1502.0
4.996891021728516,163,79,0.0033444816053511705,1520,1500.0,1321.45,1503.0
5.0204079151153564,162,78,0.0034965034965034965,1520,1500.0,1322.45,1502.0
5.044020891189575,162,78,0.0034965034965034965,1520,1500.0,1322.45,1502.0
5.067543983459473,163,78,0.0033444816053511705,1520,1500.0,1322.45,1503.0
5.091059923171997,162,77,0.003787878787878788,1520,1500.0,1323.75,1502.0
5.114677906036377,162,77,0.0034965034965034965,1520,1500.0,1324.05,1502.0
5.138218879699707,162,77,0.0034965034965034965,1520,1500.0,1324.05,1502.0
5.1617419719696045,162,77,0.0034965034965034965,1520,1500.0,1324.05,1502.0
5.1854400634765625,162,76,0.003787878787878788,1520,1500.0,1325.2,1502.0
5.208956956863403,162,76,0.0034965034965034965,1520,1500.0,1325.05,1502.0
5.232625961303711,162,75,0.003787878787878788,1520,1500.0,1326.05,1502.0
5.256248950958252,162,75,0.0034965034965034965,1520,1500.0,1326.2,1502.0
5.279785871505737,162,74,0.003787878787878788,1520,1500.0,1327.5,1502.0
5.303315877914429,163,74,0.004273504273504274,1520,1500.0,1327.5,1503.0
5.326863050460815,163,73,0.004273504273504274,1520,1500.0,1328.8,1503.0
5.350393056869507,162,73,0.0034965034965034965,1520,1500.0,1328.8,1502.0
5.37393593788147,161,72,0.0034965034965034965,1520,1500.0,1329.95,1501.0
5.397454023361206,161,72,0.0034965034965034965,1520,1500.0,1329.8,1501.0
5.420964002609253,161,72,0.0034965034965034965,1520,1500.0,1329.8,1501.0
5.444599866867065,161,71,0.0034965034965034965,1520.0,1500.0,1330.6500000000001,1501.0
5.468226909637451,161,71,0.0034965034965034965,1519.0,1500.0,1330.6500000000001,1501.0
5.491873025894165,161,70,0.0034965034965034965,1518.0,1500.0,1331.5,1501.0
5.515691041946411,161,69,0.003105590062111801,1517.0,1500.0,1332.6500000000001,1501.0
5.539326906204224,160,69,0.0034965034965034965,1512.0,1500.0,1332.8,1500.0
5.563000917434692,160,68,0.0034965034965034965,1509.0,1500.0,1333.95,1500.0
5.586658954620361,160,68,0.0034965034965034965,1507.0,1500.0,1334.0999999999999,1500.0
5.610306978225708,160,67,0.0034965034965034965,1506.0,1500.0,1335.25,1500.0
5.633928060531616,161,66,0.004273504273504274,1508.0,1500.0,1336.25,1501.0
5.657613039016724,160,65,0.003246753246753247,1505.0,1500.0,1337.4000000000001,1500.0
5.68121600151062,161,65,0.004273504273504274,1507.0,1500.0,1337.4000000000001,1501.0
5.7048749923706055,160,65,0.0034965034965034965,1504.0,1500.0,1337.4000000000001,1500.0
5.728471040725708,160,65,0.0034965034965034965,1503.0,1500.0,1337.25,1500.0
5.752054929733276,160,65,0.0034965034965034965,1502.0,1500.0,1336.95,1500.0
5.777272939682007,160,65,0.0034965034965034965,1502.0,1500.0,1336.3499999999999,1500.0
5.801115989685059,160,65,0.0034965034965034965,1502.0,1500.0,1335.9000000000001,1500.0
5.824773073196411,160,65,0.0034965034965034965,1502.0,1500.0,1335.45,1500.0
5.848420858383179,159,65,0.0034965034965034965,1499.0,1500.0,1335.1500000000001,1499.0
5.872132062911987,159,64,0.0034965034965034965,1497.0,1500.0,1336.1500000000001,1499.0
5.895843029022217,159,64,0.0034965034965034965,1496.0,1500.0,1336.3,1499.0
5.919458866119385,159,63,0.0034965034965034965,1494.0,1500.0,1337.5999999999999,1499.0
5.943234920501709,159,61,0.003787878787878788,1493.0,1500.0,1340.2,1499.0
5.9672980308532715,158,61,0.0034965034965034965,1489.0,1500.0,1340.8,1498.0
5.990936994552612,158,60,0.0034965034965034965,1487.0,1500.0,1342.25,1498.0
6.014561891555786,158,60,0.0034965034965034965,1485.0,1500.0,1342.7,1498.0
6.038189888000488,158,60,0.0034965034965034965,1483.0,1500.0,1342.8499999999999,1498.0
6.061931848526001,158,60,0.0034965034965034965,1481.0,1500.0,1342.4000000000001,1498.0
6.085723876953125,158,60,0.0034965034965034965,1480.0,1500.0,1341.95,1498.0
6.109356880187988,158,60,0.0034965034965034965,1480,1500.0,1341.3499999999999,1498.0
6.1330320835113525,158,60,0.0034965034965034965,1480,1500.0,1340.75,1498.0
6.156658887863159,159,60,0.003105590062111801,1480.0,1500.0,1340.3,1499.0
6.180302858352661,159,60,0.003105590062111801,1480.0,1500.0,1340.1500000000001,1499.0
6.2039148807525635,159,60,0.003105590062111801,1481.0,1500.0,1340.0,1499.0
6.227634906768799,159,60,0.003105590062111801,1482.0,1500.0,1340.0,1499.0
6.2512428760528564,159,60,0.0033444816053511705,1483.0,1500.0,1340.0,1499.0
6.274945974349976,158,59,0.003246753246753247,1481.0,1500.0,1341.1500000000001,1498.0
6.298583030700684,158,59,0.003246753246753247,1481.0,1500.0,1341.3,1498.0
6.322176933288574,158,59,0.003246753246753247,1481.0,1500.0,1341.45,1498.0
6.3459038734436035,158,59,0.003246753246753247,1481.0,1500.0,1341.5999999999999,1498.0
6.369546890258789,159,60,0.002976190476190476,1484.0,1500.0,1340.5999999999999,1499.0
6.393187046051025,158,60,0.003246753246753247,1481.0,1500.0,1340.3,1498.0
6.416820049285889,158,61,0.0030303030303030303,1480.0,1500.0,1338.8499999999999,1498.0
6.440598964691162,158,61,0.003246753246753247,1480,1500.0,1338.4000000000001,1498.0
6.464155912399292,158,61,0.003246753246753247,1480,1500.0,1337.95,1498.0
6.487678050994873,158,61,0.0030303030303030303,1480,1500.0,1337.8,1498.0
6.511221885681152,158,61,0.002777777777777778,1480,1500.0,1337.8,1498.0
6.53485894203186,159,60,0.002976190476190476,1480.0,1500.0,1339.25,1499.0
6.558466911315918,160,60,0.0026666666666666666,1484.0,1500.0,1339.7,1500.0
6.58207893371582,160,60,0.0026666666666666666,1486.0,1500.0,1340.1500000000001,1500.0
6.605808973312378,160,59,0.0027472527472527475,1487.0,1500.0,1341.5999999999999,1500.0
6.629443883895874,161,59,0.002857142857142857,1492.0,1500.0,1342.05,1501.0
6.653111934661865,161,60,0.0026666666666666666,1495.0,1500.0,1340.9000000000001,1501.0
6.676789045333862,160,61,0.002564102564102564,1495.0,1500.0,1339.5999999999999,1500.0
6.700423002243042,161,61,0.002857142857142857,1500.0,1500.0,1339.3,1501.0
6.724035978317261,160,63,0.002564102564102564,1500.0,1500.0,1336.4000000000001,1500.0
6.747668027877808,160,63,0.002857142857142857,1502.0,1500.0,1335.5,1500.0
6.77125096321106,159,64,0.002564102564102564,1500.0,1500.0,1333.9000000000001,1499.0
6.79496693611145,159,64,0.002564102564102564,1499.0,1500.0,1333.5999999999999,1499.0
6.818597078323364,159,64,0.002564102564102564,1498.0,1500.0,1333.3,1499.0
6.842252969741821,159,64,0.002403846153846154,1497.0,1500.0,1333.75,1499.0
6.865980863571167,159,65,0.0026666666666666666,1495.0,1500.0,1333.05,1499.0
6.889596939086914,159,66,0.0026666666666666666,1493.0,1500.0,1332.3499999999999,1499.0
6.913321018218994,159,67,0.0026666666666666666,1492.0,1500.0,1331.3499999999999,1499.0
6.937057018280029,159,67,0.002403846153846154,1490.0,1500.0,1331.3499999999999,1499.0
6.9607250690460205,159,68,0.002564102564102564,1489.0,1500.0,1329.9000000000001,1499.0
6.9844069480896,159,68,0.002564102564102564,1488.0,1500.0,1329.75,1499.0
7.008048057556152,159,68,0.002403846153846154,1488.0,1500.0,1329.75,1499.0
7.031684875488281,159,69,0.002564102564102564,1488.0,1500.0,1328.9000000000001,1499.0
7.055436849594116,160,69,0.002564102564102564,1491.0,1500.0,1329.05,1500.0
7.079061985015869,160,69,0.002403846153846154,1492.0,1500.0,1329.5,1500.0
7.102701902389526,160,69,0.002403846153846154,1493.0,1500.0,1329.8,1500.0
7.126374959945679,160,69,0.002403846153846154,1494.0,1500.0,1329.95,1500.0
7.149990081787109,161,69,0.0023148148148148147,1498.0,1500.0,1330.25,1501.0
7.173872947692871,161,69,0.002403846153846154,1500.0,1500.0,1330.55,1501.0
7.197515964508057,161,69,0.002403846153846154,1502.0,1500.0,1330.7,1501.0
7.221102952957153,161,69,0.002403846153846154,1504.0,1500.0,1330.8499999999999,1501.0
7.244755029678345,161,69,0.002403846153846154,1506.0,1500.0,1331.0,1501.0
7.268373012542725,161,69,0.002403846153846154,1508.0,1500.0,1331.0,1501.0
7.291974067687988,162,69,0.0023148148148148147,1512.0,1500.0,1331.0,1502.0
7.3157758712768555,162,70,0.0024691358024691358,1514.0,1500.0,1329.8499999999999,1502.0
7.339400053024292,162,70,0.0023148148148148147,1516.0,1500.0,1329.7,1502.0
7.363134860992432,162,70,0.0023148148148148147,1518.0,1500.0,1329.55,1502.0
7.386821031570435,162,70,0.002403846153846154,1519.0,1500.0,1329.4000000000001,1502.0
7.410428047180176,162,70,0.0023148148148148147,1520.0,1500.0,1329.25,1502.0
7.434023857116699,162,70,0.0023148148148148147,1520,1500.0,1329.4000000000001,1502.0
7.457597017288208,161,70,0.002403846153846154,1519.0,1500.0,1329.55,1501.0
7.48122501373291,161,70,0.002403846153846154,1519.0,1500.0,1329.7,1501.0
7.504878997802734,161,71,0.002564102564102564,1519.0,1500.0,1328.7,1501.0
7.528491020202637,162,71,0.0023148148148148147,1520,1500.0,1328.7,1502.0
7.552037000656128,162,71,0.0023148148148148147,1520,1500.0,1328.55,1502.0
7.575693845748901,162,71,0.0023148148148148147,1520,1500.0,1328.4000000000001,1502.0
7.599354982376099,162,71,0.0023148148148148147,1520,1500.0,1328.25,1502.0
7.622890949249268,162,71,0.0023148148148148147,1520,1500.0,1328.4000000000001,1502.0
7.646498918533325,162,71,0.0023148148148148147,1520,1500.0,1328.55,1502.0
7.6700279712677,161,71,0.002403846153846154,1518.0,1500.0,1328.7,1501.0
7.693644046783447,161,71,0.002564102564102564,1518.0,1500.0,1328.8499999999999,1501.0
7.717287063598633,161,71,0.002564102564102564,1518.0,1500.0,1329.0,1501.0
7.740921974182129,161,71,0.002564102564102564,1518.0,1500.0,1329.0,1501.0
7.764523029327393,161,71,0.002564102564102564,1517.0,1500.0,1329.0,1501.0
7.788120985031128,161,71,0.002403846153846154,1516.0,1500.0,1329.0,1501.0
7.811713933944702,161,71,0.002403846153846154,1515.0,1500.0,1329.0,1501.0
7.83565092086792,161,71,0.002564102564102564,1514.0,1500.0,1329.0,1501.0
7.859251976013184,161,71,0.002564102564102564,1513.0,1500.0,1329.0,1501.0
7.88288688659668,161,70,0.002403846153846154,1512.0,1500.0,1330.1500000000001,1501.0
7.906512975692749,161,70,0.002403846153846154,1512.0,1500.0,1330.3,1501.0
7.930083990097046,162,70,0.0024691358024691358,1515.0,1500.0,1330.45,1502.0
7.953549861907959,161,69,0.002403846153846154,1513.0,1500.0,1331.75,1501.0
7.976909875869751,161,69,0.002403846153846154,1513.0,1500.0,1332.05,1501.0
8.000257968902588,161,69,0.002403846153846154,1513.0,1500.0,1332.05,1501.0
8.023597955703735,162,69,0.0030303030303030303,1516.0,1500.0,1332.05,1502.0
8.046962976455688,161,68,0.002403846153846154,1514.0,1500.0,1333.2,1501.0
8.070292949676514,162,68,0.002840909090909091,1517.0,1500.0,1333.05,1502.0
8.0936439037323,160,68,0.002403846153846154,1512.0,1500.0,1332.9000000000001,1500.0
8.116971015930176,160,68,0.002403846153846154,1511.0,1500.0,1332.9000000000001,1500.0
8.1403169631958,160,67,0.002403846153846154,1510.0,1500.0,1334.05,1500.0
8.163641929626465,160,67,0.002178649237472767,1508.0,1500.0,1333.9000000000001,1500.0
8.186959028244019,159,67,0.0022624434389140274,1504.0,1500.0,1333.9000000000001,1499.0
8.210320949554443,159,66,0.002403846153846154,1502.0,1500.0,1335.05,1499.0
8.233667850494385,159,66,0.002403846153846154,1500.0,1500.0,1335.2,1499.0
8.257014989852905,160,66,0.002840909090909091,1500.0,1500.0,1335.05,1500.0
8.280375003814697,159,66,0.002403846153846154,1496.0,1500.0,1335.05,1499.0
8.303730010986328,158,66,0.0022624434389140274,1490.0,1500.0,1335.05,1498.0
8.327084064483643,159,65,0.0022624434389140274,1491.0,1500.0,1335.9000000000001,1499.0
8.350436925888062,158,64,0.002403846153846154,1487.0,1500.0,1336.9000000000001,1498.0
8.373777866363525,158,63,0.002403846153846154,1485.0,1500.0,1338.2,1498.0
8.397114038467407,158,63,0.002403846153846154,1483.0,1500.0,1338.5,1498.0
8.420717000961304,160,63,0.002028397565922921,1488.0,1500.0,1338.8,1500.0
8.444102048873901,158,63,0.0022624434389140274,1483.0,1500.0,1338.95,1498.0
8.467474937438965,160,62,0.0021551724137931034,1488.0,1500.0,1339.95,1500.0
8.490810871124268,160,62,0.0020833333333333333,1488.0,1500.0,1339.6500000000001,1500.0
8.514169931411743,160,62,0.00196078431372549,1489.0,1500.0,1339.3499999999999,1500.0
8.537514925003052,160,62,0.00196078431372549,1491.0,1500.0,1339.05,1500.0
8.560873031616211,160,62,0.002028397565922921,1492.0,1500.0,1338.9000000000001,1500.0
8.58422303199768,160,61,0.002028397565922921,1494.0,1500.0,1339.75,1500.0
8.607568979263306,159,61,0.00196078431372549,1493.0,1500.0,1339.75,1499.0
8.630890846252441,159,60,0.00196078431372549,1494.0,1500.0,1340.9000000000001,1499.0
8.654242992401123,159,60,0.00196078431372549,1493.0,1500.0,1341.05,1499.0
8.677600860595703,159,59,0.0018975332068311196,1494.0,1500.0,1342.3499999999999,1499.0
8.700968027114868,159,58,0.0017921146953405018,1493.0,1500.0,1343.6500000000001,1499.0
8.72432804107666,158,58,0.00196078431372549,1489.0,1500.0,1343.95,1498.0
8.747668981552124,158,57,0.001851851851851852,1487.0,1500.0,1345.0999999999999,1498.0
8.771005868911743,158,57,0.001851851851851852,1485.0,1500.0,1345.25,1498.0
8.794357061386108,158,57,0.00196078431372549,1483.0,1500.0,1345.0999999999999,1498.0
8.81769585609436,158,57,0.00196078431372549,1481.0,1500.0,1344.8,1498.0
8.841057062149048,158,56,0.001851851851851852,1480.0,1500.0,1345.6500000000001,1498.0
8.864409923553467,158,56,0.001851851851851852,1480,1500.0,1345.3499999999999,1498.0
8.88766884803772,158,56,0.001851851851851852,1480,1500.0,1345.05,1498.0
8.910942077636719,158,56,0.001851851851851852,1480,1500.0,1344.9000000000001,1498.0
8.934232950210571,158,56,0.001851851851851852,1480,1500.0,1344.9000000000001,1498.0
8.957535028457642,158,56,0.0017543859649122807,1480,1500.0,1344.5999999999999,1498.0
8.980836868286133,159,56,0.001697792869269949,1480,1500.0,1344.45,1499.0
9.00410795211792,159,55,0.001697792869269949,1480.0,1500.0,1345.45,1499.0
9.027466058731079,159,55,0.001697792869269949,1481.0,1500.0,1345.45,1499.0
9.05081295967102,159,54,0.0017921146953405018,1482.0,1500.0,1346.5999999999999,1499.0
9.07414698600769,159,54,0.0016129032258064516,1483.0,1500.0,1346.9000000000001,1499.0
9.097475051879883,159,54,0.001697792869269949,1484.0,1500.0,1347.2,1499.0
9.120797872543335,159,54,0.001697792869269949,1485.0,1500.0,1347.2,1499.0
9.144165992736816,159,54,0.001697792869269949,1486.0,1500.0,1347.2,1499.0
9.167487859725952,159,54,0.001697792869269949,1487.0,1500.0,1346.9000000000001,1499.0
9.190814971923828,159,54,0.001697792869269949,1488.0,1500.0,1346.5999999999999,1499.0
9.214163064956665,159,54,0.0015625,1488.0,1500.0,1346.3,1499.0
9.237491846084595,159,54,0.0016129032258064516,1488.0,1500.0,1346.1500000000001,1499.0
9.260858058929443,160,55,0.0014005602240896359,1491.0,1500.0,1344.8499999999999,1500.0
9.284195899963379,160,55,0.0014705882352941176,1492.0,1500.0,1344.7,1500.0
9.307515859603882,160,55,0.0015151515151515152,1493.0,1500.0,1344.55,1500.0
9.330887079238892,160,55,0.0014705882352941176,1494.0,1500.0,1344.4000000000001,1500.0
9.3542320728302,160,55,0.0014705882352941176,1495.0,1500.0,1344.25,1500.0
9.377564907073975,160,55,0.0014705882352941176,1496.0,1500.0,1344.4000000000001,1500.0
9.400909900665283,161,55,0.0014285714285714286,1500.0,1500.0,1344.55,1501.0
9.424234867095947,161,55,0.0014285714285714286,1502.0,1500.0,1344.7,1501.0
9.447673082351685,161,55,0.0014285714285714286,1504.0,1500.0,1344.8499999999999,1501.0
9.47120189666748,161,56,0.0013605442176870747,1506.0,1500.0,1343.8499999999999,1501.0
9.494579076766968,161,56,0.0013605442176870747,1507.0,1500.0,1343.7,1501.0
9.517924070358276,161,56,0.0013605442176870747,1508.0,1500.0,1343.55,1501.0
9.541297912597656,161,56,0.0014285714285714286,1509.0,1500.0,1343.4000000000001,1501.0
9.564640998840332,161,56,0.0014285714285714286,1510.0,1500.0,1343.25,1501.0
9.588279008865356,161,57,0.0013605442176870747,1511.0,1500.0,1342.25,1501.0
9.61164903640747,160,57,0.0014005602240896359,1509.0,1500.0,1342.25,1500.0
9.63519287109375,161,58,0.0013605442176870747,1511.0,1500.0,1341.0999999999999,1501.0
9.658590078353882,160,58,0.0014005602240896359,1508.0,1500.0,1340.95,1500.0
9.68193793296814,161,59,0.0013605442176870747,1510.0,1500.0,1339.6500000000001,1501.0
9.705412864685059,160,60,0.0014005602240896359,1507.0,1500.0,1338.3499999999999,1500.0
9.72876787185669,160,60,0.0014005602240896359,1506.0,1500.0,1338.05,1500.0
9.752102851867676,160,60,0.0014005602240896359,1505.0,1500.0,1338.05,1500.0
9.775563955307007,161,61,0.0013605442176870747,1507.0,1500.0,1336.9000000000001,1501.0
9.798907041549683,161,61,0.0013605442176870747,1507.0,1500.0,1337.05,1501.0
9.82223892211914,161,61,0.0013605442176870747,1507.0,1500.0,1337.3499999999999,1501.0
9.845753908157349,161,61,0.0014005602240896359,1508.0,1500.0,1337.6500000000001,1501.0
9.869133949279785,162,61,0.0013605442176870747,1511.0,1500.0,1337.8,1502.0
9.892535924911499,161,61,0.001336898395721925,1510.0,1500.0,1338.25,1501.0
9.915946960449219,163,61,0.0012285012285012285,1516.0,1500.0,1338.55,1503.0
9.939271926879883,163,62,0.001287001287001287,1519.0,1500.0,1337.55,1503.0
9.96269702911377,163,62,0.0012285012285012285,1520,1500.0,1337.55,1503.0
9.986041069030762,163,62,0.0012285012285012285,1520,1500.0,1337.55,1503.0
10.009315013885498,163,62,0.0012285012285012285,1520,1500.0,1337.4000000000001,1503.0
10.032629013061523,162,62,0.0011961722488038277,1520,1500.0,1337.25,1502.0
10.055964946746826,162,63,0.0011961722488038277,1520,1500.0,1336.25,1502.0
10.079215049743652,161,63,0.0011961722488038277,1520,1500.0,1336.25,1501.0
10.10254192352295,161,63,0.0011961722488038277,1520,1500.0,1336.25,1501.0
10.125855922698975,161,64,0.0011961722488038277,1520,1500.0,1335.0999999999999,1501.0
10.149152994155884,161,64,0.0011961722488038277,1520,1500.0,1334.95,1501.0
10.172510862350464,160,64,0.0011961722488038277,1517.0,1500.0,1334.95,1500.0
10.195942878723145,160,64,0.0011961722488038277,1514.0,1500.0,1334.95,1500.0
10.219276905059814,160,65,0.0011441647597254005,1511.0,1500.0,1333.8,1500.0
10.242714881896973,161,65,0.0012787723785166241,1511.0,1500.0,1333.95,1501.0
10.26614499092102,159,65,0.0011441647597254005,1504.0,1500.0,1334.0999999999999,1499.0
10.2894868850708,159,64,0.0011961722488038277,1501.0,1500.0,1335.25,1499.0
10.312916994094849,159,65,0.0011441647597254005,1499.0,1500.0,1334.25,1499.0
10.336387872695923,159,65,0.0011441647597254005,1497.0,1500.0,1334.55,1499.0
10.359732866287231,159,65,0.0011441647597254005,1495.0,1500.0,1334.7,1499.0
10.383131980895996,161,65,0.0010604453870625664,1499.0,1500.0,1334.8499999999999,1501.0
10.406539916992188,160,65,0.0011148272017837235,1497.0,1500.0,1334.7,1500.0
10.429862976074219,161,65,0.0010604453870625664,1500.0,1500.0,1334.8499999999999,1501.0
10.45330286026001,161,65,0.0010604453870625664,1501.0,1500.0,1334.8499999999999,1501.0
10.476711988449097,161,65,0.0010604453870625664,1501.0,1500.0,1334.8499999999999,1501.0
10.500056028366089,161,65,0.0010604453870625664,1503.0,1500.0,1334.8499999999999,1501.0
10.52339792251587,160,65,0.0010351966873706005,1502.0,1500.0,1335.0,1500.0
10.546757936477661,160,65,0.000992063492063492,1503.0,1500.0,1335.0,1500.0
10.570091962814331,159,65,0.000992063492063492,1501.0,1500.0,1335.0,1499.0
10.593411922454834,159,65,0.000992063492063492,1501.0,1500.0,1335.0,1499.0
10.616745948791504,159,65,0.000992063492063492,1499.0,1500.0,1335.0,1499.0
10.640050888061523,159,65,0.0009689922480620155,1498.0,1500.0,1335.0,1499.0
10.663382053375244,158,65,0.0009523809523809524,1493.0,1500.0,1335.0,1498.0
10.686702013015747,158,65,0.0009523809523809524,1490.0,1500.0,1335.0,1498.0
10.71001386642456,158,65,0.0009302325581395349,1487.0,1500.0,1335.0,1498.0
10.733334064483643,157,64,0.0009157509157509158,1481.0,1500.0,1336.1500000000001,1497.0
10.75666093826294,157,64,0.0009157509157509158,1480,1500.0,1336.3,1497.0
10.77992296218872,157,64,0.0008944543828264759,1480,1500.0,1336.45,1497.0
10.803494930267334,156,64,0.0009157509157509158,1480,1500.0,1336.5999999999999,1496.0
10.82677698135376,156,64,0.0009157509157509158,1480,1500.0,1336.75,1496.0
10.850040912628174,157,64,0.0008417508417508417,1480,1500.0,1336.5999999999999,1497.0
10.873296976089478,158,64,0.0008230452674897119,1480,1500.0,1336.45,1498.0
10.896556854248047,158,64,0.0008051529790660225,1480,1500.0,1336.3,1498.0
10.91980791091919,159,64,0.0007880220646178094,1480,1500.0,1336.1500000000001,1499.0
10.94315505027771,159,63,0.0007598784194528875,1480,1500.0,1337.1500000000001,1499.0
10.966526985168457,159,63,0.0007598784194528875,1480,1500.0,1337.3,1499.0
10.989768028259277,159,63,0.0007598784194528875,1480,1500.0,1337.45,1499.0
11.01311707496643,159,63,0.0007336757153338225,1480,1500.0,1337.5999999999999,1499.0
11.036542892456055,159,62,0.0007598784194528875,1481.0,1500.0,1338.9000000000001,1499.0
11.05989384651184,158,61,0.0007183908045977011,1481.0,1500.0,1340.05,1498.0
11.083297967910767,158,60,0.0006944444444444445,1482.0,1500.0,1341.3499999999999,1498.0
11.106706857681274,158,60,0.0007336757153338225,1482.0,1500.0,1341.6500000000001,1498.0
11.130056858062744,158,60,0.0007336757153338225,1482.0,1500.0,1341.95,1498.0
11.153390884399414,158,60,0.0006720430107526882,1481.0,1500.0,1341.95,1498.0
11.1767098903656,158,59,0.0006944444444444445,1480.0,1500.0,1342.95,1498.0
11.200028896331787,159,60,0.0006583278472679394,1482.0,1500.0,1341.5,1499.0
11.223340034484863,159,60,0.0006451612903225806,1482.0,1500.0,1341.05,1499.0
11.246729850769043,160,59,0.0006325110689437065,1485.0,1500.0,1341.75,1500.0
11.270058870315552,160,59,0.0006325110689437065,1486.0,1500.0,1341.5999999999999,1500.0
11.293405055999756,160,59,0.0006203473945409429,1488.0,1500.0,1341.3,1500.0
11.31675100326538,160,58,0.0006009615384615385,1490.0,1500.0,1342.5999999999999,1500.0
