time,x,y,size_inv,roll,pitch,thrust,yaw
0.0008909702301025391,165,25,0.005847953216374269,1515.0,1499.0,1350,1505.0
0.025290966033935547,163,26,0.004545454545454545,1514.0,1499.0,1350,1503.0
0.04979205131530762,162,28,0.002840909090909091,1514.0,1499.0,1350,1502.0
0.0737600326538086,163,26,0.004329004329004329,1519.0,1499.0,1350,1503.0
0.09691596031188965,166,25,0.004784688995215311,1520,1499.0,1350,1506.0
0.11993098258972168,162,25,0.005050505050505051,1520,1499.0,1350,1502.0
0.14283514022827148,165,14,0.005714285714285714,1520,1499.0,1350,1505.0
0.16608405113220215,164,24,0.005263157894736842,1520,1499.0,1350,1504.0
0.18919897079467773,165,13,0.0044444444444444444,1520,1499.0,1350,1505.0
0.21234703063964844,166,25,0.004901960784313725,1520,1499.0,1350,1506.0
0.23571014404296875,164,25,0.003968253968253968,1520,1499.0,1350,1504.0
0.25951099395751953,164,26,0.004132231404958678,1520,1499.0,1350,1504.0
0.28345513343811035,164,24,0.005555555555555556,1520,1499.0,1350,1504.0
0.3072669506072998,163,27,0.004329004329004329,1520,1499.0,1350,1503.0
0.33086609840393066,161,26,0.004761904761904762,1520,1499.0,1350,1501.0
0.3544580936431885,160,12,0.004807692307692308,1520,1499.0,1350,1500.0
0.3780651092529297,160,24,0.0058823529411764705,1520,1499.0,1350,1500.0
0.40181994438171387,157,26,0.0033444816053511705,1518.0,1499.0,1350,1497.0
0.42560815811157227,156,26,0.004329004329004329,1507.0,1499.0,1350,1496.0
0.4494969844818115,154,27,0.003663003663003663,1491.0,1499.0,1350,1494.0
0.47336292266845703,152,30,0.0043859649122807015,1480,1499.0,1350,1492.0
0.49716806411743164,153,19,0.004273504273504274,1480,1499.0,1350,1493.0
0.5208470821380615,152,33,0.0034965034965034965,1480,1499.0,1350,1492.0
0.5445921421051025,152,36,0.0025252525252525255,1480,1499.0,1350,1492.0
0.5682721138000488,155,33,0.0053475935828877,1480,1499.0,1350,1495.0
0.5921571254730225,156,35,0.003663003663003663,1480,1499.0,1350,1496.0
0.6157820224761963,157,20,0.004,1480,1499.0,1350,1497.0
0.639578104019165,159,37,0.003076923076923077,1480,1499.0,1350,1499.0
0.6634809970855713,158,39,0.004132231404958678,1480,1499.0,1350,1498.0
0.6872880458831787,159,40,0.003968253968253968,1480,1499.0,1350,1499.0
0.7109589576721191,159,29,0.0044444444444444444,1480,1499.0,1350,1499.0
0.7347779273986816,157,46,0.005,1480,1499.0,1343.28,1497.0
0.7587189674377441,158,51,0.003105590062111801,1480,1499.0,1322.5599999999999,1498.0
0.782707929611206,158,55,0.0033444816053511705,1480,1499.0,1298.8,1498.0
0.806549072265625,157,82,0.00411522633744856,1480,1499.0,1250,1497.0
0.8301999568939209,157,83,0.0034965034965034965,1480,1499.0,1250,1497.0
0.8538129329681396,158,85,0.0038314176245210726,1480,1499.0,1250,1498.0
0.8774011135101318,157,82,0.0018796992481203006,1480,1499.0,1250,1497.0
0.901076078414917,157,83,0.0016666666666666668,1480,1499.0,1250,1497.0
0.9247629642486572,156,86,0.0014992503748125937,1480,1499.0,1250,1496.0
0.9485790729522705,156,90,0.0016420361247947454,1480,1499.0,1250,1496.0
0.9725570678710938,155,91,0.0016233766233766235,1480,1499.0,1250,1495.0
0.9963250160217285,154,94,0.0017857142857142857,1480,1499.0,1250,1494.0
1.0200750827789307,154,94,0.001388888888888889,1480,1499.0,1256.4000000000001,1494.0
1.0440289974212646,154,97,0.0015151515151515152,1480,1499.0,1250,1494.0
1.0677261352539062,154,97,0.001388888888888889,1480,1499.0,1250,1494.0
1.0916340351104736,154,103,0.0018148820326678765,1480,1499.0,1250,1494.0
1.1152961254119873,154,105,0.0018148820326678765,1480,1499.0,1250,1494.0
1.1388330459594727,153,105,0.0017857142857142857,1480,1499.0,1250,1493.0
1.1626880168914795,154,106,0.0017241379310344827,1480,1499.0,1250,1494.0
1.186295986175537,153,107,0.001358695652173913,1480,1499.0,1250,1493.0
1.2100410461425781,152,108,0.0014492753623188406,1480,1499.0,1250,1492.0
1.2338600158691406,153,112,0.0015360983102918587,1480,1499.0,1250,1493.0
1.2575650215148926,153,114,0.001697792869269949,1480,1499.0,1250,1493.0
1.2813749313354492,153,113,0.001567398119122257,1480,1499.0,1250,1493.0
1.3052680492401123,153,116,0.0017543859649122807,1480,1499.0,1250,1493.0
1.3295021057128906,153,117,0.001697792869269949,1480,1499.0,1250,1493.0
1.3533179759979248,153,115,0.001402524544179523,1480,1499.0,1250,1493.0
1.3771049976348877,154,109,0.0008547008547008547,1480,1499.0,1252.3199999999999,1494.0
1.4009151458740234,154,116,0.001282051282051282,1480,1499.0,1250,1494.0
1.424705982208252,154,120,0.0016420361247947454,1480,1499.0,1250.8,1494.0
1.44846510887146,155,119,0.001567398119122257,1480,1499.0,1261.3599999999999,1495.0
1.4724400043487549,155,120,0.0014492753623188406,1480,1499.0,1257.04,1495.0
1.4962170124053955,155,121,0.0017241379310344827,1480,1499.0,1250,1495.0
1.5200400352478027,155,118,0.0011947431302270011,1480,1499.0,1250,1495.0
1.5436830520629883,155,119,0.0012345679012345679,1480,1499.0,1250,1495.0
1.5671730041503906,156,121,0.0015151515151515152,1480,1499.0,1250,1496.0
1.5908260345458984,156,121,0.001466275659824047,1480,1499.0,1250,1496.0
1.6145820617675781,156,122,0.0016129032258064516,1480,1499.0,1258.72,1496.0
1.6384520530700684,157,122,0.0016129032258064516,1480,1499.0,1255.6800000000001,1497.0
1.6623411178588867,157,121,0.0015151515151515152,1480,1499.0,1252.6400000000001,1497.0
1.686108112335205,158,121,0.0015360983102918587,1480,1499.0,1255.3599999999999,1498.0
1.7100510597229004,159,120,0.0017241379310344827,1480,1499.0,1259.3599999999999,1499.0
1.7340021133422852,159,119,0.001466275659824047,1480,1499.0,1266.24,1499.0
1.7580089569091797,158,120,0.001736111111111111,1480,1499.0,1273.3599999999999,1498.0
1.781816005706787,159,118,0.0015151515151515152,1480,1499.0,1282.8,1499.0
1.8057620525360107,159,120,0.0017543859649122807,1480,1499.0,1281.8399999999999,1499.0
1.829685926437378,160,118,0.0016129032258064516,1482.0,1499.0,1285.76,1500.0
1.8536601066589355,159,116,0.0014492753623188406,1483.0,1499.0,1288.4000000000001,1499.0
1.8776500225067139,160,115,0.001466275659824047,1488.0,1499.0,1294.0799999999999,1500.0
1.9014310836791992,160,116,0.001466275659824047,1491.0,1499.0,1291.6800000000001,1500.0
1.925318956375122,160,116,0.001488095238095238,1493.0,1499.0,1296.0799999999999,1500.0
1.9493329524993896,161,114,0.001402524544179523,1497.0,1499.0,1301.52,1501.0
1.973336935043335,162,113,0.001402524544179523,1502.0,1499.0,1302.96,1502.0
1.9973340034484863,162,113,0.0016129032258064516,1506.0,1499.0,1299.04,1502.0
2.0213310718536377,162,111,0.0014492753623188406,1509.0,1499.0,1305.9200000000001,1502.0
2.045319080352783,163,108,0.0011947431302270011,1515.0,1499.0,1315.5999999999999,1503.0
2.069227933883667,162,110,0.001644736842105263,1515.0,1499.0,1313.52,1502.0
2.093266010284424,162,107,0.0014204545454545455,1518.0,1499.0,1321.6800000000001,1502.0
2.1171770095825195,163,106,0.001466275659824047,1520,1499.0,1330.24,1503.0
2.1409759521484375,163,106,0.0016666666666666668,1520,1499.0,1330.6400000000001,1503.0
2.1648991107940674,163,106,0.001488095238095238,1520,1499.0,1322.6400000000001,1503.0
2.188689947128296,163,105,0.0016666666666666668,1520,1499.0,1325.5999999999999,1503.0
2.2127039432525635,164,104,0.0016129032258064516,1520,1499.0,1322.96,1504.0
2.236530065536499,163,100,0.001201923076923077,1520,1499.0,1326.8800000000001,1503.0
2.2603700160980225,163,99,0.0011574074074074073,1520,1499.0,1331.3599999999999,1503.0
2.2843120098114014,163,101,0.001736111111111111,1520,1499.0,1333.4400000000001,1503.0
2.3081531524658203,163,97,0.0012903225806451613,1520,1499.0,1342.96,1503.0
2.332292079925537,163,99,0.001644736842105263,1520,1499.0,1343.6800000000001,1503.0
2.356060028076172,163,98,0.0015873015873015873,1520,1499.0,1339.5999999999999,1503.0
2.379976987838745,164,98,0.001594896331738437,1520,1499.0,1331.52,1504.0
2.4039549827575684,164,98,0.001736111111111111,1520,1499.0,1329.04,1504.0
2.4278130531311035,163,97,0.0015360983102918587,1520,1499.0,1319.3599999999999,1503.0
2.451630115509033,163,97,0.0015360983102918587,1520,1499.0,1315.4400000000001,1503.0
2.4755640029907227,163,96,0.001466275659824047,1520,1499.0,1316.8,1503.0
2.499894142150879,163,98,0.0017921146953405018,1520,1499.0,1313.04,1503.0
2.524117946624756,163,97,0.001736111111111111,1520,1499.0,1311.5999999999999,1503.0
2.5476410388946533,163,96,0.0015625,1520,1499.0,1314.24,1503.0
2.5708940029144287,163,97,0.0018975332068311196,1520,1499.0,1310.3199999999999,1503.0
2.594161033630371,162,93,0.0013020833333333333,1520,1499.0,1316.72,1502.0
2.6173501014709473,163,94,0.001402524544179523,1520,1499.0,1321.28,1503.0
2.64054799079895,162,94,0.0014204545454545455,1520,1499.0,1324.24,1502.0
2.6637520790100098,162,93,0.0013440860215053765,1520,1499.0,1328.4000000000001,1502.0
2.6869771480560303,162,95,0.0016129032258064516,1520,1499.0,1328.8800000000001,1502.0
2.7102890014648438,162,94,0.001402524544179523,1520,1499.0,1324.5599999999999,1502.0
2.733689069747925,161,95,0.001402524544179523,1520,1499.0,1316.48,1501.0
2.7569470405578613,161,94,0.00125,1520,1499.0,1313.5999999999999,1501.0
2.780184030532837,161,94,0.0013020833333333333,1520,1499.0,1308.0799999999999,1501.0
2.8033840656280518,160,95,0.001358695652173913,1516.0,1499.0,1304.1600000000001,1500.0
2.826681137084961,160,97,0.001644736842105263,1514.0,1499.0,1298.8,1500.0
2.8499701023101807,160,95,0.001358695652173913,1511.0,1499.0,1302.5599999999999,1500.0
2.873260021209717,160,95,0.0014204545454545455,1509.0,1499.0,1301.1199999999999,1500.0
2.8965399265289307,160,96,0.0014204545454545455,1507.0,1499.0,1298.4000000000001,1500.0
2.9198899269104004,160,98,0.001443001443001443,1505.0,1499.0,1291.6800000000001,1500.0
2.943243980407715,160,98,0.0015151515151515152,1503.0,1499.0,1294.3199999999999,1500.0
2.966539144515991,159,99,0.001594896331738437,1499.0,1499.0,1287.3599999999999,1499.0
2.9899110794067383,159,97,0.0013175230566534915,1497.0,1499.0,1288.24,1499.0
3.0132999420166016,158,99,0.001644736842105263,1492.0,1499.0,1284.24,1498.0
3.0365779399871826,159,97,0.0013774104683195593,1493.0,1499.0,1292.1600000000001,1499.0
3.0598881244659424,159,100,0.001594896331738437,1492.0,1499.0,1287.04,1499.0
3.0831620693206787,158,99,0.001443001443001443,1488.0,1499.0,1293.6800000000001,1498.0
3.1064751148223877,157,98,0.001358695652173913,1483.0,1499.0,1296.1600000000001,1497.0
3.1297760009765625,156,101,0.001644736842105263,1480,1499.0,1293.76,1496.0
3.153017997741699,156,100,0.001644736842105263,1480,1499.0,1289.28,1496.0
3.1762030124664307,155,100,0.001736111111111111,1480,1499.0,1292.0,1495.0
3.199449062347412,155,98,0.0014204545454545455,1480,1499.0,1295.8399999999999,1495.0
3.222764015197754,155,98,0.001358695652173913,1480,1499.0,1297.2,1495.0
3.245979070663452,155,99,0.0014705882352941176,1480,1499.0,1301.5999999999999,1495.0
3.269235134124756,155,99,0.0013774104683195593,1480,1499.0,1307.1199999999999,1495.0
3.292525053024292,154,100,0.0015625,1480,1499.0,1305.9200000000001,1494.0
3.315717935562134,154,99,0.001336898395721925,1480,1499.0,1304.3199999999999,1494.0
3.3389720916748047,154,100,0.0015151515151515152,1480,1499.0,1300.24,1494.0
3.36222505569458,154,99,0.0013774104683195593,1480,1499.0,1298.72,1494.0
3.3854050636291504,154,101,0.001594896331738437,1480,1499.0,1292.0799999999999,1494.0
3.4086310863494873,154,100,0.0015151515151515152,1480,1499.0,1293.28,1494.0
3.432603120803833,153,100,0.0014005602240896359,1480,1499.0,1293.2,1493.0
3.4561290740966797,153,98,0.0013175230566534915,1480,1499.0,1301.2,1493.0
3.4795079231262207,153,99,0.0014705882352941176,1480,1499.0,1300.0,1493.0
3.5028879642486572,153,97,0.0013020833333333333,1480,1499.0,1310.8800000000001,1493.0
3.5261240005493164,154,97,0.0012626262626262627,1480,1499.0,1315.2,1494.0
3.5493810176849365,153,100,0.001443001443001443,1480,1499.0,1312.96,1493.0
3.572741985321045,153,98,0.001176470588235294,1480,1499.0,1312.6400000000001,1493.0
3.596179962158203,153,100,0.0014705882352941176,1480,1499.0,1308.8,1493.0
3.619513988494873,153,100,0.0014705882352941176,1480,1499.0,1299.04,1493.0
3.64284610748291,154,98,0.0013020833333333333,1480,1499.0,1295.9200000000001,1494.0
3.666049003601074,155,98,0.001142857142857143,1480,1499.0,1298.8,1495.0
3.689319133758545,154,97,0.0011312217194570137,1480,1499.0,1301.4400000000001,1494.0
3.7129039764404297,155,99,0.0013605442176870747,1480,1499.0,1301.8399999999999,1495.0
3.7361409664154053,155,96,0.0011312217194570137,1480,1499.0,1315.28,1495.0
3.7594339847564697,156,97,0.0012422360248447205,1480,1499.0,1316.8800000000001,1496.0
3.7827870845794678,156,96,0.0012422360248447205,1480,1499.0,1318.24,1496.0
3.8060081005096436,157,95,0.0012254901960784314,1480,1499.0,1320.96,1497.0
3.829254150390625,157,94,0.001098901098901099,1480,1499.0,1328.0,1497.0
3.8524999618530273,157,95,0.0012254901960784314,1480,1499.0,1322.8,1497.0
3.875714063644409,157,96,0.001336898395721925,1480,1499.0,1321.6800000000001,1497.0
3.8989739418029785,158,95,0.0012626262626262627,1480,1499.0,1321.5999999999999,1498.0
3.9222869873046875,157,96,0.001176470588235294,1480,1499.0,1316.24,1497.0
3.9455230236053467,157,97,0.0012422360248447205,1480,1499.0,1303.9200000000001,1497.0
3.96872615814209,158,97,0.0012422360248447205,1480,1499.0,1299.6800000000001,1498.0
3.992121934890747,157,91,0.0008163265306122449,1480,1499.0,1312.72,1497.0
4.015426158905029,158,97,0.0012987012987012987,1480,1499.0,1301.28,1498.0
4.038650035858154,157,96,0.0011574074074074073,1480,1499.0,1303.8399999999999,1497.0
4.062013149261475,158,95,0.0010582010582010583,1480,1499.0,1312.0,1498.0
4.085241079330444,157,94,0.0010582010582010583,1480,1499.0,1320.24,1497.0
4.108520030975342,157,95,0.0011111111111111111,1480,1499.0,1306.48,1497.0
4.131922006607056,157,95,0.00102880658436214,1480,1499.0,1312.0799999999999,1497.0
4.155198097229004,157,97,0.0012077294685990338,1480,1499.0,1308.24,1497.0
4.178434133529663,157,97,0.0011111111111111111,1480,1499.0,1302.6400000000001,1497.0
4.201902151107788,158,95,0.000992063492063492,1480,1499.0,1299.52,1498.0
4.225142002105713,158,99,0.0012077294685990338,1480,1499.0,1294.4000000000001,1498.0
4.248402118682861,158,98,0.001142857142857143,1480,1499.0,1288.5599999999999,1498.0
4.271728038787842,159,96,0.001098901098901099,1480,1499.0,1293.76,1499.0
4.294969081878662,159,96,0.001001001001001001,1480,1499.0,1297.9200000000001,1499.0
4.318207025527954,158,96,0.0010683760683760685,1480,1499.0,1297.8399999999999,1498.0
4.341434955596924,159,95,0.0009652509652509653,1480,1499.0,1310.24,1499.0
4.364640951156616,159,96,0.00102880658436214,1480.0,1499.0,1316.0,1499.0
4.387884140014648,160,95,0.0010204081632653062,1485.0,1499.0,1317.28,1500.0
4.41117000579834,160,98,0.0011261261261261261,1488.0,1499.0,1309.4400000000001,1500.0
4.434463024139404,161,95,0.000925925925925926,1493.0,1499.0,1315.8399999999999,1501.0
4.457803010940552,161,98,0.0011574074074074073,1496.0,1499.0,1302.48,1501.0
4.481096982955933,161,98,0.0009746588693957114,1499.0,1499.0,1296.8800000000001,1501.0
4.504400968551636,162,97,0.0009319664492078285,1504.0,1499.0,1293.8399999999999,1502.0
4.527713060379028,162,97,0.0009578544061302681,1507.0,1499.0,1298.0,1502.0
4.551011085510254,163,101,0.0013227513227513227,1514.0,1499.0,1283.2,1503.0
4.574278116226196,163,100,0.0012987012987012987,1518.0,1499.0,1285.5999999999999,1503.0
4.59754204750061,164,97,0.0009319664492078285,1520,1499.0,1293.3599999999999,1504.0
4.620728969573975,164,100,0.0013513513513513514,1520,1499.0,1288.1600000000001,1504.0
4.6439049243927,163,101,0.0014619883040935672,1520,1499.0,1279.8399999999999,1503.0
4.667102098464966,164,100,0.0013850415512465374,1520,1499.0,1290.6400000000001,1504.0
4.690302133560181,165,99,0.001422475106685633,1520,1499.0,1296.0,1505.0
4.713495969772339,164,98,0.0013227513227513227,1520,1499.0,1294.4000000000001,1504.0
4.736683130264282,165,98,0.0012531328320802004,1520,1499.0,1301.3599999999999,1505.0
4.759890079498291,165,95,0.0010964912280701754,1520,1499.0,1319.04,1505.0
4.783085107803345,165,97,0.0013157894736842105,1520,1499.0,1319.5999999999999,1505.0
4.8063061237335205,167,97,0.0013513513513513514,1520,1499.0,1321.1199999999999,1507.0
4.829553127288818,167,100,0.0019305019305019305,1520,1499.0,1316.0,1507.0
4.852802991867065,166,100,0.0021929824561403508,1520,1499.0,1310.4000000000001,1506.0
4.875999927520752,166,98,0.001736111111111111,1520,1499.0,1300.3199999999999,1506.0
4.899524927139282,168,99,0.002136752136752137,1520,1499.0,1292.1600000000001,1508.0
4.922821998596191,167,98,0.0018018018018018018,1520,1499.0,1289.2,1507.0
4.946061134338379,167,96,0.0014619883040935672,1520,1499.0,1300.0799999999999,1507.0
4.969321012496948,167,95,0.0014619883040935672,1520,1499.0,1311.2,1507.0
4.992640972137451,168,96,0.0015082956259426848,1520,1499.0,1316.96,1508.0
5.015883922576904,167,96,0.002079002079002079,1520,1499.0,1324.0,1507.0
5.039144039154053,167,96,0.002136752136752137,1520,1499.0,1328.24,1507.0
5.062381029129028,166,69,0.0009746588693957114,1520,1499.0,1350,1506.0
5.085474014282227,166,94,0.0018315018315018315,1520,1499.0,1350,1506.0
5.108580112457275,166,93,0.0016025641025641025,1520,1499.0,1350,1506.0
5.131832122802734,165,94,0.0017543859649122807,1520,1499.0,1350,1505.0
5.154968976974487,165,91,0.0013157894736842105,1520,1499.0,1350,1505.0
5.178069114685059,165,91,0.0013157894736842105,1520,1499.0,1298.8,1505.0
5.201291084289551,165,91,0.001282051282051282,1520,1499.0,1301.76,1505.0
5.22449803352356,164,92,0.0014245014245014246,1520,1499.0,1297.9200000000001,1504.0
5.247720003128052,164,92,0.001349527665317139,1520,1499.0,1298.0799999999999,1504.0
5.270925045013428,164,92,0.0014245014245014246,1520,1499.0,1289.8399999999999,1504.0
5.2941460609436035,163,92,0.001388888888888889,1520,1499.0,1318.3199999999999,1503.0
5.317358016967773,163,93,0.0016025641025641025,1520,1499.0,1310.1600000000001,1503.0
5.340580940246582,163,92,0.0013850415512465374,1520,1499.0,1310.0,1503.0
5.363776922225952,163,94,0.0017094017094017094,1520,1499.0,1302.0,1503.0
5.386969089508057,162,93,0.0013157894736842105,1520,1499.0,1303.1199999999999,1502.0
5.410186052322388,162,91,0.0010604453870625664,1520,1499.0,1308.3199999999999,1502.0
5.433380126953125,161,92,0.0011904761904761906,1520,1499.0,1311.28,1501.0
5.456573963165283,161,90,0.0010162601626016261,1520,1499.0,1316.5599999999999,1501.0
5.479916095733643,161,92,0.001221001221001221,1520,1499.0,1319.76,1501.0
5.503253936767578,160,92,0.0011086474501108647,1519.0,1499.0,1322.5599999999999,1500.0
5.526565074920654,159,93,0.0011904761904761906,1513.0,1499.0,1317.1199999999999,1499.0
5.549919128417969,158,95,0.0017421602787456446,1506.0,1499.0,1309.04,1498.0
5.573200941085815,158,94,0.001524390243902439,1501.0,1499.0,1301.76,1498.0
5.596471071243286,158,95,0.0017857142857142857,1496.0,1499.0,1293.52,1498.0
5.619809150695801,158,95,0.0016260162601626016,1492.0,1499.0,1287.8399999999999,1498.0
5.643156051635742,157,95,0.0015625,1485.0,1499.0,1287.6800000000001,1497.0
5.666412115097046,157,96,0.0016666666666666668,1481.0,1499.0,1289.1199999999999,1497.0
5.689724922180176,157,95,0.0016666666666666668,1480,1499.0,1294.3199999999999,1497.0
5.713031053543091,156,96,0.0016260162601626016,1480,1499.0,1295.76,1496.0
5.7362730503082275,156,96,0.0017421602787456446,1480,1499.0,1298.4000000000001,1496.0
5.75954794883728,155,95,0.0015625,1480,1499.0,1302.3199999999999,1495.0
5.782823085784912,153,40,0.0017857142857142857,1480,1499.0,1350,1493.0
5.80593204498291,155,98,0.0022727272727272726,1480,1499.0,1350,1495.0
5.829077959060669,153,67,0.0012903225806451613,1480,1499.0,1350,1493.0
5.852260112762451,154,64,0.0015151515151515152,1480,1499.0,1350,1494.0
5.8753650188446045,153,42,0.001736111111111111,1480,1499.0,1350,1493.0
5.898478984832764,156,99,0.0020325203252032522,1480,1499.0,1350,1496.0
5.9217400550842285,155,97,0.0015625,1480,1499.0,1350,1495.0
5.944879055023193,155,97,0.0013679890560875513,1480,1499.0,1307.5999999999999,1495.0
5.968065023422241,154,97,0.0013227513227513227,1480,1499.0,1250,1494.0
5.991164922714233,154,99,0.0015503875968992248,1480,1499.0,1250,1494.0
6.01432204246521,154,99,0.0014005602240896359,1480,1499.0,1250,1494.0
6.037409067153931,154,99,0.0013550135501355014,1480,1499.0,1250,1494.0
6.060524940490723,154,101,0.0015625,1480,1499.0,1250,1494.0
6.083608150482178,154,103,0.0015503875968992248,1480,1499.0,1250,1494.0
6.106709957122803,154,103,0.0015873015873015873,1480,1499.0,1274.24,1494.0
6.130242109298706,153,98,0.0009523809523809524,1480,1499.0,1281.6800000000001,1493.0
6.153578996658325,153,100,0.0011074197120708748,1480,1499.0,1280.5599999999999,1493.0
6.176844120025635,154,100,0.0011086474501108647,1480,1499.0,1287.4400000000001,1494.0
6.200077056884766,153,96,0.0007501875468867217,1480,1499.0,1310.48,1493.0
6.223269939422607,153,99,0.0009689922480620155,1480,1499.0,1318.0799999999999,1493.0
6.246564149856567,153,99,0.0009881422924901185,1480,1499.0,1315.28,1493.0
6.269897937774658,154,102,0.0014005602240896359,1480,1499.0,1310.1600000000001,1494.0
6.2931530475616455,156,44,0.001644736842105263,1480,1499.0,1350,1496.0
6.316293001174927,156,43,0.001851851851851852,1480,1499.0,1350,1496.0
6.339470148086548,156,71,0.0010449320794148381,1480,1499.0,1350,1496.0
6.362681150436401,157,44,0.001736111111111111,1480,1499.0,1350,1497.0
6.385849952697754,159,45,0.0015015015015015015,1480,1499.0,1350,1499.0
6.409044027328491,159,44,0.001589825119236884,1480,1499.0,1350,1499.0
6.4322309494018555,159,43,0.0019305019305019305,1480,1499.0,1350,1499.0
6.455322027206421,157,70,0.001081081081081081,1480,1499.0,1350,1497.0
6.478425025939941,158,69,0.001142857142857143,1480,1499.0,1350,1498.0
6.501810073852539,159,71,0.00101010101010101,1480,1499.0,1283.04,1499.0
6.525054931640625,160,44,0.0014619883040935672,1480.0,1499.0,1315.4400000000001,1500.0
6.548337936401367,157,73,0.0010526315789473684,1480,1499.0,1250,1497.0
6.571507930755615,161,44,0.0014619883040935672,1488.0,1499.0,1308.3199999999999,1501.0
6.594841003417969,158,68,0.001388888888888889,1483.0,1499.0,1314.96,1498.0
6.6181299686431885,162,47,0.001287001287001287,1494.0,1499.0,1350,1502.0
6.641304016113281,162,47,0.001349527665317139,1497.0,1499.0,1350,1502.0
6.664488077163696,158,75,0.0009074410163339383,1488.0,1499.0,1350,1498.0
6.6876771450042725,160,75,0.000992063492063492,1495.0,1499.0,1330.0799999999999,1500.0
6.710987091064453,157,73,0.0008928571428571428,1488.0,1499.0,1323.9200000000001,1497.0
6.734292030334473,161,71,0.0014285714285714286,1498.0,1499.0,1259.1199999999999,1501.0
6.7575600147247314,161,75,0.0010204081632653062,1499.0,1499.0,1250,1501.0
6.780771017074585,162,47,0.0015015015015015015,1506.0,1499.0,1294.72,1502.0
6.804074048995972,161,76,0.0010582010582010583,1504.0,1499.0,1300.6400000000001,1501.0
6.82735013961792,160,75,0.000980392156862745,1504.0,1499.0,1305.76,1500.0
6.850613117218018,162,48,0.001287001287001287,1508.0,1499.0,1350,1502.0
6.873769044876099,162,46,0.0016891891891891893,1508.0,1499.0,1350,1502.0
6.896965980529785,158,75,0.0008333333333333334,1500.0,1499.0,1350,1498.0
6.920181035995483,162,82,0.0013850415512465374,1510.0,1499.0,1350,1502.0
6.943424940109253,160,76,0.0008841732979664014,1509.0,1499.0,1350,1500.0
6.96660304069519,162,49,0.001349527665317139,1514.0,1499.0,1350,1502.0
6.989859104156494,162,47,0.0016666666666666668,1515.0,1499.0,1326.96,1502.0
7.013283967971802,161,76,0.0010582010582010583,1512.0,1499.0,1328.8,1501.0
7.036575078964233,161,75,0.0010683760683760685,1512.0,1499.0,1348.24,1501.0
7.059906959533691,162,75,0.0012422360248447205,1516.0,1499.0,1350,1502.0
7.083114147186279,159,77,0.0008928571428571428,1507.0,1499.0,1309.6800000000001,1499.0
7.106393098831177,161,51,0.0014705882352941176,1510.0,1499.0,1336.48,1501.0
7.129745960235596,161,79,0.00102880658436214,1513.0,1499.0,1299.9200000000001,1501.0
7.153114080429077,161,53,0.0016666666666666668,1512.0,1499.0,1350,1501.0
7.176335096359253,158,80,0.0010256410256410256,1504.0,1499.0,1312.3199999999999,1498.0
7.1996910572052,160,85,0.0014705882352941176,1506.0,1499.0,1332.8800000000001,1500.0
7.22304892539978,160,80,0.000975609756097561,1504.0,1499.0,1302.5599999999999,1500.0
7.246381998062134,160,81,0.0011148272017837235,1503.0,1499.0,1302.5599999999999,1500.0
7.269753932952881,160,55,0.0014705882352941176,1502.0,1499.0,1300.96,1500.0
7.293128967285156,160,83,0.0008818342151675485,1500.0,1499.0,1269.8399999999999,1500.0
7.316439151763916,159,84,0.0009157509157509158,1498.0,1499.0,1280.96,1499.0
7.340008020401001,159,59,0.0013513513513513514,1496.0,1499.0,1350,1499.0
7.363240003585815,157,88,0.001,1488.0,1499.0,1338.48,1497.0
7.386497974395752,159,89,0.000975609756097561,1490.0,1499.0,1291.04,1499.0
7.4098451137542725,158,88,0.0010683760683760685,1488.0,1499.0,1289.1199999999999,1498.0
7.4331910610198975,160,91,0.000992063492063492,1492.0,1499.0,1274.0799999999999,1500.0
7.456445932388306,161,61,0.001488095238095238,1495.0,1499.0,1278.6400000000001,1501.0
7.479838132858276,160,92,0.000946969696969697,1493.0,1499.0,1250,1500.0
7.503196954727173,161,71,0.0012195121951219512,1496.0,1499.0,1342.5599999999999,1501.0
7.526535987854004,157,95,0.0009523809523809524,1485.0,1499.0,1310.48,1497.0
7.549860000610352,161,66,0.0031746031746031746,1495.0,1499.0,1350,1501.0
7.573107004165649,159,98,0.0014285714285714286,1491.0,1499.0,1301.8399999999999,1499.0
7.596395015716553,159,99,0.0011441647597254005,1493.0,1499.0,1296.0,1499.0
7.619725942611694,160,94,0.0023148148148148147,1496.0,1499.0,1250,1500.0
7.643032073974609,159,69,0.001349527665317139,1495.0,1499.0,1321.3599999999999,1499.0
7.666337013244629,159,71,0.0011904761904761906,1494.0,1499.0,1277.76,1499.0
7.689669132232666,157,103,0.0008417508417508417,1486.0,1499.0,1282.48,1497.0
7.713032960891724,157,103,0.0009380863039399625,1483.0,1499.0,1286.24,1497.0
7.736313104629517,159,104,0.0008710801393728223,1485.0,1499.0,1301.9200000000001,1499.0
7.759681940078735,158,106,0.0011261261261261261,1484.0,1499.0,1250,1498.0
7.782963991165161,160,106,0.0007836990595611285,1487.0,1499.0,1250,1500.0
7.806141138076782,150,76,0.002173913043478261,1480,1499.0,1250,1490.0
7.829329013824463,161,76,0.0012531328320802004,1482.0,1499.0,1293.28,1501.0
7.8527021408081055,158,109,0.0008741258741258741,1480,1499.0,1260.0799999999999,1498.0
7.875944137573242,168,101,0.003205128205128205,1503.0,1499.0,1327.2,1508.0
7.89924693107605,161,103,0.0014005602240896359,1491.0,1499.0,1350,1501.0
7.92254900932312,161,116,0.0015873015873015873,1495.0,1499.0,1266.8,1501.0
7.945842981338501,159,105,0.0013227513227513227,1493.0,1499.0,1250,1499.0
7.969152927398682,163,78,0.000925925925925926,1505.0,1499.0,1285.3599999999999,1503.0
7.99255895614624,162,77,0.0011961722488038277,1507.0,1499.0,1314.3199999999999,1502.0
8.015910148620605,161,110,0.0009090909090909091,1506.0,1499.0,1260.5599999999999,1501.0
8.039273977279663,160,72,0.0015625,1514.0,1499.0,1350,1500.0
8.062516927719116,162,75,0.0012531328320802004,1519.0,1499.0,1350,1502.0
8.085807085037231,163,105,0.0008710801393728223,1520,1499.0,1350,1503.0
8.109203100204468,165,106,0.0009157509157509158,1520,1499.0,1310.3199999999999,1505.0
8.132529020309448,167,73,0.0014534883720930232,1520,1499.0,1350,1507.0
8.15567398071289,166,106,0.000992063492063492,1520,1499.0,1264.3199999999999,1506.0
8.178985118865967,163,74,0.0012239902080783353,1520,1499.0,1263.3599999999999,1503.0
8.202373027801514,162,102,0.00101010101010101,1520,1499.0,1270.8,1502.0
8.225567102432251,163,73,0.0012239902080783353,1520,1499.0,1350,1503.0
8.248701095581055,160,70,0.001838235294117647,1520,1499.0,1350,1500.0
8.27194595336914,168,73,0.001221001221001221,1520,1499.0,1350,1508.0
8.295063972473145,166,70,0.0012345679012345679,1520,1499.0,1350,1506.0
8.318187952041626,165,75,0.0012787723785166241,1520,1499.0,1350,1505.0
8.341300010681152,166,70,0.0017482517482517483,1520,1499.0,1350,1506.0
8.364398956298828,170,111,0.002777777777777778,1520,1499.0,1330.24,1510.0
8.387588024139404,164,99,0.0010570824524312897,1520,1499.0,1262.3199999999999,1504.0
8.410808086395264,164,73,0.0015479876160990713,1520,1499.0,1283.76,1504.0
8.434087991714478,166,75,0.0015082956259426848,1520,1499.0,1250,1506.0
8.457458019256592,158,74,0.001984126984126984,1520,1499.0,1250,1498.0
8.480674028396606,166,106,0.001644736842105263,1520,1499.0,1260.5599999999999,1506.0
8.503910064697266,160,72,0.0011904761904761906,1520,1499.0,1350,1500.0
8.527032136917114,156,66,0.0034965034965034965,1520,1499.0,1350,1496.0
8.550482034683228,169,70,0.001984126984126984,1520,1499.0,1350,1509.0
8.573600053787231,162,72,0.001358695652173913,1520,1499.0,1350,1502.0
8.596704959869385,162,103,0.0011961722488038277,1520,1499.0,1350,1502.0
8.619882106781006,159,68,0.0038314176245210726,1520.0,1499.0,1350,1499.0
8.643106937408447,171,94,0.00510204081632653,1520,1499.0,1295.5999999999999,1511.0
8.666290998458862,162,93,0.001488095238095238,1520,1499.0,1256.8800000000001,1502.0
8.689536094665527,162,109,0.0020325203252032522,1520,1499.0,1250,1502.0
8.712737083435059,161,70,0.0011441647597254005,1520,1499.0,1271.9200000000001,1501.0
8.735944032669067,164,106,0.003968253968253968,1520,1499.0,1250,1504.0
8.759104013442993,164,66,0.0017543859649122807,1520,1499.0,1294.96,1504.0
8.782407999038696,162,99,0.0018315018315018315,1520,1499.0,1278.0,1502.0
8.80559515953064,161,105,0.0017889087656529517,1520,1499.0,1326.8800000000001,1501.0
8.828793048858643,152,66,0.002976190476190476,1502.0,1499.0,1334.5599999999999,1492.0
8.852182149887085,163,106,0.002403846153846154,1520,1499.0,1338.24,1503.0
8.875406980514526,157,96,0.0010570824524312897,1502.0,1499.0,1268.96,1497.0
8.898669958114624,162,100,0.0015432098765432098,1512.0,1499.0,1270.8800000000001,1502.0
8.922127962112427,155,93,0.0012787723785166241,1491.0,1499.0,1291.1199999999999,1495.0
8.945436954498291,162,96,0.0030303030303030303,1506.0,1499.0,1250,1502.0
8.968601942062378,160,100,0.0031746031746031746,1498.0,1499.0,1250,1500.0
8.991966962814331,154,101,0.0007662835249042146,1480,1499.0,1275.1199999999999,1494.0
9.015252113342285,155,100,0.0007501875468867217,1480,1499.0,1277.6800000000001,1495.0
9.038501024246216,159,90,0.0030864197530864196,1480,1499.0,1277.6800000000001,1499.0
9.06184196472168,155,72,0.006802721088435374,1480,1499.0,1350,1495.0
9.084954023361206,155,88,0.0033333333333333335,1480,1499.0,1350,1495.0
9.108077049255371,145,92,0.0038461538461538464,1480,1499.0,1350,1485.0
9.13117504119873,145,104,0.001349527665317139,1480,1499.0,1350,1485.0
9.154278039932251,147,65,0.0017482517482517483,1480,1499.0,1350,1487.0
9.177366018295288,135,67,0.0024691358024691358,1480,1499.0,1350,1480
9.200395107269287,141,89,0.001838235294117647,1480,1499.0,1350,1481.0
9.223542928695679,149,92,0.0023148148148148147,1480,1499.0,1350,1489.0
9.24669098854065,146,104,0.0012077294685990338,1480,1499.0,1341.28,1486.0
9.269886016845703,135,66,0.0018315018315018315,1480,1499.0,1350,1480
9.292901039123535,136,100,0.0034965034965034965,1480,1499.0,1256.3199999999999,1480
9.316049098968506,140,63,0.0012422360248447205,1480,1499.0,1339.52,1480.0
9.33934497833252,139,95,0.0028735632183908046,1480,1499.0,1296.8,1480
9.362559080123901,149,94,0.001851851851851852,1480,1499.0,1312.4000000000001,1489.0
9.385753154754639,138,67,0.002028397565922921,1480,1499.0,1344.72,1480
9.408884048461914,163,65,0.004830917874396135,1480,1499.0,1350,1503.0
9.43213701248169,154,64,0.002079002079002079,1480,1499.0,1350,1494.0
9.455240964889526,142,68,0.002105263157894737,1480,1499.0,1350,1482.0
9.478345155715942,151,63,0.004761904761904762,1480,1499.0,1350,1491.0
9.501691102981567,146,96,0.006666666666666667,1480,1499.0,1350,1486.0
9.524847984313965,144,62,0.002564102564102564,1480,1499.0,1350,1484.0
9.547971963882446,146,106,0.001349527665317139,1480,1499.0,1287.5999999999999,1486.0
9.571179151535034,152,59,0.0025974025974025974,1480,1499.0,1320.24,1492.0
9.594357013702393,163,93,0.005555555555555556,1480,1499.0,1250,1503.0
9.617460012435913,149,107,0.000966183574879227,1480,1499.0,1250,1489.0
9.640560150146484,157,74,0.002331002331002331,1480,1499.0,1250,1497.0
9.663630962371826,147,106,0.001001001001001001,1480,1499.0,1250,1487.0
9.686721086502075,149,73,0.002932551319648094,1480,1499.0,1250,1489.0
9.709866046905518,150,105,0.0010869565217391304,1480,1499.0,1250,1490.0
9.733050107955933,142,113,0.00202020202020202,1480,1499.0,1250,1482.0
9.75617504119873,143,74,0.0021551724137931034,1480,1499.0,1290.0,1483.0
9.779485940933228,162,73,0.002380952380952381,1480,1499.0,1338.72,1502.0
9.802858114242554,160,77,0.006666666666666667,1480,1499.0,1347.2,1500.0
9.82633113861084,159,102,0.003401360544217687,1480,1499.0,1337.8399999999999,1499.0
9.849619150161743,154,73,0.0014204545454545455,1480,1499.0,1350,1494.0
9.872817993164062,148,110,0.002079002079002079,1480,1499.0,1342.1600000000001,1488.0
9.896039962768555,152,77,0.0020325203252032522,1480,1499.0,1331.1199999999999,1492.0
9.91933798789978,166,98,0.002857142857142857,1480,1499.0,1281.1199999999999,1506.0
9.942625045776367,163,80,0.003003003003003003,1480,1499.0,1330.3199999999999,1503.0
9.965839147567749,160,74,0.002840909090909091,1480,1499.0,1281.6800000000001,1500.0
9.98913311958313,165,113,0.005555555555555556,1499.0,1499.0,1279.52,1505.0
10.012578964233398,164,70,0.0035714285714285713,1499.0,1499.0,1346.6400000000001,1504.0
10.035839080810547,171,73,0.005434782608695652,1520,1499.0,1350,1511.0
10.05897307395935,162,77,0.0014285714285714286,1509.0,1499.0,1350,1502.0
10.08224105834961,159,79,0.00202020202020202,1508.0,1499.0,1350,1499.0
10.105417966842651,160,71,0.007142857142857143,1520,1499.0,1350,1500.0
10.12851595878601,168,76,0.005376344086021506,1520,1499.0,1350,1508.0
10.151768922805786,147,83,0.005263157894736842,1493.0,1499.0,1350,1487.0
10.174953937530518,161,115,0.000925925925925926,1519.0,1499.0,1264.96,1501.0
10.19824504852295,159,83,0.0020325203252032522,1514.0,1499.0,1304.4000000000001,1499.0
10.221560955047607,157,102,0.006060606060606061,1502.0,1499.0,1250,1497.0
10.244778156280518,172,81,0.0026455026455026454,1520,1499.0,1250,1512.0
10.267876148223877,159,125,0.002331002331002331,1502.0,1499.0,1250,1499.0
10.291047096252441,154,126,0.0034965034965034965,1484.0,1499.0,1250,1494.0
10.314228057861328,174,80,0.003205128205128205,1520,1499.0,1250,1514.0
10.337342977523804,158,88,0.0020408163265306124,1505.0,1499.0,1258.6400000000001,1498.0
10.36062502861023,164,81,0.0022522522522522522,1513.0,1499.0,1273.8399999999999,1504.0
10.383904933929443,159,127,0.0033333333333333335,1515.0,1499.0,1272.8800000000001,1499.0
10.407209157943726,166,120,0.005050505050505051,1520,1499.0,1304.8800000000001,1506.0
10.4303879737854,165,83,0.0030864197530864196,1520,1499.0,1340.8800000000001,1505.0
10.453581094741821,172,80,0.01282051282051282,1520,1499.0,1336.96,1512.0
10.47676706314087,168,111,0.005434782608695652,1520,1499.0,1256.5599999999999,1508.0
10.499966144561768,167,119,0.0018796992481203006,1520,1499.0,1261.2,1507.0
10.523211002349854,167,114,0.014285714285714285,1520,1499.0,1267.6800000000001,1507.0
10.546431064605713,152,91,0.0020242914979757085,1520,1499.0,1287.8399999999999,1492.0
10.569729089736938,146,89,0.011764705882352941,1498.0,1499.0,1266.4000000000001,1486.0
10.593081951141357,154,93,0.0022522522522522522,1504.0,1499.0,1328.3199999999999,1494.0
10.616349935531616,144,90,0.011904761904761904,1480,1499.0,1350,1484.0
10.639514923095703,154,129,0.014285714285714285,1480,1499.0,1286.24,1494.0
10.662763118743896,150,85,0.005847953216374269,1480,1499.0,1350,1490.0
10.685891151428223,163,125,0.004310344827586207,1480,1499.0,1270.96,1503.0
10.70914602279663,174,110,0.005,1499.0,1499.0,1250,1514.0
10.732391119003296,159,122,0.008333333333333333,1480,1499.0,1250,1499.0
10.755500078201294,162,138,0.004,1480,1499.0,1250,1502.0
10.778559923171997,167,112,0.005434782608695652,1487.0,1499.0,1250,1507.0
10.801988124847412,161,137,0.006666666666666667,1490.0,1499.0,1250,1501.0
10.825175046920776,160,127,0.008333333333333333,1494.0,1499.0,1250,1500.0
10.848371028900146,158,84,0.003289473684210526,1504.0,1499.0,1274.6400000000001,1498.0
10.871760129928589,173,118,0.004273504273504274,1520,1499.0,1274.8800000000001,1513.0
10.894948959350586,165,102,0.005714285714285714,1520,1499.0,1345.2,1505.0
10.918154954910278,171,114,0.006944444444444444,1520,1499.0,1350,1511.0
10.941247940063477,159,130,0.004629629629629629,1520,1499.0,1350,1499.0
10.96433401107788,158,160,0.0028011204481792717,1520,1499.0,1250,1498.0
10.987452983856201,156,133,0.0014005602240896359,1520.0,1499.0,1250,1496.0
11.010699033737183,155,77,0.004032258064516129,1506.0,1499.0,1255.9200000000001,1495.0
11.034276008605957,142,132,0.003472222222222222,1480,1499.0,1250,1482.0
11.057408094406128,137,131,0.008264462809917356,1480,1499.0,1250,1480
11.080448150634766,160,132,0.000980392156862745,1480,1499.0,1279.04,1500.0
11.103670120239258,161,133,0.0005973715651135006,1480,1499.0,1298.24,1501.0
11.126843929290771,163,134,0.000546448087431694,1480,1499.0,1250,1503.0
11.149963140487671,163,137,0.00044306601683650863,1480,1499.0,1250,1503.0
11.173064947128296,162,135,0.00045045045045045046,1480,1499.0,1250,1502.0
11.196181058883667,163,133,0.00044306601683650863,1480,1499.0,1250,1503.0
11.219393014907837,162,128,0.0003968253968253968,1480,1499.0,1250,1502.0
11.242607116699219,162,129,0.00044306601683650863,1480,1499.0,1252.24,1502.0
11.265867948532104,162,123,0.0004203446826397646,1499.0,1499.0,1286.4000000000001,1502.0
11.289193153381348,161,121,0.0004203446826397646,1520,1499.0,1314.4000000000001,1501.0
11.312463998794556,161,117,0.0004098360655737705,1520,1499.0,1343.5999999999999,1501.0
11.335668087005615,161,115,0.0004314063848144953,1520,1499.0,1350,1501.0
11.358781099319458,161,112,0.0004098360655737705,1520.0,1499.0,1350,1501.0
11.382117986679077,161,110,0.0004314063848144953,1518.0,1499.0,1350,1501.0
11.405338048934937,161,102,0.0003278688524590164,1517.0,1499.0,1350,1501.0
11.428508043289185,161,102,0.00042444821731748726,1515.0,1499.0,1350,1501.0
11.451848983764648,162,100,0.0004314063848144953,1517.0,1499.0,1350,1502.0
11.475057125091553,161,97,0.0004385964912280702,1514.0,1499.0,1350,1501.0
11.498256921768188,162,94,0.0004314063848144953,1516.0,1499.0,1350,1502.0
11.521476030349731,162,92,0.0004203446826397646,1517.0,1499.0,1350,1502.0
11.544687032699585,162,91,0.00044802867383512545,1518.0,1499.0,1350,1502.0
11.567902088165283,162,90,0.0004314063848144953,1519.0,1499.0,1350,1502.0
11.591109037399292,161,90,0.00043591979075850045,1517.0,1499.0,1350,1501.0
11.614318132400513,162,88,0.00044306601683650863,1520.0,1499.0,1350,1502.0
11.637511968612671,162,87,0.00042444821731748726,1520,1499.0,1350,1502.0
11.660604000091553,163,85,0.0004177109440267335,1520,1499.0,1350,1503.0
11.683716058731079,162,84,0.00042444821731748726,1520,1499.0,1350,1502.0
11.706831932067871,163,82,0.0003968253968253968,1520,1499.0,1350,1503.0
11.729915142059326,163,81,0.000407000407000407,1520,1499.0,1350,1503.0
11.753036975860596,163,80,0.0003968253968253968,1520,1499.0,1350,1503.0
11.776116132736206,163,80,0.0003933910306845004,1520,1499.0,1350,1503.0
11.79928708076477,163,80,0.0004203446826397646,1520,1499.0,1350,1503.0
11.822489976882935,163,81,0.00041356492969396195,1520,1499.0,1350,1503.0
11.84555697441101,162,82,0.00041356492969396195,1520,1499.0,1350,1502.0
11.868656158447266,163,82,0.0004314063848144953,1520,1499.0,1338.72,1503.0
11.891968965530396,161,83,0.00041356492969396195,1520,1499.0,1326.4000000000001,1501.0
11.91520094871521,161,83,0.00042444821731748726,1520,1499.0,1316.6400000000001,1501.0
11.938447952270508,160,81,0.00036656891495601173,1520,1499.0,1317.6800000000001,1500.0
11.961790084838867,159,84,0.00042444821731748726,1516.0,1499.0,1312.5599999999999,1499.0
11.985119104385376,158,85,0.00044306601683650863,1509.0,1499.0,1309.76,1498.0
12.008471012115479,158,84,0.0004177109440267335,1504.0,1499.0,1313.5999999999999,1498.0
12.03189992904663,157,84,0.0004314063848144953,1496.0,1499.0,1316.24,1497.0
12.055156946182251,157,85,0.0003968253968253968,1490.0,1499.0,1309.28,1497.0
12.078402996063232,156,86,0.000407000407000407,1482.0,1499.0,1307.9200000000001,1496.0
12.10194206237793,156,87,0.0003968253968253968,1480,1499.0,1307.9200000000001,1496.0
12.125179052352905,154,87,0.00038402457757296467,1480,1499.0,1304.96,1494.0
12.148394107818604,154,90,0.0003968253968253968,1480,1499.0,1294.0799999999999,1494.0
12.171720027923584,152,91,0.0003933910306845004,1480,1499.0,1289.6800000000001,1492.0
12.194915056228638,152,92,0.00042444821731748726,1480,1499.0,1282.5599999999999,1492.0
12.21815299987793,151,93,0.0003933910306845004,1480,1499.0,1275.4400000000001,1491.0
12.241833925247192,151,94,0.0003968253968253968,1480,1499.0,1268.24,1491.0
12.265084028244019,150,95,0.0004032258064516129,1480,1499.0,1268.0,1490.0
12.288303136825562,150,97,0.000407000407000407,1480,1499.0,1265.1199999999999,1490.0
12.311659097671509,149,98,0.00040064102564102563,1480,1499.0,1263.4400000000001,1489.0
12.334918975830078,147,99,0.0004608294930875576,1480,1499.0,1261.76,1487.0
12.358139038085938,146,98,0.00042444821731748726,1480,1499.0,1266.72,1486.0
12.381335020065308,146,100,0.00041356492969396195,1480,1499.0,1263.9200000000001,1486.0
12.404551029205322,146,99,0.00040064102564102563,1480,1499.0,1270.4000000000001,1486.0
12.427740097045898,146,101,0.0004222972972972973,1480,1499.0,1271.8399999999999,1486.0
12.450960159301758,144,100,0.0004032258064516129,1480,1499.0,1279.76,1484.0
12.474177122116089,145,100,0.0004177109440267335,1480,1499.0,1282.3199999999999,1485.0
12.497413158416748,144,101,0.0004203446826397646,1480,1499.0,1286.48,1484.0
12.520655155181885,144,99,0.00042444821731748726,1480,1499.0,1291.5999999999999,1484.0
12.5438871383667,144,99,0.00044802867383512545,1480,1499.0,1298.5599999999999,1484.0
12.567106008529663,144,100,0.0004203446826397646,1480,1499.0,1298.72,1484.0
12.590297937393188,144,100,0.00044306601683650863,1480,1499.0,1301.4400000000001,1484.0
12.613537073135376,144,99,0.00041356492969396195,1480,1499.0,1306.8800000000001,1484.0
12.636762142181396,145,98,0.0004203446826397646,1480,1499.0,1309.52,1485.0
12.660090923309326,145,97,0.00042444821731748726,1480,1499.0,1310.8800000000001,1485.0
12.683342933654785,146,97,0.0004553734061930783,1480,1499.0,1315.2,1486.0
12.706571102142334,146,96,0.000462962962962963,1480,1499.0,1322.1600000000001,1486.0
12.729857921600342,147,96,0.00045045045045045046,1480,1499.0,1323.76,1487.0
12.753153085708618,148,95,0.0004314063848144953,1480,1499.0,1327.9200000000001,1488.0
12.776355981826782,147,95,0.000462962962962963,1480,1499.0,1328.0799999999999,1487.0
12.799643993377686,149,95,0.00044802867383512545,1480,1499.0,1326.8800000000001,1489.0
12.822952032089233,149,94,0.0004314063848144953,1480,1499.0,1325.52,1489.0
12.846168041229248,150,94,0.0004553734061930783,1480,1499.0,1324.3199999999999,1490.0
12.869446039199829,150,94,0.000462962962962963,1480,1499.0,1321.6800000000001,1490.0
12.892722129821777,151,94,0.0004761904761904762,1480,1499.0,1320.4000000000001,1491.0
12.916000127792358,152,94,0.00044306601683650863,1480,1499.0,1319.1199999999999,1492.0
12.93930196762085,153,95,0.000468384074941452,1480,1499.0,1313.76,1493.0
12.96257996559143,153,96,0.0004761904761904762,1480,1499.0,1306.96,1493.0
12.985818147659302,153,95,0.0004385964912280702,1480,1499.0,1305.3599999999999,1493.0
13.009159088134766,155,93,0.000546448087431694,1480,1499.0,1307.8399999999999,1495.0
13.032495021820068,155,97,0.00044306601683650863,1480,1499.0,1297.3599999999999,1495.0
13.055742979049683,156,98,0.00044306601683650863,1480,1499.0,1293.2,1496.0
13.079015970230103,156,97,0.0004203446826397646,1480,1499.0,1295.6800000000001,1496.0
13.102378129959106,156,97,0.00042735042735042735,1480,1499.0,1294.1600000000001,1496.0
13.12562608718872,157,98,0.00044306601683650863,1480,1499.0,1284.4000000000001,1497.0
13.148864984512329,157,97,0.0004314063848144953,1480,1499.0,1289.6800000000001,1497.0
13.172238111495972,158,98,0.0004553734061930783,1480,1499.0,1292.5599999999999,1498.0
13.195481061935425,158,99,0.00044306601683650863,1480,1499.0,1289.8399999999999,1498.0
13.218780040740967,159,99,0.00042735042735042735,1480,1499.0,1289.6800000000001,1499.0
13.242172002792358,159,100,0.00042735042735042735,1480,1499.0,1292.4000000000001,1499.0
13.26542615890503,160,101,0.00042444821731748726,1480,1499.0,1285.4400000000001,1500.0
13.288671016693115,161,102,0.00044306601683650863,1483.0,1499.0,1278.48,1501.0
13.312129020690918,162,101,0.0004177109440267335,1491.0,1499.0,1279.52,1502.0
13.335492134094238,162,102,0.00041356492969396195,1497.0,1499.0,1276.72,1502.0
13.358829021453857,163,102,0.0004203446826397646,1505.0,1499.0,1276.5599999999999,1503.0
13.38261604309082,164,102,0.0004032258064516129,1514.0,1499.0,1280.5599999999999,1504.0
13.405987024307251,164,103,0.00041356492969396195,1520.0,1499.0,1283.3599999999999,1504.0
13.429343938827515,165,103,0.00042444821731748726,1520,1499.0,1283.2,1505.0
13.452665090560913,166,103,0.0003968253968253968,1520,1499.0,1285.8399999999999,1506.0
13.47591495513916,166,103,0.00042444821731748726,1520,1499.0,1287.1199999999999,1506.0
13.499247074127197,168,103,0.000407000407000407,1520,1499.0,1287.04,1508.0
13.5225830078125,169,102,0.000407000407000407,1520,1499.0,1291.04,1509.0
13.545833110809326,170,101,0.00040064102564102563,1520,1499.0,1297.8399999999999,1510.0
13.569150924682617,170,100,0.000429000429000429,1520,1499.0,1304.72,1510.0
13.59246301651001,170,100,0.0004203446826397646,1520,1499.0,1310.4000000000001,1510.0
13.615700960159302,171,99,0.00042444821731748726,1520,1499.0,1318.72,1511.0
13.638982057571411,171,99,0.0004314063848144953,1520,1499.0,1321.6800000000001,1511.0
13.662266969680786,170,99,0.00043591979075850045,1520,1499.0,1321.8399999999999,1510.0
13.68553113937378,170,98,0.00042444821731748726,1520,1499.0,1321.8399999999999,1510.0
13.708769083023071,170,97,0.00042444821731748726,1520,1499.0,1323.28,1510.0
13.73219609260559,170,96,0.0004177109440267335,1520,1499.0,1323.3599999999999,1510.0
13.755461931228638,169,97,0.00044306601683650863,1520,1499.0,1320.96,1509.0
13.778672933578491,168,97,0.00043591979075850045,1520,1499.0,1321.1199999999999,1508.0
13.802194118499756,168,96,0.00041356492969396195,1520,1499.0,1322.48,1508.0
13.82544207572937,168,96,0.00043591979075850045,1520,1499.0,1319.8399999999999,1508.0
13.848698139190674,168,95,0.0004177109440267335,1520,1499.0,1318.4000000000001,1508.0
13.872111082077026,167,95,0.0004032258064516129,1520,1499.0,1318.5599999999999,1507.0
13.895374059677124,166,95,0.00041356492969396195,1520,1499.0,1318.72,1506.0
13.918669939041138,165,95,0.00041356492969396195,1520,1499.0,1317.4400000000001,1505.0
13.942054986953735,165,93,0.0003968253968253968,1520,1499.0,1322.8,1505.0
13.96534514427185,165,94,0.000407000407000407,1520,1499.0,1321.6800000000001,1505.0
13.988749027252197,165,93,0.0004032258064516129,1520,1499.0,1323.04,1505.0
14.012164115905762,164,93,0.00040064102564102563,1520,1499.0,1323.2,1504.0
14.035437107086182,163,92,0.000407000407000407,1520,1499.0,1327.3599999999999,1503.0
14.058695077896118,162,92,0.00038109756097560977,1520,1499.0,1324.72,1502.0
14.082103967666626,162,91,0.00040064102564102563,1520,1499.0,1328.8800000000001,1502.0
14.105386018753052,161,92,0.00038109756097560977,1520,1499.0,1326.4000000000001,1501.0
14.128613948822021,161,91,0.0003720238095238095,1520,1499.0,1327.76,1501.0
14.152024030685425,161,90,0.000390625,1520,1499.0,1327.76,1501.0
14.175267934799194,161,91,0.00035778175313059033,1520,1499.0,1326.6400000000001,1501.0
14.19854998588562,160,91,0.0003720238095238095,1520.0,1499.0,1322.5599999999999,1500.0
14.222084999084473,161,91,0.000375234521575985,1518.0,1499.0,1322.6400000000001,1501.0
14.245465993881226,160,91,0.00036075036075036075,1512.0,1499.0,1319.9200000000001,1500.0
14.268797159194946,159,91,0.0003633720930232558,1506.0,1499.0,1315.76,1499.0
14.292248010635376,159,90,0.00034965034965034965,1503.0,1499.0,1317.04,1499.0
14.315613985061646,159,90,0.00035778175313059033,1500.0,1499.0,1318.48,1499.0
14.33899712562561,158,91,0.0003720238095238095,1495.0,1499.0,1315.9200000000001,1498.0
14.362381935119629,157,92,0.0003633720930232558,1489.0,1499.0,1313.28,1497.0
14.385720014572144,158,93,0.000375234521575985,1488.0,1499.0,1310.5599999999999,1498.0
14.409101963043213,156,88,0.0005387931034482759,1480,1499.0,1318.0799999999999,1496.0
14.432446956634521,156,94,0.0003720238095238095,1480,1499.0,1303.76,1496.0
14.455696105957031,156,95,0.0003787878787878788,1480,1499.0,1296.8,1496.0
14.479023933410645,156,95,0.000375234521575985,1480,1499.0,1293.8399999999999,1496.0
14.502421140670776,155,95,0.00038109756097560977,1480,1499.0,1293.6800000000001,1495.0
14.526006937026978,154,94,0.0003720238095238095,1480,1499.0,1283.52,1494.0
14.549363136291504,154,94,0.0003720238095238095,1480,1499.0,1288.96,1494.0
14.572689056396484,154,94,0.000390625,1480,1499.0,1295.8399999999999,1494.0
14.595925092697144,154,95,0.00038714672861014324,1480,1499.0,1298.72,1494.0
14.619253158569336,154,95,0.00038109756097560977,1480,1499.0,1301.4400000000001,1494.0
14.64258098602295,154,96,0.0003944773175542406,1480,1499.0,1305.52,1494.0
14.665828943252563,153,95,0.0003968253968253968,1480,1499.0,1305.28,1493.0
14.689137935638428,153,95,0.000390625,1480,1499.0,1302.48,1493.0
14.712454080581665,153,95,0.000390625,1480,1499.0,1302.48,1493.0
14.735710144042969,153,95,0.00041118421052631577,1480,1499.0,1302.48,1493.0
14.759034156799316,155,93,0.0003846153846153846,1480,1499.0,1311.9200000000001,1495.0
14.782362937927246,154,93,0.0003787878787878788,1480,1499.0,1316.1600000000001,1494.0
14.805612087249756,155,93,0.0003846153846153846,1480,1499.0,1320.4000000000001,1495.0
14.82886004447937,155,93,0.0003944773175542406,1480,1499.0,1323.28,1495.0
14.852230072021484,155,92,0.0003846153846153846,1480,1499.0,1328.8,1495.0
14.875479936599731,155,93,0.0003944773175542406,1480,1499.0,1323.52,1495.0
14.898719072341919,156,92,0.00037313432835820896,1480,1499.0,1323.4400000000001,1496.0
14.922132015228271,155,92,0.0003846153846153846,1480,1499.0,1322.1600000000001,1495.0
14.945419073104858,155,93,0.0003944773175542406,1480,1499.0,1318.24,1495.0
14.968680143356323,155,93,0.0003944773175542406,1480,1499.0,1312.72,1495.0
14.992099046707153,155,92,0.0003787878787878788,1480,1499.0,1315.3599999999999,1495.0
15.015408039093018,156,92,0.00037313432835820896,1480,1499.0,1314.0,1496.0
15.038635969161987,155,92,0.00040064102564102563,1480,1499.0,1312.6400000000001,1495.0
15.062024116516113,156,92,0.0003787878787878788,1480,1499.0,1314.0799999999999,1496.0
15.085338115692139,156,92,0.0003787878787878788,1480,1499.0,1316.8800000000001,1496.0
15.108618021011353,156,91,0.0003787878787878788,1480,1499.0,1318.1600000000001,1496.0
15.131991147994995,157,92,0.0003827018752391887,1480,1499.0,1316.96,1497.0
15.15523099899292,156,92,0.00037313432835820896,1480,1499.0,1316.96,1496.0
15.178489923477173,157,93,0.00036231884057971015,1480,1499.0,1312.96,1497.0
15.20202112197876,157,93,0.0003676470588235294,1480,1499.0,1310.1600000000001,1497.0
15.225312948226929,156,95,0.0003827018752391887,1480,1499.0,1300.6400000000001,1496.0
15.248594045639038,157,94,0.00035714285714285714,1480,1499.0,1298.96,1497.0
15.271981954574585,157,95,0.0003534817956875221,1480,1499.0,1293.4400000000001,1497.0
15.295249938964844,156,94,0.0003676470588235294,1480,1499.0,1294.5599999999999,1496.0
15.318526983261108,155,94,0.0003695491500369549,1480,1499.0,1294.48,1495.0
15.341941118240356,156,94,0.00035014005602240897,1480,1499.0,1301.3599999999999,1496.0
15.365193128585815,156,94,0.0003676470588235294,1480,1499.0,1304.0799999999999,1496.0
15.388466119766235,156,94,0.00035014005602240897,1480,1499.0,1309.5999999999999,1496.0
15.41188097000122,157,94,0.0003401360544217687,1480,1499.0,1310.96,1497.0
15.435135126113892,156,95,0.0003450655624568668,1480,1499.0,1309.6800000000001,1496.0
15.458399057388306,156,95,0.0003663003663003663,1480,1499.0,1306.8800000000001,1496.0
15.481789112091064,156,95,0.0003401360544217687,1480,1499.0,1305.4400000000001,1496.0
15.505062103271484,157,96,0.00032754667540124465,1480,1499.0,1300.0,1497.0
15.52830195426941,156,95,0.00032938076416337287,1480,1499.0,1299.76,1496.0
15.551713943481445,157,95,0.0003201024327784891,1480,1499.0,1301.1199999999999,1497.0
15.574980974197388,156,95,0.0003246753246753247,1480,1499.0,1302.48,1496.0
15.59823203086853,157,91,0.00040257648953301127,1480,1499.0,1314.4000000000001,1497.0
15.621511936187744,158,95,0.00032754667540124465,1480,1499.0,1313.76,1498.0
15.644773006439209,157,94,0.0003246753246753247,1480,1499.0,1317.76,1497.0
15.66801404953003,158,94,0.00031055900621118014,1480,1499.0,1319.2,1498.0
15.691259145736694,158,94,0.00031746031746031746,1480,1499.0,1320.6400000000001,1498.0
15.714795112609863,159,93,0.00031298904538341156,1480,1499.0,1313.52,1499.0
15.738125085830688,159,92,0.00029967036260113877,1480,1499.0,1317.6800000000001,1499.0
15.761402130126953,160,93,0.00030441400304414006,1480,1499.0,1316.5599999999999,1500.0
15.784677982330322,160,91,0.0003201024327784891,1482.0,1499.0,1321.9200000000001,1500.0
15.808037996292114,160,90,0.0003156565656565657,1486.0,1499.0,1327.52,1500.0
15.831347942352295,161,90,0.0002875215641173088,1492.0,1499.0,1334.5599999999999,1501.0
15.854664087295532,161,91,0.0003003003003003003,1495.0,1499.0,1330.72,1501.0
15.877967119216919,161,89,0.0002875215641173088,1499.0,1499.0,1337.52,1501.0
15.901317119598389,161,88,0.0003003003003003003,1502.0,1499.0,1338.96,1501.0
15.92466402053833,162,89,0.00028153153153153153,1508.0,1499.0,1333.76,1502.0
15.9480140209198,163,89,0.00028153153153153153,1514.0,1499.0,1331.1199999999999,1503.0
15.97139596939087,162,89,0.0002795638803466592,1515.0,1499.0,1332.6400000000001,1502.0
15.994790077209473,163,88,0.00028368794326241134,1520.0,1499.0,1329.8399999999999,1503.0
16.01815104484558,164,89,0.00028153153153153153,1520,1499.0,1323.1199999999999,1504.0
16.041397094726562,164,90,0.0002875215641173088,1520,1499.0,1319.1199999999999,1504.0
16.06461811065674,164,87,0.00032175032175032174,1520,1499.0,1324.24,1504.0
16.087850093841553,165,90,0.00027412280701754384,1520,1499.0,1316.48,1505.0
16.11110806465149,164,89,0.0002937720329024677,1520,1499.0,1314.8800000000001,1504.0
16.134380102157593,165,91,0.00028153153153153153,1520,1499.0,1310.96,1505.0
16.15763211250305,167,91,0.0002962962962962963,1520,1499.0,1310.8800000000001,1507.0
16.18085503578186,167,91,0.0002860411899313501,1520,1499.0,1302.4000000000001,1507.0
16.20413112640381,167,91,0.0002977963073257892,1520,1499.0,1302.3199999999999,1507.0
16.227395057678223,169,91,0.00030303030303030303,1520,1499.0,1300.8,1509.0
16.25067114830017,169,92,0.00029239766081871346,1520,1499.0,1300.8800000000001,1509.0
16.273916006088257,170,92,0.00028368794326241134,1520,1499.0,1300.8,1510.0
16.297171115875244,170,92,0.0002799552071668533,1520,1499.0,1304.8,1510.0
16.320439100265503,171,93,0.00028368794326241134,1520,1499.0,1302.0799999999999,1511.0
16.34372305870056,170,94,0.0002990430622009569,1520,1499.0,1299.28,1510.0
16.366948127746582,170,93,0.0002860411899313501,1520,1499.0,1300.4000000000001,1510.0
16.39020299911499,170,94,0.00027277686852154935,1520,1499.0,1297.6800000000001,1510.0
16.413455963134766,170,94,0.00027277686852154935,1520,1499.0,1296.1600000000001,1510.0
16.436702013015747,169,94,0.0002670940170940171,1520,1499.0,1297.4400000000001,1509.0
16.459989070892334,169,94,0.00027056277056277056,1520,1499.0,1301.52,1509.0
16.48322606086731,168,95,0.00027056277056277056,1520,1499.0,1298.8,1508.0
16.506489038467407,166,96,0.0002670940170940171,1520,1499.0,1297.4400000000001,1506.0
16.529793977737427,165,96,0.0002670940170940171,1520,1499.0,1297.28,1505.0
16.553122997283936,165,96,0.00026371308016877635,1520,1499.0,1295.76,1505.0
16.576360940933228,164,96,0.00026371308016877635,1520,1499.0,1292.8800000000001,1504.0
16.5996310710907,163,96,0.00026041666666666666,1520,1499.0,1294.1600000000001,1503.0
16.622956037521362,162,95,0.00025316455696202533,1520,1499.0,1299.52,1502.0
16.646219968795776,161,95,0.00025510204081632655,1520,1499.0,1303.6800000000001,1501.0
16.66951894760132,160,98,0.00030111412225233364,1520,1499.0,1299.9200000000001,1500.0
16.692835092544556,158,93,0.00025510204081632655,1520,1499.0,1312.96,1498.0
16.71607995033264,158,92,0.00026041666666666666,1518.0,1499.0,1321.28,1498.0
16.739488124847412,157,92,0.00024509803921568627,1507.0,1499.0,1324.24,1497.0
16.762875080108643,157,91,0.00025316455696202533,1499.0,1499.0,1329.8399999999999,1497.0
16.786203145980835,156,90,0.0002469135802469136,1488.0,1499.0,1345.28,1496.0
16.8095920085907,155,90,0.000257201646090535,1480,1499.0,1345.52,1495.0
16.832896947860718,154,89,0.00025,1480,1499.0,1345.5999999999999,1494.0
16.856150150299072,153,88,0.00025316455696202533,1480,1499.0,1348.48,1493.0
16.879815101623535,153,88,0.0002469135802469136,1480,1499.0,1347.3599999999999,1493.0
16.903264045715332,152,88,0.00024888003982080636,1480,1499.0,1339.3599999999999,1492.0
16.926536083221436,152,88,0.00023912003825920613,1480,1499.0,1338.1600000000001,1492.0
16.94984793663025,151,89,0.0002420721374969741,1480,1499.0,1332.8800000000001,1491.0
16.973159074783325,150,87,0.00025,1480,1499.0,1331.28,1490.0
16.99644112586975,151,88,0.0002469135802469136,1480,1499.0,1326.0,1491.0
17.019752025604248,150,91,0.0002300966405890474,1480,1499.0,1315.3599999999999,1490.0
17.043074131011963,149,91,0.0002420721374969741,1480,1499.0,1308.3199999999999,1489.0
17.066318035125732,149,93,0.00023452157598499062,1480,1499.0,1300.1600000000001,1489.0
17.089648962020874,149,95,0.00022461814914645105,1480,1499.0,1284.8800000000001,1489.0
17.113007068634033,147,95,0.00025,1480,1499.0,1274.8,1487.0
17.136270999908447,139,88,0.00045955882352941176,1480,1499.0,1291.5999999999999,1480
17.159541130065918,147,96,0.00024390243902439024,1480,1499.0,1278.8800000000001,1487.0
17.182871103286743,146,96,0.00024390243902439024,1480,1499.0,1280.0,1486.0
17.206151008605957,146,98,0.000251004016064257,1480,1499.0,1284.1600000000001,1486.0
17.229475021362305,146,96,0.00023342670401493932,1480,1499.0,1294.6400000000001,1486.0
17.252788066864014,145,96,0.00022583559168925022,1480,1499.0,1279.04,1485.0
17.276036977767944,145,97,0.00021786492374727668,1480,1499.0,1283.2,1485.0
17.299313068389893,144,97,0.00022893772893772894,1480,1499.0,1285.8399999999999,1484.0
17.322664976119995,144,99,0.0002204585537918871,1480,1499.0,1286.0799999999999,1484.0
17.345957040786743,143,98,0.00022893772893772894,1480,1499.0,1285.76,1483.0
17.369290113449097,144,90,0.0003650967506389193,1480,1499.0,1314.8800000000001,1484.0
17.392611026763916,143,99,0.0002204585537918871,1480,1499.0,1302.5599999999999,1483.0
17.415833950042725,143,99,0.00022461814914645105,1480,1499.0,1301.04,1483.0
17.439134120941162,143,95,0.00024096385542168674,1480,1499.0,1312.96,1483.0
17.46246600151062,143,96,0.00021786492374727668,1480,1499.0,1317.3599999999999,1483.0
17.485732078552246,143,97,0.000213903743315508,1480,1499.0,1297.9200000000001,1483.0
17.509055137634277,143,102,0.00026455026455026457,1480,1499.0,1290.3199999999999,1483.0
17.532397031784058,143,97,0.000251004016064257,1480,1499.0,1301.9200000000001,1483.0
17.555675983428955,144,99,0.000196078431372549,1480,1499.0,1288.3199999999999,1484.0
17.57903504371643,127,95,0.0006002400960384153,1480,1499.0,1291.8399999999999,1480
