time,x,y,size_inv,roll,pitch,thrust,yaw
0.0007538795471191406,240,62,0.00625,1520,1502.0,1347.1199999999999,1500.0
0.023840904235839844,240,62,0.00625,1520,1502.0,1348.6400000000001,1500.0
0.046469926834106445,240,62,0.00625,1520,1502.0,1350,1500.0
0.06890201568603516,240,62,0.00625,1520,1502.0,1350,1500.0
0.09134793281555176,240,62,0.00625,1520,1502.0,1350,1500.0
0.11407685279846191,240,62,0.007142857142857143,1520,1502.0,1350,1500.0
0.13658690452575684,240,62,0.00625,1520,1502.0,1350,1500.0
0.15902090072631836,240,62,0.00625,1520,1502.0,1350,1500.0
0.1814708709716797,240,62,0.006666666666666667,1520,1502.0,1350,1500.0
0.20406699180603027,240,62,0.00625,1520,1502.0,1350,1500.0
0.22687482833862305,241,62,0.006666666666666667,1520,1502.0,1350,1500.0
0.25000691413879395,241,62,0.006666666666666667,1520,1502.0,1350,1500.0
0.27309703826904297,240,62,0.00625,1520,1502.0,1350,1500.0
0.2961869239807129,240,62,0.006666666666666667,1520,1502.0,1350,1500.0
0.31935787200927734,240,62,0.007407407407407408,1520,1502.0,1350,1500.0
0.3425328731536865,239,61,0.007936507936507936,1520,1502.0,1350,1500.0
0.3657419681549072,239,60,0.007407407407407408,1520,1502.0,1350,1500.0
0.3888850212097168,239,59,0.007407407407407408,1520,1502.0,1350,1500.0
0.41202497482299805,238,58,0.006944444444444444,1520,1502.0,1350,1500.0
0.43523192405700684,238,58,0.006944444444444444,1520,1502.0,1350,1500.0
0.4583299160003662,238,59,0.007936507936507936,1520,1502.0,1350,1500.0
0.48142290115356445,237,59,0.006944444444444444,1520,1502.0,1350,1500.0
0.5046398639678955,237,60,0.006944444444444444,1520,1502.0,1350,1500.0
0.5277178287506104,238,60,0.007407407407407408,1520,1502.0,1350,1500.0
0.5508010387420654,238,60,0.006944444444444444,1520,1502.0,1350,1500.0
0.5739049911499023,238,60,0.007407407407407408,1520,1502.0,1350,1500.0
0.5970020294189453,238,59,0.006944444444444444,1520,1502.0,1350,1500.0
0.6201169490814209,238,59,0.006666666666666667,1520,1502.0,1350,1500.0
0.6432108879089355,238,61,0.007407407407407408,1520,1502.0,1350,1500.0
0.6662969589233398,238,62,0.007407407407407408,1520,1502.0,1350,1500.0
0.6893730163574219,237,64,0.006944444444444444,1520,1502.0,1350,1500.0
0.7125089168548584,237,66,0.006944444444444444,1520,1502.0,1338.1600000000001,1500.0
0.7357909679412842,238,67,0.006666666666666667,1520,1502.0,1324.0799999999999,1500.0
0.7589888572692871,237,69,0.007936507936507936,1520,1502.0,1311.52,1500.0
0.7822339534759521,236,71,0.00625,1520,1502.0,1298.8800000000001,1500.0
0.8054749965667725,236,72,0.00625,1520,1502.0,1291.5999999999999,1500.0
0.8286788463592529,236,73,0.006666666666666667,1520,1502.0,1289.8399999999999,1500.0
0.8519408702850342,235,74,0.00625,1520,1502.0,1289.4400000000001,1500.0
0.8751888275146484,235,75,0.006666666666666667,1520,1502.0,1290.48,1500.0
0.8983769416809082,234,76,0.00625,1520,1502.0,1294.3199999999999,1500.0
0.9215679168701172,234,77,0.006666666666666667,1520,1502.0,1296.8,1500.0
0.94486403465271,234,78,0.006666666666666667,1520,1502.0,1297.9200000000001,1500.0
0.9680540561676025,232,81,0.00625,1520,1502.0,1293.76,1500.0
0.9912359714508057,232,82,0.006666666666666667,1520,1502.0,1290.6400000000001,1500.0
1.0144200325012207,231,84,0.006060606060606061,1520,1502.0,1283.52,1500.0
1.0376288890838623,230,85,0.005681818181818182,1520,1502.0,1277.5999999999999,1500.0
1.060802936553955,230,86,0.005681818181818182,1520,1502.0,1271.6800000000001,1500.0
1.0840239524841309,229,87,0.006666666666666667,1520,1502.0,1271.3599999999999,1500.0
1.1072349548339844,228,88,0.006666666666666667,1520,1502.0,1271.04,1500.0
1.130457878112793,227,89,0.006666666666666667,1520,1502.0,1273.52,1500.0
1.1536529064178467,225,91,0.006666666666666667,1520,1502.0,1273.3599999999999,1500.0
1.1768269538879395,224,92,0.006060606060606061,1520,1502.0,1274.4000000000001,1500.0
1.200002908706665,223,93,0.005681818181818182,1520,1502.0,1272.72,1500.0
1.2231800556182861,222,94,0.006060606060606061,1520,1502.0,1271.04,1500.0
1.2463879585266113,221,95,0.005681818181818182,1520,1502.0,1268.0,1500.0
1.2695770263671875,220,95,0.006666666666666667,1520,1502.0,1270.4000000000001,1500.0
1.293179988861084,219,96,0.006666666666666667,1520,1502.0,1271.5999999999999,1500.0
1.3164589405059814,217,98,0.005555555555555556,1520,1502.0,1270.1600000000001,1500.0
1.3396689891815186,215,99,0.005681818181818182,1520,1502.0,1269.9200000000001,1500.0
1.3628900051116943,214,100,0.005681818181818182,1520,1502.0,1269.6800000000001,1500.0
1.386117935180664,213,100,0.006666666666666667,1520,1502.0,1267.9200000000001,1500.0
1.4092998504638672,212,101,0.005681818181818182,1520,1502.0,1264.96,1500.0
1.4325628280639648,210,102,0.005681818181818182,1520,1502.0,1264.8,1500.0
1.4558348655700684,209,102,0.006666666666666667,1520,1502.0,1267.28,1500.0
1.4790189266204834,209,103,0.0053475935828877,1520,1502.0,1268.5599999999999,1500.0
1.502289056777954,205,104,0.005681818181818182,1520,1502.0,1268.4000000000001,1500.0
1.5255358219146729,204,105,0.006060606060606061,1520,1502.0,1268.24,1500.0
1.5487220287322998,204,105,0.0053475935828877,1520,1502.0,1269.3599999999999,1500.0
1.5719578266143799,202,106,0.005050505050505051,1520,1502.0,1266.48,1500.0
1.5951969623565674,202,107,0.0053475935828877,1520,1502.0,1263.5999999999999,1500.0
1.6184070110321045,200,107,0.005555555555555556,1520,1502.0,1264.72,1500.0
1.6416089534759521,199,108,0.005050505050505051,1520,1502.0,1264.6400000000001,1500.0
1.6649229526519775,198,108,0.0053475935828877,1520,1502.0,1264.4000000000001,1500.0
1.6881349086761475,194,108,0.005555555555555556,1520,1502.0,1266.96,1500.0
1.711298942565918,193,109,0.005050505050505051,1520,1502.0,1268.3199999999999,1500.0
1.7346198558807373,191,109,0.005050505050505051,1520,1502.0,1269.52,1500.0
1.757807970046997,190,108,0.005555555555555556,1520,1502.0,1274.8,1500.0
1.7809770107269287,189,108,0.0058823529411764705,1520,1502.0,1278.8800000000001,1500.0
1.804170846939087,187,108,0.005555555555555556,1520,1502.0,1281.5999999999999,1500.0
1.8273868560791016,185,108,0.005050505050505051,1520,1502.0,1285.76,1500.0
1.8505909442901611,182,108,0.005050505050505051,1520,1502.0,1289.9200000000001,1500.0
1.8737828731536865,180,108,0.005050505050505051,1520,1502.0,1289.9200000000001,1500.0
1.896946907043457,178,108,0.005050505050505051,1520,1502.0,1289.9200000000001,1500.0
1.9201459884643555,176,107,0.005050505050505051,1520,1502.0,1292.5599999999999,1500.0
1.9433448314666748,174,107,0.005050505050505051,1520,1502.0,1292.6400000000001,1500.0
1.9665229320526123,173,107,0.0053475935828877,1520,1502.0,1292.72,1500.0
1.989691972732544,171,106,0.005263157894736842,1520,1502.0,1296.8,1500.0
2.012882947921753,169,106,0.004784688995215311,1520,1502.0,1299.6800000000001,1500.0
2.0361130237579346,165,106,0.005050505050505051,1520,1502.0,1299.76,1500.0
2.0593159198760986,163,106,0.005050505050505051,1520,1502.0,1299.8399999999999,1500.0
2.082628011703491,161,106,0.005050505050505051,1520,1502.0,1299.9200000000001,1500.0
2.1059179306030273,159,105,0.005555555555555556,1520,1502.0,1299.8399999999999,1500.0
2.1291348934173584,157,105,0.005050505050505051,1520,1502.0,1298.5599999999999,1500.0
2.1523969173431396,155,105,0.005050505050505051,1520,1502.0,1298.6400000000001,1500.0
2.1756999492645264,153,104,0.005050505050505051,1512.0,1502.0,1301.3599999999999,1500.0
2.199028968811035,151,104,0.005050505050505051,1486.0,1502.0,1302.8800000000001,1500.0
2.222393035888672,147,104,0.0053475935828877,1480,1502.0,1302.96,1500.0
2.245689868927002,144,104,0.005050505050505051,1480,1502.0,1303.04,1500.0
2.2689239978790283,143,104,0.0053475935828877,1480,1502.0,1303.1199999999999,1500.0
2.292283058166504,140,103,0.0053475935828877,1480,1502.0,1303.04,1500.0
2.315659999847412,138,103,0.0053475935828877,1480,1502.0,1301.76,1500.0
2.338912010192871,135,102,0.005050505050505051,1480,1502.0,1304.48,1500.0
2.362210988998413,132,101,0.006666666666666667,1480,1502.0,1308.6400000000001,1500.0
2.38557505607605,130,100,0.006666666666666667,1480,1502.0,1314.24,1500.0
2.4088008403778076,127,99,0.0058823529411764705,1480,1502.0,1319.8399999999999,1500.0
2.4321138858795166,125,98,0.0058823529411764705,1480,1502.0,1326.8800000000001,1500.0
2.4557418823242188,122,98,0.006666666666666667,1480,1502.0,1329.9200000000001,1500.0
2.4789879322052,119,97,0.006666666666666667,1480,1502.0,1332.8,1500.0
2.502284049987793,117,97,0.007142857142857143,1480,1502.0,1331.6800000000001,1500.0
2.5255799293518066,117,97,0.007142857142857143,1480,1502.0,1329.1199999999999,1500.0
2.5487968921661377,113,96,0.006944444444444444,1480,1502.0,1326.4000000000001,1500.0
2.572098970413208,109,94,0.007936507936507936,1480,1502.0,1329.1199999999999,1500.0
2.5954079627990723,107,92,0.00625,1480,1502.0,1333.28,1500.0
2.6186678409576416,105,92,0.006944444444444444,1480,1502.0,1336.4000000000001,1500.0
2.6419639587402344,104,91,0.006666666666666667,1480,1502.0,1343.52,1500.0
2.665268898010254,102,90,0.006666666666666667,1480,1502.0,1350,1500.0
2.688417911529541,100,89,0.006666666666666667,1480,1502.0,1350,1500.0
2.711540937423706,98,89,0.006666666666666667,1480,1502.0,1350,1500.0
2.7348430156707764,96,88,0.006666666666666667,1480,1502.0,1350,1500.0
2.7579989433288574,93,87,0.006666666666666667,1480,1502.0,1350,1500.0
2.7811379432678223,91,87,0.006666666666666667,1480,1502.0,1346.24,1500.0
2.804374933242798,89,86,0.006666666666666667,1480,1502.0,1344.96,1500.0
2.8276498317718506,87,86,0.007142857142857143,1480,1502.0,1345.2,1500.0
2.850924015045166,86,86,0.006666666666666667,1480,1502.0,1342.6400000000001,1500.0
2.8741469383239746,86,86,0.006666666666666667,1480,1502.0,1338.6400000000001,1500.0
2.8973469734191895,82,85,0.007142857142857143,1480,1502.0,1338.6400000000001,1500.0
2.9206089973449707,78,84,0.007142857142857143,1480,1502.0,1338.6400000000001,1500.0
2.943871021270752,77,84,0.007142857142857143,1480,1502.0,1337.4400000000001,1500.0
2.967103958129883,75,84,0.007407407407407408,1480,1502.0,1337.5999999999999,1500.0
2.990311861038208,74,83,0.007692307692307693,1480,1502.0,1341.76,1500.0
3.0135369300842285,72,83,0.007142857142857143,1480,1502.0,1341.9200000000001,1500.0
3.036799907684326,71,83,0.008547008547008548,1480,1502.0,1340.6400000000001,1500.0
3.060025930404663,71,83,0.008547008547008548,1480,1502.0,1339.3599999999999,1500.0
3.0832579135894775,67,83,0.007936507936507936,1480,1502.0,1338.0799999999999,1500.0
3.106489896774292,63,83,0.009259259259259259,1480,1502.0,1334.0,1500.0
3.1296839714050293,62,83,0.009259259259259259,1480,1502.0,1331.28,1500.0
3.152919054031372,61,83,0.007936507936507936,1480,1502.0,1329.9200000000001,1500.0
3.176163911819458,60,83,0.010101010101010102,1480,1502.0,1328.5599999999999,1500.0
3.19940185546875,58,83,0.011111111111111112,1480,1502.0,1327.2,1500.0
3.2226898670196533,57,83,0.010101010101010102,1480,1502.0,1327.2,1500.0
3.2459499835968018,55,83,0.009259259259259259,1480,1502.0,1327.2,1500.0
3.2692089080810547,53,83,0.009259259259259259,1480,1502.0,1327.2,1500.0
3.292541980743408,51,82,0.010416666666666666,1480,1502.0,1329.8399999999999,1500.0
3.315953016281128,51,83,0.009259259259259259,1480,1502.0,1328.6400000000001,1500.0
3.339218854904175,50,83,0.010101010101010102,1480,1502.0,1328.6400000000001,1500.0
3.362520933151245,49,83,0.010101010101010102,1480,1502.0,1328.6400000000001,1500.0
3.3858649730682373,47,83,0.010101010101010102,1480,1502.0,1328.6400000000001,1500.0
3.4091129302978516,46,84,0.009259259259259259,1480,1502.0,1323.2,1500.0
3.432447910308838,46,84,0.010101010101010102,1480,1502.0,1321.76,1500.0
3.455812931060791,160,99,1.557632398753894e-05,1480,1502.0,1280.72,1500.0
3.4790968894958496,160,99,1.557632398753894e-05,1480,1502.0,1257.6800000000001,1500.0
3.5023880004882812,160,99,1.557632398753894e-05,1480,1502.0,1250,1500.0
3.525599956512451,160,99,1.557632398753894e-05,1480,1502.0,1250,1500.0
3.5486819744110107,160,99,1.557632398753894e-05,1480,1502.0,1250,1500.0
3.571794033050537,160,99,1.557632398753894e-05,1480,1502.0,1250,1500.0
3.5950489044189453,160,99,1.557632398753894e-05,1480,1502.0,1250,1500.0
3.618255853652954,160,99,1.557632398753894e-05,1480,1502.0,1260.8,1500.0
3.641511917114258,160,99,1.557632398753894e-05,1480,1502.0,1281.2,1500.0
3.6653339862823486,190,100,1.9350594063237743e-05,1520,1502.0,1298.96,1500.0
3.6887388229370117,190,101,1.954804910469935e-05,1520,1502.0,1294.8800000000001,1500.0
3.712031841278076,190,101,1.954804910469935e-05,1520,1502.0,1292.0,1500.0
3.7353129386901855,160,99,1.557632398753894e-05,1520,1502.0,1294.4000000000001,1500.0
3.7585370540618896,160,99,1.557632398753894e-05,1520,1502.0,1294.4000000000001,1500.0
3.7817490100860596,160,99,1.557632398753894e-05,1520,1502.0,1297.2,1500.0
3.8050968647003174,160,99,1.557632398753894e-05,1520,1502.0,1302.8,1500.0
3.8283820152282715,160,99,1.557632398753894e-05,1520,1502.0,1308.4000000000001,1500.0
3.851639986038208,160,99,1.557632398753894e-05,1520,1502.0,1308.4000000000001,1500.0
3.8749818801879883,160,99,1.557632398753894e-05,1520,1502.0,1308.4000000000001,1500.0
3.898171901702881,160,99,1.557632398753894e-05,1520,1502.0,1307.04,1500.0
3.9213969707489014,160,99,1.557632398753894e-05,1520,1502.0,1304.3199999999999,1500.0
3.9447460174560547,1,96,0.037037037037037035,1480,1502.0,1309.52,1500.0
3.9679908752441406,4,98,0.011111111111111112,1480,1502.0,1308.5599999999999,1500.0
3.991225004196167,7,99,0.015625,1480,1502.0,1307.3599999999999,1500.0
