time,x,y,size_inv,roll,pitch,thrust,yaw
0.0005958080291748047,146,48,0.003787878787878788,1480,1498.0,1310,1486.0
0.02280592918395996,146,48,0.003787878787878788,1480,1498.0,1310,1486.0
0.044583797454833984,146,48,0.003787878787878788,1480,1498.0,1310,1486.0
0.06636190414428711,146,48,0.003787878787878788,1480,1498.0,1310,1486.0
0.08812499046325684,146,48,0.003787878787878788,1480,1498.0,1310,1486.0
0.10985088348388672,146,48,0.003787878787878788,1480,1498.0,1310,1486.0
0.13156890869140625,146,48,0.003787878787878788,1480,1498.0,1310,1486.0
0.15329384803771973,146,48,0.003787878787878788,1480,1498.0,1310,1486.0
0.1750319004058838,146,48,0.003787878787878788,1480,1498.0,1310,1486.0
0.19694089889526367,146,48,0.003787878787878788,1480,1498.0,1310,1486.0
0.2189159393310547,146,48,0.003787878787878788,1480,1498.0,1310,1486.0
0.24097895622253418,146,48,0.003787878787878788,1480,1498.0,1310,1486.0
0.26305484771728516,146,48,0.003787878787878788,1480,1498.0,1310,1486.0
0.2851078510284424,146,48,0.003787878787878788,1480,1498.0,1310,1486.0
0.30716490745544434,146,49,0.004132231404958678,1480,1498.0,1310,1486.0
0.3292088508605957,147,49,0.004132231404958678,1480,1498.0,1310,1487.0
0.35123586654663086,148,48,0.003787878787878788,1480,1498.0,1310,1488.0
0.3732929229736328,149,49,0.003968253968253968,1480,1498.0,1310,1489.0
0.3953578472137451,149,49,0.003787878787878788,1480,1498.0,1310,1489.0
0.4174339771270752,150,50,0.003787878787878788,1480,1498.0,1310,1490.0
0.4395179748535156,150,52,0.004132231404958678,1480,1498.0,1310,1490.0
0.46156883239746094,151,55,0.003787878787878788,1480,1498.0,1310,1491.0
0.48361897468566895,153,56,0.003968253968253968,1480,1498.0,1310,1493.0
0.5057079792022705,157,54,0.004329004329004329,1480,1498.0,1310,1497.0
0.5277738571166992,159,52,0.003968253968253968,1480,1498.0,1310,1499.0
0.5498309135437012,160,51,0.0034965034965034965,1480,1498.0,1310,1500.0
0.5718798637390137,163,51,0.004048582995951417,1480,1498.0,1310,1503.0
0.5939218997955322,165,52,0.0043859649122807015,1480,1498.0,1310,1505.0
0.615966796875,166,53,0.0043859649122807015,1486.0,1498.0,1310,1506.0
0.6380648612976074,166,54,0.003787878787878788,1502.0,1498.0,1310,1506.0
0.6601579189300537,169,56,0.004048582995951417,1520,1498.0,1310,1509.0
0.6822569370269775,169,57,0.0034965034965034965,1520,1498.0,1310,1509.0
0.7045769691467285,170,58,0.0034965034965034965,1520,1498.0,1310,1510.0
0.7266788482666016,171,59,0.0033444816053511705,1520,1498.0,1310,1511.0
0.7487528324127197,171,60,0.0034965034965034965,1520,1498.0,1310,1511.0
0.7708008289337158,171,60,0.0034965034965034965,1520,1498.0,1310,1511.0
0.7929039001464844,171,60,0.0034965034965034965,1520,1498.0,1310,1511.0
0.8150038719177246,171,60,0.003968253968253968,1520,1498.0,1310,1511.0
0.8370378017425537,170,61,0.0034965034965034965,1520,1498.0,1310,1510.0
0.8590638637542725,170,61,0.003787878787878788,1520,1498.0,1310,1510.0
0.8811018466949463,171,62,0.0043859649122807015,1520,1498.0,1310,1511.0
0.903141975402832,169,63,0.003787878787878788,1520,1498.0,1310,1509.0
0.9251809120178223,170,65,0.004629629629629629,1520,1498.0,1310,1510.0
0.9472129344940186,169,66,0.004629629629629629,1520,1498.0,1310,1509.0
0.9692559242248535,167,67,0.003787878787878788,1520,1498.0,1310,1507.0
0.9912979602813721,167,68,0.003787878787878788,1520,1498.0,1310,1507.0
1.0133497714996338,166,69,0.003787878787878788,1520,1498.0,1310,1506.0
1.035409927368164,167,70,0.004273504273504274,1520,1498.0,1310,1507.0
1.0574619770050049,165,71,0.0034965034965034965,1520,1498.0,1310,1505.0
1.0794987678527832,166,71,0.004629629629629629,1520,1498.0,1310,1506.0
1.101564884185791,164,73,0.0034965034965034965,1520,1498.0,1310,1504.0
1.1236097812652588,163,74,0.0034965034965034965,1520,1498.0,1310,1503.0
1.1456518173217773,163,75,0.003663003663003663,1520,1498.0,1310,1503.0
1.167719841003418,162,76,0.0034965034965034965,1520,1498.0,1310,1502.0
1.189774990081787,162,77,0.0034965034965034965,1520,1498.0,1310,1502.0
1.2118558883666992,162,78,0.003663003663003663,1520,1498.0,1310,1502.0
1.2346878051757812,163,79,0.004273504273504274,1520,1498.0,1310,1503.0
1.2586538791656494,161,80,0.0034965034965034965,1520,1498.0,1310,1501.0
1.282395839691162,161,80,0.003246753246753247,1520,1498.0,1310,1501.0
1.3061919212341309,161,81,0.0034965034965034965,1520,1498.0,1310,1501.0
1.3298428058624268,161,82,0.003105590062111801,1520,1498.0,1310,1501.0
1.353515863418579,160,83,0.003246753246753247,1516.0,1498.0,1310,1500.0
1.3772897720336914,160,84,0.0034965034965034965,1513.0,1498.0,1310,1500.0
1.401012897491455,160,85,0.0034965034965034965,1511.0,1498.0,1310,1500.0
1.424743890762329,159,85,0.003246753246753247,1506.0,1498.0,1310,1499.0
1.4485468864440918,159,86,0.003246753246753247,1503.0,1498.0,1310,1499.0
1.472303867340088,159,89,0.0034965034965034965,1499.0,1498.0,1310,1499.0
1.4962120056152344,158,89,0.003246753246753247,1494.0,1498.0,1310,1498.0
1.5199718475341797,158,90,0.003246753246753247,1491.0,1498.0,1310,1498.0
1.5437209606170654,159,91,0.003105590062111801,1491.0,1498.0,1310,1499.0
1.567516803741455,158,92,0.003246753246753247,1486.0,1498.0,1309.8800000000001,1498.0
1.5913689136505127,158,93,0.003246753246753247,1484.0,1498.0,1307.1600000000001,1498.0
1.6152269840240479,160,94,0.0037593984962406013,1488.0,1498.0,1304.26,1500.0
1.6390857696533203,158,95,0.003105590062111801,1482.0,1498.0,1301.3599999999999,1498.0
1.6630289554595947,157,96,0.003246753246753247,1480,1498.0,1298.3499999999999,1497.0
1.686884880065918,158,97,0.004273504273504274,1480,1498.0,1295.3399999999999,1498.0
1.71065092086792,156,98,0.0034965034965034965,1480,1498.0,1292.55,1496.0
1.7344248294830322,156,99,0.0034965034965034965,1480,1498.0,1289.6500000000001,1496.0
1.7582519054412842,157,100,0.004273504273504274,1480,1498.0,1286.75,1497.0
1.7820069789886475,155,102,0.0034965034965034965,1480,1498.0,1282.6600000000001,1495.0
1.8059048652648926,155,103,0.0034965034965034965,1480,1498.0,1279.47,1495.0
1.8296818733215332,156,104,0.004273504273504274,1480,1498.0,1276.28,1496.0
1.853501796722412,156,104,0.003968253968253968,1480,1498.0,1274.28,1496.0
1.877349853515625,154,105,0.0034965034965034965,1480,1498.0,1271.3800000000001,1494.0
1.901127815246582,154,105,0.0034965034965034965,1480,1498.0,1269.8499999999999,1494.0
1.9249279499053955,154,106,0.0034965034965034965,1480,1498.0,1267.4200000000001,1494.0
1.948706865310669,154,106,0.0034965034965034965,1480,1498.0,1266.1800000000001,1494.0
1.972472906112671,155,106,0.003968253968253968,1480,1498.0,1265.05,1495.0
1.996372938156128,155,106,0.003968253968253968,1480,1498.0,1264.21,1495.0
2.0201408863067627,155,106,0.003968253968253968,1480,1498.0,1263.5899999999999,1495.0
2.0439298152923584,154,107,0.002898550724637681,1480,1498.0,1262.0699999999999,1494.0
2.0677309036254883,153,107,0.003246753246753247,1480,1498.0,1261.5599999999999,1493.0
2.091171979904175,153,107,0.003246753246753247,1480,1498.0,1261.05,1493.0
2.114759922027588,153,107,0.003246753246753247,1480,1498.0,1260.6500000000001,1493.0
2.138248920440674,153,108,0.0030303030303030303,1480,1498.0,1259.0599999999999,1493.0
2.161759853363037,153,107,0.003246753246753247,1480,1498.0,1259.8499999999999,1493.0
2.1854679584503174,153,108,0.0030303030303030303,1480,1498.0,1258.55,1493.0
2.209045886993408,154,108,0.002898550724637681,1480,1498.0,1258.1500000000001,1494.0
2.2326297760009766,153,108,0.0030303030303030303,1480,1498.0,1257.75,1493.0
2.256220817565918,153,108,0.0030303030303030303,1480,1498.0,1257.53,1493.0
2.2797348499298096,154,107,0.003246753246753247,1480,1498.0,1258.4300000000001,1494.0
2.3033699989318848,154,107,0.0030303030303030303,1480,1498.0,1258.6099999999999,1494.0
2.3269619941711426,154,106,0.003246753246753247,1480,1498.0,1259.98,1494.0
2.3504769802093506,155,106,0.002898550724637681,1480,1498.0,1260.45,1495.0
2.3739988803863525,154,106,0.0030303030303030303,1480,1498.0,1261.03,1494.0
2.397587776184082,155,104,0.0030303030303030303,1480,1498.0,1263.7,1495.0
2.421116828918457,156,104,0.002777777777777778,1480,1498.0,1264.6800000000001,1496.0
2.444697856903076,156,103,0.002777777777777778,1480,1498.0,1266.6700000000001,1496.0
2.4685158729553223,156,102,0.002717391304347826,1480,1498.0,1268.95,1496.0
2.4920639991760254,157,102,0.002898550724637681,1480,1498.0,1270.3299999999999,1497.0
2.515812873840332,157,101,0.002898550724637681,1480,1498.0,1272.4300000000001,1497.0
2.539341926574707,158,100,0.0026666666666666666,1480,1498.0,1274.8199999999999,1498.0
2.5629169940948486,158,98,0.0026666666666666666,1480,1498.0,1278.4000000000001,1498.0
2.5864927768707275,158,97,0.0026666666666666666,1480,1498.0,1281.1900000000001,1498.0
2.610010862350464,158,95,0.0025,1480,1498.0,1285.46,1498.0
2.633535861968994,158,94,0.0025,1480,1498.0,1288.72,1498.0
2.6570827960968018,158,93,0.0026666666666666666,1480,1498.0,1292.0899999999999,1498.0
2.680604934692383,158,92,0.0026666666666666666,1480,1498.0,1295.28,1498.0
2.704223871231079,157,90,0.002564102564102564,1480,1498.0,1299.6600000000001,1497.0
2.727747917175293,157,88,0.002403846153846154,1480,1498.0,1304.26,1497.0
2.7512688636779785,157,88,0.002564102564102564,1480,1498.0,1306.77,1497.0
2.774829864501953,157,86,0.002403846153846154,1480,1498.0,1310,1497.0
2.798226833343506,157,85,0.002403846153846154,1480,1498.0,1310,1497.0
2.821619987487793,157,84,0.002403846153846154,1480,1498.0,1310,1497.0
2.845094919204712,158,83,0.0025,1480,1498.0,1310,1498.0
2.8685050010681152,158,82,0.002564102564102564,1480,1498.0,1310,1498.0
2.891918897628784,158,79,0.002564102564102564,1480,1498.0,1310,1498.0
2.9155209064483643,158,77,0.002403846153846154,1480,1498.0,1310,1498.0
2.9389328956604004,158,76,0.002564102564102564,1480,1498.0,1310,1498.0
2.962329864501953,159,75,0.0024691358024691358,1480,1498.0,1310,1499.0
2.985830783843994,159,73,0.002403846153846154,1480,1498.0,1310,1499.0
3.0092527866363525,159,72,0.002403846153846154,1480,1498.0,1310,1499.0
3.032731771469116,159,71,0.002564102564102564,1481.0,1498.0,1310,1499.0
3.0563018321990967,160,68,0.0024691358024691358,1486.0,1498.0,1310,1500.0
3.0798099040985107,160,67,0.0024691358024691358,1488.0,1498.0,1310,1500.0
3.103339910507202,160,65,0.0023148148148148147,1490.0,1498.0,1310,1500.0
3.1268858909606934,160,64,0.0024691358024691358,1492.0,1498.0,1310,1500.0
3.150390863418579,160,62,0.0023148148148148147,1494.0,1498.0,1310,1500.0
3.173919916152954,160,61,0.0024691358024691358,1496.0,1498.0,1310,1500.0
3.1974408626556396,160,59,0.0023148148148148147,1497.0,1498.0,1310,1500.0
3.2209808826446533,160,56,0.0023148148148148147,1498.0,1498.0,1310,1500.0
3.2445478439331055,159,55,0.002564102564102564,1496.0,1498.0,1310,1499.0
3.2680749893188477,159,53,0.002564102564102564,1496.0,1498.0,1310,1499.0
3.291569948196411,159,52,0.002564102564102564,1495.0,1498.0,1310,1499.0
3.3151187896728516,159,50,0.002564102564102564,1494.0,1498.0,1310,1499.0
3.338606834411621,160,49,0.0024691358024691358,1496.0,1498.0,1310,1500.0
3.3621058464050293,160,47,0.002564102564102564,1496.0,1498.0,1310,1500.0
3.385809898376465,160,46,0.002564102564102564,1496.0,1498.0,1310,1500.0
3.4093079566955566,160,45,0.002564102564102564,1496.0,1498.0,1310,1500.0
3.432626962661743,160,44,0.002403846153846154,1496.0,1498.0,1310,1500.0
3.4561798572540283,161,44,0.0024691358024691358,1499.0,1498.0,1310,1501.0
3.479674816131592,161,43,0.0023148148148148147,1501.0,1498.0,1310,1501.0
3.5032148361206055,161,43,0.0024691358024691358,1503.0,1498.0,1310,1501.0
3.526843786239624,161,39,0.0027472527472527475,1505.0,1498.0,1310,1501.0
3.550555944442749,161,37,0.0027472527472527475,1507.0,1498.0,1310,1501.0
3.5740668773651123,161,36,0.002564102564102564,1508.0,1498.0,1310,1501.0
3.597579002380371,161,34,0.002564102564102564,1509.0,1498.0,1310,1501.0
3.62105393409729,162,33,0.0024691358024691358,1513.0,1498.0,1310,1502.0
3.6446077823638916,161,32,0.002564102564102564,1512.0,1498.0,1310,1501.0
3.6681509017944336,162,32,0.002564102564102564,1516.0,1498.0,1310,1502.0
3.6916589736938477,163,31,0.0024691358024691358,1520.0,1498.0,1310,1503.0
3.7152087688446045,164,31,0.0022988505747126436,1520,1498.0,1310,1504.0
3.7386069297790527,164,30,0.0021551724137931034,1520,1498.0,1310,1504.0
3.7623109817504883,164,30,0.0022988505747126436,1520,1498.0,1310,1504.0
3.785829782485962,164,29,0.0022988505747126436,1520,1498.0,1310,1504.0
3.809262990951538,164,28,0.0021551724137931034,1520,1498.0,1310,1504.0
3.8327419757843018,164,28,0.0021551724137931034,1520,1498.0,1310,1504.0
3.856221914291382,163,28,0.002028397565922921,1520,1498.0,1310,1503.0
3.879628896713257,162,28,0.00196078431372549,1520,1498.0,1310,1502.0
3.903075933456421,162,28,0.00196078431372549,1520,1498.0,1310,1502.0
3.926562786102295,162,28,0.00196078431372549,1520,1498.0,1310,1502.0
3.9500679969787598,162,28,0.00196078431372549,1520,1498.0,1310,1502.0
3.9735069274902344,162,28,0.00196078431372549,1520,1498.0,1310,1502.0
3.9969727993011475,161,28,0.00196078431372549,1520,1498.0,1310,1501.0
4.020373821258545,161,29,0.00196078431372549,1520,1498.0,1310,1501.0
4.043869972229004,160,29,0.001851851851851852,1519.0,1498.0,1310,1500.0
4.067378997802734,160,30,0.001851851851851852,1515.0,1498.0,1310,1500.0
4.090845823287964,159,31,0.0017543859649122807,1509.0,1498.0,1310,1499.0
4.1143269538879395,159,31,0.001851851851851852,1506.0,1498.0,1310,1499.0
4.137987852096558,160,32,0.001697792869269949,1506.0,1498.0,1310,1500.0
4.161527872085571,159,33,0.0017543859649122807,1501.0,1498.0,1310,1499.0
4.185123920440674,160,34,0.001594896331738437,1501.0,1498.0,1310,1500.0
4.208662986755371,160,35,0.001594896331738437,1499.0,1498.0,1310,1500.0
4.2321858406066895,160,36,0.001594896331738437,1498.0,1498.0,1310,1500.0
4.255915880203247,160,36,0.0015151515151515152,1497.0,1498.0,1310,1500.0
4.279416799545288,159,37,0.0014705882352941176,1494.0,1498.0,1310,1499.0
4.302985906600952,159,37,0.0014705882352941176,1493.0,1498.0,1310,1499.0
4.326567888259888,159,38,0.0014705882352941176,1493.0,1498.0,1310,1499.0
4.350074768066406,158,39,0.0014705882352941176,1490.0,1498.0,1310,1498.0
4.373661994934082,158,40,0.0014705882352941176,1488.0,1498.0,1310,1498.0
4.3971779346466064,157,41,0.0014005602240896359,1484.0,1498.0,1310,1497.0
4.420666933059692,157,42,0.0014005602240896359,1481.0,1498.0,1310,1497.0
4.444227933883667,156,43,0.0014005602240896359,1480,1498.0,1310,1496.0
4.467660903930664,157,44,0.0013605442176870747,1480,1498.0,1310,1497.0
4.491073846817017,157,45,0.001287001287001287,1480,1498.0,1310,1497.0
4.514485836029053,157,47,0.001287001287001287,1480,1498.0,1310,1497.0
4.537916898727417,157,47,0.0012285012285012285,1480,1498.0,1310,1497.0
4.561348915100098,157,48,0.001287001287001287,1480,1498.0,1310,1497.0
4.58493185043335,156,48,0.0011961722488038277,1480,1498.0,1310,1496.0
4.608645915985107,156,48,0.0011961722488038277,1480,1498.0,1310,1496.0
4.6321189403533936,156,49,0.0011961722488038277,1480,1498.0,1310,1496.0
4.655813932418823,156,49,0.0011655011655011655,1480,1498.0,1310,1496.0
4.679253816604614,155,51,0.0011148272017837235,1480,1498.0,1310,1495.0
4.7027268409729,154,51,0.0011961722488038277,1480,1498.0,1310,1494.0
4.72621488571167,154,52,0.0011148272017837235,1480,1498.0,1310,1494.0
4.749631881713867,153,53,0.0011441647597254005,1480,1498.0,1310,1493.0
4.773092985153198,155,53,0.0010162601626016261,1480,1498.0,1310,1495.0
4.796587944030762,154,54,0.000992063492063492,1480,1498.0,1310,1494.0
4.820004940032959,154,55,0.000992063492063492,1480,1498.0,1310,1494.0
4.843541860580444,154,57,0.0009302325581395349,1480,1498.0,1310,1494.0
4.866976976394653,153,58,0.0009523809523809524,1480,1498.0,1310,1493.0
4.890389919281006,153,58,0.0008944543828264759,1480,1498.0,1310,1493.0
4.91387677192688,153,59,0.0008944543828264759,1480,1498.0,1310,1493.0
4.937288999557495,152,59,0.0008944543828264759,1480,1498.0,1310,1492.0
4.960704803466797,152,60,0.0008944543828264759,1480,1498.0,1310,1492.0
4.984200954437256,152,61,0.0008051529790660225,1480,1498.0,1310,1492.0
5.007595777511597,153,62,0.0007598784194528875,1480,1498.0,1310,1493.0
5.0310139656066895,153,63,0.0007598784194528875,1480,1498.0,1310,1493.0
5.0544397830963135,152,64,0.0007598784194528875,1480,1498.0,1310,1492.0
5.078117847442627,152,65,0.0007183908045977011,1480,1498.0,1310,1492.0
