time,x,y,size_inv,roll,pitch,thrust,yaw
0.0006148815155029297,213,48,0.0043859649122807015,1515.9000000000001,1502.0,1350,1500.0
0.022552967071533203,213,48,0.0043859649122807015,1515.9000000000001,1502.0,1350,1500.0
0.044203996658325195,213,48,0.0043859649122807015,1515.9000000000001,1502.0,1350,1500.0
0.06573796272277832,213,48,0.0043859649122807015,1515.9000000000001,1502.0,1350,1500.0
0.08728480339050293,213,48,0.004166666666666667,1515.9000000000001,1502.0,1350,1500.0
0.10868382453918457,213,48,0.0043859649122807015,1515.9000000000001,1502.0,1350,1500.0
0.13003897666931152,213,48,0.0043859649122807015,1515.9000000000001,1502.0,1350,1500.0
0.15146303176879883,213,48,0.004166666666666667,1515.9000000000001,1502.0,1350,1500.0
0.1727750301361084,213,48,0.0043859649122807015,1515.9000000000001,1502.0,1350,1500.0
0.19407391548156738,213,48,0.004629629629629629,1515.9000000000001,1502.0,1350,1500.0
0.21553802490234375,213,49,0.004545454545454545,1515.9000000000001,1502.0,1350,1500.0
0.23720002174377441,214,48,0.0043859649122807015,1516.8,1502.0,1350,1500.0
0.2589869499206543,213,48,0.0043859649122807015,1516.5,1502.0,1350,1500.0
0.28074097633361816,213,48,0.0043859649122807015,1516.5,1502.0,1350,1500.0
0.30246996879577637,212,48,0.004784688995215311,1515.5999999999999,1502.0,1350,1500.0
0.3242490291595459,212,48,0.004784688995215311,1515.0,1502.0,1350,1500.0
0.3460359573364258,211,47,0.005050505050505051,1512.3,1502.0,1350,1500.0
0.3678009510040283,211,46,0.004784688995215311,1511.0999999999999,1502.0,1350,1500.0
0.3895540237426758,211,46,0.004784688995215311,1509.9000000000001,1502.0,1350,1500.0
0.41129589080810547,210,46,0.004784688995215311,1509.0,1502.0,1350,1500.0
0.4330449104309082,210,47,0.004784688995215311,1508.4000000000001,1502.0,1350,1500.0
0.4547719955444336,209,49,0.005263157894736842,1508.7,1502.0,1350,1500.0
0.47649192810058594,209,51,0.005263157894736842,1508.7,1502.0,1350,1500.0
0.49822402000427246,209,53,0.005263157894736842,1508.7,1502.0,1350,1500.0
0.5199549198150635,209,55,0.004784688995215311,1509.3,1502.0,1343.6800000000001,1500.0
0.5417299270629883,209,55,0.005263157894736842,1509.9000000000001,1502.0,1330.8,1500.0
0.5635068416595459,209,56,0.004784688995215311,1511.0999999999999,1502.0,1322.24,1500.0
0.5852839946746826,209,57,0.004784688995215311,1512.3,1502.0,1319.2,1500.0
0.6070489883422852,208,57,0.004784688995215311,1512.5999999999999,1502.0,1322.96,1500.0
0.6288149356842041,208,58,0.004784688995215311,1512.5999999999999,1502.0,1329.6800000000001,1500.0
0.6505880355834961,208,59,0.004784688995215311,1512.5999999999999,1502.0,1333.5999999999999,1500.0
0.6723639965057373,208,61,0.004784688995215311,1512.0,1502.0,1333.52,1500.0
0.6941728591918945,208,63,0.004784688995215311,1511.4000000000001,1502.0,1330.6400000000001,1500.0
0.7160029411315918,207,64,0.004166666666666667,1511.0999999999999,1502.0,1324.8,1500.0
0.7377779483795166,207,65,0.0043859649122807015,1511.0999999999999,1502.0,1317.5999999999999,1500.0
0.7595639228820801,207,65,0.0043859649122807015,1511.0999999999999,1502.0,1314.4000000000001,1500.0
0.7813420295715332,207,67,0.0043859649122807015,1511.0999999999999,1502.0,1310.1600000000001,1500.0
0.8031139373779297,206,68,0.0043859649122807015,1510.2,1502.0,1309.9200000000001,1500.0
0.8248939514160156,207,69,0.004784688995215311,1511.0999999999999,1502.0,1311.04,1500.0
0.846688985824585,205,69,0.004166666666666667,1509.9000000000001,1502.0,1314.8,1500.0
0.8685050010681152,205,70,0.004166666666666667,1509.3,1502.0,1314.5599999999999,1500.0
0.8903348445892334,205,71,0.0043859649122807015,1508.7,1502.0,1315.76,1500.0
0.9121010303497314,205,71,0.0043859649122807015,1509.3,1502.0,1318.24,1500.0
0.9338459968566895,204,73,0.004166666666666667,1507.2,1502.0,1316.8800000000001,1500.0
0.955704927444458,203,76,0.004166666666666667,1506.9000000000001,1502.0,1308.6400000000001,1500.0
0.9774949550628662,203,78,0.004784688995215311,1506.9000000000001,1502.0,1301.52,1500.0
0.9992599487304688,202,79,0.004166666666666667,1506.0,1502.0,1294.24,1500.0
1.0210208892822266,203,80,0.003968253968253968,1505.7,1502.0,1284.1600000000001,1500.0
1.043008804321289,203,80,0.003968253968253968,1506.9000000000001,1502.0,1279.52,1500.0
1.064788818359375,201,82,0.004166666666666667,1506.3,1502.0,1278.0,1500.0
1.0865449905395508,201,83,0.0043859649122807015,1506.3,1502.0,1280.48,1500.0
1.1083228588104248,200,84,0.0043859649122807015,1506.5999999999999,1502.0,1282.96,1500.0
1.1300959587097168,200,85,0.003968253968253968,1506.0,1502.0,1286.8,1500.0
1.1518728733062744,200,85,0.003968253968253968,1504.8,1502.0,1289.1199999999999,1500.0
1.1736488342285156,198,87,0.004048582995951417,1503.5999999999999,1502.0,1287.6800000000001,1500.0
1.1954939365386963,198,87,0.003968253968253968,1503.0,1502.0,1288.72,1500.0
1.2172629833221436,197,88,0.003968253968253968,1502.0999999999999,1502.0,1288.5599999999999,1500.0
1.239037036895752,196,89,0.003968253968253968,1501.2,1502.0,1288.4000000000001,1500.0
1.2607879638671875,196,89,0.003968253968253968,1500.5999999999999,1502.0,1289.4400000000001,1500.0
1.2825438976287842,195,91,0.003968253968253968,1500.3,1502.0,1288.0799999999999,1500.0
1.3043458461761475,194,92,0.003968253968253968,1499.4000000000001,1502.0,1285.1199999999999,1500.0
1.3261728286743164,192,93,0.003968253968253968,1497.5999999999999,1502.0,1282.1600000000001,1500.0
1.3479509353637695,192,93,0.003968253968253968,1497.5999999999999,1502.0,1281.8399999999999,1500.0
1.3697190284729004,189,93,0.004166666666666667,1494.9000000000001,1502.0,1281.52,1500.0
1.3914928436279297,188,94,0.004166666666666667,1492.2,1502.0,1281.4400000000001,1500.0
1.4132609367370605,189,94,0.003968253968253968,1491.9000000000001,1502.0,1285.3599999999999,1500.0
1.4350268840789795,187,95,0.0043859649122807015,1491.3,1502.0,1288.0799999999999,1500.0
1.4568068981170654,187,96,0.003663003663003663,1490.7,1502.0,1288.0,1500.0
1.478576898574829,187,96,0.003663003663003663,1493.7,1502.0,1289.1199999999999,1500.0
1.50038480758667,185,97,0.0043859649122807015,1495.5,1502.0,1287.6800000000001,1500.0
1.5221569538116455,184,98,0.0038461538461538464,1495.2,1502.0,1283.4400000000001,1500.0
1.5439488887786865,184,98,0.0043859649122807015,1496.4000000000001,1502.0,1281.8399999999999,1500.0
1.5657868385314941,185,99,0.003663003663003663,1498.5,1502.0,1280.4000000000001,1500.0
1.5875699520111084,185,99,0.003663003663003663,1498.5,1502.0,1280.1600000000001,1500.0
1.609372854232788,182,99,0.0038461538461538464,1497.5999999999999,1502.0,1281.3599999999999,1500.0
1.6311559677124023,182,99,0.0038461538461538464,1499.4000000000001,1502.0,1285.3599999999999,1500.0
1.6529319286346436,182,98,0.003968253968253968,1500.0,1502.0,1290.6400000000001,1500.0
1.674698829650879,181,97,0.003968253968253968,1498.5,1502.0,1298.8,1500.0
1.696470022201538,179,97,0.0043859649122807015,1495.5,1502.0,1305.76,1500.0
1.7182459831237793,178,96,0.003968253968253968,1494.5999999999999,1502.0,1314.0,1500.0
1.740020990371704,177,96,0.003968253968253968,1492.5,1502.0,1319.6800000000001,1500.0
1.7618138790130615,175,96,0.0043859649122807015,1488.9000000000001,1502.0,1322.5599999999999,1500.0
1.7836170196533203,175,97,0.003663003663003663,1487.7,1502.0,1318.6400000000001,1500.0
1.8059518337249756,173,97,0.0043859649122807015,1487.0999999999999,1502.0,1315.9200000000001,1500.0
1.829270839691162,172,98,0.0038461538461538464,1485.5999999999999,1502.0,1307.76,1500.0
1.8525500297546387,171,98,0.004048582995951417,1484.7,1502.0,1300.8,1500.0
1.87583589553833,171,98,0.004048582995951417,1486.5,1502.0,1295.2,1500.0
1.8990750312805176,170,98,0.003968253968253968,1486.8,1502.0,1293.76,1500.0
1.9223158359527588,167,98,0.0034965034965034965,1485.9000000000001,1502.0,1292.3199999999999,1500.0
1.9455718994140625,166,97,0.0034965034965034965,1485.5999999999999,1502.0,1297.6800000000001,1500.0
1.968822956085205,165,96,0.003787878787878788,1485.3,1502.0,1304.48,1500.0
1.9920408725738525,164,96,0.0034965034965034965,1483.2,1502.0,1310.0799999999999,1500.0
2.0152688026428223,163,95,0.003968253968253968,1481.7,1502.0,1316.96,1500.0
2.0384960174560547,162,95,0.0034965034965034965,1482.0,1502.0,1322.6400000000001,1500.0
2.0620148181915283,162,95,0.0034965034965034965,1483.2,1502.0,1324.1600000000001,1500.0
2.085273027420044,160,95,0.003663003663003663,1483.2,1502.0,1322.8800000000001,1500.0
2.108484983444214,157,94,0.004048582995951417,1482.3,1502.0,1324.24,1500.0
2.131696939468384,157,94,0.003663003663003663,1482.9000000000001,1502.0,1321.5999999999999,1500.0
2.154951810836792,156,93,0.003787878787878788,1482.0,1502.0,1321.5999999999999,1500.0
2.1781649589538574,155,93,0.0034965034965034965,1480,1502.0,1321.76,1500.0
2.2013068199157715,154,93,0.0038461538461538464,1480,1502.0,1323.28,1500.0
2.2245450019836426,154,92,0.003663003663003663,1481.4000000000001,1502.0,1324.6400000000001,1500.0
2.2478489875793457,154,92,0.003663003663003663,1483.2,1502.0,1326.1600000000001,1500.0
2.271052837371826,150,91,0.0038461538461538464,1482.0,1502.0,1327.52,1500.0
2.2943339347839355,149,90,0.0038461538461538464,1482.3,1502.0,1330.3199999999999,1500.0
2.317652940750122,149,90,0.004048582995951417,1482.9000000000001,1502.0,1331.9200000000001,1500.0
2.3409228324890137,148,89,0.004048582995951417,1480.8,1502.0,1334.72,1500.0
2.364231824874878,147,89,0.004048582995951417,1480,1502.0,1336.3199999999999,1500.0
2.387441873550415,147,88,0.003663003663003663,1480,1502.0,1339.1199999999999,1500.0
2.4105849266052246,146,87,0.004048582995951417,1481.4000000000001,1502.0,1340.5599999999999,1500.0
2.4338138103485107,145,86,0.0034965034965034965,1481.7,1502.0,1343.4400000000001,1500.0
2.457159996032715,143,85,0.0038461538461538464,1481.7,1502.0,1346.3199999999999,1500.0
2.4804019927978516,143,84,0.003401360544217687,1483.5,1502.0,1350,1500.0
2.5035319328308105,142,84,0.004048582995951417,1482.0,1502.0,1350,1500.0
2.5269508361816406,141,84,0.0038461538461538464,1480.5,1502.0,1350,1500.0
2.550100803375244,141,84,0.003663003663003663,1480.5,1502.0,1350.0,1500.0
2.5732929706573486,140,84,0.003663003663003663,1481.4000000000001,1502.0,1346.0,1500.0
2.5965218544006348,139,84,0.0038461538461538464,1481.0999999999999,1502.0,1339.2,1500.0
2.6198208332061768,138,84,0.004048582995951417,1481.4000000000001,1502.0,1333.76,1500.0
2.6431310176849365,137,83,0.003787878787878788,1481.7,1502.0,1332.3199999999999,1500.0
2.6663548946380615,137,83,0.003663003663003663,1481.7,1502.0,1331.04,1500.0
2.689572811126709,135,83,0.0038461538461538464,1480,1502.0,1331.1199999999999,1500.0
2.7127299308776855,135,82,0.0038461538461538464,1480,1502.0,1335.2,1500.0
2.735879898071289,134,82,0.0038461538461538464,1480,1502.0,1338.0799999999999,1500.0
2.7590389251708984,134,81,0.0038461538461538464,1480.2,1502.0,1340.8,1500.0
2.7822799682617188,133,81,0.0038461538461538464,1480,1502.0,1342.3199999999999,1500.0
2.805440902709961,133,81,0.004048582995951417,1481.7,1502.0,1343.8399999999999,1500.0
2.828702926635742,132,80,0.0038461538461538464,1482.0,1502.0,1345.2,1500.0
2.851935863494873,132,79,0.0037593984962406013,1483.2,1502.0,1348.0,1500.0
2.8751838207244873,132,79,0.0035714285714285713,1483.8,1502.0,1348.1600000000001,1500.0
2.8984689712524414,132,79,0.003401360544217687,1485.5999999999999,1502.0,1348.3199999999999,1500.0
2.9217288494110107,131,79,0.0037593984962406013,1485.3,1502.0,1348.48,1500.0
2.9449658393859863,131,80,0.004048582995951417,1486.5,1502.0,1344.5599999999999,1500.0
2.968195915222168,130,80,0.0038461538461538464,1486.2,1502.0,1339.04,1500.0
2.9914259910583496,129,81,0.0038461538461538464,1485.3,1502.0,1332.24,1500.0
3.01476788520813,129,80,0.0035714285714285713,1484.0999999999999,1502.0,1329.28,1500.0
3.0381228923797607,129,81,0.004048582995951417,1484.0999999999999,1502.0,1322.48,1500.0
3.0613980293273926,129,81,0.004048582995951417,1483.5,1502.0,1321.04,1500.0
3.084707021713257,129,81,0.004048582995951417,1484.0999999999999,1502.0,1320.96,1500.0
3.107999801635742,128,81,0.0038461538461538464,1485.0,1502.0,1323.6800000000001,1500.0
3.131309986114502,128,81,0.0038461538461538464,1486.2,1502.0,1323.5999999999999,1500.0
3.1548240184783936,128,81,0.004048582995951417,1486.8,1502.0,1326.3199999999999,1500.0
3.1785309314727783,129,81,0.003663003663003663,1488.3,1502.0,1327.6800000000001,1500.0
3.2018280029296875,128,81,0.0038461538461538464,1488.0,1502.0,1329.04,1500.0
3.2250518798828125,128,81,0.0038461538461538464,1488.5999999999999,1502.0,1329.04,1500.0
3.248291015625,128,80,0.0035714285714285713,1489.2,1502.0,1333.04,1500.0
3.2715139389038086,129,81,0.003663003663003663,1490.7,1502.0,1331.8399999999999,1500.0
3.2947938442230225,129,81,0.003663003663003663,1490.7,1502.0,1331.8399999999999,1500.0
3.3180978298187256,129,81,0.003401360544217687,1491.9000000000001,1502.0,1331.8399999999999,1500.0
3.3413608074188232,128,82,0.0038461538461538464,1491.5999999999999,1502.0,1329.2,1500.0
3.36464786529541,128,82,0.0035714285714285713,1491.5999999999999,1502.0,1324.96,1500.0
3.387957811355591,129,83,0.003663003663003663,1491.3,1502.0,1320.8800000000001,1500.0
3.4111878871917725,128,83,0.0037593984962406013,1490.4000000000001,1502.0,1318.0,1500.0
3.4344730377197266,129,84,0.003663003663003663,1490.0999999999999,1502.0,1312.48,1500.0
3.4577839374542236,129,84,0.003663003663003663,1490.7,1502.0,1310.96,1500.0
3.481017827987671,129,84,0.003401360544217687,1491.3,1502.0,1310.8,1500.0
3.5043439865112305,129,84,0.003401360544217687,1491.3,1502.0,1312.0799999999999,1500.0
3.5277259349823,129,85,0.0034965034965034965,1492.5,1502.0,1310.72,1500.0
3.5509350299835205,129,85,0.0038461538461538464,1492.5,1502.0,1313.3599999999999,1500.0
3.5742099285125732,130,85,0.003401360544217687,1492.8,1502.0,1314.6400000000001,1500.0
3.5975120067596436,130,85,0.003401360544217687,1492.8,1502.0,1315.9200000000001,1500.0
3.6207308769226074,129,86,0.0038461538461538464,1492.5,1502.0,1313.2,1500.0
3.643998861312866,131,86,0.003663003663003663,1493.7,1502.0,1314.48,1500.0
3.6673498153686523,131,86,0.003663003663003663,1494.9000000000001,1502.0,1314.4000000000001,1500.0
3.6905858516693115,132,86,0.003663003663003663,1495.8,1502.0,1314.3199999999999,1500.0
3.713819980621338,132,86,0.003401360544217687,1496.4000000000001,1502.0,1314.24,1500.0
3.7371878623962402,132,86,0.003246753246753247,1498.2,1502.0,1316.96,1500.0
3.7604169845581055,133,87,0.003663003663003663,1498.5,1502.0,1315.6800000000001,1500.0
3.783730983734131,133,87,0.003663003663003663,1498.5,1502.0,1315.5999999999999,1500.0
3.8072919845581055,133,87,0.003246753246753247,1497.9000000000001,1502.0,1315.52,1500.0
3.8306148052215576,134,87,0.003401360544217687,1498.2,1502.0,1315.4400000000001,1500.0
3.853883981704712,134,87,0.003401360544217687,1497.5999999999999,1502.0,1314.0,1500.0
3.877319812774658,135,87,0.0033444816053511705,1497.9000000000001,1502.0,1315.3599999999999,1500.0
3.9006128311157227,135,87,0.0034965034965034965,1497.9000000000001,1502.0,1316.72,1500.0
3.923846960067749,135,87,0.0034965034965034965,1498.5,1502.0,1318.0799999999999,1500.0
3.9472098350524902,136,87,0.0034965034965034965,1498.8,1502.0,1319.4400000000001,1500.0
3.9704339504241943,136,87,0.0034965034965034965,1498.8,1502.0,1320.8,1500.0
3.993675947189331,137,87,0.003663003663003663,1499.0999999999999,1502.0,1320.8,1500.0
4.017055034637451,137,87,0.0034965034965034965,1499.0999999999999,1502.0,1320.8,1500.0
4.040318012237549,138,87,0.003663003663003663,1500.0,1502.0,1320.8,1500.0
4.063527822494507,138,87,0.003663003663003663,1500.0,1502.0,1320.8,1500.0
4.0868799686431885,138,87,0.0034965034965034965,1500.0,1502.0,1320.8,1500.0
4.110114812850952,139,87,0.003663003663003663,1500.3,1502.0,1320.8,1500.0
4.133364915847778,139,87,0.0034965034965034965,1500.3,1502.0,1320.8,1500.0
4.156720876693726,140,87,0.0034965034965034965,1500.0,1502.0,1320.8,1500.0
4.179955005645752,141,87,0.003663003663003663,1500.9000000000001,1502.0,1320.8,1500.0
4.2031779289245605,140,87,0.0034965034965034965,1500.5999999999999,1502.0,1320.8,1500.0
4.226419925689697,142,87,0.003663003663003663,1501.8,1502.0,1320.8,1500.0
4.249648809432983,142,86,0.003246753246753247,1502.4000000000001,1502.0,1323.4400000000001,1500.0
4.272891998291016,142,87,0.0034965034965034965,1502.4000000000001,1502.0,1322.24,1500.0
4.296459913253784,143,87,0.0034965034965034965,1502.0999999999999,1502.0,1322.24,1500.0
4.31972599029541,143,87,0.0034965034965034965,1502.7,1502.0,1322.24,1500.0
4.342963933944702,144,87,0.0034965034965034965,1502.4000000000001,1502.0,1322.24,1500.0
4.366187810897827,144,86,0.003246753246753247,1501.8,1502.0,1322.0799999999999,1500.0
4.389437913894653,145,86,0.0034965034965034965,1502.7,1502.0,1323.52,1500.0
4.412678003311157,146,86,0.0033444816053511705,1503.5999999999999,1502.0,1324.96,1500.0
4.435920000076294,146,86,0.0034965034965034965,1503.5999999999999,1502.0,1326.4000000000001,1500.0
4.459153890609741,147,85,0.003246753246753247,1504.5,1502.0,1330.48,1500.0
4.482379913330078,147,85,0.0034965034965034965,1505.0999999999999,1502.0,1331.9200000000001,1500.0
4.505630970001221,148,85,0.0034965034965034965,1505.4000000000001,1502.0,1332.0,1500.0
4.528865814208984,148,85,0.0034965034965034965,1504.8,1502.0,1332.0799999999999,1500.0
4.552106857299805,149,85,0.0033444816053511705,1505.0999999999999,1502.0,1332.1600000000001,1500.0
4.57535982131958,150,85,0.003105590062111801,1505.4000000000001,1502.0,1329.4400000000001,1500.0
4.599438905715942,150,85,0.003105590062111801,1505.4000000000001,1502.0,1328.0799999999999,1500.0
4.623243808746338,150,85,0.003246753246753247,1504.8,1502.0,1326.72,1500.0
4.647164821624756,151,85,0.0034965034965034965,1505.7,1502.0,1325.3599999999999,1500.0
4.670944929122925,151,85,0.0034965034965034965,1505.0999999999999,1502.0,1324.0,1500.0
4.69477391242981,152,85,0.0033444816053511705,1504.8,1502.0,1324.0,1500.0
4.718609809875488,153,85,0.0033444816053511705,1505.0999999999999,1502.0,1324.0,1500.0
4.742405891418457,153,85,0.0033444816053511705,1505.7,1502.0,1324.0,1500.0
4.76614785194397,153,84,0.0034965034965034965,1505.0999999999999,1502.0,1326.6400000000001,1500.0
4.7899329662323,154,84,0.0033444816053511705,1506.0,1502.0,1328.0799999999999,1500.0
4.813704013824463,154,84,0.0034965034965034965,1506.0,1502.0,1329.52,1500.0
4.837661027908325,154,84,0.0034965034965034965,1504.8,1502.0,1330.96,1500.0
4.861482858657837,155,84,0.0033444816053511705,1504.5,1502.0,1332.4000000000001,1500.0
4.885360956192017,155,84,0.0034965034965034965,1504.5,1502.0,1331.04,1500.0
4.909129858016968,156,84,0.003105590062111801,1504.2,1502.0,1329.6800000000001,1500.0
4.9328978061676025,156,84,0.003246753246753247,1504.2,1502.0,1328.3199999999999,1500.0
4.956671953201294,157,84,0.003105590062111801,1505.7,1502.0,1326.96,1500.0
4.980414867401123,157,84,0.0033444816053511705,1505.7,1502.0,1325.5999999999999,1500.0
5.004290819168091,158,84,0.0033444816053511705,1506.5999999999999,1502.0,1325.5999999999999,1500.0
5.028247833251953,158,84,0.0033444816053511705,1506.5999999999999,1502.0,1325.5999999999999,1500.0
5.052018880844116,159,84,0.0033444816053511705,1507.5,1502.0,1325.5999999999999,1500.0
5.075743913650513,159,84,0.0033444816053511705,1506.9000000000001,1502.0,1325.5999999999999,1500.0
5.099522829055786,160,84,0.0033444816053511705,1507.8,1502.0,1325.5999999999999,1500.0
5.123337984085083,160,84,0.0033444816053511705,1507.2,1502.0,1325.5999999999999,1500.0
5.147262811660767,160,84,0.0033444816053511705,1507.2,1502.0,1325.5999999999999,1500.0
5.171036958694458,161,84,0.0033444816053511705,1506.9000000000001,1502.0,1325.5999999999999,1500.0
5.194833993911743,162,84,0.0033444816053511705,1507.8,1502.0,1325.5999999999999,1500.0
5.218679904937744,162,83,0.002976190476190476,1507.2,1502.0,1328.24,1500.0
5.242487907409668,163,83,0.003105590062111801,1508.0999999999999,1502.0,1329.6800000000001,1500.0
5.266258001327515,163,83,0.003105590062111801,1508.7,1502.0,1331.1199999999999,1500.0
5.290012836456299,163,83,0.0033444816053511705,1508.7,1502.0,1332.5599999999999,1500.0
5.313787937164307,164,82,0.003105590062111801,1508.4000000000001,1502.0,1336.6400000000001,1500.0
5.3379998207092285,164,82,0.003105590062111801,1508.4000000000001,1502.0,1336.72,1500.0
5.361822843551636,164,82,0.003105590062111801,1507.2,1502.0,1336.8,1500.0
5.385560989379883,165,82,0.003105590062111801,1506.9000000000001,1502.0,1336.8800000000001,1500.0
5.409626007080078,165,82,0.003105590062111801,1506.9000000000001,1502.0,1336.96,1500.0
5.432938814163208,165,83,0.003205128205128205,1506.3,1502.0,1331.5999999999999,1500.0
5.4562249183654785,165,83,0.003205128205128205,1505.7,1502.0,1328.8,1500.0
5.479473829269409,166,83,0.003105590062111801,1506.5999999999999,1502.0,1326.0,1500.0
5.502712965011597,166,83,0.003105590062111801,1506.0,1502.0,1323.2,1500.0
5.525950908660889,166,83,0.003105590062111801,1505.4000000000001,1502.0,1320.4000000000001,1500.0
5.549186944961548,167,83,0.003105590062111801,1506.3,1502.0,1321.76,1500.0
5.572428941726685,167,83,0.0033444816053511705,1506.9000000000001,1502.0,1323.1199999999999,1500.0
5.595702886581421,167,82,0.003105590062111801,1506.3,1502.0,1327.1199999999999,1500.0
5.618959903717041,167,82,0.002976190476190476,1506.3,1502.0,1329.9200000000001,1500.0
5.642210960388184,167,82,0.002976190476190476,1506.3,1502.0,1332.72,1500.0
5.665441989898682,167,82,0.002976190476190476,1505.0999999999999,1502.0,1334.1600000000001,1500.0
5.688687801361084,168,83,0.0033444816053511705,1504.8,1502.0,1332.96,1500.0
5.711917877197266,168,83,0.0033444816053511705,1504.8,1502.0,1330.1600000000001,1500.0
5.7351648807525635,168,83,0.003105590062111801,1504.8,1502.0,1327.3599999999999,1500.0
5.7584099769592285,168,84,0.002976190476190476,1504.8,1502.0,1321.9200000000001,1500.0
5.781667947769165,168,84,0.002976190476190476,1505.4000000000001,1502.0,1317.6800000000001,1500.0
5.804917812347412,168,84,0.002976190476190476,1504.8,1502.0,1316.24,1500.0
5.828172922134399,168,84,0.002976190476190476,1504.2,1502.0,1316.1600000000001,1500.0
5.851439952850342,169,84,0.003105590062111801,1504.5,1502.0,1316.0799999999999,1500.0
5.8747878074646,169,84,0.003105590062111801,1504.5,1502.0,1318.8,1500.0
5.898113965988159,169,83,0.003105590062111801,1504.5,1502.0,1324.1600000000001,1500.0
5.921350002288818,169,83,0.003105590062111801,1505.0999999999999,1502.0,1326.96,1500.0
5.944700002670288,169,83,0.003105590062111801,1505.7,1502.0,1329.76,1500.0
5.967991828918457,169,83,0.003105590062111801,1505.0999999999999,1502.0,1332.5599999999999,1500.0
5.991201877593994,169,83,0.003105590062111801,1504.5,1502.0,1334.0,1500.0
