time,x,y,size_inv,roll,pitch,thrust,yaw
0.000762939453125,171,57,0.007936507936507936,1520,1494.0,1350,1511.0
0.023890972137451172,171,57,0.007936507936507936,1520,1494.0,1350,1511.0
0.04640507698059082,171,57,0.007936507936507936,1520,1494.0,1350,1511.0
0.0688939094543457,170,57,0.006535947712418301,1520,1494.0,1350,1510.0
0.09134197235107422,170,57,0.006535947712418301,1520,1494.0,1350,1510.0
0.11389899253845215,171,57,0.007936507936507936,1520,1494.0,1350,1511.0
0.13638591766357422,170,57,0.0058823529411764705,1520,1494.0,1350,1510.0
0.1588890552520752,170,57,0.006535947712418301,1520,1494.0,1350,1510.0
0.18139195442199707,170,57,0.006535947712418301,1520,1494.0,1350,1510.0
0.2038590908050537,171,57,0.007936507936507936,1520,1494.0,1350,1511.0
0.22662901878356934,171,57,0.007936507936507936,1520,1494.0,1350,1511.0
0.249830961227417,171,57,0.007936507936507936,1520,1494.0,1350,1511.0
0.2730131149291992,167,57,0.007142857142857143,1520,1494.0,1350,1507.0
0.2960989475250244,169,58,0.006535947712418301,1520,1494.0,1350,1509.0
0.3192119598388672,168,58,0.0058823529411764705,1520,1494.0,1349.8,1508.0
0.3426671028137207,167,58,0.0058823529411764705,1520,1494.0,1349.5,1507.0
0.36591601371765137,163,58,0.007936507936507936,1520,1494.0,1349.2,1503.0
0.38915300369262695,164,59,0.007936507936507936,1520,1494.0,1347.4000000000001,1504.0
0.41247105598449707,162,58,0.00909090909090909,1520,1494.0,1348.9000000000001,1502.0
0.43570899963378906,161,59,0.007936507936507936,1520,1494.0,1347.7,1501.0
0.4589200019836426,160,59,0.007936507936507936,1520,1494.0,1347.7,1500.0
0.4821200370788574,158,59,0.007142857142857143,1520,1494.0,1347.7,1498.0
0.5053410530090332,156,60,0.006535947712418301,1520.0,1494.0,1346.8,1496.0
0.5286200046539307,156,61,0.007142857142857143,1507.0,1494.0,1344.7,1496.0
0.5519299507141113,154,62,0.0058823529411764705,1489.0,1494.0,1342.9000000000001,1494.0
0.575232982635498,154,63,0.0058823529411764705,1480,1494.0,1340.8,1494.0
0.598459005355835,155,65,0.007936507936507936,1480,1494.0,1336.9000000000001,1495.0
0.6216731071472168,153,66,0.006172839506172839,1480,1494.0,1334.2,1493.0
0.6448640823364258,153,67,0.005555555555555556,1480,1494.0,1332.0999999999999,1493.0
0.6680910587310791,154,68,0.0058823529411764705,1480,1494.0,1330.0,1494.0
0.6913409233093262,154,69,0.0058823529411764705,1480,1494.0,1328.2,1494.0
0.7145729064941406,155,71,0.006535947712418301,1480,1494.0,1325.8,1495.0
0.7378149032592773,155,71,0.006535947712418301,1480,1494.0,1326.0999999999999,1495.0
0.7610530853271484,153,71,0.007936507936507936,1480,1494.0,1326.7,1493.0
0.7842800617218018,157,71,0.007142857142857143,1480,1494.0,1327.5999999999999,1497.0
0.8075389862060547,156,72,0.006535947712418301,1480,1494.0,1327.3,1496.0
0.8307719230651855,157,73,0.007936507936507936,1480,1494.0,1327.3,1497.0
0.8540089130401611,157,74,0.007142857142857143,1480,1494.0,1326.7,1497.0
0.877187967300415,157,75,0.007142857142857143,1480,1494.0,1325.5,1497.0
0.9004559516906738,157,78,0.007936507936507936,1480,1494.0,1320.7,1497.0
0.9237229824066162,157,79,0.007936507936507936,1480,1494.0,1318.3,1497.0
0.9469430446624756,155,79,0.0058823529411764705,1480,1494.0,1317.0999999999999,1495.0
0.9702169895172119,155,80,0.0058823529411764705,1480,1494.0,1315.0,1495.0
0.9935169219970703,155,81,0.006535947712418301,1480,1494.0,1313.2,1495.0
1.0167269706726074,155,81,0.0058823529411764705,1480,1494.0,1314.4000000000001,1495.0
1.0400099754333496,155,82,0.006535947712418301,1480,1494.0,1314.4000000000001,1495.0
1.0633060932159424,155,84,0.006535947712418301,1480,1494.0,1312.3,1495.0
1.0867390632629395,155,85,0.006535947712418301,1480,1494.0,1311.4000000000001,1495.0
1.1100389957427979,155,86,0.006535947712418301,1480,1494.0,1310.5,1495.0
1.133315086364746,155,87,0.006535947712418301,1480,1494.0,1308.4000000000001,1495.0
1.1565558910369873,155,87,0.0058823529411764705,1480,1494.0,1307.8,1495.0
1.179832935333252,156,88,0.007142857142857143,1480,1494.0,1306.9000000000001,1496.0
1.2031359672546387,155,89,0.0058823529411764705,1480,1494.0,1306.0,1495.0
1.226675033569336,156,89,0.007142857142857143,1480,1494.0,1306.5999999999999,1496.0
1.2500030994415283,156,91,0.007936507936507936,1480,1494.0,1304.8,1496.0
1.2732961177825928,154,91,0.005555555555555556,1480,1494.0,1305.0999999999999,1494.0
1.2964990139007568,154,92,0.005555555555555556,1480,1494.0,1303.9000000000001,1494.0
1.3198308944702148,154,92,0.005555555555555556,1480,1494.0,1304.2,1494.0
1.343168020248413,154,93,0.005555555555555556,1480,1494.0,1302.7,1494.0
1.3664090633392334,154,94,0.005555555555555556,1480,1494.0,1301.8,1494.0
1.3897318840026855,154,95,0.005050505050505051,1480,1494.0,1300.5999999999999,1494.0
1.4130299091339111,156,96,0.006493506493506494,1480,1494.0,1299.4000000000001,1496.0
1.4362709522247314,155,96,0.0058823529411764705,1480,1494.0,1299.0999999999999,1495.0
1.4595160484313965,155,97,0.0058823529411764705,1480,1494.0,1297.9000000000001,1495.0
1.4828588962554932,155,97,0.0058823529411764705,1480,1494.0,1297.9000000000001,1495.0
1.5061089992523193,155,97,0.005555555555555556,1480,1494.0,1298.5,1495.0
1.5292999744415283,155,98,0.005555555555555556,1480,1494.0,1297.9000000000001,1495.0
1.5526978969573975,157,98,0.006666666666666667,1480,1494.0,1298.5,1497.0
1.5759389400482178,155,99,0.005050505050505051,1480,1494.0,1297.9000000000001,1495.0
1.5991499423980713,157,99,0.007142857142857143,1480,1494.0,1298.2,1497.0
1.622467041015625,157,100,0.006493506493506494,1480,1494.0,1296.7,1497.0
1.6456689834594727,158,100,0.006666666666666667,1480,1494.0,1296.7,1498.0
1.668889045715332,156,101,0.005050505050505051,1480,1494.0,1295.2,1496.0
1.6921439170837402,156,101,0.005555555555555556,1480,1494.0,1295.2,1496.0
1.7153630256652832,156,102,0.005050505050505051,1480,1494.0,1293.7,1496.0
1.7385790348052979,156,102,0.005555555555555556,1480,1494.0,1294.0,1496.0
1.7618169784545898,157,102,0.0058823529411764705,1480,1494.0,1294.0,1497.0
1.7850580215454102,157,103,0.0053475935828877,1480,1494.0,1293.0999999999999,1497.0
1.8083150386810303,157,103,0.005050505050505051,1480,1494.0,1293.0999999999999,1497.0
1.8315539360046387,157,103,0.005050505050505051,1480,1494.0,1293.7,1497.0
1.8547649383544922,157,103,0.005555555555555556,1480,1494.0,1294.0,1497.0
1.877943992614746,158,103,0.0058823529411764705,1480,1494.0,1294.3,1498.0
1.9011619091033936,158,103,0.0058823529411764705,1480,1494.0,1294.9000000000001,1498.0
1.9243810176849365,158,103,0.0058823529411764705,1480,1494.0,1295.5,1498.0
1.9475929737091064,158,104,0.005050505050505051,1480,1494.0,1294.3,1498.0
1.970855951309204,158,104,0.005050505050505051,1480,1494.0,1294.3,1498.0
1.9940979480743408,160,104,0.006493506493506494,1480,1494.0,1294.3,1500.0
2.0173211097717285,159,104,0.0053475935828877,1480,1494.0,1294.0,1499.0
2.040692090988159,161,104,0.006060606060606061,1486.0,1494.0,1293.7,1501.0
2.0641560554504395,159,103,0.005555555555555556,1484.0,1494.0,1295.5,1499.0
2.0874249935150146,159,104,0.005050505050505051,1486.0,1494.0,1294.5999999999999,1499.0
2.110766887664795,160,103,0.0053475935828877,1490.0,1494.0,1296.4000000000001,1500.0
2.134071111679077,160,103,0.0053475935828877,1492.0,1494.0,1297.0,1500.0
2.1573541164398193,160,103,0.005681818181818182,1494.0,1494.0,1297.5999999999999,1500.0
2.180756092071533,160,102,0.005555555555555556,1496.0,1494.0,1298.8,1500.0
2.2041070461273193,160,102,0.005555555555555556,1498.0,1494.0,1299.4000000000001,1500.0
2.2274301052093506,160,102,0.005555555555555556,1498.0,1494.0,1299.4000000000001,1500.0
2.2507801055908203,161,102,0.0053475935828877,1502.0,1494.0,1299.4000000000001,1501.0
2.2741010189056396,161,102,0.0053475935828877,1502.0,1494.0,1299.4000000000001,1501.0
2.297382116317749,161,101,0.005555555555555556,1504.0,1494.0,1300.5999999999999,1501.0
2.320720911026001,161,101,0.005050505050505051,1506.0,1494.0,1300.3,1501.0
2.3440780639648438,161,100,0.005555555555555556,1507.0,1494.0,1301.8,1501.0
2.367396116256714,162,100,0.0058823529411764705,1511.0,1494.0,1302.0999999999999,1502.0
2.3907649517059326,162,99,0.0058823529411764705,1513.0,1494.0,1303.9000000000001,1502.0
2.414340019226074,164,99,0.006666666666666667,1520,1494.0,1304.2,1504.0
2.4376049041748047,162,98,0.005555555555555556,1519.0,1494.0,1306.0,1502.0
2.460887908935547,162,97,0.005555555555555556,1520,1494.0,1307.5,1502.0
2.4840900897979736,162,97,0.005555555555555556,1520,1494.0,1307.8,1502.0
2.507314920425415,162,96,0.005555555555555556,1520,1494.0,1309.0,1502.0
2.5306429862976074,162,96,0.005555555555555556,1520,1494.0,1309.3,1502.0
2.5540730953216553,162,95,0.005555555555555556,1520,1494.0,1310.5,1502.0
2.577307939529419,162,95,0.0058823529411764705,1520,1494.0,1310.2,1502.0
2.6006829738616943,162,95,0.006172839506172839,1520,1494.0,1309.9000000000001,1502.0
2.624074935913086,162,94,0.005555555555555556,1520,1494.0,1310.8,1502.0
2.6472980976104736,162,93,0.006172839506172839,1520,1494.0,1312.0,1502.0
2.6705760955810547,162,92,0.005555555555555556,1520,1494.0,1313.2,1502.0
2.6938750743865967,162,91,0.005555555555555556,1520,1494.0,1315.0,1502.0
2.7170569896698,162,91,0.006172839506172839,1520,1494.0,1315.5999999999999,1502.0
2.740415096282959,162,90,0.0058823529411764705,1520,1494.0,1317.4000000000001,1502.0
2.763828992843628,162,89,0.005555555555555556,1520,1494.0,1318.9000000000001,1502.0
2.7870900630950928,162,88,0.005555555555555556,1520,1494.0,1320.4000000000001,1502.0
2.810425043106079,164,87,0.007936507936507936,1520,1494.0,1321.5999999999999,1504.0
2.8337318897247314,164,86,0.007142857142857143,1520,1494.0,1323.0999999999999,1504.0
2.8569540977478027,164,86,0.007936507936507936,1520,1494.0,1323.0999999999999,1504.0
2.880319118499756,164,85,0.007142857142857143,1520,1494.0,1324.3,1504.0
2.9037299156188965,162,85,0.006172839506172839,1520,1494.0,1324.0,1502.0
2.9269230365753174,162,84,0.0058823529411764705,1520,1494.0,1324.9000000000001,1502.0
2.950342893600464,163,84,0.007936507936507936,1520,1494.0,1324.0,1503.0
2.9737489223480225,163,83,0.007142857142857143,1520,1494.0,1324.9000000000001,1503.0
2.996964931488037,163,81,0.007142857142857143,1520,1494.0,1327.3,1503.0
3.0203449726104736,161,81,0.006172839506172839,1520,1494.0,1327.5999999999999,1501.0
3.0437769889831543,161,80,0.006172839506172839,1520,1494.0,1329.0999999999999,1501.0
3.067017078399658,161,79,0.0058823529411764705,1520,1494.0,1331.2,1501.0
3.090276002883911,162,78,0.007142857142857143,1520,1494.0,1333.0,1502.0
3.1135149002075195,162,78,0.007936507936507936,1520,1494.0,1332.7,1502.0
3.1367409229278564,160,77,0.005555555555555556,1518.0,1494.0,1333.9000000000001,1500.0
3.1602530479431152,161,76,0.007142857142857143,1519.0,1494.0,1335.0999999999999,1501.0
3.1837809085845947,160,76,0.0058823529411764705,1514.0,1494.0,1334.5,1500.0
3.2070910930633545,159,75,0.005555555555555556,1508.0,1494.0,1335.0999999999999,1499.0
3.230536937713623,159,75,0.0058823529411764705,1504.0,1494.0,1335.0999999999999,1499.0
3.254028081893921,160,75,0.007936507936507936,1505.0,1494.0,1334.5,1500.0
3.2773120403289795,159,74,0.0058823529411764705,1501.0,1494.0,1335.0999999999999,1499.0
3.30076003074646,159,74,0.006535947712418301,1499.0,1494.0,1334.8,1499.0
3.324220895767212,160,73,0.007936507936507936,1499.0,1494.0,1335.7,1500.0
3.3475449085235596,159,72,0.0058823529411764705,1494.0,1494.0,1336.9000000000001,1499.0
3.370897054672241,160,72,0.007936507936507936,1496.0,1494.0,1337.2,1500.0
3.3942348957061768,160,71,0.007142857142857143,1495.0,1494.0,1338.7,1500.0
3.4175119400024414,160,71,0.007142857142857143,1495.0,1494.0,1339.0,1500.0
3.4407920837402344,160,71,0.007936507936507936,1496.0,1494.0,1339.0,1500.0
3.464097023010254,160,71,0.007936507936507936,1497.0,1494.0,1338.4000000000001,1500.0
3.487449884414673,160,71,0.007142857142857143,1497.0,1494.0,1337.8,1500.0
3.5107929706573486,158,72,0.006535947712418301,1492.0,1494.0,1335.4000000000001,1498.0
3.534113883972168,158,72,0.0058823529411764705,1491.0,1494.0,1334.2,1498.0
3.5574350357055664,158,72,0.006535947712418301,1489.0,1494.0,1333.3,1498.0
3.580789089202881,159,71,0.007142857142857143,1491.0,1494.0,1334.2,1499.0
3.604124069213867,158,70,0.0058823529411764705,1487.0,1494.0,1335.4000000000001,1498.0
3.6279780864715576,159,70,0.007936507936507936,1488.0,1494.0,1336.3,1499.0
3.651473045349121,158,69,0.006535947712418301,1484.0,1494.0,1338.7,1498.0
3.674834966659546,159,68,0.007142857142857143,1485.0,1494.0,1341.4000000000001,1499.0
3.6981470584869385,158,69,0.006535947712418301,1481.0,1494.0,1340.8,1498.0
3.7214620113372803,158,69,0.006535947712418301,1480,1494.0,1340.8,1498.0
3.7447280883789062,157,70,0.011111111111111112,1480,1494.0,1339.0,1497.0
3.767951011657715,155,70,0.007142857142857143,1480,1494.0,1337.8,1495.0
3.7915239334106445,157,71,0.006535947712418301,1480,1494.0,1334.5,1497.0
3.8147380352020264,155,71,0.007936507936507936,1480,1494.0,1333.3,1495.0
3.83799409866333,159,70,0.007142857142857143,1480,1494.0,1333.9000000000001,1499.0
3.861253023147583,159,70,0.007936507936507936,1480,1494.0,1333.9000000000001,1499.0
3.8844830989837646,159,69,0.007936507936507936,1480,1494.0,1335.7,1499.0
3.907694101333618,158,69,0.006535947712418301,1480,1494.0,1337.2,1498.0
3.930880069732666,158,68,0.0058823529411764705,1480,1494.0,1339.9000000000001,1498.0
3.9541420936584473,158,69,0.006535947712418301,1480,1494.0,1339.3,1498.0
3.977391004562378,158,69,0.0058823529411764705,1480,1494.0,1339.5999999999999,1498.0
4.000736951828003,157,70,0.006172839506172839,1480,1494.0,1337.8,1497.0
4.0240209102630615,157,71,0.006535947712418301,1480,1494.0,1335.4000000000001,1497.0
4.047250032424927,157,71,0.0058823529411764705,1480,1494.0,1333.5999999999999,1497.0
4.070557117462158,157,71,0.005555555555555556,1480,1494.0,1332.7,1497.0
4.09384298324585,159,71,0.007142857142857143,1480,1494.0,1331.8,1499.0
4.117039918899536,158,71,0.006535947712418301,1480,1494.0,1331.8,1498.0
4.140336036682129,159,70,0.007142857142857143,1480,1494.0,1333.9000000000001,1499.0
4.163631916046143,158,71,0.006535947712418301,1480,1494.0,1333.5999999999999,1498.0
4.186868906021118,158,71,0.006172839506172839,1480,1494.0,1334.2,1498.0
4.210174083709717,160,71,0.006666666666666667,1480.0,1494.0,1334.8,1500.0
4.233560085296631,160,72,0.007936507936507936,1483.0,1494.0,1333.5999999999999,1500.0
4.256892919540405,159,72,0.0058823529411764705,1483.0,1494.0,1332.7,1499.0
4.280371904373169,159,72,0.0058823529411764705,1485.0,1494.0,1332.4000000000001,1499.0
4.303909063339233,159,73,0.0058823529411764705,1487.0,1494.0,1330.5999999999999,1499.0
4.327230930328369,160,73,0.007142857142857143,1490.0,1494.0,1330.0,1500.0
4.350683927536011,159,73,0.0058823529411764705,1489.0,1494.0,1330.0,1499.0
4.374185085296631,159,73,0.0058823529411764705,1489.0,1494.0,1330.3,1499.0
4.397475004196167,159,73,0.0058823529411764705,1490.0,1494.0,1330.3,1499.0
4.42079496383667,159,74,0.005555555555555556,1491.0,1494.0,1329.4000000000001,1499.0
4.44408106803894,159,74,0.0058823529411764705,1490.0,1494.0,1329.7,1499.0
4.467372894287109,159,75,0.005555555555555556,1489.0,1494.0,1328.2,1499.0
4.490747928619385,160,75,0.0058823529411764705,1492.0,1494.0,1327.9000000000001,1500.0
4.514112949371338,160,76,0.0058823529411764705,1493.0,1494.0,1326.0999999999999,1500.0
4.537434101104736,160,76,0.0058823529411764705,1494.0,1494.0,1325.8,1500.0
4.5607969760894775,160,76,0.0058823529411764705,1494.0,1494.0,1325.5,1500.0
4.5841169357299805,160,77,0.005555555555555556,1495.0,1494.0,1324.3,1500.0
4.607433080673218,162,77,0.007142857142857143,1502.0,1494.0,1324.3,1502.0
4.630767107009888,161,77,0.0058823529411764705,1502.0,1494.0,1324.9000000000001,1501.0
4.654102087020874,162,77,0.007142857142857143,1507.0,1494.0,1325.2,1502.0
4.677412986755371,162,77,0.007142857142857143,1510.0,1494.0,1325.5,1502.0
4.700764894485474,162,78,0.007936507936507936,1513.0,1494.0,1324.5999999999999,1502.0
4.724117040634155,160,78,0.0058823529411764705,1509.0,1494.0,1324.9000000000001,1500.0
4.747457027435303,158,79,0.007936507936507936,1503.0,1494.0,1323.4000000000001,1498.0
4.770797967910767,160,79,0.006535947712418301,1507.0,1494.0,1323.0999999999999,1500.0
4.794171094894409,160,79,0.0058823529411764705,1507.0,1494.0,1322.8,1500.0
4.8177831172943115,161,79,0.007142857142857143,1510.0,1494.0,1322.8,1501.0
4.841165065765381,160,79,0.0058823529411764705,1506.0,1494.0,1322.8,1500.0
4.864470958709717,160,80,0.006535947712418301,1505.0,1494.0,1321.9000000000001,1500.0
4.887769937515259,160,80,0.01,1503.0,1494.0,1322.2,1500.0
4.911055088043213,161,81,0.006535947712418301,1504.0,1494.0,1321.0,1501.0
4.934524059295654,161,81,0.0058823529411764705,1503.0,1494.0,1320.7,1501.0
4.957855939865112,162,81,0.007142857142857143,1507.0,1494.0,1320.4000000000001,1502.0
4.981169939041138,162,82,0.007936507936507936,1511.0,1494.0,1318.9000000000001,1502.0
5.004494905471802,161,82,0.0058823529411764705,1510.0,1494.0,1318.5999999999999,1501.0
5.027833938598633,162,83,0.007936507936507936,1514.0,1494.0,1317.4000000000001,1502.0
5.051155090332031,162,83,0.007142857142857143,1515.0,1494.0,1317.4000000000001,1502.0
5.074481010437012,161,83,0.0058823529411764705,1514.0,1494.0,1317.4000000000001,1501.0
5.09778094291687,161,84,0.006535947712418301,1515.0,1494.0,1316.2,1501.0
5.121063947677612,161,84,0.00909090909090909,1516.0,1494.0,1316.2,1501.0
5.1443750858306885,160,84,0.0058823529411764705,1513.0,1494.0,1316.5,1500.0
5.167649984359741,160,85,0.006535947712418301,1512.0,1494.0,1315.3,1500.0
5.190962076187134,161,85,0.007936507936507936,1513.0,1494.0,1315.3,1501.0
5.214258909225464,161,85,0.007936507936507936,1512.0,1494.0,1315.5999999999999,1501.0
5.237576961517334,161,85,0.007142857142857143,1512.0,1494.0,1315.9000000000001,1501.0
5.26090407371521,161,86,0.007936507936507936,1511.0,1494.0,1314.4000000000001,1501.0
5.2841880321502686,161,86,0.007936507936507936,1510.0,1494.0,1314.7,1501.0
5.307477951049805,161,86,0.007936507936507936,1510.0,1494.0,1315.0,1501.0
5.330744981765747,158,86,0.007142857142857143,1501.0,1494.0,1315.0,1498.0
5.354049921035767,159,86,0.01,1501.0,1494.0,1315.0,1499.0
5.377370119094849,160,86,0.00909090909090909,1503.0,1494.0,1315.5999999999999,1500.0
5.400753974914551,158,86,0.007142857142857143,1497.0,1494.0,1315.9000000000001,1498.0
5.424118995666504,159,86,0.01,1497.0,1494.0,1316.2,1499.0
5.447391986846924,159,86,0.01,1495.0,1494.0,1316.5,1499.0
5.470696926116943,160,86,0.00909090909090909,1496.0,1494.0,1316.8,1500.0
5.493994951248169,161,87,0.007936507936507936,1498.0,1494.0,1315.3,1501.0
5.517271041870117,161,87,0.007936507936507936,1498.0,1494.0,1315.0,1501.0
5.540615081787109,160,87,0.0058823529411764705,1495.0,1494.0,1314.7,1500.0
5.563985109329224,160,88,0.006535947712418301,1497.0,1494.0,1312.9000000000001,1500.0
5.587315082550049,160,88,0.006535947712418301,1498.0,1494.0,1312.3,1500.0
5.610742092132568,158,88,0.007936507936507936,1492.0,1494.0,1312.3,1498.0
5.634191036224365,159,88,0.011111111111111112,1495.0,1494.0,1312.3,1499.0
5.657486915588379,158,88,0.007936507936507936,1492.0,1494.0,1312.3,1498.0
5.680783987045288,158,88,0.007936507936507936,1491.0,1494.0,1312.9000000000001,1498.0
5.7041239738464355,159,88,0.011111111111111112,1492.0,1494.0,1313.5,1499.0
5.727447032928467,159,87,0.01,1490.0,1494.0,1315.3,1499.0
5.750817060470581,161,87,0.007936507936507936,1494.0,1494.0,1315.9000000000001,1501.0
5.774178981781006,161,87,0.007936507936507936,1495.0,1494.0,1316.5,1501.0
5.797502040863037,160,86,0.0058823529411764705,1493.0,1494.0,1318.3,1500.0
5.820827007293701,160,86,0.0058823529411764705,1493.0,1494.0,1318.9000000000001,1500.0
5.844167947769165,161,86,0.007142857142857143,1498.0,1494.0,1318.9000000000001,1501.0
5.867460012435913,159,86,0.01,1494.0,1494.0,1318.9000000000001,1499.0
5.890769958496094,160,86,0.008333333333333333,1498.0,1494.0,1318.9000000000001,1500.0
5.9141130447387695,158,86,0.007142857142857143,1494.0,1494.0,1318.3,1498.0
5.937423944473267,159,86,0.01,1496.0,1494.0,1317.7,1499.0
5.9607648849487305,159,86,0.011111111111111112,1496.0,1494.0,1317.4000000000001,1499.0
5.984078884124756,159,86,0.006535947712418301,1494.0,1494.0,1317.0999999999999,1499.0
6.007388114929199,159,86,0.006535947712418301,1492.0,1494.0,1316.8,1499.0
6.030756950378418,159,86,0.006535947712418301,1491.0,1494.0,1316.8,1499.0
6.054418087005615,159,85,0.006535947712418301,1490.0,1494.0,1318.3,1499.0
6.077778100967407,159,85,0.006535947712418301,1488.0,1494.0,1318.5999999999999,1499.0
6.101068019866943,157,84,0.007936507936507936,1482.0,1494.0,1320.4000000000001,1497.0
6.124372959136963,157,84,0.007936507936507936,1480,1494.0,1321.0,1497.0
6.147603988647461,157,83,0.007142857142857143,1480,1494.0,1323.0999999999999,1497.0
6.170846939086914,159,83,0.006535947712418301,1482.0,1494.0,1323.4000000000001,1499.0
6.194184064865112,159,83,0.006535947712418301,1482.0,1494.0,1323.7,1499.0
6.217474937438965,159,83,0.011111111111111112,1482.0,1494.0,1323.4000000000001,1499.0
6.24080491065979,159,82,0.01,1482.0,1494.0,1324.5999999999999,1499.0
6.264123916625977,160,82,0.00909090909090909,1485.0,1494.0,1324.0,1500.0
6.2874109745025635,158,82,0.007936507936507936,1480.0,1494.0,1323.7,1498.0
6.310765981674194,161,82,0.007936507936507936,1488.0,1494.0,1323.4000000000001,1501.0
6.334080934524536,160,82,0.006535947712418301,1489.0,1494.0,1323.4000000000001,1500.0
6.357408046722412,160,82,0.006535947712418301,1492.0,1494.0,1322.8,1500.0
6.380764961242676,158,81,0.007142857142857143,1489.0,1494.0,1324.0,1498.0
6.404072046279907,160,81,0.01,1494.0,1494.0,1324.0,1500.0
6.427344083786011,161,81,0.00909090909090909,1498.0,1494.0,1324.0,1501.0
6.450745105743408,160,81,0.011111111111111112,1497.0,1494.0,1324.0,1500.0
6.474087953567505,161,81,0.010101010101010102,1501.0,1494.0,1324.3,1501.0
6.497409105300903,159,80,0.007142857142857143,1496.0,1494.0,1325.5,1499.0
6.5207600593566895,160,80,0.011111111111111112,1500.0,1494.0,1325.5,1500.0
6.544096946716309,160,80,0.011111111111111112,1499.0,1494.0,1325.5,1500.0
6.567399024963379,159,79,0.007142857142857143,1496.0,1494.0,1327.0,1499.0
6.5907299518585205,159,79,0.007936507936507936,1495.0,1494.0,1327.3,1499.0
6.614044904708862,160,78,0.006666666666666667,1499.0,1494.0,1328.8,1500.0
6.637346982955933,159,78,0.007936507936507936,1496.0,1494.0,1329.0999999999999,1499.0
6.66080904006958,162,77,0.008333333333333333,1503.0,1494.0,1330.9000000000001,1502.0
6.684180974960327,161,77,0.011111111111111112,1502.0,1494.0,1330.9000000000001,1501.0
6.707514047622681,161,77,0.011111111111111112,1502.0,1494.0,1330.9000000000001,1501.0
6.730849027633667,162,77,0.006535947712418301,1507.0,1494.0,1330.5999999999999,1502.0
6.754206895828247,160,76,0.007936507936507936,1503.0,1494.0,1331.8,1500.0
6.777551889419556,162,75,0.011111111111111112,1509.0,1494.0,1332.7,1502.0
6.800892114639282,161,75,0.007936507936507936,1509.0,1494.0,1332.7,1501.0
6.824203014373779,161,75,0.007936507936507936,1511.0,1494.0,1332.7,1501.0
6.84751296043396,161,75,0.007936507936507936,1512.0,1494.0,1333.0,1501.0
6.870809078216553,161,74,0.007142857142857143,1514.0,1494.0,1334.2,1501.0
6.894089937210083,162,75,0.007407407407407408,1516.0,1494.0,1332.4000000000001,1502.0
6.917357921600342,164,74,0.00909090909090909,1520,1494.0,1333.3,1504.0
6.940733909606934,163,74,0.011111111111111112,1520,1494.0,1333.0,1503.0
6.96410608291626,162,74,0.007407407407407408,1520,1494.0,1332.7,1502.0
6.987349987030029,161,73,0.007936507936507936,1520.0,1494.0,1333.5999999999999,1501.0
7.010742902755737,162,73,0.011111111111111112,1520,1494.0,1334.2,1502.0
7.0339789390563965,162,73,0.011111111111111112,1520,1494.0,1334.2,1502.0
7.05718994140625,162,73,0.011111111111111112,1520,1494.0,1334.2,1502.0
7.080573081970215,160,73,0.007936507936507936,1519.0,1494.0,1334.2,1500.0
7.10405707359314,160,73,0.007936507936507936,1518.0,1494.0,1333.9000000000001,1500.0
7.1273651123046875,161,73,0.011111111111111112,1519.0,1494.0,1333.3,1501.0
7.150779962539673,162,73,0.010101010101010102,1519.0,1494.0,1333.0,1502.0
7.174163103103638,161,74,0.011111111111111112,1515.0,1494.0,1331.2,1501.0
7.197663068771362,159,74,0.007936507936507936,1508.0,1494.0,1330.5999999999999,1499.0
7.2211689949035645,159,74,0.007936507936507936,1506.0,1494.0,1330.3,1499.0
7.2445409297943115,159,74,0.007936507936507936,1503.0,1494.0,1330.0,1499.0
7.26783299446106,159,74,0.007936507936507936,1500.0,1494.0,1329.7,1499.0
7.291421890258789,161,73,0.00909090909090909,1503.0,1494.0,1331.5,1501.0
7.314793109893799,159,73,0.007936507936507936,1498.0,1494.0,1332.0999999999999,1499.0
7.338109970092773,159,73,0.007936507936507936,1497.0,1494.0,1332.7,1499.0
7.361440896987915,160,73,0.011111111111111112,1498.0,1494.0,1333.3,1500.0
7.38479208946228,160,73,0.011111111111111112,1496.0,1494.0,1333.9000000000001,1500.0
7.408109903335571,159,73,0.008928571428571428,1492.0,1494.0,1333.5999999999999,1499.0
7.431436061859131,159,74,0.007936507936507936,1492.0,1494.0,1331.8,1499.0
7.4547600746154785,159,74,0.007936507936507936,1492.0,1494.0,1331.2,1499.0
7.478053092956543,159,75,0.007936507936507936,1492.0,1494.0,1329.0999999999999,1499.0
7.501341104507446,159,75,0.007936507936507936,1492.0,1494.0,1328.2,1499.0
7.524637937545776,160,75,0.007407407407407408,1493.0,1494.0,1327.5999999999999,1500.0
7.548013925552368,161,74,0.0125,1497.0,1494.0,1329.0999999999999,1501.0
7.571352005004883,161,75,0.011111111111111112,1499.0,1494.0,1327.9000000000001,1501.0
7.5947349071502686,161,75,0.011111111111111112,1500.0,1494.0,1328.5,1501.0
7.618019104003906,159,75,0.007936507936507936,1495.0,1494.0,1329.0999999999999,1499.0
7.6413350105285645,159,75,0.007936507936507936,1495.0,1494.0,1329.7,1499.0
7.664668083190918,160,75,0.011111111111111112,1498.0,1494.0,1329.4000000000001,1500.0
7.687997102737427,160,75,0.011111111111111112,1499.0,1494.0,1329.7,1500.0
7.711282014846802,158,75,0.007936507936507936,1494.0,1494.0,1329.7,1498.0
7.734576940536499,158,75,0.007936507936507936,1493.0,1494.0,1329.7,1498.0
7.757915019989014,158,75,0.007936507936507936,1491.0,1494.0,1329.7,1498.0
7.781255006790161,159,75,0.011111111111111112,1491.0,1494.0,1330.0,1499.0
7.804605960845947,157,75,0.007936507936507936,1483.0,1494.0,1330.0,1497.0
7.8279008865356445,158,75,0.011111111111111112,1482.0,1494.0,1330.0,1498.0
7.851178884506226,159,75,0.010101010101010102,1484.0,1494.0,1330.0,1499.0
7.874489068984985,158,76,0.011111111111111112,1481.0,1494.0,1328.5,1498.0
7.897777080535889,158,76,0.011111111111111112,1480,1494.0,1328.2,1498.0
7.92097806930542,158,76,0.011111111111111112,1480,1494.0,1327.9000000000001,1498.0
7.944222927093506,158,76,0.011111111111111112,1480,1494.0,1327.5999999999999,1498.0
7.96744704246521,157,76,0.007936507936507936,1480,1494.0,1327.3,1497.0
7.990761041641235,157,76,0.007936507936507936,1480,1494.0,1327.5999999999999,1497.0
8.014034032821655,157,76,0.007936507936507936,1480,1494.0,1327.9000000000001,1497.0
8.037264108657837,159,76,0.011111111111111112,1480,1494.0,1328.2,1499.0
8.060652017593384,158,76,0.007936507936507936,1480,1494.0,1328.5,1498.0
8.084021091461182,158,76,0.008928571428571428,1480,1494.0,1328.8,1498.0
8.107254028320312,158,76,0.007936507936507936,1480,1494.0,1328.8,1498.0
8.130631923675537,159,76,0.011111111111111112,1480,1494.0,1328.8,1499.0
8.154038906097412,158,76,0.008928571428571428,1480,1494.0,1328.8,1498.0
8.177300930023193,158,77,0.007936507936507936,1480,1494.0,1327.3,1498.0
8.200685024261475,158,77,0.007936507936507936,1480,1494.0,1327.0,1498.0
8.224081039428711,158,77,0.007936507936507936,1480,1494.0,1326.7,1498.0
8.24731707572937,158,77,0.007936507936507936,1480,1494.0,1326.4000000000001,1498.0
8.270680904388428,158,78,0.007936507936507936,1480,1494.0,1324.5999999999999,1498.0
8.294074058532715,160,78,0.010101010101010102,1483.0,1494.0,1324.5999999999999,1500.0
8.317382097244263,158,78,0.007936507936507936,1480,1494.0,1324.5999999999999,1498.0
8.340641975402832,158,78,0.007936507936507936,1480,1494.0,1324.5999999999999,1498.0
8.363876104354858,158,78,0.007936507936507936,1480,1494.0,1324.5999999999999,1498.0
8.387125015258789,158,78,0.007936507936507936,1480,1494.0,1325.2,1498.0
8.410518884658813,160,78,0.010101010101010102,1484.0,1494.0,1325.5,1500.0
8.433998107910156,158,78,0.007936507936507936,1480.0,1494.0,1325.8,1498.0
8.457340955734253,159,78,0.007407407407407408,1483.0,1494.0,1326.0999999999999,1499.0
8.480767011642456,158,78,0.007936507936507936,1481.0,1494.0,1326.4000000000001,1498.0
8.504403114318848,158,78,0.007936507936507936,1481.0,1494.0,1326.4000000000001,1498.0
8.527736902236938,158,78,0.007936507936507936,1480,1494.0,1326.4000000000001,1498.0
8.55099105834961,158,78,0.007936507936507936,1480,1494.0,1326.4000000000001,1498.0
8.574268102645874,158,78,0.007936507936507936,1480,1494.0,1326.4000000000001,1498.0
8.597491979598999,160,78,0.010101010101010102,1485.0,1494.0,1326.4000000000001,1500.0
8.62078309059143,158,77,0.007142857142857143,1481.0,1494.0,1327.9000000000001,1498.0
8.644083976745605,160,77,0.00909090909090909,1485.0,1494.0,1328.2,1500.0
8.667393922805786,158,77,0.007936507936507936,1481.0,1494.0,1328.5,1498.0
8.690841913223267,159,77,0.007407407407407408,1483.0,1494.0,1328.8,1499.0
8.714345932006836,158,76,0.007936507936507936,1481.0,1494.0,1330.5999999999999,1498.0
8.73766803741455,159,76,0.007407407407407408,1484.0,1494.0,1330.5999999999999,1499.0
8.76103401184082,159,76,0.007936507936507936,1485.0,1494.0,1330.5999999999999,1499.0
8.784362077713013,160,76,0.011111111111111112,1489.0,1494.0,1330.5999999999999,1500.0
8.807696104049683,160,76,0.011111111111111112,1491.0,1494.0,1330.5999999999999,1500.0
8.831024885177612,159,76,0.007142857142857143,1488.0,1494.0,1330.0,1499.0
8.854330062866211,161,77,0.010101010101010102,1495.0,1494.0,1328.2,1501.0
8.877623081207275,159,77,0.007936507936507936,1490.0,1494.0,1327.5999999999999,1499.0
8.90093207359314,160,77,0.006666666666666667,1494.0,1494.0,1327.0,1500.0
8.924211025238037,161,78,0.010101010101010102,1498.0,1494.0,1324.9000000000001,1501.0
8.947521924972534,159,78,0.007936507936507936,1495.0,1494.0,1324.3,1499.0
8.970839977264404,161,78,0.011111111111111112,1501.0,1494.0,1324.3,1501.0
8.99419093132019,160,78,0.007936507936507936,1500.0,1494.0,1324.3,1500.0
9.017585039138794,160,78,0.007936507936507936,1500.0,1494.0,1324.3,1500.0
9.041134119033813,160,78,0.007936507936507936,1500.0,1494.0,1324.9000000000001,1500.0
9.064507961273193,160,78,0.007936507936507936,1501.0,1494.0,1325.5,1500.0
9.087822914123535,162,78,0.010101010101010102,1506.0,1494.0,1325.8,1502.0
9.111177921295166,162,78,0.011111111111111112,1509.0,1494.0,1326.0999999999999,1502.0
9.134485960006714,161,78,0.007936507936507936,1508.0,1494.0,1326.4000000000001,1501.0
9.157814025878906,162,78,0.0125,1511.0,1494.0,1326.4000000000001,1502.0
9.181137084960938,161,79,0.007936507936507936,1511.0,1494.0,1324.9000000000001,1501.0
9.204456090927124,161,79,0.007936507936507936,1511.0,1494.0,1324.5999999999999,1501.0
9.227993965148926,161,79,0.007936507936507936,1512.0,1494.0,1324.3,1501.0
9.251346111297607,163,79,0.011363636363636364,1519.0,1494.0,1324.0,1503.0
9.27466607093811,162,80,0.007936507936507936,1519.0,1494.0,1322.2,1502.0
9.297944068908691,163,80,0.011111111111111112,1520,1494.0,1322.2,1503.0
9.321141958236694,163,80,0.011111111111111112,1520,1494.0,1322.2,1503.0
9.344382047653198,161,80,0.007936507936507936,1520.0,1494.0,1322.2,1501.0
9.36771297454834,161,80,0.007936507936507936,1520.0,1494.0,1322.2,1501.0
9.39106297492981,161,80,0.007936507936507936,1519.0,1494.0,1322.8,1501.0
9.41438603401184,161,80,0.007936507936507936,1519.0,1494.0,1323.0999999999999,1501.0
9.437666893005371,161,80,0.007936507936507936,1519.0,1494.0,1323.4000000000001,1501.0
9.460978984832764,161,80,0.007936507936507936,1519.0,1494.0,1323.7,1501.0
9.484297037124634,162,80,0.011111111111111112,1520.0,1494.0,1324.0,1502.0
9.507617950439453,162,80,0.011111111111111112,1520.0,1494.0,1324.0,1502.0
9.530999898910522,161,80,0.007936507936507936,1516.0,1494.0,1324.0,1501.0
9.55447006225586,160,81,0.007936507936507936,1511.0,1494.0,1322.5,1500.0
9.577989101409912,160,81,0.007936507936507936,1510.0,1494.0,1322.2,1500.0
9.601310968399048,161,81,0.011111111111111112,1512.0,1494.0,1321.9000000000001,1501.0
9.624629020690918,162,81,0.010101010101010102,1515.0,1494.0,1321.5999999999999,1502.0
9.647953033447266,161,81,0.0125,1513.0,1494.0,1321.3,1501.0
9.671245098114014,161,81,0.011363636363636364,1513.0,1494.0,1321.5999999999999,1501.0
9.69494104385376,161,81,0.0125,1513.0,1494.0,1321.9000000000001,1501.0
9.718255043029785,159,81,0.007936507936507936,1506.0,1494.0,1322.2,1499.0
9.741560935974121,160,80,0.0125,1506.0,1494.0,1324.0,1500.0
9.76486611366272,160,80,0.011111111111111112,1505.0,1494.0,1324.5999999999999,1500.0
9.788198947906494,159,79,0.008928571428571428,1502.0,1494.0,1326.4000000000001,1499.0
9.81160593032837,160,79,0.011111111111111112,1504.0,1494.0,1327.0,1500.0
9.834909915924072,160,78,0.0125,1503.0,1494.0,1329.0999999999999,1500.0
9.858227968215942,159,78,0.007936507936507936,1498.0,1494.0,1329.4000000000001,1499.0
9.881552934646606,159,78,0.007936507936507936,1496.0,1494.0,1329.7,1499.0
9.904864072799683,160,78,0.011111111111111112,1497.0,1494.0,1329.4000000000001,1500.0
9.928179025650024,159,77,0.008928571428571428,1493.0,1494.0,1330.5999999999999,1499.0
9.951502084732056,161,77,0.010101010101010102,1499.0,1494.0,1330.0,1501.0
9.97481894493103,159,77,0.007936507936507936,1494.0,1494.0,1329.7,1499.0
9.998117923736572,160,77,0.011111111111111112,1496.0,1494.0,1329.4000000000001,1500.0
10.021400928497314,160,77,0.011111111111111112,1497.0,1494.0,1329.4000000000001,1500.0
10.044704914093018,158,77,0.007936507936507936,1491.0,1494.0,1328.8,1498.0
10.068022966384888,158,76,0.008928571428571428,1489.0,1494.0,1330.0,1498.0
10.091304063796997,158,76,0.008928571428571428,1488.0,1494.0,1330.0,1498.0
10.114603042602539,159,76,0.0125,1490.0,1494.0,1330.0,1499.0
10.137859106063843,159,77,0.011111111111111112,1489.0,1494.0,1328.5,1499.0
10.16116189956665,159,77,0.011111111111111112,1489.0,1494.0,1328.5,1499.0
10.184463024139404,158,76,0.008928571428571428,1484.0,1494.0,1329.4000000000001,1498.0
10.207776069641113,159,76,0.0125,1486.0,1494.0,1329.0999999999999,1499.0
10.231064081192017,157,76,0.008928571428571428,1480,1494.0,1328.8,1497.0
10.254309892654419,157,76,0.008928571428571428,1480,1494.0,1329.0999999999999,1497.0
10.2775719165802,159,76,0.011363636363636364,1481.0,1494.0,1329.4000000000001,1499.0
10.300894975662231,159,76,0.0125,1482.0,1494.0,1329.4000000000001,1499.0
10.324183940887451,159,76,0.0125,1483.0,1494.0,1329.4000000000001,1499.0
10.347472906112671,159,76,0.0125,1483.0,1494.0,1329.4000000000001,1499.0
10.37080192565918,158,76,0.008928571428571428,1480.0,1494.0,1329.0999999999999,1498.0
10.39417290687561,159,77,0.007407407407407408,1482.0,1494.0,1327.3,1499.0
10.417484998703003,158,77,0.007936507936507936,1480.0,1494.0,1327.0,1498.0
10.440771102905273,158,77,0.007936507936507936,1480,1494.0,1326.7,1498.0
10.464011907577515,158,77,0.007936507936507936,1480.0,1494.0,1326.4000000000001,1498.0
10.487310886383057,158,77,0.007936507936507936,1481.0,1494.0,1326.0999999999999,1498.0
10.510735988616943,158,77,0.007936507936507936,1480.0,1494.0,1326.4000000000001,1498.0
10.534085035324097,158,77,0.007936507936507936,1480,1494.0,1326.7,1498.0
10.557348012924194,160,77,0.011111111111111112,1484.0,1494.0,1327.0,1500.0
10.580751895904541,159,76,0.008928571428571428,1482.0,1494.0,1328.8,1499.0
10.604098081588745,159,76,0.008928571428571428,1483.0,1494.0,1329.4000000000001,1499.0
