time,frame,x,y,size_inv,roll,pitch,thrust,yaw
0.00029397010803222656,1,,,,1500.0,1490.0,1400.0,1500
0.021949052810668945,2,,,,1500.0,1490.0,1400.0,1500
0.043203115463256836,3,,,,1500.0,1490.0,1400.0,1500
0.06444096565246582,4,,,,1500.0,1490.0,1400.0,1500
0.08566594123840332,5,,,,1500.0,1490.0,1400.0,1500
0.1068410873413086,6,,,,1500.0,1490.0,1400.0,1500
0.12807011604309082,7,,,,1500.0,1490.0,1400.0,1500
0.14923810958862305,8,,,,1500.0,1490.0,1400.0,1500
0.17046093940734863,9,,,,1500.0,1490.0,1400.0,1500
0.19159889221191406,10,,,,1500.0,1490.0,1400.0,1500
0.21295809745788574,11,,,,1500.0,1490.0,1400.0,1500
0.234375,12,,,,1500.0,1490.0,1400.0,1500
0.2559349536895752,13,318,93,0.025,1515.8,1530,1414.0,1500
0.2775580883026123,14,313,86,0.0014577259475218659,1515.3,1450,1415,1500
0.29914212226867676,15,310,85,0.0007680491551459293,1515.0,1450,1415,1500
0.3206760883331299,16,308,80,0.0005868544600938967,1514.8,1450,1415,1500
0.34230804443359375,17,304,81,0.0003676470588235294,1514.4000000000001,1450,1415,1500
0.3639209270477295,18,303,84,0.0003380662609871535,1514.3,1450,1415,1500
0.3855171203613281,19,303,86,0.00030395136778115504,1514.3,1450,1415,1500
0.40706300735473633,20,301,91,0.0002670940170940171,1514.0999999999999,1450,1415,1500
0.42865896224975586,21,299,94,0.00022935779816513763,1513.9000000000001,1450,1412.0,1500
0.450253963470459,22,298,96,0.00020112630732099757,1513.8,1450,1408.0,1500
0.47193002700805664,23,297,98,0.00019409937888198756,1513.7,1450,1404.0,1500
0.49352002143859863,24,296,101,0.00019113149847094801,1513.5999999999999,1450,1398.0,1500
0.5151519775390625,25,295,102,0.00017988846914912754,1513.5,1450,1396.0,1500
0.5367410182952881,26,295,103,0.00017988846914912754,1513.5,1450,1394.0,1500
0.558372974395752,27,294,106,0.00018315018315018315,1513.4000000000001,1450,1388.0,1500
0.5799839496612549,28,293,107,0.00017307026652821047,1513.3,1450,1386.0,1500
0.6016719341278076,29,293,107,0.00016680567139282736,1513.3,1450,1386.0,1500
0.6233229637145996,30,293,108,0.0001638001638001638,1513.3,1450,1385,1500
0.6450779438018799,31,292,108,0.0001552553951249806,1513.2,1450,1385,1500
0.6666419506072998,32,291,109,0.00015408320493066256,1513.0999999999999,1450,1385,1500
0.6882259845733643,33,292,108,0.00016233766233766234,1513.2,1450,1385,1500
0.7097680568695068,34,290,112,0.00016025641025641026,1513.0,1450,1385,1500
0.7313809394836426,35,290,109,0.0001450747134774409,1513.0,1450,1385,1500
0.7529439926147461,36,288,113,0.00015073861923424781,1512.8,1450,1385,1500
0.7745790481567383,37,286,109,0.00012677484787018255,1512.5999999999999,1450,1385,1500
0.7961399555206299,38,285,109,0.00012354830738818879,1512.5,1450,1385,1500
0.8177330493927002,39,282,108,0.00011904761904761905,1512.2,1450,1385,1500
0.8392899036407471,40,280,106,0.00011870845204178538,1512.0,1450,1388.0,1500
0.8609180450439453,41,279,106,0.00011614401858304297,1511.9000000000001,1450,1388.0,1500
0.8825950622558594,42,277,106,0.00011904761904761905,1511.7,1450,1388.0,1500
0.9042561054229736,43,277,103,0.00011627906976744187,1511.7,1450,1394.0,1500
0.925865888595581,44,275,102,0.0001147842056932966,1511.5,1450,1396.0,1500
0.9474959373474121,45,278,100,0.00012147716229348882,1511.8,1450,1400.0,1500
0.9690909385681152,46,276,98,0.00011865211200759374,1511.5999999999999,1450,1404.0,1500
0.9907228946685791,47,273,96,0.0001063264221158958,1511.3,1450,1408.0,1500
1.0123391151428223,48,273,94,0.00010869565217391305,1511.3,1450,1412.0,1500
1.0340399742126465,49,273,92,0.00010869565217391305,1511.3,1450,1415,1500
1.055596113204956,50,271,90,9.806805923310778e-05,1511.0999999999999,1450,1415,1500
1.0771880149841309,51,270,87,9.62000962000962e-05,1511.0,1450,1415,1500
1.0987279415130615,52,268,85,9.073586788857636e-05,1510.8,1450,1415,1500
1.1203560829162598,53,267,81,8.735150244584206e-05,1510.7,1450,1415,1500
1.1419000625610352,54,266,78,8.340283569641368e-05,1510.5999999999999,1450,1415,1500
1.1635549068450928,55,262,76,7.76276975624903e-05,1510.2,1450,1415,1500
1.185115098953247,56,259,70,6.66400106624017e-05,1509.9000000000001,1450,1415,1500
1.2069330215454102,57,258,67,6.3500127000254e-05,1509.8,1450,1415,1500
1.2285311222076416,58,255,64,5.9630292188431724e-05,1509.5,1450,1415,1500
1.2501330375671387,59,253,63,5.8740601503759395e-05,1509.3,1450,1415,1500
1.2716820240020752,60,250,63,5.6647595309579106e-05,1509.0,1450,1415,1500
1.2933070659637451,61,245,62,5.3625053625053626e-05,1508.5,1450,1415,1500
1.3148388862609863,62,242,61,5.236698785085882e-05,1508.2,1450,1415,1500
1.336479902267456,63,242,60,5.263989050902774e-05,1508.2,1450,1415,1500
1.3580191135406494,64,237,61,4.8976393378391615e-05,1507.7,1450,1415,1500
1.3797709941864014,65,232,61,4.5562238017131404e-05,1507.2,1450,1415,1500
1.4014921188354492,66,226,60,4.383273428596476e-05,1506.5999999999999,1450,1415,1500
1.4231319427490234,67,222,60,4.2165626581210996e-05,1506.2,1450,1415,1500
1.4446790218353271,68,214,60,3.848225967828831e-05,1505.4000000000001,1450,1415,1500
1.4662790298461914,69,207,56,3.9506953223767386e-05,1504.7,1450,1415,1500
1.4879720211029053,70,205,62,3.463203463203463e-05,1504.5,1450,1415,1500
1.5097360610961914,71,200,63,3.267226451465351e-05,1504.0,1450,1415,1500
1.5313079357147217,72,193,64,3.051944088384301e-05,1503.3,1450,1415,1500
1.5529661178588867,73,188,65,2.8805161885009795e-05,1502.8,1450,1415,1500
1.574510097503662,74,184,68,2.6835551738943754e-05,1502.4000000000001,1450,1415,1500
1.5961120128631592,75,175,63,2.712673611111111e-05,1501.5,1450,1415,1500
1.6176629066467285,76,172,74,2.244668911335578e-05,1501.2,1450,1415,1500
1.6392428874969482,77,168,77,2.101723413198823e-05,1500.8,1450,1415,1500
1.660783052444458,78,165,80,2.0041686708353376e-05,1500.5,1450,1415,1500
1.6824190616607666,79,165,83,1.9316206297083253e-05,1500.5,1450,1415,1500
1.7040200233459473,80,166,84,1.9036740909956216e-05,1500.5999999999999,1450,1415,1500
1.725632905960083,81,166,86,1.8706624015563912e-05,1500.5999999999999,1450,1415,1500
1.7472820281982422,82,164,87,1.821095571095571e-05,1500.4000000000001,1450,1415,1500
1.7688789367675781,83,163,88,1.7891648178630217e-05,1500.3,1450,1415,1500
1.790421962738037,84,164,89,1.784853731236725e-05,1500.4000000000001,1450,1415,1500
1.8120510578155518,85,165,89,1.7963318902800482e-05,1500.5,1450,1415,1500
1.8336079120635986,86,165,88,1.812250815512867e-05,1500.5,1450,1415,1500
1.8552789688110352,87,165,88,1.8166294257634384e-05,1500.5,1450,1415,1500
1.8767919540405273,88,164,80,1.9844025955985952e-05,1500.4000000000001,1450,1415,1500
1.8985199928283691,89,163,88,1.7891648178630217e-05,1500.3,1450,1415,1500
1.920151948928833,90,162,89,1.758087201125176e-05,1500.2,1450,1415,1500
1.941762924194336,91,162,91,1.729266099467386e-05,1500.2,1450,1415,1500
1.9635329246520996,92,162,93,1.6922764502809178e-05,1500.2,1450,1414.0,1500
1.985172986984253,93,162,93,1.6779649640915498e-05,1500.2,1450,1414.0,1500
2.0068259239196777,94,162,92,1.6960075981140396e-05,1500.2,1450,1415,1500
2.02838397026062,95,161,93,1.6816332021659437e-05,1500.0999999999999,1450,1414.0,1500
2.050018072128296,96,161,93,1.6816332021659437e-05,1500.0999999999999,1450,1414.0,1500
2.07161808013916,97,162,93,1.6779649640915498e-05,1500.2,1450,1414.0,1500
2.0932869911193848,98,162,93,1.6832749798007002e-05,1500.2,1450,1414.0,1500
2.114870071411133,99,163,93,1.697648756472286e-05,1500.3,1450,1414.0,1500
2.1365089416503906,100,162,93,1.6939964764873288e-05,1500.2,1450,1414.0,1500
2.158118963241577,101,161,93,1.667444807576869e-05,1500.0999999999999,1450,1414.0,1500
2.179759979248047,102,162,93,1.6779649640915498e-05,1500.2,1450,1414.0,1500
2.201352119445801,103,162,93,1.6779649640915498e-05,1500.2,1450,1414.0,1500
2.22302508354187,104,162,93,1.6779649640915498e-05,1500.2,1450,1414.0,1500
2.2446329593658447,105,162,93,1.6779649640915498e-05,1500.2,1450,1414.0,1500
2.2662830352783203,106,161,93,1.672688344707614e-05,1500.0999999999999,1450,1414.0,1500
2.287882089614868,107,160,93,1.6570557433552065e-05,1500.0,1450,1414.0,1500
2.3094940185546875,108,161,93,1.672688344707614e-05,1500.0999999999999,1450,1414.0,1500
2.3310980796813965,109,160,93,1.6622340425531915e-05,1500.0,1450,1414.0,1500
2.3529560565948486,110,162,92,1.6960075981140396e-05,1500.2,1450,1415,1500
2.37453293800354,111,160,94,1.6396130513198885e-05,1500.0,1450,1412.0,1500
2.3961570262908936,112,159,94,1.644736842105263e-05,1499.9000000000001,1450,1412.0,1500
2.4177629947662354,113,160,95,1.6310286897946536e-05,1500.0,1450,1410.0,1500
2.439389944076538,114,162,95,1.6516094934513683e-05,1500.2,1450,1410.0,1500
2.4609830379486084,115,161,94,1.665556295802798e-05,1500.0999999999999,1450,1412.0,1500
2.482685089111328,116,162,94,1.6690868425884197e-05,1500.2,1450,1412.0,1500
2.5043070316314697,117,160,94,1.6482882526496234e-05,1500.0,1450,1412.0,1500
2.5259320735931396,118,162,94,1.6690868425884197e-05,1500.2,1450,1412.0,1500
2.5475409030914307,119,162,93,1.6832749798007002e-05,1500.2,1450,1414.0,1500
2.569169044494629,120,162,93,1.697648756472286e-05,1500.2,1450,1414.0,1500
2.590754985809326,121,162,92,1.7105713308244953e-05,1500.2,1450,1415,1500
2.6123859882354736,122,162,91,1.725327812284334e-05,1500.2,1450,1415,1500
2.634442090988159,123,162,92,1.705175206752494e-05,1500.2,1450,1415,1500
2.6561660766601562,124,161,93,1.672688344707614e-05,1500.0999999999999,1450,1414.0,1500
2.6778159141540527,125,160,95,1.636125654450262e-05,1500.0,1450,1410.0,1500
2.6994640827178955,126,160,95,1.6310286897946536e-05,1500.0,1450,1410.0,1500
2.7210609912872314,127,160,95,1.622533748701973e-05,1500.0,1450,1410.0,1500
2.7427570819854736,128,160,95,1.622533748701973e-05,1500.0,1450,1410.0,1500
2.7643659114837646,129,160,95,1.622533748701973e-05,1500.0,1450,1410.0,1500
2.785968065261841,130,160,95,1.622533748701973e-05,1500.0,1450,1410.0,1500
2.8076930046081543,131,159,95,1.6276041666666666e-05,1499.9000000000001,1450,1410.0,1500
2.8293070793151855,132,160,95,1.622533748701973e-05,1500.0,1450,1410.0,1500
2.850996971130371,133,160,95,1.622533748701973e-05,1500.0,1450,1410.0,1500
2.8726119995117188,134,159,95,1.6276041666666666e-05,1499.9000000000001,1450,1410.0,1500
2.894292116165161,135,160,95,1.622533748701973e-05,1500.0,1450,1410.0,1500
2.9159369468688965,136,160,95,1.622533748701973e-05,1500.0,1450,1410.0,1500
2.9375669956207275,137,160,95,1.622533748701973e-05,1500.0,1450,1410.0,1500
2.9591588973999023,138,159,95,1.6276041666666666e-05,1499.9000000000001,1450,1410.0,1500
2.9808130264282227,139,160,95,1.622533748701973e-05,1500.0,1450,1410.0,1500
3.003154993057251,140,160,95,1.622533748701973e-05,1500.0,1450,1410.0,1500
3.026421070098877,141,159,95,1.6276041666666666e-05,1499.9000000000001,1450,1410.0,1500
3.0494470596313477,142,160,95,1.622533748701973e-05,1500.0,1450,1410.0,1500
3.0723819732666016,143,160,95,1.622533748701973e-05,1500.0,1450,1410.0,1500
3.095391035079956,144,160,95,1.622533748701973e-05,1500.0,1450,1410.0,1500
3.1183359622955322,145,160,95,1.622533748701973e-05,1500.0,1450,1410.0,1500
3.1412100791931152,146,160,96,1.6141268380869368e-05,1500.0,1450,1408.0,1500
3.1642138957977295,147,159,96,1.6191709844559585e-05,1499.9000000000001,1450,1408.0,1500
3.1870970726013184,148,159,96,1.6191709844559585e-05,1499.9000000000001,1450,1408.0,1500
3.2100460529327393,149,160,96,1.6141268380869368e-05,1500.0,1450,1408.0,1500
3.2329959869384766,150,160,96,1.6141268380869368e-05,1500.0,1450,1408.0,1500
3.256009101867676,151,160,96,1.6141268380869368e-05,1500.0,1450,1408.0,1500
3.278917074203491,152,160,96,1.6141268380869368e-05,1500.0,1450,1408.0,1500
3.301858901977539,153,159,96,1.6191709844559585e-05,1499.9000000000001,1450,1408.0,1500
3.3249850273132324,154,160,96,1.6141268380869368e-05,1500.0,1450,1408.0,1500
3.347912073135376,155,160,96,1.6141268380869368e-05,1500.0,1450,1408.0,1500
3.370800018310547,156,160,96,1.6141268380869368e-05,1500.0,1450,1408.0,1500
3.393795967102051,157,160,96,1.6141268380869368e-05,1500.0,1450,1408.0,1500
3.416670083999634,158,160,96,1.6141268380869368e-05,1500.0,1450,1408.0,1500
3.4395840167999268,159,160,96,1.6141268380869368e-05,1500.0,1450,1408.0,1500
3.4624600410461426,160,159,96,1.6191709844559585e-05,1499.9000000000001,1450,1408.0,1500
3.485806941986084,161,160,95,1.622533748701973e-05,1500.0,1450,1410.0,1500
3.5087649822235107,162,160,95,1.622533748701973e-05,1500.0,1450,1410.0,1500
3.531709909439087,163,160,95,1.622533748701973e-05,1500.0,1450,1410.0,1500
3.5545740127563477,164,160,95,1.622533748701973e-05,1500.0,1450,1410.0,1500
3.5774950981140137,165,160,95,1.622533748701973e-05,1500.0,1450,1410.0,1500
3.600356101989746,166,159,96,1.6191709844559585e-05,1499.9000000000001,1450,1408.0,1500
3.623321056365967,167,160,96,1.6141268380869368e-05,1500.0,1450,1408.0,1500
3.6464309692382812,168,160,96,1.6141268380869368e-05,1500.0,1450,1408.0,1500
3.669321060180664,169,160,96,1.6141268380869368e-05,1500.0,1450,1408.0,1500
3.6922359466552734,170,160,96,1.6141268380869368e-05,1500.0,1450,1408.0,1500
3.715245008468628,171,160,96,1.6141268380869368e-05,1500.0,1450,1408.0,1500
3.7381739616394043,172,159,96,1.6191709844559585e-05,1499.9000000000001,1450,1408.0,1500
3.761122941970825,173,159,96,1.6191709844559585e-05,1499.9000000000001,1450,1408.0,1500
3.7842609882354736,174,160,95,1.622533748701973e-05,1500.0,1450,1410.0,1500
3.807224988937378,175,160,95,1.622533748701973e-05,1500.0,1450,1410.0,1500
3.830111026763916,176,160,95,1.622533748701973e-05,1500.0,1450,1410.0,1500
3.85310697555542,177,160,95,1.622533748701973e-05,1500.0,1450,1410.0,1500
3.8760430812835693,178,160,95,1.622533748701973e-05,1500.0,1450,1410.0,1500
3.8989710807800293,179,159,95,1.6276041666666666e-05,1499.9000000000001,1450,1410.0,1500
3.9218900203704834,180,160,95,1.622533748701973e-05,1500.0,1450,1410.0,1500
3.945091962814331,181,159,96,1.6191709844559585e-05,1499.9000000000001,1450,1408.0,1500
3.967993974685669,182,160,96,1.6141268380869368e-05,1500.0,1450,1408.0,1500
3.990941047668457,183,160,96,1.6141268380869368e-05,1500.0,1450,1408.0,1500
4.013840913772583,184,160,96,1.6141268380869368e-05,1500.0,1450,1408.0,1500
4.036767959594727,185,160,96,1.605806596653499e-05,1500.0,1450,1408.0,1500
4.059645891189575,186,159,96,1.6108247422680413e-05,1499.9000000000001,1450,1408.0,1500
4.082695960998535,187,160,96,1.605806596653499e-05,1500.0,1450,1408.0,1500
4.1056969165802,188,159,96,1.6191709844559585e-05,1499.9000000000001,1450,1408.0,1500
4.128734111785889,189,160,96,1.6141268380869368e-05,1500.0,1450,1408.0,1500
4.151730060577393,190,160,96,1.6141268380869368e-05,1500.0,1450,1408.0,1500
4.174714088439941,191,159,96,1.6191709844559585e-05,1499.9000000000001,1450,1408.0,1500
4.197613000869751,192,160,96,1.6141268380869368e-05,1500.0,1450,1408.0,1500
4.2206199169158936,193,160,96,1.6141268380869368e-05,1500.0,1450,1408.0,1500
4.243524074554443,194,159,96,1.6191709844559585e-05,1499.9000000000001,1450,1408.0,1500
4.266526937484741,195,160,96,1.6141268380869368e-05,1500.0,1450,1408.0,1500
4.289412021636963,196,160,96,1.6141268380869368e-05,1500.0,1450,1408.0,1500
4.312412977218628,197,159,96,1.6191709844559585e-05,1499.9000000000001,1450,1408.0,1500
4.335388898849487,198,160,96,1.6141268380869368e-05,1500.0,1450,1408.0,1500
4.3583009243011475,199,160,96,1.6141268380869368e-05,1500.0,1450,1408.0,1500
4.381187915802002,200,159,96,1.6191709844559585e-05,1499.9000000000001,1450,1408.0,1500
4.404212951660156,201,159,96,1.6191709844559585e-05,1499.9000000000001,1450,1408.0,1500
4.427119970321655,202,160,96,1.6141268380869368e-05,1500.0,1450,1408.0,1500
4.450050115585327,203,160,96,1.6141268380869368e-05,1500.0,1450,1408.0,1500
4.472974061965942,204,160,96,1.6141268380869368e-05,1500.0,1450,1408.0,1500
4.49597692489624,205,160,96,1.6141268380869368e-05,1500.0,1450,1408.0,1500
4.518891096115112,206,159,96,1.6191709844559585e-05,1499.9000000000001,1450,1408.0,1500
4.541834115982056,207,160,96,1.6141268380869368e-05,1500.0,1450,1408.0,1500
4.564778089523315,208,160,96,1.6141268380869368e-05,1500.0,1450,1408.0,1500
4.587702035903931,209,160,96,1.6141268380869368e-05,1500.0,1450,1408.0,1500
4.610742092132568,210,160,96,1.605806596653499e-05,1500.0,1450,1408.0,1500
4.633981943130493,211,160,96,1.605806596653499e-05,1500.0,1450,1408.0,1500
4.657212018966675,212,160,96,1.605806596653499e-05,1500.0,1450,1408.0,1500
4.680198907852173,213,160,96,1.605806596653499e-05,1500.0,1450,1408.0,1500
4.7031569480896,214,159,96,1.6108247422680413e-05,1499.9000000000001,1450,1408.0,1500
4.726170063018799,215,159,96,1.6108247422680413e-05,1499.9000000000001,1450,1408.0,1500
4.749066114425659,216,160,96,1.605806596653499e-05,1500.0,1450,1408.0,1500
4.7719879150390625,217,160,96,1.605806596653499e-05,1500.0,1450,1408.0,1500
4.795047998428345,218,160,96,1.605806596653499e-05,1500.0,1450,1408.0,1500
4.817970037460327,219,160,96,1.6141268380869368e-05,1500.0,1450,1408.0,1500
4.840847015380859,220,160,95,1.6310286897946536e-05,1500.0,1450,1410.0,1500
4.863821983337402,221,160,93,1.66591700401486e-05,1500.0,1450,1414.0,1500
4.88669490814209,222,159,90,1.7265193370165747e-05,1499.9000000000001,1450,1415,1500
4.909564018249512,223,160,89,1.7458100558659216e-05,1500.0,1450,1415,1500
4.932358980178833,224,161,88,1.776640727712042e-05,1500.0999999999999,1450,1415,1500
4.955327987670898,225,162,87,1.8037518037518038e-05,1500.2,1450,1415,1500
4.978128910064697,226,163,86,1.835030736764841e-05,1500.3,1450,1415,1500
5.000992059707642,227,163,85,1.8624054829217416e-05,1500.3,1450,1415,1500
5.023852109909058,228,164,83,1.9078144078144078e-05,1500.4000000000001,1450,1415,1500
5.046720027923584,229,165,82,1.948747929455325e-05,1500.5,1450,1415,1500
5.069515943527222,230,164,81,1.9918731575173292e-05,1500.4000000000001,1450,1415,1500
5.092442035675049,231,164,79,2.0764119601328905e-05,1500.4000000000001,1450,1415,1500
5.1153459548950195,232,164,79,2.1105060993626272e-05,1500.4000000000001,1450,1415,1500
5.13819694519043,233,164,79,2.1176121805052622e-05,1500.4000000000001,1450,1415,1500
5.161015033721924,234,163,79,2.124766275709672e-05,1500.3,1450,1415,1500
5.183922052383423,235,163,79,2.1404109589041096e-05,1500.3,1450,1415,1500
5.20671010017395,236,163,80,2.1491972748178555e-05,1500.3,1450,1415,1500
5.229576110839844,237,162,80,2.1566597653554176e-05,1500.2,1450,1415,1500
5.252413988113403,238,161,80,2.1641742593113596e-05,1500.0999999999999,1450,1415,1500
5.275389909744263,239,161,80,2.1812153732059503e-05,1500.0999999999999,1450,1415,1500
5.298207998275757,240,160,80,2.2045855379188714e-05,1500.0,1450,1415,1500
5.3210461139678955,241,161,80,2.2103843858446985e-05,1500.0999999999999,1450,1415,1500
5.3438560962677,242,161,79,2.224199288256228e-05,1500.0999999999999,1450,1415,1500
5.36669397354126,243,162,78,2.2523537096265596e-05,1500.2,1450,1415,1500
5.389486074447632,244,161,75,2.3247163846010787e-05,1500.0999999999999,1450,1415,1500
5.4123289585113525,245,159,74,2.2988505747126437e-05,1499.9000000000001,1450,1415,1500
5.435244083404541,246,158,71,2.346096096096096e-05,1499.8,1450,1415,1500
5.458117961883545,247,158,69,2.405002405002405e-05,1499.8,1450,1415,1500
5.480926990509033,248,159,67,2.475737769855417e-05,1499.9000000000001,1450,1415,1500
5.503847122192383,249,157,63,2.5901367592208867e-05,1499.7,1450,1415,1500
5.52664589881897,250,159,61,2.661556478228468e-05,1499.9000000000001,1450,1415,1500
5.5494771003723145,251,160,60,2.7456687076137395e-05,1500.0,1450,1415,1500
5.572253942489624,252,163,59,2.8294145941204766e-05,1500.3,1450,1415,1500
5.5952160358428955,253,165,58,2.9270577215782695e-05,1500.5,1450,1415,1500
5.618031024932861,254,168,57,3.0404378230465186e-05,1500.8,1450,1415,1500
5.64087700843811,255,170,55,3.154972236244321e-05,1501.0,1450,1415,1500
5.663661956787109,256,172,55,3.206053028117085e-05,1501.2,1450,1415,1500
5.686500072479248,257,172,54,3.324026060364313e-05,1501.2,1450,1415,1500
5.7093260288238525,258,173,53,3.379291700459584e-05,1501.3,1450,1415,1500
5.7321789264678955,259,175,53,3.416700833675003e-05,1501.5,1450,1415,1500
5.75517201423645,260,176,53,3.513456538542618e-05,1501.5999999999999,1450,1415,1500
5.7781500816345215,261,178,53,3.540073633531577e-05,1501.8,1450,1415,1500
5.801026105880737,262,179,53,3.594536304816679e-05,1501.9000000000001,1450,1415,1500
5.8238279819488525,263,181,53,3.6364958725771846e-05,1502.0999999999999,1450,1415,1500
5.8543479442596436,264,182,52,3.7735849056603776e-05,1502.2,1450,1415,1500
5.877329111099243,265,183,52,3.804017041996348e-05,1502.3,1450,1415,1500
5.900197982788086,266,183,52,3.8349440098174566e-05,1502.3,1450,1415,1500
5.92310905456543,267,183,53,3.814609956131986e-05,1502.3,1450,1415,1500
5.946044921875,268,183,53,3.814609956131986e-05,1502.3,1450,1415,1500
5.968868970870972,269,182,53,3.7947783849423196e-05,1502.2,1450,1415,1500
5.99173903465271,270,180,54,3.791037986200622e-05,1502.0,1450,1415,1500
6.014593124389648,271,180,54,3.772161448509996e-05,1502.0,1450,1415,1500
6.037480115890503,272,178,55,3.751500600240096e-05,1501.8,1450,1415,1500
6.060277938842773,273,177,56,3.718301479883989e-05,1501.7,1450,1415,1500
6.083234071731567,274,176,56,3.716919417187035e-05,1501.5999999999999,1450,1415,1500
6.106158018112183,275,176,57,3.700277520814061e-05,1501.5999999999999,1450,1415,1500
6.129022121429443,276,175,57,3.699866804795027e-05,1501.5,1450,1415,1500
6.151823997497559,277,175,58,3.668244011591651e-05,1501.5,1450,1415,1500
6.174722909927368,278,174,58,3.668244011591651e-05,1501.4000000000001,1450,1415,1500
6.197529077529907,279,173,58,3.637157197934095e-05,1501.3,1450,1415,1500
6.2203919887542725,280,171,59,3.591180061768297e-05,1501.0999999999999,1450,1415,1500
6.243278980255127,281,167,59,3.561253561253561e-05,1500.7,1450,1415,1500
6.266213893890381,282,167,60,3.5018910211514215e-05,1500.7,1450,1415,1500
6.2890260219573975,283,165,60,3.5018910211514215e-05,1500.5,1450,1415,1500
6.311867952346802,284,165,60,3.458532198934772e-05,1500.5,1450,1415,1500
6.334722995758057,285,163,60,3.473186996387885e-05,1500.3,1450,1415,1500
6.35757303237915,286,163,61,3.430414050975953e-05,1500.3,1450,1415,1500
6.3803699016571045,287,162,59,3.5457220863028756e-05,1500.2,1450,1415,1500
6.403265953063965,288,161,61,3.4017076572439365e-05,1500.0999999999999,1450,1415,1500
6.426142930984497,289,159,61,3.3742745309758405e-05,1499.9000000000001,1450,1415,1500
6.449007987976074,290,158,62,3.279548734094189e-05,1499.8,1450,1415,1500
6.471806049346924,291,157,62,3.2526671870934166e-05,1499.7,1450,1415,1500
6.494724988937378,292,157,63,3.213883978788366e-05,1499.7,1450,1415,1500
6.517538070678711,293,156,63,3.1758130081300816e-05,1499.5999999999999,1450,1415,1500
6.540395021438599,294,155,64,3.151194302640701e-05,1499.5,1450,1415,1500
6.563213109970093,295,155,61,3.291530891017412e-05,1499.5,1450,1415,1500
6.586091995239258,296,154,65,3.0780595912336864e-05,1499.4000000000001,1450,1415,1500
6.60890793800354,297,154,65,3.0303030303030302e-05,1499.4000000000001,1450,1415,1500
6.632102012634277,298,153,63,3.112549800796813e-05,1499.3,1450,1415,1500
6.655139923095703,299,152,67,2.9511583296443853e-05,1499.2,1450,1415,1500
6.677901029586792,300,152,67,2.9178338001867415e-05,1499.2,1450,1415,1500
6.700491905212402,301,151,67,2.9394473838918284e-05,1499.0999999999999,1450,1415,1500
6.723175048828125,302,151,68,2.8965357432510718e-05,1499.0999999999999,1450,1415,1500
6.7457969188690186,303,152,68,2.9080757262919125e-05,1499.2,1450,1415,1500
6.768381118774414,304,152,68,2.9080757262919125e-05,1499.2,1450,1415,1500
6.790925025939941,305,153,68,2.9080757262919125e-05,1499.3,1450,1415,1500
6.813533067703247,306,154,67,2.929458636044059e-05,1499.4000000000001,1450,1415,1500
6.836065053939819,307,155,67,2.9394473838918284e-05,1499.5,1450,1415,1500
6.858643054962158,308,158,66,2.9955366503909175e-05,1499.8,1450,1415,1500
6.881192922592163,309,158,65,3.0303030303030302e-05,1499.8,1450,1415,1500
6.903794050216675,310,159,65,3.0780595912336864e-05,1499.9000000000001,1450,1415,1500
6.926342010498047,311,161,64,3.125781445361341e-05,1500.0999999999999,1450,1415,1500
6.948944091796875,312,161,63,3.150201612903226e-05,1500.0999999999999,1450,1415,1500
6.971492052078247,313,162,63,3.162255320494577e-05,1500.2,1450,1415,1500
6.994098901748657,314,161,63,3.1750063500127e-05,1500.0999999999999,1450,1415,1500
7.016701936721802,315,162,62,3.187352584942946e-05,1500.2,1450,1415,1500
7.039637088775635,316,164,62,3.1746031746031745e-05,1500.4000000000001,1450,1415,1500
7.062406063079834,317,165,61,3.251821019771072e-05,1500.5,1450,1415,1500
7.085154056549072,318,168,63,3.1629554655870446e-05,1500.8,1450,1415,1500
7.107760906219482,319,169,63,3.150201612903226e-05,1500.9000000000001,1450,1415,1500
7.130408048629761,320,170,64,3.1384364309700906e-05,1501.0,1450,1415,1500
7.15320611000061,321,171,64,3.178639542275906e-05,1501.0999999999999,1450,1415,1500
7.175893068313599,322,173,65,3.1413941507240916e-05,1501.3,1450,1415,1500
7.198448896408081,323,172,65,3.1157501168406295e-05,1501.2,1450,1415,1500
7.221035957336426,324,172,65,3.128519584532599e-05,1501.2,1450,1415,1500
7.2435829639434814,325,173,65,3.128519584532599e-05,1501.3,1450,1415,1500
7.266215085983276,326,173,65,3.130478337089907e-05,1501.3,1450,1415,1500
7.288753986358643,327,174,60,3.429237680463633e-05,1501.4000000000001,1450,1415,1500
7.31135892868042,328,175,65,3.2100667693888034e-05,1501.5,1450,1415,1500
7.333925008773804,329,174,65,3.196522183863956e-05,1501.4000000000001,1450,1415,1500
7.356513023376465,330,173,65,3.220923116565207e-05,1501.3,1450,1415,1500
7.379050016403198,331,171,64,3.270859909070094e-05,1501.0999999999999,1450,1415,1500
7.401650905609131,332,170,66,3.1724881824815205e-05,1501.0,1450,1415,1500
7.424190998077393,333,171,66,3.226951498918971e-05,1501.0999999999999,1450,1415,1500
7.44677996635437,334,169,66,3.1724881824815205e-05,1500.9000000000001,1450,1415,1500
7.4693169593811035,335,168,63,3.324468085106383e-05,1500.8,1450,1415,1500
7.491914987564087,336,167,62,3.391670058336725e-05,1500.7,1450,1415,1500
7.514461040496826,337,167,66,3.175611305176246e-05,1500.7,1450,1415,1500
7.537050008773804,338,167,66,3.2028697713150986e-05,1500.7,1450,1415,1500
7.55958890914917,339,166,67,3.192848020434228e-05,1500.5999999999999,1450,1415,1500
7.5821850299835205,340,166,64,3.3444816053511705e-05,1500.5999999999999,1450,1415,1500
7.605179071426392,341,166,68,3.187454180346157e-05,1500.5999999999999,1450,1415,1500
7.627948999404907,342,166,66,3.273108143493061e-05,1500.5999999999999,1450,1415,1500
7.650561094284058,343,166,67,3.2776138970829235e-05,1500.5999999999999,1450,1415,1500
7.673320055007935,344,167,68,3.2441200324412e-05,1500.7,1450,1415,1500
7.695980072021484,345,167,67,3.297283038776049e-05,1500.7,1450,1415,1500
7.718575954437256,346,166,68,3.287959492339054e-05,1500.5999999999999,1450,1415,1500
7.741152048110962,347,166,67,3.312135665076842e-05,1500.5999999999999,1450,1415,1500
7.763885974884033,348,167,51,4.390586582367404e-05,1500.7,1450,1415,1500
7.786509037017822,349,167,49,4.654843364520784e-05,1500.7,1450,1415,1500
7.809077978134155,350,166,67,3.4135518006485746e-05,1500.5999999999999,1450,1415,1500
7.831679105758667,351,165,69,3.291639236339697e-05,1500.5,1450,1415,1500
7.8541929721832275,352,165,68,3.4020548411240386e-05,1500.5,1450,1415,1500
7.876775026321411,353,165,69,3.4258307639602604e-05,1500.5,1450,1415,1500
7.899302005767822,354,165,55,4.41306266548985e-05,1500.5,1450,1415,1500
7.921880006790161,355,164,71,3.492351749668226e-05,1500.4000000000001,1450,1415,1500
7.944422006607056,356,165,53,4.805843906189927e-05,1500.5,1450,1415,1500
7.966994047164917,357,165,71,3.622138510576645e-05,1500.5,1450,1415,1500
7.98953104019165,358,165,57,4.834421078075901e-05,1500.5,1450,1415,1500
8.012140035629272,359,165,73,3.769033619779888e-05,1500.5,1450,1415,1500
8.034816980361938,360,165,73,3.865182436611008e-05,1500.5,1450,1415,1500
8.057398080825806,361,166,52,5.8944886531093426e-05,1500.5999999999999,1450,1415,1500
8.079945087432861,362,166,74,3.9856516540454363e-05,1500.5999999999999,1450,1415,1500
8.102585077285767,363,166,76,4.016548178495401e-05,1500.5999999999999,1450,1415,1500
8.125217914581299,364,165,75,4.177109440267335e-05,1500.5,1450,1415,1500
8.147825956344604,365,165,77,4.210526315789474e-05,1500.5,1450,1415,1500
8.170352935791016,366,166,78,4.266939750810719e-05,1500.5999999999999,1450,1415,1500
8.192991971969604,367,165,79,4.383273428596476e-05,1500.5,1450,1415,1500
8.215887069702148,368,165,62,6.879471656576775e-05,1500.5,1450,1415,1500
8.238490104675293,369,165,83,4.645113340765515e-05,1500.5,1450,1415,1500
8.26103401184082,370,166,74,5.695733895312411e-05,1500.5999999999999,1450,1415,1500
8.283626079559326,371,165,87,4.6172315079878107e-05,1500.5,1450,1415,1500
8.306142091751099,372,165,71,6.535947712418301e-05,1500.5,1450,1415,1500
8.32871699333191,373,165,66,7.716049382716049e-05,1500.5,1450,1415,1500
8.351223945617676,374,164,76,6.312334301224592e-05,1500.4000000000001,1450,1415,1500
8.373816013336182,375,165,70,7.49063670411985e-05,1500.5,1450,1415,1500
8.396353960037231,376,165,70,7.634753397465261e-05,1500.5,1450,1415,1500
8.418960094451904,377,165,93,4.87044613286577e-05,1500.5,1450,1414.0,1500
8.441598892211914,378,164,95,4.968944099378882e-05,1500.4000000000001,1450,1410.0,1500
8.464318037033081,379,164,95,4.984051036682616e-05,1500.4000000000001,1450,1410.0,1500
8.48695707321167,380,163,83,6.493506493506494e-05,1500.3,1450,1415,1500
8.509573936462402,381,163,79,7.284382284382284e-05,1500.3,1450,1415,1500
8.532104015350342,382,162,83,6.924248719013987e-05,1500.2,1450,1415,1500
8.554811000823975,383,162,72,9.689922480620155e-05,1500.2,1450,1415,1500
8.577363014221191,384,163,99,5.1153511688577424e-05,1500.3,1450,1402.0,1500
8.600056886672974,385,162,100,5.1153511688577424e-05,1500.2,1450,1400.0,1500
8.622836112976074,386,162,80,8.074935400516796e-05,1500.2,1450,1415,1500
8.645725965499878,387,162,75,9.633911368015414e-05,1500.2,1450,1415,1500
8.668335914611816,388,162,102,5.1610239471511145e-05,1500.2,1450,1396.0,1500
8.69103193283081,389,123,75,0.00019550342130987292,1496.3,1450,1415,1500
8.713606119155884,390,162,104,5.1153511688577424e-05,1500.2,1450,1392.0,1500
8.736288070678711,391,162,105,5.175179837499353e-05,1500.2,1450,1390.0,1500
8.758903980255127,392,161,83,8.426019548365353e-05,1500.0999999999999,1450,1415,1500
8.78148889541626,393,162,92,6.799945600435197e-05,1500.2,1450,1415,1500
8.804012060165405,394,126,108,8.761938140716727e-05,1496.5999999999999,1450,1385,1500
8.8266019821167,395,161,107,5.0999592003263974e-05,1500.0999999999999,1450,1386.0,1500
8.849252939224243,396,162,107,5.129783523135324e-05,1500.2,1450,1386.0,1500
8.871907949447632,397,162,81,9.377344336084021e-05,1500.2,1450,1415,1500
8.89446496963501,398,162,97,6.4263222157959e-05,1500.2,1450,1406.0,1500
8.917155981063843,399,162,95,6.72178530617732e-05,1500.2,1450,1410.0,1500
8.939780950546265,400,162,89,7.506943923128894e-05,1500.2,1450,1415,1500
8.962373971939087,401,123,94,0.0001313370107696349,1496.3,1450,1412.0,1500
8.985107898712158,402,162,91,7.13165026387106e-05,1500.2,1450,1415,1500
9.00771689414978,403,161,146,0.0001618384851917786,1500.0999999999999,1450,1385,1500
9.030246019363403,404,162,83,8.809020436927414e-05,1500.2,1450,1415,1500
9.052881956100464,405,162,86,8.305647840531562e-05,1500.2,1450,1415,1500
9.075511932373047,406,162,89,7.751937984496124e-05,1500.2,1450,1415,1500
9.098097085952759,407,162,82,9.531071292413267e-05,1500.2,1450,1415,1500
9.120673894882202,408,149,75,0.00014269406392694063,1498.9000000000001,1450,1415,1500
9.143661975860596,409,162,81,9.911785112498761e-05,1500.2,1450,1415,1500
9.166481018066406,410,162,82,9.586808551433228e-05,1500.2,1450,1415,1500
9.189326047897339,411,162,90,7.5947444368497e-05,1500.2,1450,1415,1500
9.212109088897705,412,161,108,5.159958720330237e-05,1500.0999999999999,1450,1385,1500
9.235142946243286,413,161,91,7.44601638123604e-05,1500.0999999999999,1450,1415,1500
9.257967948913574,414,162,107,5.2213868003341685e-05,1500.2,1450,1386.0,1500
9.280903100967407,415,126,107,9.182736455463728e-05,1496.5999999999999,1450,1386.0,1500
9.303806066513062,416,162,90,7.49737591842855e-05,1500.2,1450,1415,1500
9.326656103134155,417,116,79,0.0002388344877000239,1495.5999999999999,1450,1415,1500
9.349487066268921,418,162,107,5.2213868003341685e-05,1500.2,1450,1386.0,1500
9.37241792678833,419,162,107,5.2213868003341685e-05,1500.2,1450,1386.0,1500
9.395411968231201,420,162,96,6.570733950982325e-05,1500.2,1450,1408.0,1500
9.418631076812744,421,123,90,0.0001457301078402798,1496.3,1450,1415,1500
9.441468000411987,422,162,108,5.175179837499353e-05,1500.2,1450,1385,1500
9.464375972747803,423,162,91,7.402472425790214e-05,1500.2,1450,1415,1500
9.487159967422485,424,162,108,5.175179837499353e-05,1500.2,1450,1385,1500
9.510014057159424,425,162,85,8.99685110211426e-05,1500.2,1450,1415,1500
9.532877922058105,426,138,81,0.00014017381553125876,1497.8,1450,1415,1500
9.555759906768799,427,162,109,5.175179837499353e-05,1500.2,1450,1385,1500
9.578541040420532,428,162,81,0.00010259567046270647,1500.2,1450,1415,1500
9.601372003555298,429,161,80,0.000106951871657754,1500.0999999999999,1450,1415,1500
9.62417197227478,430,161,87,8.403361344537815e-05,1500.0999999999999,1450,1415,1500
9.646997928619385,431,161,144,0.00014257199885942402,1500.0999999999999,1450,1385,1500
9.66978406906128,432,161,144,0.00014343086632243257,1500.0999999999999,1450,1385,1500
9.692686080932617,433,163,85,9.2824654228163e-05,1500.3,1450,1415,1500
9.715585947036743,434,163,87,8.677542519958348e-05,1500.3,1450,1415,1500
9.738550901412964,435,163,92,7.49737591842855e-05,1500.3,1450,1415,1500
9.761414051055908,436,163,91,7.649938800489595e-05,1500.3,1450,1415,1500
9.784488916397095,437,163,88,8.305647840531562e-05,1500.3,1450,1415,1500
9.807684898376465,438,163,109,5.191029900332226e-05,1500.3,1450,1385,1500
9.83054804801941,439,163,87,8.35421888053467e-05,1500.3,1450,1415,1500
9.853316068649292,440,163,109,5.175179837499353e-05,1500.3,1450,1385,1500
9.875930070877075,441,163,79,0.00010829542993285683,1500.3,1450,1415,1500
9.89841890335083,442,162,79,0.00011098779134295228,1500.2,1450,1415,1500
9.92109990119934,443,163,82,9.911785112498761e-05,1500.3,1450,1415,1500
9.943735122680664,444,163,109,5.145091582630171e-05,1500.3,1450,1385,1500
9.96626591682434,445,162,80,0.00010382059800664452,1500.2,1450,1415,1500
9.988765954971313,446,162,88,8.074935400516796e-05,1500.2,1450,1415,1500
10.01143193244934,447,163,94,6.881365262868153e-05,1500.3,1450,1412.0,1500
10.034075021743774,448,162,80,0.00010382059800664452,1500.2,1450,1415,1500
10.05652403831482,449,162,109,5.0999592003263974e-05,1500.2,1450,1385,1500
10.078973054885864,450,162,83,9.377344336084021e-05,1500.2,1450,1415,1500
10.101474046707153,451,163,91,7.506943923128894e-05,1500.3,1450,1415,1500
10.124119997024536,452,162,109,5.145091582630171e-05,1500.2,1450,1385,1500
10.146805047988892,453,162,83,9.531071292413267e-05,1500.2,1450,1415,1500
10.169449090957642,454,162,72,0.0001490757304710793,1500.2,1450,1415,1500
10.191996097564697,455,136,75,0.00018268176835951772,1497.5999999999999,1450,1415,1500
10.21477198600769,456,162,82,9.854158454867954e-05,1500.2,1450,1415,1500
10.237414121627808,457,162,91,7.453786523553965e-05,1500.2,1450,1415,1500
10.25999402999878,458,162,89,7.964319847085059e-05,1500.2,1450,1415,1500
10.282675981521606,459,162,82,9.689922480620155e-05,1500.2,1450,1415,1500
10.305324077606201,460,163,85,8.758101243650377e-05,1500.3,1450,1415,1500
10.32782506942749,461,163,87,8.210180623973728e-05,1500.3,1450,1415,1500
10.350296974182129,462,163,78,0.0001126887536623845,1500.3,1450,1415,1500
10.372796058654785,463,163,81,0.00010322047894302229,1500.3,1450,1415,1500
10.395339965820312,464,150,89,0.0001008471157724889,1499.0,1450,1415,1500
10.41779899597168,465,118,99,0.00014874312063067083,1495.8,1450,1402.0,1500
10.440342903137207,466,163,115,5.012531328320802e-05,1500.3,1450,1385,1500
10.46291208267212,467,162,116,5.0413389796329905e-05,1500.2,1450,1385,1500
10.485542058944702,468,162,102,6.841817186644773e-05,1500.2,1450,1396.0,1500
10.50809097290039,469,162,119,5.085952598921778e-05,1500.2,1450,1385,1500
10.53052806854248,470,160,120,5.283178360101437e-05,1500.0,1450,1385,1500
10.553070068359375,471,162,146,9.678668215253581e-05,1500.2,1450,1385,1500
10.575854063034058,472,162,93,9.966115208291808e-05,1500.2,1450,1414.0,1500
10.598612070083618,473,162,154,0.0001321527686005022,1500.2,1450,1385,1500
10.621270895004272,474,162,94,9.908838684106223e-05,1500.2,1450,1412.0,1500
10.644542932510376,475,161,122,5.1313628899835795e-05,1500.0999999999999,1450,1385,1500
10.66756296157837,476,161,147,9.658103148541626e-05,1500.0999999999999,1450,1385,1500
10.690402030944824,477,162,154,0.0001278118609406953,1500.2,1450,1385,1500
10.713295936584473,478,161,150,0.00010149193139145438,1500.0999999999999,1450,1385,1500
10.736126899719238,479,161,148,9.71628449280995e-05,1500.0999999999999,1450,1385,1500
10.758965015411377,480,162,111,6.605892456070815e-05,1500.2,1450,1385,1500
10.781759023666382,481,162,160,0.00015634771732332708,1500.2,1450,1385,1500
10.804661989212036,482,160,150,0.00010210332856851133,1500.0,1450,1385,1500
10.827451944351196,483,164,148,9.5047999239616e-05,1500.4000000000001,1450,1385,1500
10.8502779006958,484,161,156,0.00012755102040816328,1500.0999999999999,1450,1385,1500
10.873146057128906,485,161,150,0.00010324179227751394,1500.0999999999999,1450,1385,1500
10.896100997924805,486,161,144,8.21827744904668e-05,1500.0999999999999,1450,1385,1500
10.918917894363403,487,160,142,7.77665448324131e-05,1500.0,1450,1385,1500
10.94156789779663,488,163,154,0.00011575413821044102,1500.3,1450,1385,1500
10.96456003189087,489,162,124,5.056890012642225e-05,1500.2,1450,1385,1500
10.987428903579712,490,162,153,0.0001122334455667789,1500.2,1450,1385,1500
11.010248899459839,491,158,124,5.314625850340136e-05,1499.8,1450,1385,1500
11.033148050308228,492,163,157,0.00013095861707700367,1500.3,1450,1385,1500
11.055994987487793,493,161,125,5.254860746190226e-05,1500.0999999999999,1450,1385,1500
11.07884407043457,494,161,155,0.00011883541295306001,1500.0999999999999,1450,1385,1500
11.101627111434937,495,165,152,0.00010505305179115453,1500.5,1450,1385,1500
11.124531984329224,496,162,160,0.000148720999405116,1500.2,1450,1385,1500
11.1473228931427,497,162,160,0.000148720999405116,1500.2,1450,1385,1500
11.170151948928833,498,162,154,0.0001150483202945237,1500.2,1450,1385,1500
11.193068981170654,499,163,155,0.0001226993865030675,1500.3,1450,1385,1500
11.216078996658325,500,162,150,9.98003992015968e-05,1500.2,1450,1385,1500
11.238898992538452,501,162,124,5.1775913844879365e-05,1500.2,1450,1385,1500
11.261765956878662,502,161,149,0.00010040160642570282,1500.0999999999999,1450,1385,1500
11.284615993499756,503,163,159,0.0001524390243902439,1500.3,1450,1385,1500
11.307451009750366,504,163,154,0.00012029351617947793,1500.3,1450,1385,1500
11.330220937728882,505,163,161,0.00017421602787456446,1500.3,1450,1385,1500
11.353156089782715,506,164,153,0.00012048192771084337,1500.4000000000001,1450,1385,1500
11.376001119613647,507,162,151,0.00011298158400180771,1500.2,1450,1385,1500
11.398830890655518,508,162,151,0.00011515430677107324,1500.2,1450,1385,1500
11.421628952026367,509,163,147,0.00010272213662044171,1500.3,1450,1385,1500
11.444540023803711,510,163,120,5.1775913844879365e-05,1500.3,1450,1385,1500
11.46733808517456,511,163,118,5.1313628899835795e-05,1500.3,1450,1385,1500
11.490202903747559,512,163,98,7.982120051085569e-05,1500.3,1450,1404.0,1500
11.513166904449463,513,163,117,5.1610239471511145e-05,1500.3,1450,1385,1500
11.536082029342651,514,164,150,0.00013017443374121324,1500.4000000000001,1450,1385,1500
11.558862924575806,515,163,151,0.00014009526478005044,1500.3,1450,1385,1500
11.581732988357544,516,163,86,0.00010704345964461572,1500.3,1450,1415,1500
11.604543924331665,517,163,89,9.323140033563304e-05,1500.3,1450,1415,1500
11.62741994857788,518,163,94,7.707129094412332e-05,1500.3,1450,1412.0,1500
11.650316953659058,519,148,86,0.00011852554225435582,1498.8,1450,1415,1500
11.67326307296753,520,162,89,8.549931600547196e-05,1500.2,1450,1415,1500
11.696294069290161,521,163,83,0.00010082677959265981,1500.3,1450,1415,1500
11.719177961349487,522,163,80,0.00011246063877642825,1500.3,1450,1415,1500
11.741992950439453,523,164,88,8.257638315441784e-05,1500.4000000000001,1450,1415,1500
11.76504111289978,524,163,110,5.145091582630171e-05,1500.3,1450,1385,1500
11.787859916687012,525,124,79,0.00022634676324128565,1496.4000000000001,1450,1415,1500
11.811125993728638,526,163,96,6.839945280437756e-05,1500.3,1450,1408.0,1500
11.833930969238281,527,164,151,0.0001618384851917786,1500.4000000000001,1450,1385,1500
11.856971025466919,528,163,95,7.707129094412332e-05,1500.3,1450,1410.0,1500
11.879924058914185,529,163,115,5.0704796673765336e-05,1500.3,1450,1385,1500
11.902851104736328,530,147,147,0.0001413627367825841,1498.7,1450,1385,1500
11.925709962844849,531,163,154,0.00013691128148959474,1500.3,1450,1385,1500
11.948548078536987,532,163,151,0.00011584800741427248,1500.3,1450,1385,1500
11.971338033676147,533,163,153,0.00011726078799249531,1500.3,1450,1385,1500
11.99425196647644,534,163,150,9.816432708353784e-05,1500.3,1450,1385,1500
12.017091989517212,535,163,156,0.00012444001991040318,1500.3,1450,1385,1500
12.0399489402771,536,163,154,0.00011655011655011655,1500.3,1450,1385,1500
12.062788009643555,537,161,128,5.6022408963585436e-05,1500.0999999999999,1450,1385,1500
12.085706949234009,538,166,153,0.00010957703265395574,1500.5999999999999,1450,1385,1500
12.108509063720703,539,163,129,5.611987204669173e-05,1500.3,1450,1385,1500
12.131344079971313,540,164,148,9.46969696969697e-05,1500.4000000000001,1450,1385,1500
12.15415096282959,541,165,161,0.00015730690577316344,1500.5,1450,1385,1500
12.176976919174194,542,163,155,0.00012048192771084337,1500.3,1450,1385,1500
12.199780941009521,543,162,151,0.00010272213662044171,1500.2,1450,1385,1500
12.222852945327759,544,163,154,0.00011366219595362583,1500.3,1450,1385,1500
12.246133089065552,545,163,157,0.00013095861707700367,1500.3,1450,1385,1500
12.269020080566406,546,165,152,0.00010442773600668337,1500.5,1450,1385,1500
12.291841983795166,547,163,128,5.411255411255411e-05,1500.3,1450,1385,1500
12.314829111099243,548,164,153,0.00010758472296933836,1500.4000000000001,1450,1385,1500
12.33783507347107,549,164,146,8.70170553428472e-05,1500.4000000000001,1450,1385,1500
12.360766887664795,550,165,161,0.00015827793605571383,1500.5,1450,1385,1500
12.383558988571167,551,164,145,8.141333550435561e-05,1500.4000000000001,1450,1385,1500
12.406410932540894,552,161,140,7.352941176470588e-05,1500.0999999999999,1450,1385,1500
12.429220914840698,553,164,159,0.00014697236919459142,1500.4000000000001,1450,1385,1500
12.452132940292358,554,163,156,0.00012597631645250694,1500.3,1450,1385,1500
12.475030899047852,555,162,127,5.421817393190197e-05,1500.2,1450,1385,1500
12.497910022735596,556,160,129,5.711022272986865e-05,1500.0,1450,1385,1500
12.520734071731567,557,160,128,5.656108597285068e-05,1500.0,1450,1385,1500
12.543653964996338,558,165,156,0.0001286008230452675,1500.5,1450,1385,1500
12.566427946090698,559,164,145,8.257638315441784e-05,1500.4000000000001,1450,1385,1500
12.589270114898682,560,164,152,0.00010442773600668337,1500.4000000000001,1450,1385,1500
12.61215090751648,561,163,155,0.00012048192771084337,1500.3,1450,1385,1500
12.635499000549316,562,163,156,0.0001255020080321285,1500.3,1450,1385,1500
12.658368110656738,563,165,153,0.00010893246187363834,1500.5,1450,1385,1500
12.681212902069092,564,161,129,5.711022272986865e-05,1500.0999999999999,1450,1385,1500
12.704027891159058,565,161,129,5.7670126874279124e-05,1500.0999999999999,1450,1385,1500
12.726891994476318,566,166,149,9.71628449280995e-05,1500.5999999999999,1450,1385,1500
12.74970006942749,567,167,151,0.00010272213662044171,1500.7,1450,1385,1500
12.772588014602661,568,164,146,8.549931600547196e-05,1500.4000000000001,1450,1385,1500
12.795454025268555,569,166,155,0.00012048192771084337,1500.5999999999999,1450,1385,1500
12.818303108215332,570,164,126,5.291005291005291e-05,1500.4000000000001,1450,1385,1500
12.841093063354492,571,161,128,5.6022408963585436e-05,1500.0999999999999,1450,1385,1500
12.864022970199585,572,166,159,0.00014267370523612499,1500.5999999999999,1450,1385,1500
12.886811017990112,573,165,158,0.0001385809312638581,1500.5,1450,1385,1500
12.909642934799194,574,165,161,0.00015730690577316344,1500.5,1450,1385,1500
12.9324209690094,575,163,102,8.281573498964803e-05,1500.3,1450,1396.0,1500
12.955461978912354,576,162,145,8.525149190110827e-05,1500.2,1450,1385,1500
12.978547096252441,577,163,95,8.827683615819209e-05,1500.3,1450,1410.0,1500
13.001537084579468,578,116,121,0.00011125945705384957,1495.5999999999999,1450,1385,1500
13.02437710762024,579,164,152,0.00013679890560875513,1500.4000000000001,1450,1385,1500
13.047235012054443,580,162,82,0.00010781671159029649,1500.2,1450,1415,1500
13.07004189491272,581,163,83,9.523809523809524e-05,1500.3,1450,1415,1500
13.093019008636475,582,120,84,0.0001841959845275373,1496.0,1450,1415,1500
13.115875959396362,583,163,90,7.014590347923682e-05,1500.3,1450,1415,1500
13.138731002807617,584,121,78,0.00020429009193054137,1496.0999999999999,1450,1415,1500
13.161554098129272,585,164,83,7.722007722007723e-05,1500.4000000000001,1450,1415,1500
13.184499979019165,586,164,84,7.233273056057866e-05,1500.4000000000001,1450,1415,1500
13.207319021224976,587,164,78,7.936507936507937e-05,1500.4000000000001,1450,1415,1500
13.230217933654785,588,164,73,8.577800651912849e-05,1500.4000000000001,1450,1415,1500
13.2531259059906,589,164,69,9.269558769002595e-05,1500.4000000000001,1450,1415,1500
13.276036977767944,590,165,71,8.528784648187633e-05,1500.5,1450,1415,1500
13.29883098602295,591,166,76,7.142857142857143e-05,1500.5999999999999,1450,1415,1500
13.321753978729248,592,130,70,0.00014277555682467162,1497.0,1450,1415,1500
13.344535112380981,593,166,82,6.109481915933529e-05,1500.5999999999999,1450,1415,1500
13.367373943328857,594,166,64,9.685230024213075e-05,1500.5999999999999,1450,1415,1500
13.390198945999146,595,166,76,6.924248719013987e-05,1500.5999999999999,1450,1415,1500
13.413120985031128,596,167,79,6.349206349206349e-05,1500.7,1450,1415,1500
13.435983896255493,597,167,67,8.403361344537815e-05,1500.7,1450,1415,1500
13.458913087844849,598,167,91,4.940711462450593e-05,1500.7,1450,1415,1500
13.481698036193848,599,167,73,7.142857142857143e-05,1500.7,1450,1415,1500
13.50460696220398,600,167,90,5.056890012642225e-05,1500.7,1450,1415,1500
13.527415037155151,601,167,78,6.384065372829418e-05,1500.7,1450,1415,1500
13.55029296875,602,167,91,4.940711462450593e-05,1500.7,1450,1415,1500
13.573137044906616,603,166,73,7.410701052319549e-05,1500.5999999999999,1450,1415,1500
13.596077919006348,604,167,77,6.60676532769556e-05,1500.7,1450,1415,1500
13.618881940841675,605,166,71,8.094544277157196e-05,1500.5999999999999,1450,1415,1500
13.641794919967651,606,167,96,4.856254856254856e-05,1500.7,1450,1408.0,1500
13.664979934692383,607,167,68,9.63020030816641e-05,1500.7,1450,1415,1500
13.687864065170288,608,167,99,4.815100154083205e-05,1500.7,1450,1402.0,1500
13.710756063461304,609,167,87,6.313131313131313e-05,1500.7,1450,1415,1500
13.733659982681274,610,167,73,0.00010204081632653062,1500.7,1450,1415,1500
13.756455898284912,611,123,78,0.00020525451559934318,1496.3,1450,1415,1500
13.779303073883057,612,167,79,9.852216748768474e-05,1500.7,1450,1415,1500
13.802122116088867,613,169,146,0.00011834319526627219,1500.9000000000001,1450,1385,1500
13.825125932693481,614,169,153,0.0001443209698369173,1500.9000000000001,1450,1385,1500
13.84791898727417,615,168,92,8.594757198109153e-05,1500.8,1450,1415,1500
13.870772123336792,616,169,157,0.00014343086632243257,1500.9000000000001,1450,1385,1500
13.893578052520752,617,167,97,8.215576733486691e-05,1500.7,1450,1406.0,1500
13.916518926620483,618,170,161,0.0001594896331738437,1501.0,1450,1385,1500
13.939292907714844,619,169,154,0.00011312217194570136,1500.9000000000001,1450,1385,1500
13.962198972702026,620,166,123,4.8579062424095214e-05,1500.5999999999999,1450,1385,1500
13.98508596420288,621,168,151,0.00010382059800664452,1500.8,1450,1385,1500
14.007993936538696,622,170,159,0.00015060240963855423,1501.0,1450,1385,1500
14.030771017074585,623,169,153,0.0001240079365079365,1500.9000000000001,1450,1385,1500
14.053688049316406,624,141,155,0.00023496240601503758,1498.0999999999999,1450,1385,1500
14.0764799118042,625,164,82,9.74089226573154e-05,1500.4000000000001,1450,1415,1500
14.099333047866821,626,120,90,0.00017683465959328028,1496.0,1450,1415,1500
14.122137069702148,627,164,94,6.175889328063241e-05,1500.4000000000001,1450,1412.0,1500
14.145560026168823,628,166,88,6.688068485821294e-05,1500.5999999999999,1450,1415,1500
14.168428897857666,629,167,86,6.806888571234089e-05,1500.7,1450,1415,1500
14.191282033920288,630,166,84,6.722689075630252e-05,1500.5999999999999,1450,1415,1500
14.214109897613525,631,168,80,6.806888571234089e-05,1500.8,1450,1415,1500
14.236984014511108,632,166,79,6.80040802448147e-05,1500.5999999999999,1450,1415,1500
14.259828090667725,633,168,69,8.048289738430584e-05,1500.8,1450,1415,1500
14.282783031463623,634,168,73,6.968641114982578e-05,1500.8,1450,1415,1500
14.305721044540405,635,169,91,4.884004884004884e-05,1500.9000000000001,1450,1415,1500
14.32857894897461,636,168,91,4.912073877591119e-05,1500.8,1450,1415,1500
14.351371049880981,637,168,77,6.532532009406845e-05,1500.8,1450,1415,1500
14.374290943145752,638,169,69,7.982120051085569e-05,1500.9000000000001,1450,1415,1500
14.397085905075073,639,169,75,6.924248719013987e-05,1500.9000000000001,1450,1415,1500
14.41993498802185,640,169,92,4.9544193420531116e-05,1500.9000000000001,1450,1415,1500
14.44279408454895,641,170,92,4.926108374384237e-05,1501.0,1450,1415,1500
14.465698957443237,642,168,80,6.385696040868455e-05,1500.8,1450,1415,1500
14.488521099090576,643,169,82,6.144393241167435e-05,1500.9000000000001,1450,1415,1500
14.51138710975647,644,169,91,5.0730519480519484e-05,1500.9000000000001,1450,1415,1500
14.534203052520752,645,168,72,7.766387076731904e-05,1500.8,1450,1415,1500
14.557061910629272,646,169,80,6.349206349206349e-05,1500.9000000000001,1450,1415,1500
14.5798659324646,647,169,80,6.313131313131313e-05,1500.9000000000001,1450,1415,1500
14.602766036987305,648,169,76,7.008690776562938e-05,1500.9000000000001,1450,1415,1500
14.625744104385376,649,169,73,7.562008469449486e-05,1500.9000000000001,1450,1415,1500
14.648597002029419,650,169,93,4.940711462450593e-05,1500.9000000000001,1450,1414.0,1500
14.671300888061523,651,169,75,7.142857142857143e-05,1500.9000000000001,1450,1415,1500
14.693949937820435,652,169,80,6.420545746388443e-05,1500.9000000000001,1450,1415,1500
14.716525077819824,653,169,93,4.898119122257053e-05,1500.9000000000001,1450,1414.0,1500
14.739203929901123,654,169,91,5.118755118755119e-05,1500.9000000000001,1450,1415,1500
14.761739015579224,655,170,69,8.432414200185513e-05,1501.0,1450,1415,1500
14.784322023391724,656,169,77,6.802721088435374e-05,1500.9000000000001,1450,1415,1500
14.806867122650146,657,169,78,6.530825496342738e-05,1500.9000000000001,1450,1415,1500
14.829473972320557,658,170,73,7.43383883437407e-05,1501.0,1450,1415,1500
14.852005958557129,659,170,93,4.787896198410418e-05,1501.0,1450,1414.0,1500
14.874798059463501,660,170,94,4.801690194948622e-05,1501.0,1450,1412.0,1500
14.89742112159729,661,169,69,8.528784648187633e-05,1500.9000000000001,1450,1415,1500
14.920000076293945,662,169,73,7.827788649706458e-05,1500.9000000000001,1450,1415,1500
14.942585945129395,663,169,80,6.64451827242525e-05,1500.9000000000001,1450,1415,1500
14.965238094329834,664,169,75,7.518796992481203e-05,1500.9000000000001,1450,1415,1500
14.98779010772705,665,169,81,6.684491978609626e-05,1500.9000000000001,1450,1415,1500
15.010411977767944,666,169,79,7.284382284382284e-05,1500.9000000000001,1450,1415,1500
15.0330069065094,667,169,78,7.827788649706458e-05,1500.9000000000001,1450,1415,1500
15.055673122406006,668,168,81,7.368110816386678e-05,1500.8,1450,1415,1500
15.078237056732178,669,168,83,7.378984651711924e-05,1500.8,1450,1415,1500
15.100827932357788,670,168,108,4.815100154083205e-05,1500.8,1450,1385,1500
15.123388051986694,671,167,72,0.00012913223140495868,1500.7,1450,1415,1500
15.145998001098633,672,206,77,0.0002127659574468085,1504.5999999999999,1450,1415,1500
15.168546915054321,673,166,96,6.968641114982578e-05,1500.5999999999999,1450,1408.0,1500
15.19123911857605,674,167,91,8.560178051703475e-05,1500.7,1450,1415,1500
15.213772058486938,675,170,153,0.00011230907457322552,1501.0,1450,1385,1500
15.236361980438232,676,167,96,8.69187309865276e-05,1500.7,1450,1408.0,1500
15.259320974349976,677,170,156,0.00012254901960784314,1501.0,1450,1385,1500
15.281928062438965,678,167,142,7.562008469449486e-05,1500.7,1450,1385,1500
15.30447506904602,679,166,103,7.802746566791511e-05,1500.5999999999999,1450,1394.0,1500
15.32716703414917,680,170,151,0.00010024057738572574,1501.0,1450,1385,1500
15.349690914154053,681,172,158,0.0001377410468319559,1501.2,1450,1385,1500
15.372584104537964,682,167,148,8.841732979664014e-05,1500.7,1450,1385,1500
15.395431995391846,683,167,151,0.00010024057738572574,1500.7,1450,1385,1500
15.418282985687256,684,166,127,5.2999788000847996e-05,1500.5999999999999,1450,1385,1500
15.441082954406738,685,168,153,0.00010829542993285683,1500.8,1450,1385,1500
15.463983058929443,686,168,150,9.47597839476926e-05,1500.8,1450,1385,1500
15.486778974533081,687,168,148,9.03179190751445e-05,1500.8,1450,1385,1500
15.509644985198975,688,165,132,5.791729410401946e-05,1500.5,1450,1385,1500
15.532448053359985,689,167,146,8.234519104084322e-05,1500.7,1450,1385,1500
15.55539608001709,690,171,157,0.00012515644555694618,1501.0999999999999,1450,1385,1500
15.578217029571533,691,171,156,0.00012147716229348882,1501.0999999999999,1450,1385,1500
15.601109981536865,692,171,134,6.356470887363335e-05,1501.0999999999999,1450,1385,1500
15.624150037765503,693,166,131,5.643022402798939e-05,1500.5999999999999,1450,1385,1500
15.647027015686035,694,168,152,0.00010382059800664452,1500.8,1450,1385,1500
15.669826984405518,695,166,132,5.791729410401946e-05,1500.5999999999999,1450,1385,1500
15.692739963531494,696,170,157,0.0001271294177472667,1501.0,1450,1385,1500
15.71558403968811,697,166,133,5.9765718383934975e-05,1500.5999999999999,1450,1385,1500
15.73845911026001,698,169,153,0.00010642826734780758,1500.9000000000001,1450,1385,1500
15.761260032653809,699,170,153,0.00010642826734780758,1501.0,1450,1385,1500
15.784148931503296,700,174,160,0.00014692918013517486,1501.4000000000001,1450,1385,1500
15.806936979293823,701,172,153,0.00010570824524312896,1501.2,1450,1385,1500
15.829763889312744,702,172,161,0.0001575795776867318,1501.2,1450,1385,1500
15.852606058120728,703,174,161,0.00015446400988569664,1501.4000000000001,1450,1385,1500
15.875495910644531,704,172,153,0.00011033873993158998,1501.2,1450,1385,1500
15.898305892944336,705,169,119,4.846370068818455e-05,1500.9000000000001,1450,1385,1500
15.921165943145752,706,168,78,0.00011015642211940956,1500.8,1450,1415,1500
15.943978071212769,707,214,78,0.00017834849295523454,1505.4000000000001,1450,1415,1500
15.966838121414185,708,170,79,8.187996397281586e-05,1501.0,1450,1415,1500
15.9896399974823,709,171,77,8.187996397281586e-05,1501.0999999999999,1450,1415,1500
16.01261806488037,710,172,82,6.569438969911969e-05,1501.2,1450,1415,1500
16.035533905029297,711,173,82,6.277069863787583e-05,1501.3,1450,1415,1500
16.058433055877686,712,173,77,6.806888571234089e-05,1501.3,1450,1415,1500
16.081253051757812,713,173,76,6.725854183481302e-05,1501.3,1450,1415,1500
16.10419988632202,714,173,71,7.476076555023923e-05,1501.3,1450,1415,1500
16.12701106071472,715,173,75,6.722689075630252e-05,1501.3,1450,1415,1500
16.149887084960938,716,174,79,5.852059925093633e-05,1501.4000000000001,1450,1415,1500
16.172770977020264,717,173,72,6.968641114982578e-05,1501.3,1450,1415,1500
16.195730924606323,718,173,70,7.421150278293135e-05,1501.3,1450,1415,1500
16.218575954437256,719,173,69,7.284382284382284e-05,1501.3,1450,1415,1500
16.24144196510315,720,173,69,7.378984651711924e-05,1501.3,1450,1415,1500
16.264291048049927,721,174,68,7.392075694855116e-05,1501.4000000000001,1450,1415,1500
16.28715491294861,722,174,87,4.928050463236744e-05,1501.4000000000001,1450,1415,1500
16.30997610092163,723,173,71,7.054673721340387e-05,1501.3,1450,1415,1500
16.332906007766724,724,173,65,8.163265306122449e-05,1501.3,1450,1415,1500
16.35583209991455,725,173,73,6.60676532769556e-05,1501.3,1450,1415,1500
16.378695964813232,726,173,80,5.772005772005772e-05,1501.3,1450,1415,1500
16.401510000228882,727,173,75,6.384065372829418e-05,1501.3,1450,1415,1500
16.424487113952637,728,173,66,7.936507936507937e-05,1501.3,1450,1415,1500
16.447577953338623,729,173,71,6.929046563192905e-05,1501.3,1450,1415,1500
16.470484972000122,730,173,77,6.106497313141182e-05,1501.3,1450,1415,1500
16.49334692955017,731,173,87,5.016051364365971e-05,1501.3,1450,1415,1500
16.51623511314392,732,174,90,4.8579062424095214e-05,1501.4000000000001,1450,1415,1500
16.539055109024048,733,174,93,4.694615276278109e-05,1501.4000000000001,1450,1414.0,1500
16.562005043029785,734,172,76,7.378984651711924e-05,1501.2,1450,1415,1500
16.585015058517456,735,172,76,7.957348611442667e-05,1501.2,1450,1415,1500
16.60787606239319,736,173,103,4.6554934823091246e-05,1501.3,1450,1394.0,1500
16.630866050720215,737,171,76,9.164222873900293e-05,1501.0999999999999,1450,1415,1500
16.654026985168457,738,171,109,4.530627038782167e-05,1501.0999999999999,1450,1385,1500
16.676875114440918,739,175,149,0.00011764705882352942,1501.5,1450,1385,1500
16.699721097946167,740,176,150,0.00010758472296933836,1501.5999999999999,1450,1385,1500
16.722589015960693,741,176,159,0.00014518002322880372,1501.5999999999999,1450,1385,1500
16.74547290802002,742,169,126,5.1440329218106995e-05,1500.9000000000001,1450,1385,1500
16.768299102783203,743,173,153,0.00010893246187363834,1501.3,1450,1385,1500
16.79112696647644,744,169,129,5.4238759017193686e-05,1500.9000000000001,1450,1385,1500
16.813925981521606,745,171,148,8.928571428571429e-05,1501.0999999999999,1450,1385,1500
16.836781978607178,746,174,157,0.0001258970162407151,1501.4000000000001,1450,1385,1500
16.859548091888428,747,168,131,5.706785367802317e-05,1500.8,1450,1385,1500
16.882441997528076,748,169,132,5.759373380176237e-05,1500.9000000000001,1450,1385,1500
16.905447959899902,749,172,154,0.00010969723562966213,1501.2,1450,1385,1500
16.928316116333008,750,173,156,0.00012183235867446393,1501.3,1450,1385,1500
16.95120406150818,751,175,165,0.0001966955153422502,1501.5,1450,1385,1500
16.974265098571777,752,171,149,9.070294784580499e-05,1501.0999999999999,1450,1385,1500
16.996926069259644,753,169,132,5.819366852886406e-05,1500.9000000000001,1450,1385,1500
17.019990921020508,754,168,133,5.913660555884092e-05,1500.8,1450,1385,1500
17.04303002357483,755,168,132,5.824451045488963e-05,1500.8,1450,1385,1500
17.065943956375122,756,175,164,0.00018477457501847746,1501.5,1450,1385,1500
17.08874011039734,757,169,131,5.643022402798939e-05,1500.9000000000001,1450,1385,1500
17.111610889434814,758,169,130,5.531279384921732e-05,1500.9000000000001,1450,1385,1500
17.134412050247192,759,171,148,8.928571428571429e-05,1501.0999999999999,1450,1385,1500
