time,x,y,size_inv,roll,pitch,thrust,yaw
0.0006430149078369141,266,54,0.005681818181818182,1520,1502.0,1350,1500.0
0.022802114486694336,267,54,0.0053475935828877,1520,1502.0,1350,1500.0
0.04453897476196289,266,54,0.005681818181818182,1520,1502.0,1350,1500.0
0.06613302230834961,266,54,0.005681818181818182,1520,1502.0,1350,1500.0
0.08792614936828613,267,54,0.0053475935828877,1520,1502.0,1350,1500.0
0.10967111587524414,266,54,0.005681818181818182,1520,1502.0,1350,1500.0
0.13143205642700195,266,54,0.005681818181818182,1520,1502.0,1350,1500.0
0.15317702293395996,266,54,0.005681818181818182,1520,1502.0,1350,1500.0
0.17492413520812988,267,54,0.0053475935828877,1520,1502.0,1350,1500.0
0.19667410850524902,266,54,0.005681818181818182,1520,1502.0,1350,1500.0
0.21857213973999023,267,54,0.006060606060606061,1520,1502.0,1350,1500.0
0.24069499969482422,266,54,0.005681818181818182,1520,1502.0,1350,1500.0
0.26282310485839844,267,54,0.005681818181818182,1520,1502.0,1350,1500.0
0.28490614891052246,267,54,0.006060606060606061,1520,1502.0,1350,1500.0
0.3069801330566406,266,55,0.005681818181818182,1520,1502.0,1350,1500.0
0.3290560245513916,266,54,0.006666666666666667,1520,1502.0,1350,1500.0
0.35112619400024414,265,53,0.006666666666666667,1520,1502.0,1350,1500.0
0.37320804595947266,264,52,0.00625,1520,1502.0,1350,1500.0
0.3953070640563965,264,51,0.007407407407407408,1520,1502.0,1350,1500.0
0.41739606857299805,263,49,0.00625,1517.95,1502.0,1350,1500.0
0.4395420551300049,263,48,0.007407407407407408,1515.51,1502.0,1350,1500.0
0.461683988571167,261,48,0.007407407407407408,1511.46,1502.0,1350,1500.0
0.4838101863861084,260,48,0.00625,1509.99,1502.0,1350,1500.0
0.5059390068054199,260,49,0.00625,1508.72,1502.0,1350,1500.0
0.5280611515045166,261,50,0.006666666666666667,1510.0699999999999,1502.0,1350,1500.0
0.5501861572265625,261,51,0.006666666666666667,1511.22,1502.0,1350,1500.0
0.572411060333252,261,52,0.007407407407407408,1515.98,1502.0,1350,1500.0
0.5945460796356201,261,52,0.00625,1520,1502.0,1350,1500.0
0.6166131496429443,261,53,0.006666666666666667,1520,1502.0,1350,1500.0
0.6386911869049072,261,53,0.006666666666666667,1520,1502.0,1350,1500.0
0.6608161926269531,261,54,0.00625,1520,1502.0,1349.5999999999999,1500.0
0.6829850673675537,260,54,0.00625,1520,1502.0,1350,1500.0
0.7050831317901611,260,55,0.00625,1520,1502.0,1350,1500.0
0.7271749973297119,260,56,0.006666666666666667,1520,1502.0,1350,1500.0
0.7492740154266357,259,58,0.006666666666666667,1520,1502.0,1346.48,1500.0
0.7714149951934814,259,60,0.006060606060606061,1520,1502.0,1339.52,1500.0
0.7935521602630615,259,61,0.005681818181818182,1520,1502.0,1330.96,1500.0
0.8156921863555908,258,62,0.006666666666666667,1519.98,1502.0,1323.76,1500.0
0.8378660678863525,258,63,0.006666666666666667,1518.75,1502.0,1316.5599999999999,1500.0
0.8600389957427979,258,64,0.0058823529411764705,1519.9200000000001,1502.0,1313.52,1500.0
0.8822200298309326,258,65,0.0053475935828877,1520,1502.0,1313.28,1500.0
0.9043490886688232,256,66,0.005681818181818182,1518.25,1502.0,1314.4000000000001,1500.0
0.9265210628509521,257,67,0.0053475935828877,1519.6199999999999,1502.0,1315.52,1500.0
0.9487040042877197,257,67,0.0058823529411764705,1520,1502.0,1319.28,1500.0
0.9708950519561768,255,68,0.006493506493506494,1517.95,1502.0,1320.48,1500.0
0.9931161403656006,255,69,0.005050505050505051,1515.51,1502.0,1320.3199999999999,1500.0
1.0152931213378906,254,70,0.005208333333333333,1516.46,1502.0,1320.1600000000001,1500.0
1.0374701023101807,254,73,0.0053475935828877,1514.02,1502.0,1314.72,1500.0
1.0596611499786377,252,75,0.005050505050505051,1508.76,1502.0,1306.24,1500.0
1.0818431377410889,252,76,0.0053475935828877,1508.7,1502.0,1298.96,1500.0
1.1040019989013672,251,78,0.005050505050505051,1507.23,1502.0,1289.04,1500.0
1.1261780261993408,250,79,0.005050505050505051,1504.5699999999999,1502.0,1280.3199999999999,1500.0
1.1483650207519531,249,80,0.004629629629629629,1501.8900000000001,1502.0,1277.2,1500.0
1.170530080795288,249,81,0.004901960784313725,1504.21,1502.0,1278.24,1500.0
1.1927661895751953,248,83,0.005050505050505051,1502.74,1502.0,1276.6400000000001,1500.0
1.2151460647583008,247,84,0.004629629629629629,1502.46,1502.0,1279.04,1500.0
1.237342119216919,246,85,0.004629629629629629,1502.1800000000001,1502.0,1281.4400000000001,1500.0
1.2595350742340088,245,86,0.0043859649122807015,1503.0899999999999,1502.0,1281.1199999999999,1500.0
1.2817189693450928,244,87,0.005050505050505051,1500.4100000000001,1502.0,1279.4400000000001,1500.0
1.3038921356201172,243,88,0.005050505050505051,1498.9200000000001,1502.0,1280.5599999999999,1500.0
1.3260741233825684,241,90,0.004784688995215311,1496.02,1502.0,1277.6800000000001,1500.0
1.3482561111450195,240,91,0.004784688995215311,1493.3199999999999,1502.0,1276.0,1500.0
1.3704400062561035,238,91,0.004629629629629629,1489.21,1502.0,1276.96,1500.0
1.3927011489868164,237,92,0.004629629629629629,1486.49,1502.0,1276.72,1500.0
1.4148821830749512,236,93,0.0043859649122807015,1483.77,1502.0,1275.1199999999999,1500.0
1.4370601177215576,235,94,0.0043859649122807015,1483.45,1502.0,1276.3199999999999,1500.0
1.4592201709747314,233,95,0.0043859649122807015,1481.72,1502.0,1277.52,1500.0
1.4813971519470215,232,96,0.0043859649122807015,1482.5899999999999,1502.0,1275.9200000000001,1500.0
1.5035669803619385,231,97,0.0043859649122807015,1483.46,1502.0,1274.3199999999999,1500.0
1.525743007659912,229,98,0.004166666666666667,1482.9200000000001,1502.0,1272.72,1500.0
1.5479130744934082,229,98,0.004166666666666667,1482.8,1502.0,1272.4000000000001,1500.0
1.5700831413269043,227,99,0.0043859649122807015,1483.47,1502.0,1270.8800000000001,1500.0
1.5923471450805664,225,100,0.0043859649122807015,1481.74,1502.0,1270.72,1500.0
1.6145501136779785,222,101,0.004166666666666667,1480,1502.0,1270.5599999999999,1500.0
1.6367111206054688,221,101,0.0043859649122807015,1480,1502.0,1273.04,1500.0
1.6588551998138428,219,101,0.004166666666666667,1480,1502.0,1274.1600000000001,1500.0
1.6810309886932373,219,101,0.004166666666666667,1480,1502.0,1276.72,1500.0
1.7032160758972168,216,101,0.004166666666666667,1480,1502.0,1280.72,1500.0
1.7253541946411133,215,101,0.0043859649122807015,1480,1502.0,1286.1600000000001,1500.0
1.7474961280822754,213,101,0.0043859649122807015,1480,1502.0,1290.24,1500.0
1.7696330547332764,212,100,0.0043859649122807015,1480,1502.0,1296.96,1500.0
1.7917730808258057,211,101,0.003663003663003663,1480,1502.0,1298.48,1500.0
1.813904047012329,211,101,0.003663003663003663,1480,1502.0,1299.8399999999999,1500.0
1.8360261917114258,208,100,0.003663003663003663,1480,1502.0,1302.48,1500.0
1.8581500053405762,206,99,0.0043859649122807015,1480,1502.0,1306.5599999999999,1500.0
1.880284070968628,205,99,0.003663003663003663,1480,1502.0,1306.6400000000001,1500.0
1.9024901390075684,202,98,0.004048582995951417,1480,1502.0,1312.1600000000001,1500.0
1.924617052078247,202,98,0.004048582995951417,1480,1502.0,1316.48,1500.0
1.946721076965332,199,97,0.0034965034965034965,1480,1502.0,1320.6400000000001,1500.0
1.9688329696655273,197,97,0.0038461538461538464,1480,1502.0,1320.8,1500.0
1.990997076034546,197,96,0.003663003663003663,1480,1502.0,1324.96,1500.0
2.0131561756134033,195,96,0.0034965034965034965,1480,1502.0,1323.76,1500.0
2.035304069519043,195,96,0.0034965034965034965,1480,1502.0,1322.5599999999999,1500.0
2.0574111938476562,193,94,0.003663003663003663,1480,1502.0,1325.2,1500.0
2.079210042953491,191,93,0.003246753246753247,1480,1502.0,1329.4400000000001,1500.0
2.1010541915893555,190,93,0.003663003663003663,1480,1502.0,1329.6800000000001,1500.0
2.122905969619751,189,92,0.003663003663003663,1480,1502.0,1333.9200000000001,1500.0
2.1447110176086426,189,92,0.003663003663003663,1480,1502.0,1336.96,1500.0
2.1664960384368896,185,90,0.0037593984962406013,1480,1502.0,1341.04,1500.0
2.1883180141448975,184,90,0.0034965034965034965,1480,1502.0,1339.9200000000001,1500.0
2.210132122039795,181,88,0.004048582995951417,1480,1502.0,1345.4400000000001,1500.0
2.2319390773773193,181,88,0.0034965034965034965,1480,1502.0,1345.76,1500.0
2.2537481784820557,181,88,0.0034965034965034965,1480,1502.0,1346.0799999999999,1500.0
2.2757511138916016,178,86,0.0034965034965034965,1480,1502.0,1348.8,1500.0
2.297567129135132,177,84,0.003246753246753247,1480,1502.0,1350,1500.0
2.319324016571045,176,83,0.003246753246753247,1480,1502.0,1350,1500.0
2.3411481380462646,174,82,0.0035714285714285713,1480,1502.0,1350,1500.0
2.3630151748657227,174,82,0.0035714285714285713,1480,1502.0,1350,1500.0
2.3847739696502686,172,81,0.003246753246753247,1480,1502.0,1350,1500.0
2.4065160751342773,171,81,0.0034965034965034965,1480,1502.0,1350,1500.0
2.428279161453247,170,80,0.0034965034965034965,1480,1502.0,1350,1500.0
2.4500579833984375,169,80,0.0034965034965034965,1480,1502.0,1350,1500.0
2.471816062927246,168,79,0.003105590062111801,1480,1502.0,1350,1500.0
2.493575096130371,168,79,0.003105590062111801,1480,1502.0,1350,1500.0
2.515336036682129,166,78,0.0034965034965034965,1480,1502.0,1350,1500.0
2.5370969772338867,165,77,0.0034965034965034965,1480,1502.0,1350,1500.0
2.5588431358337402,164,76,0.0033444816053511705,1480,1502.0,1350,1500.0
2.5806541442871094,162,74,0.003105590062111801,1480,1502.0,1350,1500.0
2.602490186691284,161,73,0.003105590062111801,1480,1502.0,1350,1500.0
2.624260187149048,161,73,0.003105590062111801,1480,1502.0,1350,1500.0
2.6465020179748535,159,73,0.0034965034965034965,1480,1502.0,1350,1500.0
2.6697030067443848,158,72,0.0034965034965034965,1480,1502.0,1350,1500.0
2.6929171085357666,157,72,0.0034965034965034965,1480,1502.0,1350,1500.0
2.716320037841797,156,71,0.003246753246753247,1480,1502.0,1350,1500.0
2.7397301197052,155,71,0.0034965034965034965,1480,1502.0,1350,1500.0
2.7630181312561035,155,71,0.0033444816053511705,1480,1502.0,1350,1500.0
2.786252021789551,154,70,0.003105590062111801,1480,1502.0,1350,1500.0
2.8094351291656494,152,69,0.0034965034965034965,1480,1502.0,1350,1500.0
2.832627058029175,151,68,0.003246753246753247,1480,1502.0,1350,1500.0
2.8558480739593506,151,67,0.003105590062111801,1480,1502.0,1350,1500.0
2.8790440559387207,150,67,0.0033444816053511705,1480,1502.0,1350,1500.0
2.9022340774536133,149,66,0.003246753246753247,1480,1502.0,1350,1500.0
2.9254300594329834,148,66,0.003246753246753247,1480,1502.0,1350,1500.0
2.948632001876831,148,67,0.0034965034965034965,1480,1502.0,1350,1500.0
2.9718379974365234,146,67,0.0034965034965034965,1480,1502.0,1350,1500.0
2.995047092437744,146,67,0.0034965034965034965,1480,1502.0,1350,1500.0
3.0182271003723145,146,67,0.0033444816053511705,1480,1502.0,1350,1500.0
3.0415830612182617,145,67,0.0033444816053511705,1480,1502.0,1350,1500.0
3.0649771690368652,145,67,0.0033444816053511705,1480,1502.0,1350,1500.0
3.0881600379943848,144,66,0.003246753246753247,1480,1502.0,1350,1500.0
3.1114001274108887,144,67,0.0033444816053511705,1480,1502.0,1350,1500.0
3.1346521377563477,142,67,0.0034965034965034965,1480,1502.0,1350,1500.0
3.1578421592712402,142,67,0.0034965034965034965,1480,1502.0,1350,1500.0
3.1811180114746094,142,67,0.0034965034965034965,1480,1502.0,1350,1500.0
3.204432964324951,142,67,0.0033444816053511705,1480,1502.0,1350,1500.0
3.227612018585205,142,67,0.0033444816053511705,1480,1502.0,1350,1500.0
3.250887155532837,142,67,0.003105590062111801,1482.7,1502.0,1350,1500.0
3.2742531299591064,141,67,0.003246753246753247,1484.8599999999999,1502.0,1350,1500.0
3.2975480556488037,141,67,0.003105590062111801,1487.22,1502.0,1350,1500.0
3.320885181427002,141,68,0.0033444816053511705,1488.3900000000001,1502.0,1350,1500.0
3.344276189804077,141,68,0.0033444816053511705,1489.5599999999999,1502.0,1348.72,1500.0
3.3676609992980957,141,68,0.003105590062111801,1488.3499999999999,1502.0,1347.28,1500.0
3.3911170959472656,140,68,0.003105590062111801,1488.1300000000001,1502.0,1345.8399999999999,1500.0
3.414597988128662,140,68,0.003246753246753247,1488.1099999999999,1502.0,1344.4000000000001,1500.0
3.437990188598633,140,69,0.003105590062111801,1488.0899999999999,1502.0,1343.1199999999999,1500.0
3.4614031314849854,140,69,0.003105590062111801,1488.0699999999999,1502.0,1343.04,1500.0
3.4848461151123047,140,69,0.003105590062111801,1488.05,1502.0,1342.96,1500.0
3.508244037628174,140,69,0.003105590062111801,1489.24,1502.0,1342.8800000000001,1500.0
3.5320611000061035,140,69,0.003105590062111801,1490.4300000000001,1502.0,1342.8,1500.0
3.5556130409240723,140,70,0.002898550724637681,1491.6199999999999,1502.0,1341.52,1500.0
3.5790300369262695,140,69,0.003105590062111801,1492.8099999999999,1502.0,1344.0799999999999,1500.0
3.6024460792541504,140,70,0.003105590062111801,1494.0,1502.0,1342.8,1500.0
3.625840187072754,140,70,0.003105590062111801,1494.0,1502.0,1342.72,1500.0
3.649229049682617,140,71,0.002898550724637681,1494.0,1502.0,1340.0,1500.0
3.6726160049438477,140,72,0.003105590062111801,1494.0,1502.0,1337.28,1500.0
3.696010112762451,140,73,0.0030303030303030303,1494.0,1502.0,1330.3199999999999,1500.0
3.719407081604004,140,73,0.0030303030303030303,1494.0,1502.0,1327.3599999999999,1500.0
3.7427730560302734,140,74,0.003105590062111801,1494.0,1502.0,1321.76,1500.0
3.7661399841308594,140,75,0.003105590062111801,1494.0,1502.0,1317.52,1500.0
3.789504051208496,140,75,0.003105590062111801,1494.0,1502.0,1315.9200000000001,1500.0
3.812880039215088,140,76,0.002898550724637681,1494.0,1502.0,1315.8399999999999,1500.0
3.836264133453369,140,77,0.003205128205128205,1494.0,1502.0,1312.96,1500.0
3.8596420288085938,140,77,0.002976190476190476,1494.0,1502.0,1314.0799999999999,1500.0
3.883026123046875,140,77,0.002976190476190476,1494.0,1502.0,1316.6400000000001,1500.0
3.9063880443573,141,78,0.003105590062111801,1495.4100000000001,1502.0,1315.2,1500.0
3.9297540187835693,141,78,0.003105590062111801,1496.6199999999999,1502.0,1316.4000000000001,1500.0
3.9532270431518555,141,78,0.003105590062111801,1497.8299999999999,1502.0,1320.4000000000001,1500.0
3.97678804397583,141,78,0.002976190476190476,1499.04,1502.0,1323.04,1500.0
4.000194072723389,141,79,0.002976190476190476,1500.25,1502.0,1321.6800000000001,1500.0
4.023808002471924,142,79,0.003105590062111801,1500.47,1502.0,1324.3199999999999,1500.0
4.047197103500366,142,80,0.003105590062111801,1500.49,1502.0,1322.96,1500.0
4.070551156997681,142,81,0.002777777777777778,1500.51,1502.0,1318.8,1500.0
4.09405517578125,142,81,0.002976190476190476,1500.53,1502.0,1315.8399999999999,1500.0
4.117439031600952,142,81,0.002976190476190476,1500.55,1502.0,1315.6800000000001,1500.0
4.140856027603149,143,82,0.002777777777777778,1500.77,1502.0,1311.52,1500.0
4.164335012435913,143,82,0.002777777777777778,1500.79,1502.0,1311.3599999999999,1500.0
4.18769907951355,144,81,0.002976190476190476,1502.22,1502.0,1316.6400000000001,1500.0
4.211116075515747,145,81,0.003105590062111801,1504.8599999999999,1502.0,1320.72,1500.0
4.234549045562744,145,81,0.003105590062111801,1507.3,1502.0,1323.4400000000001,1500.0
4.2579240798950195,145,81,0.002976190476190476,1508.53,1502.0,1328.96,1500.0
4.2813520431518555,146,81,0.003105590062111801,1511.1700000000001,1502.0,1333.1199999999999,1500.0
4.3048200607299805,146,81,0.003105590062111801,1511.21,1502.0,1333.1199999999999,1500.0
4.328219175338745,146,82,0.002976190476190476,1508.8499999999999,1502.0,1330.48,1500.0
4.351620197296143,146,82,0.002976190476190476,1506.49,1502.0,1329.04,1500.0
4.374972105026245,147,83,0.002898550724637681,1506.73,1502.0,1323.5999999999999,1500.0
4.398336172103882,147,83,0.002777777777777778,1504.3699999999999,1502.0,1319.3599999999999,1500.0
4.421718120574951,147,83,0.002777777777777778,1503.2,1502.0,1316.48,1500.0
4.445080041885376,147,83,0.002976190476190476,1503.22,1502.0,1316.4000000000001,1500.0
4.468477964401245,147,83,0.002976190476190476,1503.24,1502.0,1316.3199999999999,1500.0
4.491827964782715,148,83,0.003105590062111801,1502.27,1502.0,1319.04,1500.0
4.51521897315979,148,83,0.002777777777777778,1502.29,1502.0,1321.76,1500.0
4.53858208656311,149,83,0.002898550724637681,1503.72,1502.0,1324.48,1500.0
4.561954975128174,149,83,0.002898550724637681,1504.95,1502.0,1325.8399999999999,1500.0
4.5853111743927,150,83,0.0026666666666666666,1507.5899999999999,1502.0,1327.2,1500.0
4.608672142028809,150,83,0.0026666666666666666,1508.8199999999999,1502.0,1327.2,1500.0
4.632095098495483,150,83,0.002777777777777778,1510.05,1502.0,1327.2,1500.0
4.65578818321228,150,83,0.002777777777777778,1508.8800000000001,1502.0,1327.2,1500.0
4.679162979125977,150,83,0.002777777777777778,1507.71,1502.0,1327.2,1500.0
4.70254111289978,151,83,0.002564102564102564,1505.55,1502.0,1327.2,1500.0
4.725916147232056,152,83,0.0026666666666666666,1505.79,1502.0,1327.2,1500.0
4.749284029006958,152,83,0.0026666666666666666,1505.8299999999999,1502.0,1327.2,1500.0
4.772672176361084,152,83,0.0025,1507.0599999999999,1502.0,1327.2,1500.0
4.7959980964660645,152,83,0.002564102564102564,1508.29,1502.0,1327.2,1500.0
4.81937313079834,152,83,0.002564102564102564,1508.3099999999999,1502.0,1327.2,1500.0
4.842756032943726,153,82,0.002564102564102564,1507.3399999999999,1502.0,1329.8399999999999,1500.0
4.866120100021362,153,81,0.002564102564102564,1506.1700000000001,1502.0,1333.9200000000001,1500.0
4.8894970417022705,153,81,0.002564102564102564,1505.0,1502.0,1336.8,1500.0
4.912876129150391,153,81,0.002564102564102564,1503.8299999999999,1502.0,1339.6800000000001,1500.0
4.936241149902344,153,81,0.002564102564102564,1503.8499999999999,1502.0,1342.5599999999999,1500.0
4.959616184234619,153,81,0.002564102564102564,1502.6600000000001,1502.0,1342.6400000000001,1500.0
4.982985019683838,154,81,0.0024691358024691358,1502.8800000000001,1502.0,1339.9200000000001,1500.0
5.006319999694824,154,81,0.002564102564102564,1502.9000000000001,1502.0,1337.2,1500.0
5.029613971710205,154,81,0.0024691358024691358,1502.9200000000001,1502.0,1334.48,1500.0
5.052958965301514,154,80,0.002403846153846154,1502.9400000000001,1502.0,1334.4000000000001,1500.0
5.076596975326538,154,80,0.002403846153846154,1504.1500000000001,1502.0,1334.48,1500.0
5.10027003288269,154,80,0.002403846153846154,1502.96,1502.0,1335.9200000000001,1500.0
5.1237711906433105,154,80,0.002564102564102564,1501.77,1502.0,1337.3599999999999,1500.0
5.147196054458618,154,80,0.002564102564102564,1500.5799999999999,1502.0,1338.8,1500.0
5.170639991760254,154,80,0.002403846153846154,1499.3900000000001,1502.0,1337.4400000000001,1500.0
5.19408917427063,154,80,0.002403846153846154,1498.2,1502.0,1336.0799999999999,1500.0
5.217478036880493,154,81,0.002232142857142857,1498.2,1502.0,1332.0799999999999,1500.0
5.240908145904541,154,81,0.002232142857142857,1498.2,1502.0,1329.28,1500.0
5.264374017715454,155,81,0.0023148148148148147,1499.6099999999999,1502.0,1326.48,1500.0
5.287741184234619,154,81,0.002232142857142857,1499.4100000000001,1502.0,1325.04,1500.0
5.311172008514404,155,81,0.0023148148148148147,1500.8199999999999,1502.0,1323.5999999999999,1500.0
5.33463716506958,154,81,0.002232142857142857,1500.6199999999999,1502.0,1324.96,1500.0
5.358000993728638,154,81,0.0021008403361344537,1500.6199999999999,1502.0,1326.3199999999999,1500.0
5.381455183029175,155,80,0.0023148148148148147,1499.6300000000001,1502.0,1330.3199999999999,1500.0
5.404919147491455,155,80,0.0023148148148148147,1500.8399999999999,1502.0,1333.1199999999999,1500.0
5.428289175033569,154,80,0.0021008403361344537,1498.24,1502.0,1335.9200000000001,1500.0
5.4516520500183105,155,79,0.0023148148148148147,1499.6500000000001,1502.0,1340.0,1500.0
5.475039005279541,155,79,0.0023148148148148147,1500.8599999999999,1502.0,1342.8800000000001,1500.0
5.498417139053345,154,79,0.002178649237472767,1499.45,1502.0,1342.96,1500.0
5.52180814743042,155,79,0.002028397565922921,1498.46,1502.0,1343.04,1500.0
5.545178174972534,155,79,0.002028397565922921,1500.8599999999999,1502.0,1343.1199999999999,1500.0
5.568551063537598,154,79,0.002178649237472767,1498.26,1502.0,1340.4000000000001,1500.0
5.59191107749939,153,79,0.0021008403361344537,1494.45,1502.0,1337.6800000000001,1500.0
5.615271091461182,153,79,0.0021008403361344537,1494.4300000000001,1502.0,1336.3199999999999,1500.0
5.638660192489624,154,79,0.002028397565922921,1493.4200000000001,1502.0,1334.96,1500.0
5.662055015563965,154,79,0.002028397565922921,1491.02,1502.0,1333.5999999999999,1500.0
5.685455083847046,153,79,0.00196078431372549,1490.8,1502.0,1333.5999999999999,1500.0
5.708865165710449,153,78,0.00196078431372549,1493.1800000000001,1502.0,1336.24,1500.0
5.7325451374053955,153,77,0.001851851851851852,1494.3699999999999,1502.0,1340.3199999999999,1500.0
5.755972146987915,153,77,0.001851851851851852,1494.3499999999999,1502.0,1343.2,1500.0
5.779361009597778,153,77,0.001851851851851852,1494.3299999999999,1502.0,1346.0799999999999,1500.0
5.802746057510376,153,77,0.002028397565922921,1495.52,1502.0,1348.96,1500.0
5.826121091842651,152,76,0.001851851851851852,1494.1099999999999,1502.0,1350,1500.0
5.849429130554199,152,76,0.001851851851851852,1492.9000000000001,1502.0,1350,1500.0
5.872750997543335,151,77,0.001851851851851852,1491.47,1502.0,1346.48,1500.0
5.896121978759766,151,77,0.001851851851851852,1490.24,1502.0,1343.76,1500.0
5.919512033462524,151,78,0.001697792869269949,1487.8199999999999,1502.0,1338.4000000000001,1500.0
5.942941188812256,151,78,0.001697792869269949,1487.8,1502.0,1332.8,1500.0
5.966310024261475,151,78,0.0017921146953405018,1487.78,1502.0,1328.5599999999999,1500.0
