time,x,y,size_inv,roll,pitch,thrust,yaw
0.00042700767517089844,174,55,0.005050505050505051,1520,1494.0,1325,1514.0
0.022151947021484375,175,55,0.006493506493506494,1520,1494.0,1325,1515.0
0.04357600212097168,176,55,0.006060606060606061,1520,1494.0,1325,1516.0
0.06492090225219727,176,55,0.006060606060606061,1520,1494.0,1325,1516.0
0.08630180358886719,174,55,0.005050505050505051,1520,1494.0,1325,1514.0
0.10762786865234375,174,55,0.005050505050505051,1520,1494.0,1325,1514.0
0.12891578674316406,174,55,0.005050505050505051,1520,1494.0,1325,1514.0
0.15018177032470703,176,55,0.006060606060606061,1520,1494.0,1325,1516.0
0.17162799835205078,174,55,0.005050505050505051,1520,1494.0,1325,1514.0
0.19306683540344238,176,55,0.006060606060606061,1520,1494.0,1325,1516.0
0.21470093727111816,174,55,0.005050505050505051,1520,1494.0,1325,1514.0
0.23642683029174805,174,55,0.005050505050505051,1520,1494.0,1325,1514.0
0.2581517696380615,174,55,0.005050505050505051,1520,1494.0,1325,1514.0
0.279857873916626,173,55,0.005050505050505051,1520,1494.0,1325,1513.0
0.3015708923339844,172,55,0.005050505050505051,1520,1494.0,1325,1512.0
0.3232839107513428,171,55,0.005050505050505051,1520,1494.0,1325,1511.0
0.3449859619140625,170,55,0.005050505050505051,1520,1494.0,1325,1510.0
0.3666999340057373,170,54,0.006666666666666667,1520,1494.0,1325,1510.0
0.38840579986572266,167,54,0.005050505050505051,1520,1494.0,1325,1507.0
0.4101119041442871,167,54,0.006060606060606061,1520,1494.0,1325,1507.0
0.4318358898162842,165,55,0.006060606060606061,1520,1494.0,1325,1505.0
0.4535558223724365,161,58,0.0053475935828877,1520,1494.0,1322.8,1501.0
0.4753289222717285,157,60,0.005050505050505051,1520,1494.0,1319.95,1497.0
0.4970858097076416,156,61,0.0043859649122807015,1520,1494.0,1317.8499999999999,1496.0
0.5188469886779785,155,62,0.0043859649122807015,1520,1494.0,1315.5999999999999,1495.0
0.5406317710876465,153,63,0.0043859649122807015,1507.0,1494.0,1313.5,1493.0
0.5624358654022217,153,63,0.005952380952380952,1490.0,1494.0,1313.2,1493.0
0.5843229293823242,152,63,0.0043859649122807015,1480,1494.0,1313.6500000000001,1492.0
0.6061129570007324,151,63,0.004901960784313725,1480,1494.0,1314.4000000000001,1491.0
0.6278948783874512,151,63,0.0043859649122807015,1480,1494.0,1315.45,1491.0
0.6496598720550537,151,64,0.0043859649122807015,1480,1494.0,1315.5999999999999,1491.0
0.6714348793029785,151,65,0.004166666666666667,1480,1494.0,1315.1500000000001,1491.0
0.6932289600372314,151,66,0.0043859649122807015,1480,1494.0,1314.25,1491.0
0.7150437831878662,152,67,0.005952380952380952,1480,1494.0,1313.05,1492.0
0.7368459701538086,152,68,0.005952380952380952,1480,1494.0,1311.55,1492.0
0.7586519718170166,151,69,0.005050505050505051,1480,1494.0,1310.05,1491.0
0.7804238796234131,152,69,0.004629629629629629,1480,1494.0,1309.75,1492.0
0.8022058010101318,152,70,0.004629629629629629,1480,1494.0,1308.7,1492.0
0.8239719867706299,152,72,0.005050505050505051,1480,1494.0,1306.75,1492.0
0.8457357883453369,152,72,0.005050505050505051,1480,1494.0,1306.9000000000001,1492.0
0.8675220012664795,154,73,0.006493506493506494,1480,1494.0,1306.1500000000001,1494.0
0.8892879486083984,153,73,0.004629629629629629,1480,1494.0,1306.1500000000001,1493.0
0.9110629558563232,153,74,0.005050505050505051,1480,1494.0,1305.25,1493.0
0.9328868389129639,153,75,0.005050505050505051,1480,1494.0,1304.6500000000001,1493.0
0.9547159671783447,153,75,0.005050505050505051,1480,1494.0,1304.8,1493.0
0.9764997959136963,153,76,0.005050505050505051,1480,1494.0,1304.05,1493.0
0.9983119964599609,153,76,0.004629629629629629,1480,1494.0,1304.2,1493.0
1.0201129913330078,153,77,0.005050505050505051,1480,1494.0,1303.45,1493.0
1.0419058799743652,154,77,0.004629629629629629,1480,1494.0,1303.5999999999999,1494.0
1.0637049674987793,154,78,0.005050505050505051,1480,1494.0,1302.7,1494.0
1.0855000019073486,154,78,0.005050505050505051,1480,1494.0,1302.8499999999999,1494.0
1.1072919368743896,154,78,0.004629629629629629,1480,1494.0,1303.0,1494.0
1.129072904586792,154,78,0.004629629629629629,1480,1494.0,1303.3,1494.0
1.1510899066925049,155,79,0.006493506493506494,1480,1494.0,1302.4000000000001,1495.0
1.1729328632354736,154,79,0.005050505050505051,1480,1494.0,1302.7,1494.0
1.194767951965332,154,79,0.004629629629629629,1480,1494.0,1302.8499999999999,1494.0
1.216533899307251,154,80,0.005050505050505051,1480,1494.0,1301.95,1494.0
1.2383019924163818,155,80,0.0043859649122807015,1480,1494.0,1301.8,1495.0
1.26007080078125,154,80,0.004629629629629629,1480,1494.0,1301.95,1494.0
1.2818307876586914,154,81,0.005050505050505051,1480,1494.0,1300.9000000000001,1494.0
1.3036108016967773,154,81,0.005050505050505051,1480,1494.0,1300.75,1494.0
1.3253707885742188,155,81,0.004166666666666667,1480,1494.0,1300.9000000000001,1495.0
1.3471558094024658,154,81,0.004629629629629629,1480,1494.0,1301.05,1494.0
1.368924856185913,154,81,0.004629629629629629,1480,1494.0,1301.05,1494.0
1.3907058238983154,154,82,0.005050505050505051,1480,1494.0,1300.3,1494.0
1.4124839305877686,154,82,0.004629629629629629,1480,1494.0,1300.45,1494.0
1.4343299865722656,154,82,0.004629629629629629,1480,1494.0,1300.45,1494.0
1.4561188220977783,154,82,0.004629629629629629,1480,1494.0,1300.45,1494.0
1.477867841720581,154,82,0.004629629629629629,1480,1494.0,1300.45,1494.0
1.4996237754821777,154,82,0.004629629629629629,1480,1494.0,1300.5999999999999,1494.0
1.5214018821716309,154,82,0.004629629629629629,1480,1494.0,1300.75,1494.0
1.5432519912719727,154,83,0.005050505050505051,1480,1494.0,1299.8499999999999,1494.0
1.5651888847351074,154,83,0.004629629629629629,1480,1494.0,1299.8499999999999,1494.0
1.586991786956787,155,83,0.0043859649122807015,1480,1494.0,1299.8499999999999,1495.0
1.6087608337402344,154,83,0.004629629629629629,1480,1494.0,1299.7,1494.0
1.630518913269043,155,83,0.004901960784313725,1480,1494.0,1299.55,1495.0
1.6522870063781738,155,83,0.004629629629629629,1480,1494.0,1299.7,1495.0
1.6740539073944092,155,83,0.004629629629629629,1480,1494.0,1299.8499999999999,1495.0
1.6958367824554443,157,83,0.004807692307692308,1480,1494.0,1300.0,1497.0
1.7175958156585693,156,82,0.0043859649122807015,1480,1494.0,1301.2,1496.0
1.739372968673706,156,82,0.004629629629629629,1480,1494.0,1301.5,1496.0
1.7611668109893799,158,82,0.005555555555555556,1480,1494.0,1301.6500000000001,1498.0
1.7835209369659424,157,82,0.0043859649122807015,1480,1494.0,1301.8,1497.0
1.8069419860839844,156,81,0.004629629629629629,1480,1494.0,1303.0,1496.0
1.830150842666626,156,81,0.004629629629629629,1480,1494.0,1303.0,1496.0
1.8534059524536133,156,81,0.004629629629629629,1480,1494.0,1303.0,1496.0
1.8766579627990723,157,81,0.0038461538461538464,1480,1494.0,1303.0,1497.0
1.8998699188232422,157,80,0.004629629629629629,1480,1494.0,1304.05,1497.0
1.9231619834899902,159,80,0.005555555555555556,1480,1494.0,1303.9000000000001,1499.0
1.9464468955993652,158,80,0.0043859649122807015,1480,1494.0,1303.9000000000001,1498.0
1.9696619510650635,157,80,0.005050505050505051,1480,1494.0,1303.9000000000001,1497.0
1.9929509162902832,158,79,0.0043859649122807015,1480,1494.0,1304.95,1498.0
2.0162558555603027,157,78,0.004629629629629629,1480,1494.0,1305.8499999999999,1497.0
2.03951096534729,157,78,0.005050505050505051,1480,1494.0,1306.0,1497.0
2.0628068447113037,158,77,0.004629629629629629,1480,1494.0,1307.2,1498.0
2.0861618518829346,158,77,0.005050505050505051,1480,1494.0,1307.5,1498.0
2.1093637943267822,159,76,0.0043859649122807015,1480,1494.0,1308.55,1499.0
2.132572889328003,159,76,0.0043859649122807015,1480,1494.0,1308.55,1499.0
2.1559319496154785,160,76,0.006060606060606061,1481.0,1494.0,1308.55,1500.0
2.1792349815368652,160,75,0.0043859649122807015,1483.0,1494.0,1309.3,1500.0
2.202509880065918,159,74,0.004629629629629629,1483.0,1494.0,1310.2,1499.0
2.225933790206909,160,74,0.0043859649122807015,1487.0,1494.0,1310.05,1500.0
2.2492427825927734,160,73,0.0043859649122807015,1490.0,1494.0,1311.0999999999999,1500.0
2.272523880004883,160,73,0.004784688995215311,1493.0,1494.0,1311.25,1500.0
2.2959368228912354,160,72,0.004629629629629629,1495.0,1494.0,1312.3,1500.0
2.319225788116455,160,72,0.0043859649122807015,1497.0,1494.0,1312.1500000000001,1500.0
2.350881814956665,161,71,0.0043859649122807015,1501.0,1494.0,1313.2,1501.0
2.374337911605835,160,71,0.004784688995215311,1500.0,1494.0,1313.05,1500.0
2.3976500034332275,160,71,0.005050505050505051,1500.0,1494.0,1312.9000000000001,1500.0
2.420931816101074,160,70,0.004629629629629629,1500.0,1494.0,1313.6500000000001,1500.0
2.4442319869995117,160,70,0.005050505050505051,1501.0,1494.0,1313.6500000000001,1500.0
2.467529773712158,160,69,0.004629629629629629,1501.0,1494.0,1314.4000000000001,1500.0
2.4908487796783447,160,68,0.005050505050505051,1501.0,1494.0,1315.45,1500.0
2.514124870300293,160,67,0.005050505050505051,1501.0,1494.0,1316.6500000000001,1500.0
2.5374109745025635,160,66,0.005050505050505051,1501.0,1494.0,1317.8499999999999,1500.0
2.560699939727783,160,66,0.005050505050505051,1501.0,1494.0,1318.1500000000001,1500.0
2.5840377807617188,160,65,0.005050505050505051,1500.0,1494.0,1319.3499999999999,1500.0
2.6073689460754395,161,65,0.0043859649122807015,1503.0,1494.0,1319.3499999999999,1501.0
2.6306779384613037,160,66,0.005050505050505051,1501.0,1494.0,1318.0,1500.0
2.6539578437805176,162,67,0.006493506493506494,1507.0,1494.0,1316.3499999999999,1502.0
2.6772689819335938,161,67,0.005050505050505051,1506.0,1494.0,1315.5999999999999,1501.0
2.7005929946899414,163,67,0.006060606060606061,1513.0,1494.0,1314.7,1503.0
2.723883867263794,161,67,0.005050505050505051,1510.0,1494.0,1313.95,1501.0
2.747180938720703,161,67,0.005050505050505051,1511.0,1494.0,1313.6500000000001,1501.0
2.770526885986328,161,67,0.005050505050505051,1512.0,1494.0,1313.8,1501.0
2.793839931488037,164,67,0.006060606060606061,1520,1494.0,1313.95,1504.0
2.8170299530029297,163,66,0.006493506493506494,1520,1494.0,1315.3,1503.0
2.840244770050049,162,65,0.005050505050505051,1520,1494.0,1316.8,1502.0
2.863532781600952,162,65,0.005050505050505051,1520,1494.0,1317.25,1502.0
2.886835813522339,162,64,0.005555555555555556,1520,1494.0,1318.5999999999999,1502.0
2.9100468158721924,162,65,0.005050505050505051,1520,1494.0,1318.0,1502.0
2.9333198070526123,162,65,0.005050505050505051,1520,1494.0,1318.0,1502.0
2.9565768241882324,163,65,0.007142857142857143,1520,1494.0,1317.7,1503.0
2.979771852493286,163,66,0.007142857142857143,1520,1494.0,1316.3499999999999,1503.0
3.003046989440918,161,68,0.005050505050505051,1520,1494.0,1313.5,1501.0
3.026291847229004,161,68,0.005050505050505051,1520,1494.0,1312.75,1501.0
3.0494699478149414,161,68,0.005050505050505051,1520,1494.0,1312.1500000000001,1501.0
3.072650909423828,162,68,0.006493506493506494,1520,1494.0,1311.7,1502.0
3.095972776412964,162,67,0.007142857142857143,1520,1494.0,1312.5999999999999,1502.0
3.1191959381103516,161,67,0.005050505050505051,1520.0,1494.0,1313.3499999999999,1501.0
3.1424999237060547,161,66,0.005555555555555556,1519.0,1494.0,1315.0,1501.0
3.165926933288574,163,66,0.006060606060606061,1520,1494.0,1315.75,1503.0
3.1891398429870605,160,67,0.005050505050505051,1515.0,1494.0,1315.45,1500.0
3.212411880493164,160,67,0.005050505050505051,1512.0,1494.0,1315.5999999999999,1500.0
3.235830783843994,162,67,0.006060606060606061,1517.0,1494.0,1315.45,1502.0
3.259110927581787,160,67,0.005050505050505051,1512.0,1494.0,1315.0,1500.0
3.2823688983917236,160,67,0.005050505050505051,1511.0,1494.0,1314.55,1500.0
3.3058218955993652,162,67,0.006060606060606061,1515.0,1494.0,1314.4000000000001,1502.0
3.329129934310913,160,67,0.004629629629629629,1509.0,1494.0,1314.4000000000001,1500.0
3.3524129390716553,160,68,0.005050505050505051,1508.0,1494.0,1313.3499999999999,1500.0
3.3758440017700195,160,69,0.005050505050505051,1507.0,1494.0,1312.3,1500.0
3.399143934249878,160,70,0.005050505050505051,1504.0,1494.0,1311.0999999999999,1500.0
3.4224188327789307,160,70,0.005050505050505051,1504.0,1494.0,1310.6500000000001,1500.0
3.4458348751068115,160,71,0.005050505050505051,1504.0,1494.0,1309.1500000000001,1500.0
3.469132900238037,159,71,0.005050505050505051,1499.0,1494.0,1308.8499999999999,1499.0
3.4924259185791016,159,71,0.005050505050505051,1498.0,1494.0,1308.8499999999999,1499.0
3.5161538124084473,159,71,0.005050505050505051,1497.0,1494.0,1309.1500000000001,1499.0
3.5394928455352783,159,69,0.005555555555555556,1494.0,1494.0,1311.55,1499.0
3.562886953353882,161,69,0.006493506493506494,1499.0,1494.0,1312.45,1501.0
3.586303949356079,160,69,0.005050505050505051,1497.0,1494.0,1313.2,1500.0
3.609576940536499,160,69,0.005050505050505051,1497.0,1494.0,1313.8,1500.0
3.6329097747802734,159,69,0.005050505050505051,1494.0,1494.0,1314.25,1499.0
3.65627384185791,159,69,0.005555555555555556,1493.0,1494.0,1314.0999999999999,1499.0
3.679567813873291,160,70,0.004784688995215311,1495.0,1494.0,1312.75,1500.0
3.7029128074645996,159,71,0.005555555555555556,1493.0,1494.0,1311.25,1499.0
3.7263917922973633,159,72,0.005050505050505051,1493.0,1494.0,1309.5999999999999,1499.0
3.7498369216918945,159,72,0.005050505050505051,1493.0,1494.0,1308.8499999999999,1499.0
3.7731738090515137,159,72,0.005050505050505051,1493.0,1494.0,1308.4000000000001,1499.0
3.7965598106384277,159,72,0.005050505050505051,1491.0,1494.0,1308.25,1499.0
3.819844961166382,159,72,0.005050505050505051,1490.0,1494.0,1308.4000000000001,1499.0
3.8432509899139404,159,71,0.005555555555555556,1489.0,1494.0,1309.9000000000001,1499.0
3.8666257858276367,159,72,0.005050505050505051,1489.0,1494.0,1309.45,1499.0
3.8899447917938232,159,72,0.005555555555555556,1489.0,1494.0,1309.9000000000001,1499.0
3.9133028984069824,159,73,0.005555555555555556,1488.0,1494.0,1309.1500000000001,1499.0
3.9367058277130127,159,74,0.005050505050505051,1488.0,1494.0,1308.0999999999999,1499.0
3.9600179195404053,159,74,0.005555555555555556,1488.0,1494.0,1307.5,1499.0
3.983353853225708,160,75,0.006493506493506494,1491.0,1494.0,1306.1500000000001,1500.0
4.006730794906616,159,75,0.005555555555555556,1489.0,1494.0,1305.7,1499.0
4.030003786087036,159,75,0.005555555555555556,1489.0,1494.0,1305.55,1499.0
4.053346872329712,158,76,0.005050505050505051,1486.0,1494.0,1304.6500000000001,1498.0
4.076697826385498,158,76,0.005050505050505051,1485.0,1494.0,1304.8,1498.0
4.099982976913452,158,76,0.005050505050505051,1484.0,1494.0,1305.0999999999999,1498.0
4.123309850692749,159,76,0.007142857142857143,1486.0,1494.0,1305.4000000000001,1499.0
4.14664888381958,158,76,0.005555555555555556,1483.0,1494.0,1305.55,1498.0
4.169952869415283,158,76,0.005555555555555556,1482.0,1494.0,1305.8499999999999,1498.0
4.193335771560669,158,76,0.005555555555555556,1481.0,1494.0,1306.1500000000001,1498.0
4.216750860214233,159,76,0.007142857142857143,1482.0,1494.0,1306.3,1499.0
4.240046977996826,159,76,0.007142857142857143,1482.0,1494.0,1306.45,1499.0
4.263453960418701,158,76,0.005555555555555556,1480,1494.0,1306.5999999999999,1498.0
4.286832809448242,159,76,0.007142857142857143,1482.0,1494.0,1306.5999999999999,1499.0
4.310112953186035,160,77,0.006060606060606061,1486.0,1494.0,1305.55,1500.0
4.333459854125977,159,77,0.006493506493506494,1485.0,1494.0,1305.4000000000001,1499.0
4.3568267822265625,158,77,0.005050505050505051,1482.0,1494.0,1305.25,1498.0
4.380087852478027,157,77,0.005555555555555556,1480,1494.0,1305.0999999999999,1497.0
4.40338397026062,157,77,0.005050505050505051,1480,1494.0,1304.95,1497.0
4.426645994186401,157,77,0.005050505050505051,1480,1494.0,1305.0999999999999,1497.0
4.449844837188721,157,77,0.005555555555555556,1480,1494.0,1305.25,1497.0
4.473084926605225,157,77,0.005050505050505051,1480,1494.0,1305.4000000000001,1497.0
4.4963648319244385,157,77,0.005050505050505051,1480,1494.0,1305.55,1497.0
4.519584894180298,158,76,0.0058823529411764705,1480,1494.0,1306.75,1498.0
4.54283595085144,158,76,0.005555555555555556,1480,1494.0,1306.9000000000001,1498.0
4.566127777099609,158,75,0.005555555555555556,1480,1494.0,1308.0999999999999,1498.0
4.589347839355469,158,74,0.005555555555555556,1480,1494.0,1309.45,1498.0
4.612531900405884,158,74,0.005555555555555556,1480,1494.0,1309.9000000000001,1498.0
4.635879993438721,159,74,0.0058823529411764705,1480,1494.0,1310.05,1499.0
4.659075975418091,159,73,0.005555555555555556,1480,1494.0,1311.25,1499.0
4.682280778884888,159,73,0.005555555555555556,1480,1494.0,1311.25,1499.0
4.705946922302246,159,73,0.005555555555555556,1481.0,1494.0,1310.95,1499.0
4.729263782501221,159,72,0.005555555555555556,1483.0,1494.0,1311.7,1499.0
4.752580881118774,159,72,0.005555555555555556,1484.0,1494.0,1311.7,1499.0
4.775994777679443,160,72,0.005050505050505051,1488.0,1494.0,1311.4000000000001,1500.0
4.799330949783325,160,71,0.005555555555555556,1490.0,1494.0,1312.3,1500.0
4.822629928588867,160,71,0.005555555555555556,1492.0,1494.0,1312.45,1500.0
4.846043825149536,160,71,0.005555555555555556,1494.0,1494.0,1312.3,1500.0
4.869335889816284,160,71,0.005555555555555556,1495.0,1494.0,1312.1500000000001,1500.0
4.892632007598877,160,71,0.005555555555555556,1496.0,1494.0,1312.1500000000001,1500.0
4.916092872619629,160,71,0.005555555555555556,1497.0,1494.0,1311.8499999999999,1500.0
4.939406871795654,160,71,0.005555555555555556,1498.0,1494.0,1311.55,1500.0
4.96268892288208,162,71,0.006666666666666667,1505.0,1494.0,1311.4000000000001,1502.0
4.9862189292907715,160,71,0.005555555555555556,1502.0,1494.0,1311.25,1500.0
5.009506940841675,160,71,0.0058823529411764705,1502.0,1494.0,1311.0999999999999,1500.0
5.032835960388184,160,71,0.0058823529411764705,1502.0,1494.0,1311.0999999999999,1500.0
5.056222915649414,161,71,0.007142857142857143,1505.0,1494.0,1311.0999999999999,1501.0
5.079543828964233,161,71,0.007936507936507936,1506.0,1494.0,1311.0999999999999,1501.0
5.102892875671387,159,71,0.006172839506172839,1501.0,1494.0,1311.0999999999999,1499.0
5.126271963119507,159,70,0.005555555555555556,1500.0,1494.0,1312.1500000000001,1499.0
5.149549961090088,159,69,0.005555555555555556,1499.0,1494.0,1313.3499999999999,1499.0
5.172884941101074,159,69,0.006172839506172839,1498.0,1494.0,1313.6500000000001,1499.0
5.196237802505493,160,68,0.0058823529411764705,1498.0,1494.0,1315.0,1500.0
5.219503879547119,161,68,0.007142857142857143,1501.0,1494.0,1315.45,1501.0
5.242834806442261,160,68,0.005555555555555556,1499.0,1494.0,1315.5999999999999,1500.0
5.266227960586548,161,68,0.0058823529411764705,1502.0,1494.0,1315.45,1501.0
5.2895588874816895,161,69,0.006535947712418301,1502.0,1494.0,1314.25,1501.0
5.312909841537476,161,69,0.006535947712418301,1502.0,1494.0,1313.6500000000001,1501.0
5.336258888244629,161,69,0.0058823529411764705,1504.0,1494.0,1313.05,1501.0
5.359541893005371,161,70,0.006535947712418301,1506.0,1494.0,1311.55,1501.0
5.382882833480835,161,70,0.006535947712418301,1508.0,1494.0,1311.0999999999999,1501.0
5.40625786781311,161,70,0.0058823529411764705,1510.0,1494.0,1310.95,1501.0
5.429556846618652,161,70,0.0058823529411764705,1511.0,1494.0,1310.95,1501.0
5.4529078006744385,161,70,0.0058823529411764705,1511.0,1494.0,1310.95,1501.0
5.476279973983765,161,70,0.0058823529411764705,1512.0,1494.0,1311.25,1501.0
5.499554872512817,158,70,0.007936507936507936,1503.0,1494.0,1311.55,1498.0
5.522875785827637,160,69,0.0058823529411764705,1506.0,1494.0,1312.75,1500.0
5.54622483253479,160,69,0.006535947712418301,1505.0,1494.0,1313.05,1500.0
5.569595813751221,161,69,0.007936507936507936,1507.0,1494.0,1313.3499999999999,1501.0
5.593158960342407,160,69,0.006535947712418301,1504.0,1494.0,1313.5,1500.0
5.616546869277954,160,69,0.006535947712418301,1503.0,1494.0,1313.6500000000001,1500.0
5.639825820922852,160,69,0.0058823529411764705,1502.0,1494.0,1313.5,1500.0
5.663214921951294,160,70,0.006535947712418301,1501.0,1494.0,1312.3,1500.0
5.686648845672607,160,70,0.006535947712418301,1500.0,1494.0,1312.0,1500.0
5.7099409103393555,160,70,0.0058823529411764705,1499.0,1494.0,1311.7,1500.0
5.733323812484741,158,71,0.007936507936507936,1495.0,1494.0,1310.3499999999999,1498.0
5.756744861602783,157,72,0.007936507936507936,1490.0,1494.0,1309.0,1497.0
5.780026912689209,159,72,0.006535947712418301,1493.0,1494.0,1308.8499999999999,1499.0
5.803394794464111,157,72,0.007936507936507936,1485.0,1494.0,1308.7,1497.0
5.8267388343811035,159,71,0.0058823529411764705,1488.0,1494.0,1309.5999999999999,1499.0
5.850019931793213,159,71,0.011111111111111112,1487.0,1494.0,1309.9000000000001,1499.0
