time,x,y,size_inv,roll,pitch,thrust,yaw
0.00042700767517089844,141,49,0.005263157894736842,1480,1502.0,1330,1481.0
0.0222320556640625,141,49,0.005,1480,1502.0,1330,1481.0
0.043647050857543945,141,49,0.004784688995215311,1480,1502.0,1330,1481.0
0.06499004364013672,141,49,0.005263157894736842,1480,1502.0,1330,1481.0
0.08634209632873535,141,49,0.005263157894736842,1480,1502.0,1330,1481.0
0.10774517059326172,141,49,0.005263157894736842,1480,1502.0,1330,1481.0
0.12914013862609863,141,49,0.005263157894736842,1480,1502.0,1330,1481.0
0.15045404434204102,141,49,0.005263157894736842,1480,1502.0,1330,1481.0
0.17171001434326172,141,49,0.004784688995215311,1480,1502.0,1330,1481.0
0.1929490566253662,141,49,0.005263157894736842,1480,1502.0,1330,1481.0
0.21435809135437012,141,49,0.005263157894736842,1480,1502.0,1330,1481.0
0.2361161708831787,140,49,0.005555555555555556,1480,1502.0,1330,1480.0
0.25789809226989746,140,49,0.005555555555555556,1480,1502.0,1330,1480.0
0.2796921730041504,143,50,0.004784688995215311,1480,1502.0,1330,1483.0
0.30138516426086426,144,51,0.004784688995215311,1480,1502.0,1330,1484.0
0.3231070041656494,145,52,0.004784688995215311,1480,1502.0,1330,1485.0
0.34484410285949707,147,53,0.004784688995215311,1480,1502.0,1330,1487.0
0.3665730953216553,148,54,0.005555555555555556,1480,1502.0,1330,1488.0
0.38828420639038086,148,54,0.005555555555555556,1480,1502.0,1329.5999999999999,1488.0
0.4100501537322998,153,55,0.004784688995215311,1480,1502.0,1325.3599999999999,1493.0
0.43181705474853516,155,54,0.005050505050505051,1480,1502.0,1327.76,1495.0
0.4535641670227051,158,53,0.004784688995215311,1480,1502.0,1330,1498.0
0.4752810001373291,160,53,0.005263157894736842,1480,1502.0,1330,1500.0
0.4969911575317383,162,54,0.004784688995215311,1480,1502.0,1330,1502.0
0.5186960697174072,165,56,0.004784688995215311,1480,1502.0,1330,1505.0
0.5404291152954102,168,58,0.004784688995215311,1480.0,1502.0,1330,1508.0
0.5621762275695801,170,59,0.004784688995215311,1507.0,1502.0,1330,1510.0
0.583914041519165,171,60,0.004784688995215311,1520,1502.0,1320.5599999999999,1511.0
0.6056630611419678,172,61,0.004784688995215311,1520,1502.0,1309.28,1512.0
0.6274170875549316,172,61,0.004166666666666667,1520,1502.0,1303.4400000000001,1512.0
0.6492609977722168,173,62,0.004784688995215311,1520,1502.0,1301.9200000000001,1513.0
0.6710062026977539,173,62,0.004784688995215311,1520,1502.0,1305.76,1513.0
0.6927452087402344,172,64,0.004545454545454545,1520,1502.0,1307.1199999999999,1512.0
0.7144830226898193,172,65,0.004784688995215311,1520,1502.0,1309.6800000000001,1512.0
0.7362480163574219,171,66,0.004784688995215311,1520,1502.0,1308.0799999999999,1511.0
0.7580511569976807,171,67,0.004784688995215311,1520,1502.0,1305.1199999999999,1511.0
0.7798550128936768,171,67,0.004784688995215311,1520,1502.0,1302.0,1511.0
0.8015961647033691,169,68,0.0043859649122807015,1520,1502.0,1300.48,1509.0
0.8233530521392822,168,69,0.004784688995215311,1520,1502.0,1298.96,1508.0
0.8450992107391357,167,70,0.004545454545454545,1520,1502.0,1298.8,1507.0
0.8668642044067383,167,71,0.004784688995215311,1520,1502.0,1298.6400000000001,1507.0
0.8886170387268066,166,73,0.0043859649122807015,1520,1502.0,1294.4000000000001,1506.0
0.91037917137146,165,74,0.0043859649122807015,1520,1502.0,1290.0,1505.0
0.93215012550354,164,75,0.0043859649122807015,1520,1502.0,1285.5999999999999,1504.0
0.9539010524749756,164,75,0.0043859649122807015,1520,1502.0,1283.8399999999999,1504.0
0.9756441116333008,163,77,0.0043859649122807015,1520,1502.0,1278.24,1503.0
0.9973850250244141,163,78,0.0043859649122807015,1520,1502.0,1278.0,1503.0
1.0192081928253174,163,79,0.004166666666666667,1520,1502.0,1277.76,1503.0
1.040992021560669,162,80,0.004166666666666667,1520,1502.0,1277.52,1502.0
1.0627481937408447,162,80,0.004166666666666667,1520,1502.0,1277.1199999999999,1502.0
1.084510087966919,161,82,0.004166666666666667,1520,1502.0,1275.6800000000001,1501.0
1.1063051223754883,161,83,0.0038461538461538464,1520,1502.0,1274.0799999999999,1501.0
1.1281261444091797,161,84,0.004048582995951417,1520,1502.0,1272.48,1501.0
1.1501891613006592,161,84,0.004048582995951417,1520,1502.0,1273.52,1501.0
1.1719660758972168,161,86,0.003663003663003663,1520.0,1502.0,1269.28,1501.0
1.1938080787658691,161,86,0.003968253968253968,1518.0,1502.0,1270.3199999999999,1501.0
1.2156260013580322,160,88,0.004048582995951417,1513.0,1502.0,1267.52,1500.0
1.2379741668701172,160,88,0.004048582995951417,1510.0,1502.0,1268.5599999999999,1500.0
1.2614250183105469,160,90,0.004166666666666667,1508.0,1502.0,1262.96,1500.0
1.2847511768341064,160,91,0.003663003663003663,1506.0,1502.0,1262.72,1500.0
1.3080790042877197,160,91,0.003663003663003663,1505.0,1502.0,1260.96,1500.0
1.33144211769104,159,93,0.004273504273504274,1501.0,1502.0,1258.1600000000001,1499.0
1.354706048965454,159,93,0.0043859649122807015,1499.0,1502.0,1256.4000000000001,1499.0
1.3780491352081299,160,94,0.004048582995951417,1500.0,1502.0,1257.5999999999999,1500.0
1.4014019966125488,160,94,0.004048582995951417,1499.0,1502.0,1260.0799999999999,1500.0
1.4246611595153809,160,95,0.0043859649122807015,1498.0,1502.0,1259.9200000000001,1500.0
1.4480020999908447,161,95,0.003968253968253968,1501.0,1502.0,1263.8399999999999,1501.0
1.4713671207427979,161,95,0.003968253968253968,1502.0,1502.0,1267.76,1501.0
1.4946231842041016,159,96,0.004273504273504274,1497.0,1502.0,1269.1199999999999,1499.0
1.5179409980773926,159,96,0.004166666666666667,1496.0,1502.0,1270.3199999999999,1499.0
1.5413191318511963,160,96,0.003968253968253968,1498.0,1502.0,1274.3199999999999,1500.0
1.56461501121521,160,96,0.003968253968253968,1499.0,1502.0,1275.5999999999999,1500.0
1.587893009185791,159,97,0.004048582995951417,1497.0,1502.0,1274.24,1499.0
1.6112351417541504,158,97,0.0043859649122807015,1493.0,1502.0,1275.52,1498.0
1.6345231533050537,158,97,0.0043859649122807015,1491.0,1502.0,1276.8,1498.0
1.657837152481079,158,97,0.003968253968253968,1489.0,1502.0,1276.72,1498.0
1.6811671257019043,158,97,0.003663003663003663,1486.0,1502.0,1276.6400000000001,1498.0
1.704444169998169,157,97,0.0038461538461538464,1480.0,1502.0,1279.3599999999999,1497.0
1.7278401851654053,157,97,0.0038461538461538464,1480,1502.0,1280.72,1497.0
1.7511811256408691,157,96,0.004166666666666667,1480,1502.0,1284.72,1497.0
1.7744050025939941,157,96,0.003968253968253968,1480,1502.0,1287.52,1497.0
1.7976100444793701,157,96,0.003968253968253968,1480,1502.0,1290.3199999999999,1497.0
1.8209240436553955,156,96,0.0034965034965034965,1480,1502.0,1291.76,1496.0
1.8441131114959717,156,96,0.004048582995951417,1480,1502.0,1293.2,1496.0
1.8673090934753418,156,95,0.003968253968253968,1480,1502.0,1294.48,1496.0
1.8906140327453613,156,95,0.003968253968253968,1480,1502.0,1294.5599999999999,1496.0
1.9138381481170654,156,95,0.003968253968253968,1480,1502.0,1294.6400000000001,1496.0
1.9370501041412354,156,95,0.003968253968253968,1480,1502.0,1294.72,1496.0
1.9602620601654053,156,94,0.003968253968253968,1480,1502.0,1297.4400000000001,1496.0
1.9834661483764648,155,94,0.003968253968253968,1480,1502.0,1297.52,1495.0
2.006639003753662,155,93,0.003968253968253968,1480,1502.0,1300.24,1495.0
2.029811143875122,155,93,0.003968253968253968,1480,1502.0,1301.76,1495.0
2.0530190467834473,155,92,0.003968253968253968,1480,1502.0,1305.9200000000001,1495.0
2.076221227645874,155,92,0.004166666666666667,1480,1502.0,1306.0799999999999,1495.0
2.0994510650634766,155,91,0.003968253968253968,1480,1502.0,1310.24,1495.0
2.122633218765259,155,91,0.003968253968253968,1480,1502.0,1310.4000000000001,1495.0
2.145843029022217,155,91,0.003663003663003663,1480,1502.0,1310.5599999999999,1495.0
2.1690561771392822,155,91,0.0034965034965034965,1480,1502.0,1307.9200000000001,1495.0
2.192556142807007,155,91,0.0034965034965034965,1480,1502.0,1306.6400000000001,1495.0
2.216187000274658,155,90,0.0034965034965034965,1480,1502.0,1305.2,1495.0
2.2394790649414062,156,89,0.003968253968253968,1480,1502.0,1306.5599999999999,1496.0
2.2627310752868652,156,89,0.003968253968253968,1480,1502.0,1306.72,1496.0
2.285997152328491,156,88,0.003968253968253968,1480,1502.0,1310.8800000000001,1496.0
2.3095550537109375,156,88,0.0034965034965034965,1480,1502.0,1313.8399999999999,1496.0
2.332813024520874,156,88,0.0034965034965034965,1480,1502.0,1315.3599999999999,1496.0
2.3559951782226562,156,87,0.0034965034965034965,1480,1502.0,1316.72,1496.0
2.379178047180176,156,86,0.0034965034965034965,1480,1502.0,1319.52,1496.0
2.4024031162261963,156,86,0.0034965034965034965,1480,1502.0,1318.3199999999999,1496.0
2.425619125366211,156,86,0.0034965034965034965,1480,1502.0,1317.1199999999999,1496.0
2.448881149291992,157,85,0.0034965034965034965,1480,1502.0,1319.9200000000001,1497.0
2.472149133682251,157,85,0.0034965034965034965,1480,1502.0,1320.0799999999999,1497.0
2.495387077331543,157,85,0.0034965034965034965,1480,1502.0,1317.4400000000001,1497.0
2.5186431407928467,158,84,0.003105590062111801,1480,1502.0,1318.8,1498.0
2.5419440269470215,158,84,0.003105590062111801,1480,1502.0,1318.96,1498.0
2.565138101577759,158,84,0.0034965034965034965,1480,1502.0,1316.3199999999999,1498.0
2.5883851051330566,158,83,0.0034965034965034965,1480,1502.0,1317.6800000000001,1498.0
2.611664056777954,158,83,0.0034965034965034965,1480,1502.0,1319.2,1498.0
2.634843111038208,158,82,0.0034965034965034965,1480,1502.0,1320.5599999999999,1498.0
2.6580982208251953,158,81,0.003246753246753247,1480,1502.0,1323.3599999999999,1498.0
2.681385040283203,159,81,0.0034965034965034965,1480,1502.0,1326.3199999999999,1499.0
2.7045791149139404,159,81,0.0034965034965034965,1480,1502.0,1326.48,1499.0
2.727874994277954,159,81,0.0034965034965034965,1481.0,1502.0,1326.6400000000001,1499.0
2.7513110637664795,159,81,0.0034965034965034965,1482.0,1502.0,1325.3599999999999,1499.0
2.7746050357818604,160,81,0.0033444816053511705,1486.0,1502.0,1321.28,1500.0
2.7979471683502197,160,81,0.0033444816053511705,1488.0,1502.0,1317.2,1500.0
2.821259021759033,160,81,0.0033444816053511705,1490.0,1502.0,1314.48,1500.0
2.8445310592651367,160,81,0.0033444816053511705,1492.0,1502.0,1311.76,1500.0
2.867854118347168,160,80,0.003105590062111801,1494.0,1502.0,1313.04,1500.0
2.8911640644073486,160,80,0.003246753246753247,1496.0,1502.0,1314.48,1500.0
2.9144279956817627,160,80,0.003246753246753247,1497.0,1502.0,1315.9200000000001,1500.0
2.9377660751342773,161,80,0.003105590062111801,1501.0,1502.0,1317.3599999999999,1501.0
2.96112322807312,161,80,0.0033444816053511705,1503.0,1502.0,1318.8,1501.0
2.9843761920928955,161,80,0.0033444816053511705,1505.0,1502.0,1317.4400000000001,1501.0
3.0076181888580322,161,79,0.003105590062111801,1506.0,1502.0,1318.72,1501.0
3.031050205230713,161,79,0.003105590062111801,1507.0,1502.0,1318.8,1501.0
3.0543360710144043,161,79,0.003105590062111801,1508.0,1502.0,1318.8800000000001,1501.0
3.0775771141052246,161,79,0.003105590062111801,1509.0,1502.0,1318.96,1501.0
3.1009950637817383,161,80,0.0033444816053511705,1510.0,1502.0,1317.76,1501.0
3.124272108078003,161,80,0.0033444816053511705,1511.0,1502.0,1314.96,1501.0
3.147557020187378,161,80,0.0033444816053511705,1512.0,1502.0,1312.1600000000001,1501.0
3.170976161956787,161,80,0.003105590062111801,1512.0,1502.0,1309.3599999999999,1501.0
3.194240093231201,160,81,0.003205128205128205,1509.0,1502.0,1303.9200000000001,1500.0
3.217489004135132,161,81,0.003105590062111801,1511.0,1502.0,1302.48,1501.0
3.2408740520477295,161,81,0.003105590062111801,1511.0,1502.0,1302.4000000000001,1501.0
3.2642199993133545,160,82,0.003205128205128205,1508.0,1502.0,1299.6800000000001,1500.0
3.2875421047210693,160,82,0.0033444816053511705,1507.0,1502.0,1298.1600000000001,1500.0
3.3109822273254395,160,82,0.0033444816053511705,1506.0,1502.0,1299.4400000000001,1500.0
3.3342971801757812,161,82,0.003105590062111801,1508.0,1502.0,1299.3599999999999,1501.0
3.3575830459594727,161,82,0.003105590062111801,1508.0,1502.0,1299.28,1501.0
3.3809890747070312,161,82,0.003105590062111801,1508.0,1502.0,1302.0,1501.0
3.4042460918426514,161,83,0.0033444816053511705,1508.0,1502.0,1302.0799999999999,1501.0
3.4275081157684326,161,83,0.0033444816053511705,1509.0,1502.0,1302.0,1501.0
3.451003074645996,161,83,0.003105590062111801,1509.0,1502.0,1301.9200000000001,1501.0
3.4745821952819824,161,83,0.003105590062111801,1509.0,1502.0,1301.8399999999999,1501.0
3.4979681968688965,161,83,0.003105590062111801,1510.0,1502.0,1300.4000000000001,1501.0
3.521364212036133,161,84,0.002898550724637681,1511.0,1502.0,1299.1199999999999,1501.0
3.544680118560791,161,84,0.003105590062111801,1512.0,1502.0,1299.04,1501.0
3.5680301189422607,161,84,0.003105590062111801,1512.0,1502.0,1298.96,1501.0
3.591356039047241,161,84,0.003105590062111801,1512.0,1502.0,1298.8800000000001,1501.0
3.6146252155303955,161,84,0.003105590062111801,1512.0,1502.0,1298.8,1501.0
3.6379802227020264,161,84,0.003105590062111801,1512.0,1502.0,1300.1600000000001,1501.0
3.661356210708618,161,84,0.003105590062111801,1512.0,1502.0,1301.52,1501.0
3.684617042541504,161,84,0.003105590062111801,1512.0,1502.0,1302.8800000000001,1501.0
3.7079381942749023,162,85,0.0026666666666666666,1515.0,1502.0,1301.5999999999999,1502.0
3.7313241958618164,162,85,0.0026666666666666666,1516.0,1502.0,1301.52,1502.0
3.754608154296875,162,85,0.0026666666666666666,1517.0,1502.0,1300.0799999999999,1502.0
3.777949094772339,162,85,0.0026666666666666666,1518.0,1502.0,1298.6400000000001,1502.0
3.8012821674346924,162,85,0.0026666666666666666,1519.0,1502.0,1297.2,1502.0
3.8245160579681396,160,85,0.002777777777777778,1514.0,1502.0,1298.5599999999999,1500.0
3.84786319732666,160,85,0.002777777777777778,1513.0,1502.0,1299.9200000000001,1500.0
3.87121319770813,161,85,0.0026666666666666666,1515.0,1502.0,1301.28,1501.0
3.89447021484375,161,85,0.0026666666666666666,1515.0,1502.0,1302.6400000000001,1501.0
3.9177701473236084,161,85,0.0025,1515.0,1502.0,1304.0,1501.0
3.9410810470581055,160,85,0.002564102564102564,1511.0,1502.0,1304.0,1500.0
3.964362144470215,160,85,0.002564102564102564,1509.0,1502.0,1304.0,1500.0
3.9876019954681396,160,85,0.002564102564102564,1507.0,1502.0,1304.0,1500.0
4.010974168777466,160,84,0.002403846153846154,1505.0,1502.0,1306.6400000000001,1500.0
4.034248113632202,160,84,0.002403846153846154,1503.0,1502.0,1308.0799999999999,1500.0
4.057486057281494,159,85,0.002403846153846154,1500.0,1502.0,1306.8800000000001,1499.0
4.080848217010498,159,85,0.002403846153846154,1499.0,1502.0,1306.8800000000001,1499.0
4.104156017303467,159,85,0.002403846153846154,1497.0,1502.0,1306.8800000000001,1499.0
4.127410173416138,159,85,0.002403846153846154,1495.0,1502.0,1304.0799999999999,1499.0
4.15097713470459,159,84,0.002403846153846154,1493.0,1502.0,1303.9200000000001,1499.0
4.174257040023804,159,84,0.002403846153846154,1492.0,1502.0,1305.3599999999999,1499.0
4.197551012039185,159,84,0.0023148148148148147,1491.0,1502.0,1306.8,1499.0
4.220962047576904,159,84,0.0023148148148148147,1490.0,1502.0,1308.24,1499.0
4.244391202926636,159,84,0.002178649237472767,1489.0,1502.0,1311.04,1499.0
4.267924070358276,159,84,0.002178649237472767,1488.0,1502.0,1311.04,1499.0
4.291276216506958,159,84,0.002178649237472767,1488.0,1502.0,1309.6800000000001,1499.0
4.314563035964966,158,83,0.0023148148148148147,1485.0,1502.0,1310.96,1498.0
4.337945222854614,158,83,0.0023148148148148147,1484.0,1502.0,1311.04,1498.0
4.361343145370483,158,83,0.0023148148148148147,1483.0,1502.0,1311.1199999999999,1498.0
4.384685039520264,158,83,0.0023148148148148147,1482.0,1502.0,1312.5599999999999,1498.0
4.408055067062378,158,83,0.0023148148148148147,1481.0,1502.0,1314.0,1498.0
4.431371212005615,158,83,0.002178649237472767,1480.0,1502.0,1312.6400000000001,1498.0
4.454617023468018,158,83,0.002178649237472767,1480,1502.0,1311.28,1498.0
4.477858066558838,158,83,0.002178649237472767,1480,1502.0,1309.9200000000001,1498.0
4.501120090484619,157,82,0.002232142857142857,1480,1502.0,1311.2,1497.0
4.524310111999512,157,82,0.0023148148148148147,1480,1502.0,1311.28,1497.0
4.547559022903442,157,82,0.0023148148148148147,1480,1502.0,1312.72,1497.0
4.5708911418914795,157,82,0.002178649237472767,1480,1502.0,1314.1600000000001,1497.0
4.594088077545166,157,82,0.002178649237472767,1480,1502.0,1315.5999999999999,1497.0
4.617293119430542,157,82,0.002178649237472767,1480,1502.0,1314.24,1497.0
4.640892028808594,157,82,0.002178649237472767,1480,1502.0,1312.8800000000001,1497.0
4.664132118225098,157,82,0.002178649237472767,1480,1502.0,1311.52,1497.0
4.6873180866241455,157,82,0.002178649237472767,1480,1502.0,1310.1600000000001,1497.0
4.710649013519287,157,82,0.0019157088122605363,1480,1502.0,1308.8,1497.0
4.733889102935791,158,82,0.002028397565922921,1480,1502.0,1308.8,1498.0
4.757084131240845,157,82,0.002178649237472767,1480,1502.0,1308.8,1497.0
4.780417203903198,157,82,0.002178649237472767,1480,1502.0,1308.8,1497.0
4.803601026535034,158,82,0.0019157088122605363,1480,1502.0,1308.8,1498.0
4.8267741203308105,158,82,0.001851851851851852,1480,1502.0,1308.8,1498.0
4.8499860763549805,158,82,0.001851851851851852,1480,1502.0,1308.8,1498.0
