time,x,y,size_inv,roll,pitch,thrust,yaw
0.0011188983917236328,179,49,0.004329004329004329,1520,1500.0,1350,1519.0
0.024497032165527344,179,49,0.004329004329004329,1520,1500.0,1350,1519.0
0.04699397087097168,179,49,0.004329004329004329,1520,1500.0,1350,1519.0
0.0694119930267334,179,49,0.003968253968253968,1520,1500.0,1350,1519.0
0.09188199043273926,180,49,0.004629629629629629,1520,1500.0,1350,1520.0
0.11431288719177246,180,49,0.004629629629629629,1520,1500.0,1350,1520.0
0.13662099838256836,179,49,0.003968253968253968,1520,1500.0,1350,1519.0
0.1588578224182129,180,49,0.004629629629629629,1520,1500.0,1350,1520.0
0.1811380386352539,179,49,0.003968253968253968,1520,1500.0,1350,1519.0
0.20346903800964355,179,49,0.004329004329004329,1520,1500.0,1350,1519.0
0.2261958122253418,180,49,0.004901960784313725,1520,1500.0,1350,1520.0
0.2493419647216797,180,49,0.004629629629629629,1520,1500.0,1350,1520.0
0.27243590354919434,178,49,0.003968253968253968,1520,1500.0,1350,1518.0
0.2955319881439209,177,49,0.003968253968253968,1520,1500.0,1350,1517.0
0.31862902641296387,176,49,0.003968253968253968,1520,1500.0,1350,1516.0
0.34180688858032227,175,49,0.005050505050505051,1520,1500.0,1350,1515.0
0.36501288414001465,171,47,0.005050505050505051,1520,1500.0,1350,1511.0
0.38814496994018555,168,46,0.005050505050505051,1520,1500.0,1350,1508.0
0.41133904457092285,166,46,0.005050505050505051,1520,1500.0,1350,1506.0
0.43457484245300293,163,46,0.004629629629629629,1520,1500.0,1350,1503.0
0.45769786834716797,161,47,0.005050505050505051,1520,1500.0,1350,1501.0
0.48079490661621094,158,48,0.005050505050505051,1520,1500.0,1350,1498.0
0.5040450096130371,156,49,0.005050505050505051,1520,1500.0,1350,1496.0
0.5271759033203125,154,50,0.003968253968253968,1520,1500.0,1350,1494.0
0.5503120422363281,151,52,0.003968253968253968,1505.0,1500.0,1350,1491.0
0.5735158920288086,150,53,0.003968253968253968,1480,1500.0,1349.04,1490.0
0.596735954284668,149,53,0.003968253968253968,1480,1500.0,1343.2,1489.0
0.61997389793396,150,54,0.0043859649122807015,1480,1500.0,1338.8800000000001,1490.0
0.6432209014892578,148,55,0.003968253968253968,1480,1500.0,1335.9200000000001,1488.0
0.6664388179779053,148,56,0.003663003663003663,1480,1500.0,1337.1199999999999,1488.0
0.689673900604248,148,56,0.003968253968253968,1480,1500.0,1340.96,1488.0
0.712925910949707,148,58,0.004329004329004329,1480,1500.0,1338.1600000000001,1488.0
0.7361578941345215,149,61,0.004329004329004329,1480,1500.0,1331.28,1489.0
0.7593719959259033,150,62,0.003968253968253968,1480,1500.0,1326.8,1490.0
0.782585859298706,152,63,0.004629629629629629,1480,1500.0,1320.96,1492.0
0.8057830333709717,152,64,0.004629629629629629,1480,1500.0,1312.3199999999999,1492.0
0.8289868831634521,151,65,0.003968253968253968,1480,1500.0,1307.8399999999999,1491.0
0.8522160053253174,151,66,0.003787878787878788,1480,1500.0,1308.96,1491.0
0.8754110336303711,153,67,0.005050505050505051,1480,1500.0,1310.0799999999999,1493.0
0.8986740112304688,152,68,0.003968253968253968,1480,1500.0,1311.2,1492.0
0.9219589233398438,152,69,0.003968253968253968,1480,1500.0,1313.6800000000001,1492.0
0.9451799392700195,152,69,0.003787878787878788,1480,1500.0,1317.4400000000001,1492.0
0.968397855758667,153,70,0.003968253968253968,1480,1500.0,1317.28,1493.0
0.9916749000549316,153,70,0.003968253968253968,1480,1500.0,1319.76,1493.0
1.0149428844451904,153,71,0.003787878787878788,1480,1500.0,1321.04,1493.0
1.0381669998168945,153,72,0.003787878787878788,1480,1500.0,1322.3199999999999,1493.0
1.0614159107208252,153,73,0.003787878787878788,1480,1500.0,1320.8,1493.0
1.0847070217132568,155,74,0.004629629629629629,1480,1500.0,1319.28,1495.0
1.1079318523406982,154,75,0.003663003663003663,1480,1500.0,1314.96,1494.0
1.1311829090118408,154,76,0.003663003663003663,1480,1500.0,1310.6400000000001,1494.0
1.1544699668884277,154,76,0.003787878787878788,1480,1500.0,1308.96,1494.0
1.1776669025421143,154,77,0.0034965034965034965,1480,1500.0,1307.4400000000001,1494.0
1.2008960247039795,154,78,0.0034965034965034965,1480,1500.0,1305.9200000000001,1494.0
1.2249538898468018,154,78,0.003787878787878788,1480,1500.0,1308.4000000000001,1494.0
1.2483429908752441,154,80,0.0034965034965034965,1480,1500.0,1307.04,1494.0
1.271629810333252,154,80,0.0034965034965034965,1480,1500.0,1306.72,1494.0
1.294909954071045,154,81,0.0034965034965034965,1480,1500.0,1305.2,1494.0
1.3181350231170654,154,81,0.0034965034965034965,1480,1500.0,1306.3199999999999,1494.0
1.341437816619873,154,82,0.0034965034965034965,1480,1500.0,1303.4400000000001,1494.0
1.364715814590454,154,82,0.0034965034965034965,1480,1500.0,1306.0,1494.0
1.3879120349884033,154,83,0.0034965034965034965,1480,1500.0,1305.9200000000001,1494.0
1.411207914352417,154,83,0.0034965034965034965,1480,1500.0,1308.48,1494.0
1.4345359802246094,154,83,0.003246753246753247,1480,1500.0,1309.6800000000001,1494.0
1.4577529430389404,154,84,0.0034965034965034965,1480,1500.0,1311.04,1494.0
1.481029987335205,154,84,0.0034965034965034965,1480,1500.0,1310.8800000000001,1494.0
1.504321813583374,154,84,0.003246753246753247,1480,1500.0,1313.52,1494.0
1.5275540351867676,154,84,0.003246753246753247,1480,1500.0,1314.8,1494.0
1.550771951675415,154,85,0.0034965034965034965,1480,1500.0,1313.4400000000001,1494.0
1.5741100311279297,154,85,0.003246753246753247,1480,1500.0,1314.72,1494.0
1.597343921661377,155,85,0.003246753246753247,1480,1500.0,1316.0,1495.0
1.6205518245697021,155,86,0.0034965034965034965,1480,1500.0,1313.28,1495.0
1.6439158916473389,155,86,0.003246753246753247,1480,1500.0,1311.76,1495.0
1.6671369075775146,156,86,0.003105590062111801,1480,1500.0,1313.04,1496.0
1.6903269290924072,156,86,0.003246753246753247,1480,1500.0,1312.96,1496.0
1.7135298252105713,156,87,0.003246753246753247,1480,1500.0,1310.24,1496.0
1.7367558479309082,158,87,0.0037593984962406013,1480,1500.0,1311.52,1498.0
1.7599828243255615,157,87,0.003105590062111801,1480,1500.0,1312.8,1497.0
1.7832269668579102,157,87,0.002898550724637681,1480,1500.0,1312.72,1497.0
1.8064548969268799,157,86,0.003246753246753247,1480,1500.0,1315.28,1497.0
1.8296828269958496,157,86,0.003246753246753247,1480,1500.0,1319.4400000000001,1497.0
1.8529019355773926,157,86,0.003246753246753247,1480,1500.0,1322.24,1497.0
1.8761019706726074,157,86,0.003246753246753247,1480,1500.0,1325.04,1497.0
1.8993020057678223,157,86,0.0030303030303030303,1480,1500.0,1327.8399999999999,1497.0
1.9225289821624756,158,86,0.002898550724637681,1480,1500.0,1327.8399999999999,1498.0
1.9457519054412842,158,85,0.003105590062111801,1480,1500.0,1329.1199999999999,1498.0
1.968979835510254,158,85,0.003246753246753247,1480,1500.0,1329.2,1498.0
1.9921998977661133,158,85,0.0030303030303030303,1480,1500.0,1329.28,1498.0
2.015427827835083,159,84,0.003105590062111801,1480,1500.0,1332.0,1499.0
2.038627862930298,159,84,0.003246753246753247,1480,1500.0,1334.8800000000001,1499.0
2.0618808269500732,159,84,0.003246753246753247,1480,1500.0,1334.96,1499.0
2.0851848125457764,160,84,0.002898550724637681,1483.0,1500.0,1335.04,1500.0
2.108522891998291,160,84,0.002898550724637681,1486.0,1500.0,1335.1199999999999,1500.0
2.1318838596343994,160,83,0.003246753246753247,1489.0,1500.0,1335.04,1500.0
2.155242919921875,161,83,0.002898550724637681,1494.0,1500.0,1333.76,1501.0
2.178555965423584,161,83,0.002898550724637681,1497.0,1500.0,1333.8399999999999,1501.0
2.2019758224487305,161,83,0.0030303030303030303,1500.0,1500.0,1333.9200000000001,1501.0
2.2254140377044678,161,82,0.003246753246753247,1503.0,1500.0,1336.6400000000001,1501.0
2.2487030029296875,161,82,0.003246753246753247,1505.0,1500.0,1336.72,1501.0
2.2720019817352295,162,82,0.003105590062111801,1510.0,1500.0,1336.8,1502.0
2.295285940170288,162,82,0.002898550724637681,1513.0,1500.0,1336.8800000000001,1502.0
2.3185818195343018,162,82,0.0030303030303030303,1515.0,1500.0,1336.96,1502.0
2.341951847076416,162,82,0.0030303030303030303,1517.0,1500.0,1334.24,1502.0
2.365316867828369,163,81,0.003105590062111801,1520,1500.0,1335.52,1503.0
2.3885159492492676,162,81,0.003246753246753247,1520,1500.0,1335.5999999999999,1502.0
2.411803960800171,163,81,0.002898550724637681,1520,1500.0,1335.6800000000001,1503.0
2.4354169368743896,162,81,0.0030303030303030303,1520,1500.0,1335.76,1502.0
2.4586658477783203,163,80,0.003105590062111801,1520,1500.0,1339.8399999999999,1503.0
2.481940984725952,163,80,0.003105590062111801,1520,1500.0,1339.9200000000001,1503.0
2.505206823348999,162,80,0.003246753246753247,1520,1500.0,1340.0,1502.0
2.5284078121185303,162,79,0.003246753246753247,1520,1500.0,1342.72,1502.0
2.5516719818115234,162,79,0.003246753246753247,1520,1500.0,1344.24,1502.0
2.5749378204345703,162,79,0.003246753246753247,1520,1500.0,1342.96,1502.0
2.598155975341797,164,79,0.003968253968253968,1520,1500.0,1343.04,1504.0
2.6214239597320557,164,79,0.003703703703703704,1520,1500.0,1343.1199999999999,1504.0
2.644702911376953,164,78,0.003968253968253968,1520,1500.0,1343.04,1504.0
2.6679189205169678,163,78,0.003246753246753247,1520,1500.0,1341.76,1503.0
2.6911840438842773,163,78,0.003246753246753247,1520,1500.0,1341.8399999999999,1503.0
2.7145769596099854,163,77,0.003246753246753247,1520,1500.0,1344.5599999999999,1503.0
2.7380199432373047,163,77,0.003246753246753247,1520,1500.0,1346.0799999999999,1503.0
2.761309862136841,163,77,0.003246753246753247,1520,1500.0,1346.1600000000001,1503.0
2.784585952758789,163,77,0.003246753246753247,1520,1500.0,1346.24,1503.0
2.8077850341796875,163,76,0.003246753246753247,1520,1500.0,1348.96,1503.0
2.8310859203338623,165,76,0.003968253968253968,1520,1500.0,1347.6800000000001,1505.0
2.85439395904541,163,76,0.003246753246753247,1520,1500.0,1346.4000000000001,1503.0
2.877610921859741,165,76,0.003703703703703704,1520,1500.0,1346.48,1505.0
2.9008119106292725,163,75,0.003246753246753247,1520,1500.0,1349.2,1503.0
2.9242308139801025,163,75,0.003246753246753247,1520,1500.0,1347.9200000000001,1503.0
2.9474589824676514,163,75,0.003246753246753247,1520,1500.0,1348.0,1503.0
2.9706499576568604,165,75,0.0026666666666666666,1520,1500.0,1348.0799999999999,1505.0
2.994029998779297,165,75,0.0026666666666666666,1520,1500.0,1348.1600000000001,1505.0
3.017256021499634,166,74,0.003246753246753247,1520,1500.0,1348.0799999999999,1506.0
3.040457010269165,166,74,0.0030303030303030303,1520,1500.0,1348.1600000000001,1506.0
3.063764810562134,164,74,0.002564102564102564,1520,1500.0,1348.24,1504.0
3.086941957473755,164,74,0.0026666666666666666,1520,1500.0,1348.3199999999999,1504.0
3.110114812850952,165,74,0.0030303030303030303,1520,1500.0,1348.4000000000001,1505.0
3.1333119869232178,163,74,0.002564102564102564,1520,1500.0,1347.04,1503.0
3.1564948558807373,164,74,0.0030303030303030303,1520,1500.0,1345.6800000000001,1504.0
3.179672956466675,162,74,0.002564102564102564,1520,1500.0,1344.3199999999999,1502.0
3.202863931655884,161,74,0.002564102564102564,1520,1500.0,1342.96,1501.0
3.2260730266571045,161,74,0.002564102564102564,1520,1500.0,1341.5999999999999,1501.0
3.249276876449585,161,74,0.002564102564102564,1520,1500.0,1341.5999999999999,1501.0
3.2724568843841553,160,74,0.002564102564102564,1520,1500.0,1341.5999999999999,1500.0
3.2956128120422363,160,74,0.002403846153846154,1520,1500.0,1341.5999999999999,1500.0
3.318802833557129,161,74,0.002840909090909091,1520.0,1500.0,1341.5999999999999,1501.0
3.342073917388916,159,74,0.002403846153846154,1510.0,1500.0,1341.5999999999999,1499.0
3.365339994430542,159,75,0.002564102564102564,1506.0,1500.0,1338.96,1499.0
3.388666868209839,158,75,0.002564102564102564,1498.0,1500.0,1337.52,1498.0
3.4121079444885254,158,75,0.002403846153846154,1494.0,1500.0,1336.0799999999999,1498.0
3.435443878173828,158,75,0.002403846153846154,1491.0,1500.0,1334.6400000000001,1498.0
3.4587249755859375,158,75,0.002403846153846154,1488.0,1500.0,1333.2,1498.0
3.481984853744507,158,75,0.002403846153846154,1485.0,1500.0,1334.5599999999999,1498.0
3.505280017852783,158,75,0.002564102564102564,1483.0,1500.0,1335.9200000000001,1498.0
3.528587818145752,158,74,0.002403846153846154,1481.0,1500.0,1339.9200000000001,1498.0
3.551935911178589,159,74,0.0023148148148148147,1481.0,1500.0,1342.72,1499.0
3.5752599239349365,158,75,0.002564102564102564,1480,1500.0,1342.8800000000001,1498.0
3.5987439155578613,158,75,0.002403846153846154,1480,1500.0,1342.8800000000001,1498.0
3.6219990253448486,158,75,0.002403846153846154,1480,1500.0,1342.8800000000001,1498.0
3.645181894302368,158,75,0.002403846153846154,1480,1500.0,1340.0799999999999,1498.0
3.668367862701416,158,75,0.002403846153846154,1480,1500.0,1337.28,1498.0
3.6915969848632812,158,75,0.002403846153846154,1480,1500.0,1337.28,1498.0
3.714874029159546,159,76,0.00267379679144385,1480.0,1500.0,1334.6400000000001,1499.0
3.738144874572754,157,76,0.002403846153846154,1480,1500.0,1333.2,1497.0
3.7613749504089355,157,76,0.0022624434389140274,1480,1500.0,1333.1199999999999,1497.0
3.7846388816833496,157,76,0.0022624434389140274,1480,1500.0,1333.04,1497.0
3.8078339099884033,157,76,0.0022624434389140274,1480,1500.0,1331.5999999999999,1497.0
3.8311259746551514,157,76,0.0022624434389140274,1480,1500.0,1332.96,1497.0
3.8543879985809326,158,76,0.002028397565922921,1480,1500.0,1334.3199999999999,1498.0
3.8775739669799805,157,75,0.001984126984126984,1480,1500.0,1338.3199999999999,1497.0
3.9007718563079834,158,75,0.002028397565922921,1480,1500.0,1341.1199999999999,1498.0
3.924232006072998,158,75,0.00196078431372549,1480,1500.0,1343.9200000000001,1498.0
3.947453022003174,158,74,0.001851851851851852,1480,1500.0,1348.0,1498.0
3.9706430435180664,158,74,0.001851851851851852,1480,1500.0,1350,1498.0
3.9938879013061523,158,74,0.001851851851851852,1480,1500.0,1350,1498.0
4.016999959945679,158,74,0.001851851851851852,1480,1500.0,1350,1498.0
4.040103912353516,158,75,0.0017543859649122807,1480,1500.0,1348.48,1498.0
4.063295841217041,158,75,0.0017543859649122807,1480,1500.0,1344.3199999999999,1498.0
4.086489915847778,158,75,0.0017921146953405018,1480,1500.0,1340.1600000000001,1498.0
4.109683036804199,158,76,0.001697792869269949,1480,1500.0,1334.72,1498.0
4.13285493850708,158,76,0.001697792869269949,1480,1500.0,1330.48,1498.0
4.156026840209961,158,76,0.001697792869269949,1480,1500.0,1329.04,1498.0
4.179215908050537,158,76,0.001697792869269949,1480,1500.0,1328.96,1498.0
4.202411890029907,158,76,0.001697792869269949,1480,1500.0,1328.8800000000001,1498.0
4.22566294670105,158,75,0.0016129032258064516,1480,1500.0,1334.24,1498.0
4.248859882354736,158,75,0.0016129032258064516,1480,1500.0,1338.4000000000001,1498.0
4.272068023681641,158,75,0.0016129032258064516,1480,1500.0,1341.2,1498.0
4.295259952545166,158,75,0.0016129032258064516,1480,1500.0,1344.0,1498.0
4.31845498085022,158,75,0.0016666666666666668,1480,1500.0,1346.8,1498.0
4.341750860214233,159,76,0.0015360983102918587,1480,1500.0,1342.8,1499.0
4.365048885345459,159,76,0.0016129032258064516,1480.0,1500.0,1340.0,1499.0
4.388312816619873,159,76,0.0016129032258064516,1481.0,1500.0,1337.2,1499.0
4.411664962768555,159,77,0.0015360983102918587,1482.0,1500.0,1331.76,1499.0
4.435045957565308,159,77,0.001488095238095238,1483.0,1500.0,1327.52,1499.0
4.458348035812378,159,78,0.001488095238095238,1484.0,1500.0,1324.8,1499.0
4.4816858768463135,161,78,0.001443001443001443,1491.0,1500.0,1323.28,1501.0
4.505048036575317,161,78,0.001336898395721925,1494.0,1500.0,1321.76,1501.0
4.528378963470459,161,78,0.001336898395721925,1497.0,1500.0,1323.04,1501.0
4.5516908168792725,161,78,0.001336898395721925,1500.0,1500.0,1324.3199999999999,1501.0
4.5750298500061035,162,79,0.0013605442176870747,1505.0,1500.0,1324.4000000000001,1502.0
4.598333835601807,163,79,0.0013605442176870747,1511.0,1500.0,1325.6800000000001,1503.0
4.621707916259766,163,78,0.0012987012987012987,1515.0,1500.0,1329.5999999999999,1503.0
4.64506983757019,163,78,0.0012987012987012987,1519.0,1500.0,1330.96,1503.0
4.668324947357178,163,78,0.0012987012987012987,1520,1500.0,1332.3199999999999,1503.0
4.691570997238159,163,78,0.0012987012987012987,1520,1500.0,1335.1199999999999,1503.0
4.714824914932251,163,78,0.0012987012987012987,1520,1500.0,1337.9200000000001,1503.0
4.738030910491943,163,78,0.0013605442176870747,1520,1500.0,1337.9200000000001,1503.0
4.76125693321228,162,78,0.0014005602240896359,1520,1500.0,1337.9200000000001,1502.0
4.784524917602539,162,78,0.0014005602240896359,1520,1500.0,1337.9200000000001,1502.0
4.808027029037476,162,78,0.0014005602240896359,1520,1500.0,1336.5599999999999,1502.0
4.831295967102051,163,77,0.0012987012987012987,1520,1500.0,1337.8399999999999,1503.0
4.854535818099976,163,77,0.0012987012987012987,1520,1500.0,1339.28,1503.0
4.877713918685913,164,77,0.0012987012987012987,1520,1500.0,1340.72,1504.0
4.90087103843689,163,77,0.001336898395721925,1520,1500.0,1342.1600000000001,1503.0
4.924278020858765,163,77,0.001336898395721925,1520,1500.0,1343.5999999999999,1503.0
4.947474002838135,165,77,0.001287001287001287,1520,1500.0,1342.24,1505.0
4.970656871795654,165,76,0.0012285012285012285,1520,1500.0,1343.52,1505.0
4.9939658641815186,165,76,0.0012285012285012285,1520,1500.0,1343.5999999999999,1505.0
5.017159938812256,165,76,0.0011961722488038277,1520,1500.0,1343.6800000000001,1505.0
5.040338039398193,165,76,0.0011961722488038277,1520,1500.0,1343.76,1505.0
5.063576936721802,165,76,0.0011961722488038277,1520,1500.0,1345.2,1505.0
5.086773872375488,166,75,0.001336898395721925,1520,1500.0,1346.48,1506.0
5.109947919845581,166,75,0.001336898395721925,1520,1500.0,1346.5599999999999,1506.0
5.133144855499268,164,74,0.0011961722488038277,1520,1500.0,1349.28,1504.0
5.156332015991211,164,74,0.0011441647597254005,1520,1500.0,1350,1504.0
5.179419994354248,165,74,0.0011441647597254005,1520,1500.0,1350,1505.0
5.2025158405303955,163,74,0.0011441647597254005,1520,1500.0,1350,1503.0
5.2256200313568115,164,74,0.0011148272017837235,1520,1500.0,1350,1504.0
5.248685836791992,163,73,0.0010416666666666667,1520,1500.0,1350,1503.0
5.271829843521118,162,73,0.0010964912280701754,1520,1500.0,1350,1502.0
5.295006036758423,163,73,0.0012254901960784314,1520,1500.0,1349.8399999999999,1503.0
5.318219900131226,163,73,0.000975609756097561,1520,1500.0,1349.9200000000001,1503.0
5.341475009918213,164,73,0.0010526315789473684,1520,1500.0,1350.0,1504.0
5.3647119998931885,162,73,0.0009523809523809524,1520,1500.0,1348.6400000000001,1502.0
5.38790488243103,162,73,0.0009523809523809524,1520,1500.0,1347.28,1502.0
5.4112019538879395,162,73,0.0009523809523809524,1520,1500.0,1345.9200000000001,1502.0
5.434509038925171,161,73,0.0009157509157509158,1520,1500.0,1344.5599999999999,1501.0
5.457715034484863,161,73,0.0009157509157509158,1520,1500.0,1343.2,1501.0
5.480897903442383,160,74,0.0008818342151675485,1520.0,1500.0,1340.5599999999999,1500.0
