time,x,y,size_inv,roll,pitch,thrust,yaw
0.0004169940948486328,180,60,0.005050505050505051,1520,1494.0,1310,1520.0
0.022137880325317383,180,60,0.005050505050505051,1520,1494.0,1310,1520.0
0.043855905532836914,180,60,0.005050505050505051,1520,1494.0,1310,1520.0
0.06534600257873535,180,60,0.005050505050505051,1520,1494.0,1310,1520.0
0.08683609962463379,180,60,0.005050505050505051,1520,1494.0,1310,1520.0
0.10828495025634766,180,60,0.005050505050505051,1520,1494.0,1310,1520.0
0.12977290153503418,180,60,0.005050505050505051,1520,1494.0,1310,1520.0
0.15123200416564941,180,60,0.005050505050505051,1520,1494.0,1310,1520.0
0.17326807975769043,180,60,0.005050505050505051,1520,1494.0,1310,1520.0
0.1950070858001709,180,60,0.005050505050505051,1520,1494.0,1310,1520.0
0.21680688858032227,180,60,0.005050505050505051,1520,1494.0,1310,1520.0
0.23939990997314453,180,60,0.005050505050505051,1520,1494.0,1310,1520.0
0.26174306869506836,180,60,0.005050505050505051,1520,1494.0,1310,1520.0
0.28441691398620605,179,60,0.005050505050505051,1520,1494.0,1310,1519.0
0.30681705474853516,180,60,0.007142857142857143,1520,1494.0,1310,1520.0
0.32932209968566895,177,59,0.007142857142857143,1520,1494.0,1310,1517.0
0.3518068790435791,174,58,0.005555555555555556,1520,1494.0,1310,1514.0
0.3744649887084961,173,57,0.007142857142857143,1520,1494.0,1310,1513.0
0.3968501091003418,170,56,0.005555555555555556,1520,1494.0,1310,1510.0
0.4192841053009033,168,57,0.007142857142857143,1520,1494.0,1310,1508.0
0.4418039321899414,166,58,0.006666666666666667,1520,1494.0,1310,1506.0
0.46409106254577637,163,59,0.006060606060606061,1520,1494.0,1310,1503.0
0.48625802993774414,160,60,0.006493506493506494,1520,1494.0,1310,1500.0
0.5084130764007568,158,61,0.007142857142857143,1520,1494.0,1310,1498.0
0.5305860042572021,156,62,0.006493506493506494,1520,1494.0,1310,1496.0
0.5527610778808594,153,62,0.005555555555555556,1520,1494.0,1310,1493.0
0.5749359130859375,153,62,0.007142857142857143,1506.0,1494.0,1310,1493.0
0.5972418785095215,151,63,0.006493506493506494,1480.0,1494.0,1310,1491.0
0.6194789409637451,149,64,0.005050505050505051,1480,1494.0,1310,1489.0
0.641632080078125,149,65,0.004784688995215311,1480,1494.0,1310,1489.0
0.6638360023498535,148,66,0.005050505050505051,1480,1494.0,1310,1488.0
0.6860098838806152,149,67,0.007142857142857143,1480,1494.0,1310,1489.0
0.7081639766693115,148,69,0.005050505050505051,1480,1494.0,1310,1488.0
0.7303121089935303,148,70,0.005555555555555556,1480,1494.0,1310,1488.0
0.7524769306182861,149,71,0.005555555555555556,1480,1494.0,1310,1489.0
0.7746639251708984,149,72,0.005050505050505051,1480,1494.0,1310,1489.0
0.7968039512634277,150,72,0.005555555555555556,1480,1494.0,1310,1490.0
0.8189198970794678,151,73,0.006493506493506494,1480,1494.0,1310,1491.0
0.8410770893096924,150,73,0.005050505050505051,1480,1494.0,1310,1490.0
0.8632309436798096,151,73,0.005555555555555556,1480,1494.0,1310,1491.0
0.8854711055755615,151,73,0.005555555555555556,1480,1494.0,1310,1491.0
0.9077661037445068,151,74,0.005050505050505051,1480,1494.0,1310,1491.0
0.9300169944763184,152,74,0.005555555555555556,1480,1494.0,1310,1492.0
0.9522690773010254,152,75,0.005555555555555556,1480,1494.0,1310,1492.0
0.9744770526885986,152,76,0.005555555555555556,1480,1494.0,1310,1492.0
0.9965929985046387,153,77,0.005555555555555556,1480,1494.0,1310,1493.0
1.018723964691162,153,78,0.005555555555555556,1480,1494.0,1310,1493.0
1.0408709049224854,153,79,0.005050505050505051,1480,1494.0,1310,1493.0
1.0629949569702148,153,80,0.005050505050505051,1480,1494.0,1310,1493.0
1.0851459503173828,153,80,0.005050505050505051,1480,1494.0,1310,1493.0
1.1073799133300781,154,81,0.004784688995215311,1480,1494.0,1310,1494.0
1.1295650005340576,154,81,0.005050505050505051,1480,1494.0,1310,1494.0
1.151784896850586,154,82,0.005050505050505051,1480,1494.0,1310,1494.0
1.1740961074829102,154,83,0.005050505050505051,1480,1494.0,1310,1494.0
1.1962199211120605,154,83,0.005050505050505051,1480,1494.0,1310,1494.0
1.2183480262756348,155,84,0.007142857142857143,1480,1494.0,1310,1495.0
1.2404580116271973,154,85,0.005050505050505051,1480,1494.0,1310,1494.0
1.2628209590911865,154,86,0.005050505050505051,1480,1494.0,1310,1494.0
1.2850539684295654,154,87,0.005050505050505051,1480,1494.0,1310,1494.0
1.307300090789795,154,88,0.005050505050505051,1480,1494.0,1310,1494.0
1.3295190334320068,154,88,0.005050505050505051,1480,1494.0,1310,1494.0
1.3517398834228516,155,89,0.006493506493506494,1480,1494.0,1310,1495.0
1.3740530014038086,154,89,0.005050505050505051,1480,1494.0,1310,1494.0
1.3962180614471436,154,90,0.005050505050505051,1480,1494.0,1310,1494.0
1.4184238910675049,154,91,0.005050505050505051,1480,1494.0,1308.71,1494.0
1.440687894821167,155,92,0.006493506493506494,1480,1494.0,1306.3699999999999,1495.0
1.4628949165344238,154,92,0.004629629629629629,1480,1494.0,1305.2,1494.0
1.4850800037384033,154,93,0.0053475935828877,1480,1494.0,1302.95,1494.0
1.5073299407958984,154,94,0.005050505050505051,1480,1494.0,1300.7,1494.0
1.5295450687408447,154,94,0.004629629629629629,1480,1494.0,1299.6199999999999,1494.0
1.5518200397491455,154,95,0.005050505050505051,1480,1494.0,1297.55,1494.0
1.574131965637207,154,95,0.005050505050505051,1480,1494.0,1296.47,1494.0
1.5963070392608643,154,96,0.005050505050505051,1480,1494.0,1294.4000000000001,1494.0
1.618483066558838,154,96,0.005050505050505051,1480,1494.0,1293.5,1494.0
1.640700101852417,154,96,0.004629629629629629,1480,1494.0,1292.6900000000001,1494.0
1.6629140377044678,154,97,0.005050505050505051,1480,1494.0,1290.98,1494.0
1.6851251125335693,156,98,0.005555555555555556,1480,1494.0,1289.0,1496.0
1.7073569297790527,155,99,0.005050505050505051,1480,1494.0,1287.02,1495.0
1.7295620441436768,156,99,0.0043859649122807015,1480,1494.0,1286.03,1496.0
1.7517859935760498,155,100,0.005050505050505051,1480,1494.0,1283.8699999999999,1495.0
1.7741389274597168,155,100,0.005050505050505051,1480,1494.0,1282.8800000000001,1495.0
1.7963509559631348,156,100,0.0043859649122807015,1480,1494.0,1282.0699999999999,1496.0
1.8185880184173584,156,100,0.0043859649122807015,1480,1494.0,1281.53,1496.0
1.8408470153808594,156,101,0.004629629629629629,1480,1494.0,1279.8199999999999,1496.0
1.8630890846252441,156,101,0.004629629629629629,1480,1494.0,1279.1900000000001,1496.0
1.8852620124816895,156,101,0.004629629629629629,1480,1494.0,1278.6500000000001,1496.0
1.907500982284546,157,102,0.0043859649122807015,1480,1494.0,1277.03,1497.0
1.9297521114349365,157,102,0.004166666666666667,1480,1494.0,1276.4000000000001,1497.0
1.9520139694213867,156,102,0.004629629629629629,1480,1494.0,1275.95,1496.0
1.974334955215454,157,102,0.004629629629629629,1480,1494.0,1275.5899999999999,1497.0
1.9965839385986328,157,103,0.005050505050505051,1480,1494.0,1274.0599999999999,1497.0
2.0187580585479736,157,103,0.005050505050505051,1480,1494.0,1273.6099999999999,1497.0
2.0409319400787354,158,103,0.0043859649122807015,1480,1494.0,1273.1600000000001,1498.0
2.063149929046631,157,103,0.004629629629629629,1480,1494.0,1272.8,1497.0
2.0853450298309326,158,103,0.0043859649122807015,1480,1494.0,1272.4400000000001,1498.0
2.1076200008392334,157,104,0.005050505050505051,1480,1494.0,1271.0899999999999,1497.0
2.129870891571045,158,104,0.0043859649122807015,1480,1494.0,1270.73,1498.0
2.152092933654785,158,104,0.005050505050505051,1480,1494.0,1270.3699999999999,1498.0
2.174415111541748,158,104,0.004629629629629629,1480,1494.0,1270.01,1498.0
2.1965959072113037,158,104,0.005050505050505051,1480,1494.0,1269.6500000000001,1498.0
2.2187790870666504,159,104,0.004166666666666667,1480,1494.0,1269.5599999999999,1499.0
2.241179943084717,160,104,0.0043859649122807015,1481.0,1494.0,1269.47,1500.0
2.263490915298462,160,103,0.0043859649122807015,1483.0,1494.0,1270.55,1500.0
2.2857770919799805,159,103,0.004629629629629629,1483.0,1494.0,1270.73,1499.0
2.308044910430908,160,103,0.004629629629629629,1487.0,1494.0,1270.9100000000001,1500.0
2.330251932144165,160,102,0.004629629629629629,1490.0,1494.0,1272.3499999999999,1500.0
2.3525381088256836,162,102,0.005555555555555556,1498.0,1494.0,1272.8900000000001,1502.0
2.3748180866241455,161,102,0.0043859649122807015,1499.0,1494.0,1273.25,1501.0
2.3973679542541504,161,102,0.004784688995215311,1502.0,1494.0,1273.6099999999999,1501.0
2.419867992401123,161,101,0.004629629629629629,1505.0,1494.0,1275.1400000000001,1501.0
2.4421069622039795,161,101,0.004629629629629629,1507.0,1494.0,1275.5899999999999,1501.0
2.4645140171051025,161,101,0.004629629629629629,1508.0,1494.0,1276.04,1501.0
2.4867820739746094,161,100,0.005050505050505051,1509.0,1494.0,1277.5699999999999,1501.0
2.509124994277954,161,99,0.004629629629629629,1511.0,1494.0,1279.3699999999999,1501.0
2.532041072845459,162,99,0.0043859649122807015,1515.0,1494.0,1280.0899999999999,1502.0
2.556962013244629,161,98,0.004629629629629629,1514.0,1494.0,1281.8900000000001,1501.0
2.5811169147491455,161,98,0.005050505050505051,1513.0,1494.0,1282.79,1501.0
2.605372905731201,161,97,0.005050505050505051,1513.0,1494.0,1284.6800000000001,1501.0
2.6296050548553467,162,96,0.004629629629629629,1516.0,1494.0,1286.6600000000001,1502.0
2.6539549827575684,162,95,0.005050505050505051,1517.0,1494.0,1288.8199999999999,1502.0
2.678157091140747,163,94,0.006493506493506494,1520,1494.0,1291.0699999999999,1503.0
2.702275037765503,162,93,0.004629629629629629,1520.0,1494.0,1293.5899999999999,1502.0
2.727062940597534,163,93,0.006493506493506494,1520,1494.0,1294.9400000000001,1503.0
2.751883029937744,162,92,0.005050505050505051,1520,1494.0,1297.1900000000001,1502.0
2.7762808799743652,162,91,0.005050505050505051,1520,1494.0,1299.53,1502.0
2.800909996032715,163,90,0.006493506493506494,1520,1494.0,1301.8699999999999,1503.0
2.825773000717163,162,89,0.005050505050505051,1520,1494.0,1304.3,1502.0
2.850083112716675,162,88,0.005050505050505051,1520,1494.0,1306.9100000000001,1502.0
2.874298095703125,162,87,0.005050505050505051,1520,1494.0,1309.52,1502.0
2.8983631134033203,161,85,0.005050505050505051,1520,1494.0,1310,1501.0
2.922482967376709,161,84,0.005050505050505051,1520,1494.0,1310,1501.0
2.946964979171753,161,83,0.005555555555555556,1520,1494.0,1310,1501.0
2.9712939262390137,161,82,0.005555555555555556,1519.0,1494.0,1310,1501.0
2.995826005935669,161,81,0.005555555555555556,1518.0,1494.0,1310,1501.0
3.0203070640563965,161,81,0.005050505050505051,1517.0,1494.0,1310,1501.0
3.044887065887451,160,79,0.005050505050505051,1512.0,1494.0,1310,1500.0
3.0693609714508057,160,78,0.005050505050505051,1510.0,1494.0,1310,1500.0
3.0937540531158447,160,77,0.005050505050505051,1508.0,1494.0,1310,1500.0
3.1182799339294434,160,76,0.005050505050505051,1506.0,1494.0,1310,1500.0
3.1428608894348145,160,75,0.005050505050505051,1505.0,1494.0,1310,1500.0
3.167646884918213,160,74,0.005050505050505051,1504.0,1494.0,1310,1500.0
3.1921019554138184,160,73,0.005050505050505051,1503.0,1494.0,1310,1500.0
3.2168591022491455,160,72,0.005050505050505051,1502.0,1494.0,1310,1500.0
3.2413809299468994,160,71,0.005050505050505051,1501.0,1494.0,1310,1500.0
3.266606092453003,161,70,0.0043859649122807015,1503.0,1494.0,1310,1501.0
3.2910680770874023,162,70,0.006493506493506494,1507.0,1494.0,1310,1502.0
3.3157339096069336,162,69,0.006493506493506494,1509.0,1494.0,1310,1502.0
3.3404769897460938,161,69,0.005050505050505051,1508.0,1494.0,1310,1501.0
3.365009069442749,160,68,0.005050505050505051,1506.0,1494.0,1310,1500.0
3.3894479274749756,160,68,0.005050505050505051,1506.0,1494.0,1310,1500.0
3.414267063140869,162,66,0.006060606060606061,1512.0,1494.0,1310,1502.0
3.4384870529174805,160,66,0.005050505050505051,1508.0,1494.0,1310,1500.0
3.462614059448242,160,65,0.005050505050505051,1508.0,1494.0,1310,1500.0
3.4867520332336426,162,65,0.006060606060606061,1514.0,1494.0,1310,1502.0
3.510761022567749,159,65,0.005050505050505051,1506.0,1494.0,1310,1499.0
3.534864902496338,159,65,0.005050505050505051,1503.0,1494.0,1310,1499.0
3.558985948562622,158,64,0.005050505050505051,1497.0,1494.0,1310,1498.0
3.583091974258423,158,64,0.005050505050505051,1494.0,1494.0,1310,1498.0
3.60719895362854,157,64,0.005050505050505051,1489.0,1494.0,1310,1497.0
3.6311559677124023,157,63,0.005555555555555556,1486.0,1494.0,1310,1497.0
3.6557350158691406,158,63,0.006493506493506494,1484.0,1494.0,1310,1498.0
3.6798219680786133,157,62,0.005050505050505051,1480,1494.0,1310,1497.0
3.703895092010498,157,62,0.005050505050505051,1480,1494.0,1310,1497.0
3.7281510829925537,158,62,0.005555555555555556,1480,1494.0,1310,1498.0
3.752568006515503,158,63,0.005050505050505051,1480,1494.0,1310,1498.0
3.777121067047119,158,63,0.005050505050505051,1480,1494.0,1310,1498.0
3.8014678955078125,158,63,0.005555555555555556,1480,1494.0,1310,1498.0
3.8261148929595947,158,63,0.005050505050505051,1480,1494.0,1310,1498.0
3.8504579067230225,158,62,0.005555555555555556,1480,1494.0,1310,1498.0
3.8750579357147217,158,62,0.005050505050505051,1480,1494.0,1310,1498.0
3.8993079662323,158,61,0.005555555555555556,1480,1494.0,1310,1498.0
3.923919916152954,158,61,0.005050505050505051,1480,1494.0,1310,1498.0
3.948249101638794,158,61,0.005050505050505051,1480,1494.0,1310,1498.0
3.972701072692871,159,61,0.005050505050505051,1480,1494.0,1310,1499.0
3.9971718788146973,160,62,0.006493506493506494,1483.0,1494.0,1310,1500.0
4.021202087402344,159,62,0.005050505050505051,1482.0,1494.0,1310,1499.0
4.045722961425781,159,62,0.004629629629629629,1483.0,1494.0,1310,1499.0
4.070162057876587,159,63,0.0043859649122807015,1484.0,1494.0,1310,1499.0
4.094619035720825,158,64,0.005050505050505051,1482.0,1494.0,1310,1498.0
4.119062900543213,158,65,0.005050505050505051,1482.0,1494.0,1310,1498.0
4.143583059310913,158,65,0.005050505050505051,1482.0,1494.0,1310,1498.0
4.168128967285156,158,66,0.005050505050505051,1482.0,1494.0,1310,1498.0
4.192730903625488,158,66,0.005050505050505051,1482.0,1494.0,1310,1498.0
4.217290878295898,159,66,0.0043859649122807015,1484.0,1494.0,1310,1499.0
4.241720914840698,158,66,0.005050505050505051,1480.0,1494.0,1310,1498.0
4.266657114028931,158,66,0.005050505050505051,1480,1494.0,1310,1498.0
4.291017055511475,158,65,0.004629629629629629,1480,1494.0,1310,1498.0
4.315462112426758,158,66,0.005050505050505051,1480,1494.0,1310,1498.0
4.339809894561768,158,67,0.005050505050505051,1480,1494.0,1310,1498.0
4.3640968799591064,158,68,0.005050505050505051,1480,1494.0,1310,1498.0
4.388474941253662,158,68,0.004629629629629629,1480,1494.0,1310,1498.0
4.412980079650879,158,69,0.004629629629629629,1480,1494.0,1310,1498.0
4.4374918937683105,159,70,0.0043859649122807015,1480.0,1494.0,1310,1499.0
4.461929082870483,158,71,0.004629629629629629,1480,1494.0,1310,1498.0
4.486588954925537,158,72,0.005050505050505051,1480,1494.0,1310,1498.0
4.5109710693359375,158,72,0.004629629629629629,1480,1494.0,1310,1498.0
4.535574913024902,158,72,0.004629629629629629,1480,1494.0,1310,1498.0
4.559967041015625,158,73,0.004629629629629629,1480,1494.0,1310,1498.0
4.584328889846802,158,73,0.004629629629629629,1480,1494.0,1310,1498.0
4.608678102493286,159,73,0.0043859649122807015,1480.0,1494.0,1310,1499.0
4.633137941360474,158,74,0.004629629629629629,1480,1494.0,1310,1498.0
4.6577301025390625,161,74,0.005555555555555556,1487.0,1494.0,1310,1501.0
4.682352066040039,159,75,0.004629629629629629,1483.0,1494.0,1310,1499.0
4.706904888153076,159,76,0.004629629629629629,1484.0,1494.0,1310,1499.0
4.731328010559082,160,76,0.004629629629629629,1488.0,1494.0,1310,1500.0
4.755884885787964,160,77,0.004273504273504274,1490.0,1494.0,1310,1500.0
4.78033709526062,160,77,0.0043859649122807015,1492.0,1494.0,1310,1500.0
4.804719924926758,160,77,0.004629629629629629,1494.0,1494.0,1310,1500.0
4.829107999801636,161,78,0.004048582995951417,1499.0,1494.0,1310,1501.0
4.853636980056763,160,78,0.004629629629629629,1498.0,1494.0,1310,1500.0
4.878190994262695,162,78,0.005555555555555556,1506.0,1494.0,1310,1502.0
4.902775049209595,161,79,0.0043859649122807015,1504.0,1494.0,1310,1501.0
4.927356004714966,162,79,0.0043859649122807015,1509.0,1494.0,1310,1502.0
4.951802015304565,162,80,0.0038461538461538464,1512.0,1494.0,1310,1502.0
4.9766130447387695,161,80,0.004629629629629629,1511.0,1494.0,1310,1501.0
5.0010669231414795,162,80,0.005952380952380952,1515.0,1494.0,1310,1502.0
5.0260889530181885,162,81,0.004166666666666667,1517.0,1494.0,1310,1502.0
5.050808906555176,161,81,0.0043859649122807015,1516.0,1494.0,1310,1501.0
5.0752599239349365,162,82,0.003663003663003663,1519.0,1494.0,1310,1502.0
5.0998148918151855,162,82,0.003968253968253968,1520,1494.0,1310,1502.0
5.124089002609253,162,83,0.003968253968253968,1520,1494.0,1310,1502.0
5.148452997207642,162,83,0.003968253968253968,1520,1494.0,1310,1502.0
5.172879934310913,160,83,0.004629629629629629,1516.0,1494.0,1310,1500.0
5.197380065917969,160,84,0.004629629629629629,1514.0,1494.0,1310,1500.0
5.221798896789551,160,85,0.005050505050505051,1513.0,1494.0,1310,1500.0
5.246614933013916,160,85,0.004629629629629629,1511.0,1494.0,1310,1500.0
5.27109694480896,160,86,0.005050505050505051,1509.0,1494.0,1310,1500.0
5.2957799434661865,160,86,0.004629629629629629,1508.0,1494.0,1310,1500.0
5.32022500038147,163,86,0.004629629629629629,1515.0,1494.0,1310,1503.0
5.344983100891113,162,87,0.004329004329004329,1513.0,1494.0,1310,1502.0
5.369513034820557,162,87,0.003968253968253968,1513.0,1494.0,1310,1502.0
5.393896102905273,162,87,0.003968253968253968,1513.0,1494.0,1310,1502.0
5.418287038803101,162,88,0.004329004329004329,1515.0,1494.0,1310,1502.0
5.44282603263855,162,88,0.003968253968253968,1517.0,1494.0,1310,1502.0
5.46738600730896,162,88,0.003968253968253968,1519.0,1494.0,1310,1502.0
5.491801023483276,162,89,0.003968253968253968,1520,1494.0,1310,1502.0
5.516774892807007,161,89,0.005952380952380952,1520.0,1494.0,1310,1501.0
5.541783094406128,161,90,0.003968253968253968,1520,1494.0,1309.97,1501.0
5.566716909408569,161,90,0.003968253968253968,1519.0,1494.0,1309.25,1501.0
5.591231107711792,162,90,0.004629629629629629,1520,1494.0,1308.6199999999999,1502.0
5.615773916244507,162,90,0.004629629629629629,1520,1494.0,1308.1700000000001,1502.0
5.640217065811157,158,90,0.004629629629629629,1509.0,1494.0,1307.72,1498.0
5.664802074432373,160,90,0.003968253968253968,1511.0,1494.0,1307.54,1500.0
5.689279079437256,160,90,0.003968253968253968,1509.0,1494.0,1307.3599999999999,1500.0
5.713823080062866,160,90,0.003968253968253968,1507.0,1494.0,1307.1800000000001,1500.0
5.738516092300415,160,91,0.003663003663003663,1505.0,1494.0,1305.9200000000001,1500.0
5.763176918029785,159,91,0.003787878787878788,1501.0,1494.0,1305.5599999999999,1499.0
5.78795599937439,159,92,0.0034965034965034965,1499.0,1494.0,1304.1199999999999,1499.0
5.812807083129883,159,92,0.003787878787878788,1497.0,1494.0,1303.5799999999999,1499.0
5.837522029876709,159,92,0.003968253968253968,1494.0,1494.0,1303.04,1499.0
5.862044095993042,159,93,0.003663003663003663,1491.0,1494.0,1301.51,1499.0
5.886859893798828,160,93,0.004273504273504274,1495.0,1494.0,1300.8800000000001,1500.0
5.911341905593872,160,93,0.004273504273504274,1495.0,1494.0,1300.4300000000001,1500.0
5.936245918273926,159,93,0.003663003663003663,1492.0,1494.0,1299.98,1499.0
5.960947036743164,160,93,0.004273504273504274,1494.0,1494.0,1299.53,1500.0
5.985411882400513,158,93,0.003968253968253968,1488.0,1494.0,1299.3499999999999,1498.0
6.009934902191162,159,93,0.004629629629629629,1490.0,1494.0,1299.1700000000001,1499.0
6.0347700119018555,159,94,0.004273504273504274,1490.0,1494.0,1297.9100000000001,1499.0
6.059376955032349,157,94,0.0034965034965034965,1484.0,1494.0,1297.55,1497.0
6.083936929702759,157,94,0.0034965034965034965,1482.0,1494.0,1297.1900000000001,1497.0
6.108493089675903,158,94,0.004273504273504274,1483.0,1494.0,1296.9200000000001,1498.0
6.1331000328063965,156,94,0.0034965034965034965,1480,1494.0,1296.6500000000001,1496.0
6.1576409339904785,156,94,0.0034965034965034965,1480,1494.0,1296.5599999999999,1496.0
6.182382106781006,156,94,0.0034965034965034965,1480,1494.0,1296.47,1496.0
6.20699405670166,156,94,0.0034965034965034965,1480,1494.0,1296.3800000000001,1496.0
6.231579065322876,156,94,0.0034965034965034965,1480,1494.0,1296.29,1496.0
6.256381034851074,156,94,0.0034965034965034965,1480,1494.0,1296.2,1496.0
6.280601978302002,156,94,0.0034965034965034965,1480,1494.0,1296.2,1496.0
6.3047308921813965,156,94,0.0034965034965034965,1480,1494.0,1296.2,1496.0
6.329070091247559,156,93,0.003787878787878788,1480,1494.0,1297.3699999999999,1496.0
6.353378057479858,156,93,0.0034965034965034965,1480,1494.0,1297.6400000000001,1496.0
6.377456903457642,156,93,0.0034965034965034965,1480,1494.0,1297.9100000000001,1496.0
6.401608943939209,156,92,0.0034965034965034965,1480,1494.0,1299.3499999999999,1496.0
6.425766944885254,156,92,0.0034965034965034965,1480,1494.0,1299.8900000000001,1496.0
6.449887037277222,158,92,0.004273504273504274,1480,1494.0,1300.25,1498.0
6.4740540981292725,157,92,0.0034965034965034965,1480,1494.0,1300.6099999999999,1497.0
6.498258113861084,157,91,0.003246753246753247,1480,1494.0,1302.1400000000001,1497.0
6.522665023803711,157,91,0.003246753246753247,1480,1494.0,1302.5899999999999,1497.0
6.546973943710327,157,91,0.003246753246753247,1480,1494.0,1303.04,1497.0
6.570986986160278,157,91,0.003246753246753247,1480,1494.0,1303.4000000000001,1497.0
6.595025062561035,157,91,0.0034965034965034965,1480,1494.0,1303.76,1497.0
6.619033098220825,157,90,0.0034965034965034965,1480,1494.0,1305.1099999999999,1497.0
6.643294095993042,157,89,0.003246753246753247,1480,1494.0,1306.6400000000001,1497.0
6.667360067367554,157,89,0.0034965034965034965,1480,1494.0,1307.27,1497.0
6.691351890563965,157,88,0.003246753246753247,1480,1494.0,1309.0699999999999,1497.0
6.715630054473877,157,88,0.0034965034965034965,1480,1494.0,1309.97,1497.0
6.739799976348877,157,87,0.003246753246753247,1480,1494.0,1310,1497.0
6.763674974441528,158,86,0.003246753246753247,1480,1494.0,1310,1498.0
6.7875449657440186,158,86,0.003246753246753247,1480,1494.0,1310,1498.0
6.811532020568848,158,86,0.003246753246753247,1480,1494.0,1310,1498.0
6.835654973983765,158,86,0.003246753246753247,1480,1494.0,1310,1498.0
6.859569072723389,159,85,0.003105590062111801,1480,1494.0,1310,1499.0
6.883472919464111,159,85,0.003105590062111801,1480,1494.0,1310,1499.0
6.9073309898376465,159,84,0.003246753246753247,1480,1494.0,1310,1499.0
6.9312310218811035,159,83,0.003246753246753247,1480.0,1494.0,1310,1499.0
6.955415964126587,159,83,0.003246753246753247,1482.0,1494.0,1310,1499.0
6.979582071304321,160,83,0.002898550724637681,1487.0,1494.0,1310,1500.0
7.003587961196899,160,82,0.003105590062111801,1489.0,1494.0,1310,1500.0
7.0276079177856445,160,81,0.003246753246753247,1491.0,1494.0,1310,1500.0
7.051584959030151,160,80,0.003246753246753247,1493.0,1494.0,1310,1500.0
7.0757129192352295,161,80,0.003105590062111801,1498.0,1494.0,1310,1501.0
7.099859952926636,160,79,0.003246753246753247,1497.0,1494.0,1310,1500.0
7.123979091644287,160,79,0.003246753246753247,1498.0,1494.0,1310,1500.0
7.14805006980896,160,79,0.003246753246753247,1499.0,1494.0,1310,1500.0
7.171982049942017,160,79,0.003246753246753247,1500.0,1494.0,1310,1500.0
7.196291923522949,161,79,0.002898550724637681,1504.0,1494.0,1310,1501.0
7.220376014709473,160,78,0.003246753246753247,1502.0,1494.0,1310,1500.0
7.244755983352661,160,78,0.003246753246753247,1502.0,1494.0,1310,1500.0
7.2688469886779785,160,77,0.003246753246753247,1502.0,1494.0,1310,1500.0
7.292962074279785,161,77,0.003105590062111801,1505.0,1494.0,1310,1501.0
7.317102909088135,160,76,0.003246753246753247,1502.0,1494.0,1310,1500.0
7.341131925582886,161,75,0.003246753246753247,1505.0,1494.0,1310,1501.0
7.365250110626221,161,75,0.003246753246753247,1506.0,1494.0,1310,1501.0
7.389277935028076,161,74,0.003246753246753247,1507.0,1494.0,1310,1501.0
7.413399934768677,162,74,0.003105590062111801,1511.0,1494.0,1310,1502.0
7.437532901763916,161,73,0.003246753246753247,1509.0,1494.0,1310,1501.0
7.461652994155884,161,73,0.003246753246753247,1510.0,1494.0,1310,1501.0
7.48582911491394,162,72,0.003105590062111801,1514.0,1494.0,1310,1502.0
7.509905099868774,161,72,0.003246753246753247,1513.0,1494.0,1310,1501.0
7.534089088439941,161,71,0.003246753246753247,1513.0,1494.0,1310,1501.0
7.558537006378174,161,71,0.003246753246753247,1514.0,1494.0,1310,1501.0
7.5831849575042725,161,71,0.003246753246753247,1514.0,1494.0,1310,1501.0
7.607841968536377,161,70,0.003246753246753247,1514.0,1494.0,1310,1501.0
7.63284707069397,161,69,0.003246753246753247,1514.0,1494.0,1310,1501.0
7.657516956329346,162,69,0.003968253968253968,1516.0,1494.0,1310,1502.0
7.681983947753906,162,69,0.004273504273504274,1517.0,1494.0,1310,1502.0
7.70676589012146,162,68,0.003968253968253968,1518.0,1494.0,1310,1502.0
7.730979919433594,162,67,0.004273504273504274,1518.0,1494.0,1310,1502.0
7.755038022994995,160,66,0.003246753246753247,1513.0,1494.0,1310,1500.0
7.779103994369507,162,65,0.002857142857142857,1518.0,1494.0,1310,1502.0
7.803267955780029,162,65,0.002857142857142857,1519.0,1494.0,1310,1502.0
7.827390909194946,161,64,0.003968253968253968,1517.0,1494.0,1310,1501.0
7.851471900939941,161,64,0.003968253968253968,1517.0,1494.0,1310,1501.0
7.8758039474487305,161,63,0.002857142857142857,1517.0,1494.0,1310,1501.0
7.899929046630859,162,63,0.0030303030303030303,1519.0,1494.0,1310,1502.0
7.923880100250244,162,63,0.0030303030303030303,1519.0,1494.0,1310,1502.0
7.947947025299072,158,63,0.0030303030303030303,1507.0,1494.0,1310,1498.0
7.972575902938843,160,62,0.002857142857142857,1509.0,1494.0,1310,1500.0
7.996932029724121,159,61,0.002564102564102564,1506.0,1494.0,1310,1499.0
8.020962953567505,159,60,0.0027472527472527475,1503.0,1494.0,1310,1499.0
8.045144081115723,159,60,0.002564102564102564,1500.0,1494.0,1310,1499.0
8.069138050079346,159,59,0.002564102564102564,1498.0,1494.0,1310,1499.0
8.093240976333618,159,59,0.002564102564102564,1496.0,1494.0,1310,1499.0
8.117482900619507,159,58,0.002564102564102564,1494.0,1494.0,1310,1499.0
8.142091035842896,159,58,0.002564102564102564,1491.0,1494.0,1310,1499.0
8.16673994064331,159,58,0.002564102564102564,1488.0,1494.0,1310,1499.0
8.191926002502441,159,57,0.0027472527472527475,1489.0,1494.0,1310,1499.0
8.218293905258179,159,57,0.002564102564102564,1488.0,1494.0,1310,1499.0
8.242187023162842,160,57,0.0030303030303030303,1491.0,1494.0,1310,1500.0
8.26620101928711,159,56,0.002564102564102564,1489.0,1494.0,1310,1499.0
8.2899169921875,159,56,0.002564102564102564,1489.0,1494.0,1310,1499.0
8.31370210647583,159,56,0.002564102564102564,1489.0,1494.0,1310,1499.0
8.337482929229736,159,56,0.002564102564102564,1489.0,1494.0,1310,1499.0
8.361157894134521,160,55,0.003246753246753247,1492.0,1494.0,1310,1500.0
8.385052919387817,161,55,0.002898550724637681,1496.0,1494.0,1310,1501.0
8.408910036087036,158,54,0.0027472527472527475,1489.0,1494.0,1310,1498.0
8.432605028152466,159,54,0.0030303030303030303,1491.0,1494.0,1310,1499.0
8.456309080123901,157,54,0.002564102564102564,1485.0,1494.0,1310,1497.0
8.480061054229736,157,53,0.002564102564102564,1482.0,1494.0,1310,1497.0
8.503782033920288,157,53,0.002564102564102564,1480.0,1494.0,1310,1497.0
8.527595043182373,158,52,0.0030303030303030303,1481.0,1494.0,1310,1498.0
8.551338911056519,156,51,0.002564102564102564,1480,1494.0,1310,1496.0
8.575098991394043,156,51,0.002564102564102564,1480,1494.0,1310,1496.0
8.59864592552185,157,52,0.0024691358024691358,1480,1494.0,1310,1497.0
8.62230896949768,156,52,0.002564102564102564,1480,1494.0,1310,1496.0
8.645976066589355,157,52,0.0024691358024691358,1480,1494.0,1310,1497.0
8.669651985168457,157,52,0.0024691358024691358,1480,1494.0,1310,1497.0
8.693351984024048,157,52,0.002564102564102564,1480,1494.0,1310,1497.0
8.717190027236938,157,51,0.002403846153846154,1480,1494.0,1310,1497.0
8.740807056427002,157,51,0.002564102564102564,1480,1494.0,1310,1497.0
8.764411926269531,157,50,0.002564102564102564,1480,1494.0,1310,1497.0
8.787949085235596,157,50,0.002564102564102564,1480,1494.0,1310,1497.0
8.811641931533813,157,49,0.002403846153846154,1480,1494.0,1310,1497.0
8.835617065429688,157,49,0.002403846153846154,1480,1494.0,1310,1497.0
8.859363079071045,157,50,0.002403846153846154,1480,1494.0,1310,1497.0
8.883039951324463,157,51,0.0024691358024691358,1480,1494.0,1310,1497.0
8.906828880310059,157,51,0.0023148148148148147,1480,1494.0,1310,1497.0
8.930470943450928,157,51,0.0023148148148148147,1480,1494.0,1310,1497.0
8.95425295829773,157,51,0.002403846153846154,1480,1494.0,1310,1497.0
8.977771997451782,157,51,0.002403846153846154,1480,1494.0,1310,1497.0
9.001657962799072,157,50,0.002403846153846154,1480,1494.0,1310,1497.0
9.02559494972229,158,48,0.0023148148148148147,1480,1494.0,1310,1498.0
9.049204111099243,158,47,0.0023148148148148147,1480,1494.0,1310,1498.0
9.07291293144226,157,47,0.002403846153846154,1480,1494.0,1310,1497.0
9.09668493270874,159,47,0.0021551724137931034,1480,1494.0,1310,1499.0
9.120368003845215,159,48,0.002028397565922921,1480,1494.0,1310,1499.0
9.143914937973022,160,48,0.0021551724137931034,1480,1494.0,1310,1500.0
9.167458057403564,160,49,0.002028397565922921,1482.0,1494.0,1310,1500.0
9.191174030303955,161,49,0.002028397565922921,1488.0,1494.0,1310,1501.0
9.214997053146362,160,49,0.00196078431372549,1489.0,1494.0,1310,1500.0
9.238744020462036,160,49,0.00196078431372549,1492.0,1494.0,1310,1500.0
9.262548923492432,160,49,0.001851851851851852,1494.0,1494.0,1310,1500.0
9.286461114883423,160,49,0.0017921146953405018,1496.0,1494.0,1310,1500.0
9.310266971588135,160,50,0.0018975332068311196,1499.0,1494.0,1310,1500.0
9.334179878234863,159,50,0.00196078431372549,1497.0,1494.0,1310,1499.0
9.35790491104126,159,50,0.0018975332068311196,1497.0,1494.0,1310,1499.0
9.381553888320923,159,50,0.0017921146953405018,1496.0,1494.0,1310,1499.0
9.405459880828857,159,51,0.0018975332068311196,1495.0,1494.0,1310,1499.0
9.42921495437622,158,51,0.00196078431372549,1490.0,1494.0,1310,1498.0
9.4530611038208,159,51,0.0018975332068311196,1491.0,1494.0,1310,1499.0
9.476842880249023,159,50,0.0017921146953405018,1490.0,1494.0,1310,1499.0
9.50053596496582,159,50,0.0017921146953405018,1489.0,1494.0,1310,1499.0
9.524338960647583,159,50,0.0017921146953405018,1488.0,1494.0,1310,1499.0
9.548024892807007,159,51,0.0018975332068311196,1487.0,1494.0,1310,1499.0
9.571774005889893,159,51,0.001851851851851852,1487.0,1494.0,1310,1499.0
9.595725059509277,159,52,0.00196078431372549,1487.0,1494.0,1310,1499.0
9.619484901428223,159,52,0.001851851851851852,1487.0,1494.0,1310,1499.0
9.64340090751648,160,52,0.0017921146953405018,1490.0,1494.0,1310,1500.0
9.666905879974365,160,52,0.001851851851851852,1492.0,1494.0,1310,1500.0
9.690310955047607,161,53,0.001697792869269949,1496.0,1494.0,1310,1501.0
9.713917016983032,161,52,0.0017921146953405018,1498.0,1494.0,1310,1501.0
9.737401962280273,161,53,0.001644736842105263,1500.0,1494.0,1310,1501.0
9.76081395149231,161,52,0.0017921146953405018,1502.0,1494.0,1310,1501.0
9.784403085708618,161,53,0.001697792869269949,1504.0,1494.0,1310,1501.0
9.808190107345581,161,53,0.001697792869269949,1506.0,1494.0,1310,1501.0
9.83179497718811,161,53,0.001644736842105263,1508.0,1494.0,1310,1501.0
9.85551905632019,161,53,0.001644736842105263,1510.0,1494.0,1310,1501.0
9.87906289100647,161,52,0.0017921146953405018,1511.0,1494.0,1310,1501.0
9.902715921401978,161,52,0.0017921146953405018,1512.0,1494.0,1310,1501.0
9.926393985748291,161,52,0.0017921146953405018,1512.0,1494.0,1310,1501.0
9.950145959854126,162,52,0.0016339869281045752,1515.0,1494.0,1310,1502.0
9.973674058914185,162,52,0.0016339869281045752,1516.0,1494.0,1310,1502.0
9.997093915939331,162,52,0.0016339869281045752,1517.0,1494.0,1310,1502.0
10.02069091796875,162,52,0.0016339869281045752,1518.0,1494.0,1310,1502.0
10.044348955154419,162,52,0.0016339869281045752,1519.0,1494.0,1310,1502.0
10.067965030670166,162,52,0.0015479876160990713,1520.0,1494.0,1310,1502.0
10.091361045837402,162,52,0.0015479876160990713,1520,1494.0,1310,1502.0
10.11496090888977,162,52,0.001594896331738437,1520,1494.0,1310,1502.0
10.138343095779419,162,52,0.0015479876160990713,1520,1494.0,1310,1502.0
10.1616530418396,162,52,0.001594896331738437,1520,1494.0,1310,1502.0
10.185184955596924,162,51,0.0014705882352941176,1520,1494.0,1310,1502.0
10.208668947219849,163,51,0.0016666666666666668,1520,1494.0,1310,1503.0
10.232112884521484,162,52,0.0015037593984962407,1520,1494.0,1310,1502.0
10.255764961242676,161,52,0.0014705882352941176,1520,1494.0,1310,1501.0
10.279356002807617,161,52,0.0014005602240896359,1520,1494.0,1310,1501.0
10.302818059921265,161,52,0.0014005602240896359,1520.0,1494.0,1310,1501.0
10.326601028442383,161,51,0.0014705882352941176,1519.0,1494.0,1310,1501.0
10.35018801689148,160,51,0.0014005602240896359,1515.0,1494.0,1310,1500.0
10.373850107192993,160,51,0.0014005602240896359,1513.0,1494.0,1310,1500.0
10.397355079650879,160,50,0.001336898395721925,1511.0,1494.0,1310,1500.0
10.420778036117554,161,50,0.0015873015873015873,1512.0,1494.0,1310,1501.0
10.44436001777649,159,50,0.0014005602240896359,1504.0,1494.0,1310,1499.0
10.46798300743103,159,49,0.001336898395721925,1501.0,1494.0,1310,1499.0
10.491467952728271,160,49,0.0012987012987012987,1502.0,1494.0,1310,1500.0
10.514944076538086,160,49,0.0012987012987012987,1501.0,1494.0,1310,1500.0
10.538436889648438,159,48,0.001336898395721925,1497.0,1494.0,1310,1499.0
10.561981916427612,161,48,0.0012285012285012285,1501.0,1494.0,1310,1501.0
10.58593201637268,161,48,0.0012285012285012285,1502.0,1494.0,1310,1501.0
10.60939908027649,161,48,0.0012285012285012285,1503.0,1494.0,1310,1501.0
10.633073091506958,162,48,0.001336898395721925,1507.0,1494.0,1310,1502.0
10.656809091567993,162,48,0.001336898395721925,1508.0,1494.0,1310,1502.0
10.68032193183899,160,48,0.0011961722488038277,1505.0,1494.0,1310,1500.0
10.703821897506714,161,48,0.0012787723785166241,1509.0,1494.0,1310,1501.0
10.727267980575562,159,47,0.0011961722488038277,1504.0,1494.0,1310,1499.0
10.750915050506592,158,47,0.0011441647597254005,1500.0,1494.0,1310,1498.0
10.774399042129517,157,47,0.0011441647597254005,1496.0,1494.0,1310,1497.0
10.79793405532837,157,47,0.0011441647597254005,1492.0,1494.0,1310,1497.0
10.821408033370972,157,46,0.0010683760683760685,1488.0,1494.0,1310,1497.0
10.844978094100952,157,46,0.0010683760683760685,1484.0,1494.0,1310,1497.0
10.86857295036316,157,46,0.0011148272017837235,1480,1494.0,1310,1497.0
10.892071962356567,157,46,0.0011148272017837235,1480,1494.0,1310,1497.0
10.916007995605469,156,45,0.0010683760683760685,1480,1494.0,1310,1496.0
10.939513921737671,156,45,0.0010869565217391304,1480,1494.0,1310,1496.0
10.963135004043579,155,45,0.0011441647597254005,1480,1494.0,1310,1495.0
10.986824035644531,156,44,0.0010416666666666667,1480,1494.0,1310,1496.0
11.010124921798706,155,44,0.0011441647597254005,1480,1494.0,1310,1495.0
11.033605098724365,156,44,0.0011148272017837235,1480,1494.0,1310,1496.0
11.057017087936401,156,43,0.0010351966873706005,1480,1494.0,1310,1496.0
11.080498933792114,156,42,0.0010351966873706005,1480,1494.0,1310,1496.0
11.104010105133057,156,42,0.0010351966873706005,1480,1494.0,1310,1496.0
11.12754201889038,156,41,0.0010351966873706005,1480,1494.0,1310,1496.0
11.151052951812744,156,41,0.0010111223458038423,1480,1494.0,1310,1496.0
11.174392938613892,156,40,0.0009689922480620155,1480,1494.0,1310,1496.0
11.197942972183228,156,40,0.0010111223458038423,1480,1494.0,1310,1496.0
11.221400022506714,155,40,0.0010351966873706005,1480,1494.0,1310,1495.0
