time,x,y,size_inv,roll,pitch,thrust,yaw
0.0006971359252929688,168,50.0,4226.4235471613583,1501.8399999999999,1502.3124059622262,1350,1500.0
0.022956132888793945,168,51.128,4226.4235471613583,1502.0799999999999,1502.3124059622262,1350,1500.0
0.04502296447753906,168,50.128,4188.0015149144365,1502.3199999999999,1502.139506817115,1350,1500.0
0.06702399253845215,167,51.128,4188.0015149144365,1502.3299999999999,1502.139506817115,1350,1500.0
0.08907103538513184,168,51.128,4188.0015149144365,1502.77,1502.139506817115,1350,1500.0
0.11110115051269531,168,51.128,4188.0015149144365,1503.01,1502.139506817115,1350,1500.0
0.13312411308288574,167,50.128,4149.5794826675155,1503.02,1501.9666076720039,1350,1500.0
0.15515613555908203,167,51.128,4149.5794826675155,1503.23,1501.9666076720039,1350,1500.0
0.1771860122680664,168,51.128,4149.5794826675155,1503.6700000000001,1501.9666076720039,1350,1500.0
0.19922995567321777,168,50.128,4111.1574504205946,1503.9100000000001,1501.7937085268927,1350,1500.0
0.22141218185424805,168,51.128,4111.1574504205946,1501.71,1492.5724207876317,1350,1500.0
0.2437610626220703,168,51.128,4111.1574504205946,1506.1099999999999,1493.7250817550391,1350,1500.0
0.2660791873931885,168,51.128,4149.5794826675155,1510.51,1495.0506418675579,1350,1500.0
0.288377046585083,168,49.128,4111.1574504205946,1508.3399999999999,1494.8777427224468,1350,1500.0
0.31066417694091797,168,47.128,4040.717057967905,1508.3399999999999,1494.7528711176442,1350,1500.0
0.3330261707305908,169,43.705,3970.2766655152154,1510.77,1492.514787739261,1350,1500.0
0.3554210662841797,168,41.6345,4008.6986977621368,1508.4000000000001,1490.7665852720263,1350,1500.0
0.3777639865875244,168,41.658,4008.6986977621368,1506.23,1486.5401617248649,1350,1500.0
0.400097131729126,168,42.7285,4008.6986977621368,1506.23,1484.6190601125188,1350,1500.0
0.422482967376709,168,44.893,4008.6986977621368,1506.23,1485.7717210799262,1350,1500.0
0.4448881149291992,168,47.893,3938.2583053094472,1501.8299999999999,1488.7206120548778,1350,1500.0
0.4672069549560547,168,49.893,3867.8179128567581,1501.8299999999999,1487.2509693214329,1350,1500.0
0.4895131587982178,168,51.893,3829.3958806098367,1501.8299999999999,1485.9254092089141,1350,1500.0
0.5118491649627686,168,54.128,3867.8179128567581,1501.8299999999999,1484.9456473866176,1331.8398400000001,1500.0
0.5342559814453125,168,55.1045,3938.2583053094472,1501.8299999999999,1484.109968185247,1312.9238800000001,1500.0
0.556663990020752,168,56.0575,4008.6986977621368,1504.0,1487.5007125310378,1305.7190800000001,1500.0
0.5790340900421143,168,56.0575,4008.6986977621368,1504.0,1495.9535596253606,1308.07376,1500.0
0.6014139652252197,168,57.034,4008.6986977621368,1504.0,1506.7117286544985,1313.4185200000002,1500.0
0.6237950325012207,168,58.034,3970.2766655152154,1504.0,1513.8390156363025,1322.0971999999999,1500.0
0.6461789608001709,167,59.0575,3970.2766655152154,1501.5699999999999,1516.9127782160565,1329.06432,1500.0
0.6685740947723389,167,60.034,4002.2950257209836,1499.3399999999999,1514.7515389021669,1333.27008,1500.0
0.6909480094909668,167,60.987,4072.7354181736728,1497.1099999999999,1512.7631987333887,1333.4117200000001,1500.0
0.7133371829986572,167,60.8695,4111.1574504205946,1494.8800000000001,1510.6307759436845,1335.02136,1500.0
0.7357261180877686,167,59.752,4111.1574504205946,1492.6500000000001,1511.7834369110924,1339.2005999999999,1500.0
0.7581210136413574,167,58.611,4111.1574504205946,1494.8199999999999,1515.0493096520806,1346.5888400000001,1500.0
0.7805399894714355,167,55.4935,4072.7354181736728,1496.99,1517.1817324417848,1350,1500.0
0.8029091358184814,167,55.3995,4034.3133859267518,1499.1600000000001,1513.9350707169199,1350,1500.0
0.8252849578857422,167,55.3525,3995.8913536798304,1501.3299999999999,1507.230426089832,1350,1500.0
0.8476200103759766,167,56.3055,4034.3133859267518,1503.5,1500.8715797529665,1350,1500.0
0.869966983795166,167,56.282,4034.3133859267518,1503.5,1494.33983427099,1350,1500.0
0.8923311233520508,167,57.2585,4034.3133859267518,1503.5,1491.0739615300015,1350,1500.0
0.9147610664367676,166,58.235,4034.3133859267518,1501.0699999999999,1492.2266224974092,1350,1500.0
0.937330961227417,166,58.2115,3995.8913536798304,1498.8399999999999,1495.511706254521,1350,1500.0
0.9597351551055908,166,59.2115,3957.4693214329091,1496.6099999999999,1495.3388071094098,1350,1500.0
0.982125997543335,165,60.2115,3919.0472891859877,1491.95,1494.013246996891,1344.8547599999999,1500.0
1.00468111038208,165,61.2585,3919.0472891859877,1487.49,1491.7079250620759,1340.23876,1500.0
1.0270590782165527,164,65.2585,3919.0472891859877,1485.0,1488.2499421598529,1329.1812,1500.0
1.0494329929351807,164,67.3055,3919.0472891859877,1482.71,1485.9446202250376,1317.5176799999999,1500.0
1.071803092956543,164,68.329,3880.6252569390663,1480.4200000000001,1485.7717210799265,1307.1124399999999,1500.0
1.0941720008850098,164,70.329,3848.6068967332985,1482.53,1486.9724095876427,1295.4873600000001,1500.0
1.1166021823883057,164,71.329,3816.5885365275303,1484.6400000000001,1487.212547289186,1285.2258400000001,1500.0
1.1389951705932617,163,72.3525,3778.1665042806089,1486.55,1486.2712074991364,1283.3342399999999,1500.0
1.161391019821167,163,74.376,3746.1481440748407,1488.6600000000001,1483.2454724596914,1283.0923599999999,1500.0
1.1838011741638184,163,76.3995,3714.1297838690725,1490.77,1480.411847581481,1281.44244,1500.0
1.2061920166015625,163,77.423,3682.1114236633048,1490.71,1477.3861125420358,1283.7586799999999,1500.0
1.228581190109253,162,79.4465,3650.0930634575366,1488.22,1475.3209283087638,1283.33716,1500.0
1.2509510517120361,162,80.47,3650.0930634575366,1488.1600000000001,1475.705148631233,1280.0675999999999,1500.0
1.2733449935913086,161,83.4935,3650.0930634575366,1485.6700000000001,1478.0104705660483,1272.92608,1500.0
1.2957310676574707,161,85.517,3618.0747032517684,1483.3800000000001,1479.979599718703,1268.34456,1500.0
1.3181030750274658,160,87.564,3618.0747032517684,1480,1483.0533622984567,1260.9329600000001,1500.0
1.3404481410980225,160,89.6345,3618.0747032517684,1480,1487.0876756843834,1254.81744,1500.0
1.3628239631652832,160,91.6815,3586.0563430460002,1480,1488.8646946758035,1250,1500.0
1.3851351737976074,160,93.752,3586.0563430460002,1480,1489.8252454819767,1250,1500.0
1.4074020385742188,159,94.7755,3586.0563430460002,1480,1491.7463470943226,1250,1500.0
1.4297101497650146,159,95.7755,3586.0563430460002,1482.3199999999999,1492.7068979004955,1250,1500.0
1.4520599842071533,159,96.7755,3586.0563430460002,1484.4300000000001,1492.7068979004957,1250,1500.0
1.474498987197876,158,96.752,3554.037982840232,1484.1099999999999,1493.5233660857427,1251.35276,1500.0
1.49692702293396,158,96.705,3522.0196226344642,1481.8199999999999,1493.3792834648168,1261.1084000000001,1500.0
1.5193111896514893,157,96.705,3522.0196226344642,1481.5,1492.4187326586439,1270.92148,1500.0
1.5416901111602783,157,96.658,3522.0196226344642,1480,1491.4581818524707,1280.87472,1500.0
1.564018964767456,157,96.658,3522.0196226344642,1480,1490.4976310462976,1290.75568,1500.0
1.586348056793213,156,96.6345,3522.0196226344642,1480,1490.4976310462978,1297.84896,1500.0
1.6086971759796143,156,96.6345,3522.0196226344642,1480,1492.4187326586439,1301.9665599999998,1500.0
1.631052017211914,156,96.658,3522.0196226344642,1480,1494.33983427099,1304.6301599999999,1500.0
1.6533911228179932,156,97.6815,3522.0196226344642,1480.7,1496.2609358833358,1303.12832,1500.0
1.6757681369781494,155,97.6815,3522.0196226344642,1480.3800000000001,1498.1820374956822,1301.49468,1500.0
1.6981470584869385,155,97.6815,3522.0196226344642,1482.49,1499.1425883018551,1299.8271999999999,1500.0
1.7205231189727783,155,97.6815,3522.0196226344642,1484.5999999999999,1499.1425883018551,1298.2236399999999,1500.0
1.74294114112854,155,97.658,3522.0196226344642,1484.54,1499.1425883018551,1296.74792,1500.0
1.7653591632843018,155,96.611,3554.037982840232,1484.48,1500.2472217289542,1300.9377999999999,1500.0
1.7877261638641357,155,95.611,3554.037982840232,1488.8199999999999,1501.2077725351271,1306.5112799999999,1500.0
1.810096025466919,155,94.517,3554.037982840232,1490.99,1502.1683233413,1313.8048799999999,1500.0
1.832719087600708,155,93.4935,3554.037982840232,1493.1600000000001,1503.1288741474732,1322.4877200000001,1500.0
1.8551690578460693,155,93.4465,3554.037982840232,1495.3299999999999,1504.0894249536461,1329.9686799999999,1500.0
1.877568006515503,155,92.423,3554.037982840232,1497.5,1503.1288741474732,1335.77172,1500.0
1.89998197555542,154,92.423,3554.037982840232,1495.0699999999999,1502.1683233413,1337.54656,1500.0
1.9224271774291992,154,92.3995,3554.037982840232,1492.8399999999999,1501.2077725351271,1336.32024,1500.0
1.9448621273040771,154,90.3995,3586.0563430460002,1490.6099999999999,1501.351855156053,1337.47992,1500.0
1.9672560691833496,154,91.376,3586.0563430460002,1488.3800000000001,1501.351855156053,1333.5619999999999,1500.0
1.9896349906921387,154,90.376,3586.0563430460002,1486.1500000000001,1502.3124059622262,1332.0139999999999,1500.0
2.012021064758301,154,90.3525,3586.0563430460002,1488.3199999999999,1503.2729567683991,1330.68804,1500.0
2.034501075744629,154,90.3525,3586.0563430460002,1490.49,1504.2335075745723,1330.7559200000001,1500.0
2.0568761825561523,154,89.329,3586.0563430460002,1492.6600000000001,1503.2729567683991,1329.3178,1500.0
2.0792410373687744,154,89.329,3586.0563430460002,1494.8299999999999,1502.3124059622262,1329.4495999999999,1500.0
2.1016390323638916,155,88.3055,3618.0747032517684,1499.4300000000001,1502.4564885831521,1330.8754000000001,1500.0
2.1240360736846924,154,88.282,3618.0747032517684,1499.23,1502.4564885831521,1331.06924,1500.0
2.1464240550994873,154,88.282,3618.0747032517684,1499.23,1502.4564885831521,1331.26684,1500.0
2.1687960624694824,155,88.2585,3586.0563430460002,1501.6600000000001,1502.3124059622262,1331.38068,1500.0
2.1911840438842773,155,87.2585,3618.0747032517684,1503.8900000000001,1503.4170393893251,1332.77828,1500.0
2.2135701179504395,155,87.282,3618.0747032517684,1501.72,1502.4564885831521,1331.40804,1500.0
2.235948085784912,155,87.282,3650.0930634575366,1503.95,1502.6005712040781,1330.03216,1500.0
2.258334159851074,155,87.282,3682.1114236633048,1506.1800000000001,1503.7052046311771,1328.6562799999999,1500.0
2.2807300090789795,156,88.282,3682.1114236633048,1506.4400000000001,1506.5868570496962,1325.9665600000001,1500.0
2.30314302444458,156,88.282,3682.1114236633048,1506.5,1507.5474078558691,1321.6768400000001,1500.0
2.325550079345703,156,87.282,3682.1114236633048,1508.73,1509.4685094682154,1321.48488,1500.0
2.3487019538879395,156,87.282,3714.1297838690725,1508.79,1510.5731428953143,1320.1248800000001,1500.0
2.3731861114501953,156,87.282,3746.1481440748407,1508.8499999999999,1510.7172255162402,1318.7648799999999,1500.0
2.3975930213928223,156,87.2585,3778.1665042806089,1506.6800000000001,1510.8613081371661,1320.2988800000001,1500.0
2.4219701290130615,156,87.2115,3746.1481440748407,1504.51,1510.7172255162402,1323.2887599999999,1500.0
2.446506977081299,156,85.1645,3746.1481440748407,1502.3399999999999,1510.7172255162402,1328.7943599999999,1500.0
2.470879077911377,156,85.141,3746.1481440748407,1500.1700000000001,1509.7566747100673,1331.9056,1500.0
2.4951961040496826,157,84.094,3746.1481440748407,1500.4300000000001,1507.8355730977212,1337.75272,1500.0
2.519522190093994,157,83.047,3778.1665042806089,1502.6600000000001,1505.0980033001281,1343.68172,1500.0
2.543903112411499,157,83.0235,3810.1848644863771,1504.8900000000001,1505.242085921054,1348.28476,1500.0
2.568247079849243,157,82.0,3810.1848644863771,1507.1199999999999,1505.242085921054,1350,1500.0
2.5925421714782715,157,81.9765,3778.1665042806089,1509.3499999999999,1505.0980033001279,1350,1500.0
2.6168839931488037,157,81.9765,3816.5885365275303,1507.1800000000001,1507.3841142188198,1350,1500.0
2.6411471366882324,157,80.9765,3816.5885365275303,1505.01,1508.5367751862275,1350,1500.0
2.6654341220855713,157,81.9765,3848.6068967332985,1502.8399999999999,1507.912417162215,1344.64276,1500.0
2.689803123474121,157,82.0,3848.6068967332985,1500.6700000000001,1507.1439765172765,1340.3108400000001,1500.0
2.7141189575195312,158,82.0,3848.6068967332985,1500.9300000000001,1508.2966374846842,1335.9732799999999,1500.0
2.738741159439087,158,81.9765,3848.6068967332985,1503.1600000000001,1507.1439765172763,1333.12168,1500.0
2.7631449699401855,158,80.953,3848.6068967332985,1505.3900000000001,1506.9518663560418,1331.5678399999999,1500.0
2.787546157836914,158,80.9295,3848.6068967332985,1507.6199999999999,1505.7992053886342,1331.6798000000001,1500.0
2.811892032623291,158,80.906,3848.6068967332985,1509.8499999999999,1504.6465444212265,1333.2833600000001,1500.0
2.836374044418335,159,80.906,3880.6252569390663,1510.1099999999999,1503.637966074745,1334.89068,1500.0
2.8607230186462402,159,80.906,3842.2032246921453,1510.1700000000001,1502.3124059622262,1336.4322,1500.0
2.885045051574707,159,80.906,3842.2032246921453,1510.23,1501.1597449948188,1336.46792,1500.0
2.909370183944702,159,81.906,3880.6252569390663,1510.29,1502.2931949461026,1332.4378400000001,1500.0
2.9338510036468506,159,81.9295,3880.6252569390663,1510.3499999999999,1503.2537457522758,1329.44796,1500.0
2.9583160877227783,159,81.9295,3880.6252569390663,1508.1800000000001,1502.2931949461026,1326.4862800000001,1500.0
2.9827120304107666,159,82.953,3880.6252569390663,1506.01,1503.6379660747448,1320.8545200000001,1500.0
3.0071280002593994,159,83.9765,3880.6252569390663,1503.8399999999999,1504.9827372033872,1315.1408799999999,1500.0
3.0315029621124268,159,84.0,3880.6252569390663,1501.6700000000001,1504.0221863972142,1313.42536,1500.0
3.055925130844116,159,85.0,3880.6252569390663,1499.5,1503.0616355910411,1309.1958,1500.0
3.080348014831543,159,85.0235,3880.6252569390663,1499.5,1503.0616355910411,1306.1042,1500.0
3.104691982269287,159,85.0235,3880.6252569390663,1499.5,1501.9089746236334,1305.9066,1500.0
3.1290431022644043,159,85.0235,3880.6252569390663,1499.5,1500.7563136562258,1308.5748000000001,1500.0
3.1534440517425537,159,85.0235,3842.2032246921453,1499.5,1499.4307535437069,1309.9488000000001,1500.0
3.1778299808502197,159,86.0235,3842.2032246921453,1499.5,1498.2780925762993,1311.45084,1500.0
3.202162981033325,159,86.0235,3842.2032246921453,1499.5,1497.1254316088916,1314.2186799999999,1500.0
3.2266411781311035,160,87.047,3842.2032246921453,1501.9300000000001,1495.9727706414842,1312.8925200000001,1500.0
3.2509989738464355,160,87.0705,3842.2032246921453,1504.1600000000001,1494.8201096740765,1311.3405600000001,1500.0
3.275346040725708,160,87.0705,3842.2032246921453,1506.3900000000001,1495.9727706414842,1309.78484,1500.0
3.299649953842163,160,88.094,3810.1848644863771,1508.6199999999999,1496.0207981817928,1306.9670800000001,1500.0
3.323974132537842,160,88.094,3778.1665042806089,1510.8499999999999,1495.1082749159284,1305.34556,1500.0
3.3483240604400635,160,88.094,3778.1665042806089,1508.6800000000001,1494.33983427099,1306.5898400000001,1500.0
3.3727810382843018,160,87.094,3778.1665042806089,1506.51,1493.5713936260515,1310.5399199999999,1500.0
3.3972339630126953,160,87.0705,3778.1665042806089,1504.3399999999999,1491.6502920137052,1313.35204,1500.0
3.4216110706329346,160,88.0705,3746.1481440748407,1502.1700000000001,1490.5456585866064,1315.0017600000001,1500.0
3.4460229873657227,160,88.094,3714.1297838690725,1500.0,1490.4015759656804,1317.78944,1500.0
3.4704179763793945,160,88.1175,3714.1297838690725,1500.0,1490.4015759656804,1319.1513199999999,1500.0
3.4947621822357178,160,89.141,3714.1297838690725,1500.0,1490.4015759656804,1315.0074,1500.0
3.5190911293029785,160,90.235,3714.1297838690725,1500.0,1490.4015759656804,1309.1377199999999,1500.0
3.543454170227051,160,91.3055,3746.1481440748407,1500.0,1492.4667601989524,1303.1627599999999,1500.0
3.5678551197052,160,93.3525,3746.1481440748407,1500.0,1495.3484126174715,1293.1341199999999,1500.0
3.5921809673309326,160,93.3995,3746.1481440748407,1500.0,1498.2300650359907,1285.5036,1500.0
3.6166579723358154,160,94.423,3714.1297838690725,1500.0,1500.0070840274109,1279.4532400000001,1500.0
3.641024112701416,160,94.423,3682.1114236633048,1500.0,1500.8235522126579,1277.72624,1500.0
3.6653590202331543,160,93.423,3714.1297838690725,1500.0,1500.0070840274109,1280.27664,1500.0
3.6896719932556152,160,93.376,3714.1297838690725,1500.0,1498.0859824150648,1287.4507599999999,1500.0
3.7144839763641357,160,92.3525,3714.1297838690725,1500.0,1496.1648808027187,1297.3701599999999,1500.0
3.7389299869537354,160,91.329,3714.1297838690725,1500.0,1496.1648808027187,1310.2372399999999,1500.0
3.763331174850464,160,91.329,3682.1114236633048,1500.0,1496.9813489879659,1320.3882800000001,1500.0
3.787738084793091,160,90.329,3682.1114236633048,1500.0,1496.9813489879657,1328.92344,1500.0
3.8120391368865967,160,90.329,3682.1114236633048,1500.0,1496.9813489879657,1333.3430800000001,1500.0
3.8364920616149902,160,89.329,3682.1114236633048,1500.0,1496.9813489879657,1337.4730000000002,1500.0
3.8608670234680176,160,89.329,3714.1297838690725,1500.0,1497.1254316088916,1336.14516,1500.0
3.885197162628174,160,89.3525,3746.1481440748407,1500.0,1499.1906158421639,1334.7552800000001,1500.0
3.909507989883423,160,89.376,3746.1481440748407,1500.0,1502.0722682606829,1331.89156,1500.0
3.9339370727539062,160,89.3995,3746.1481440748407,1500.0,1504.9539206792022,1329.05792,1500.0
3.958418130874634,160,89.3995,3714.1297838690725,1500.0,1506.7309396706221,1324.8444399999998,1500.0
3.982823133468628,160,88.3995,3714.1297838690725,1500.0,1506.7309396706221,1324.66292,1500.0
4.007253170013428,160,88.376,3714.1297838690725,1500.0,1503.8492872521031,1323.40924,1500.0
4.031584978103638,160,86.3525,3714.1297838690725,1500.0,1500.9676348335838,1328.8951999999999,1500.0
4.055898189544678,160,86.329,3714.1297838690725,1500.0,1498.0859824150648,1332.0808,1500.0
4.0802161693573,160,85.282,3682.1114236633048,1500.0,1496.0207981817928,1339.3622800000001,1500.0
4.104525089263916,160,84.2585,3650.0930634575366,1500.0,1493.9556139485207,1345.2894000000001,1500.0
4.128839015960693,160,83.235,3650.0930634575366,1500.0,1492.9950631423476,1350,1500.0
4.153144121170044,160,82.2585,3650.0930634575366,1500.0,1492.0345123361747,1350,1500.0
4.177497148513794,160,82.2585,3682.1114236633048,1500.0,1492.1785949571006,1350,1500.0
4.2017340660095215,160,83.282,3682.1114236633048,1500.0,1493.1391457632735,1350,1500.0
4.225985050201416,159,83.329,3650.0930634575366,1497.5699999999999,1494.9161647546937,1348.9357600000001,1500.0
4.250342130661011,159,83.3525,3650.0930634575366,1495.3399999999999,1496.8372663670398,1341.7465999999999,1500.0
4.274716138839722,160,83.376,3618.0747032517684,1495.54,1497.6537345522868,1334.5413599999999,1500.0
4.29908013343811,159,83.3995,3618.0747032517684,1493.1099999999999,1496.6931837461138,1327.3342399999999,1500.0
4.323444128036499,160,83.3995,3618.0747032517684,1493.3099999999999,1494.7720821337678,1324.4450400000001,1500.0
4.347854137420654,159,83.3995,3618.0747032517684,1495.28,1493.8115313275948,1323.0793999999999,1500.0
4.372261047363281,160,83.3525,3586.0563430460002,1499.8800000000001,1491.7463470943226,1323.2955999999999,1500.0
4.396820068359375,159,82.3525,3554.037982840232,1497.45,1490.6417136672237,1327.4892399999999,1500.0
4.421205043792725,160,81.329,3522.0196226344642,1502.05,1489.5370802401246,1333.25072,1500.0
4.4455671310424805,160,81.3055,3522.0196226344642,1502.05,1488.5765294339517,1336.45408,1500.0
4.469910144805908,160,80.3055,3494.9271639988146,1504.28,1485.7207379986755,1342.20532,1500.0
4.494237184524536,161,80.3055,3467.8347053631646,1504.54,1483.9732744166761,1346.5930000000001,1500.0
4.518594026565552,160,81.376,3467.8347053631646,1508.74,1483.3082777047102,1345.3226,1500.0
4.542987108230591,160,82.3995,3467.8347053631646,1506.5699999999999,1484.5643826050905,1339.7370000000001,1500.0
4.567409992218018,160,83.4465,3467.8347053631646,1506.5699999999999,1485.8204875054705,1332.54972,1500.0
4.591742992401123,160,83.4935,3467.8347053631646,1504.4000000000001,1488.7021399239898,1323.6947600000001,1500.0
4.616208076477051,160,84.5405,3467.8347053631646,1500.0,1492.2487890544749,1312.19604,1500.0
4.640571117401123,159,84.5875,3440.7422467275146,1495.4000000000001,1493.9001975558569,1306.18704,1500.0
4.664924144744873,159,85.611,3413.6497880918641,1493.1700000000001,1493.7782814919963,1301.79016,1500.0
4.6892571449279785,159,86.6345,3413.6497880918641,1490.9400000000001,1493.7782814919963,1298.883,1500.0
4.713890075683594,159,85.611,3413.6497880918641,1488.71,1492.9655077329269,1301.39768,1500.0
4.73824405670166,159,85.564,3440.7422467275146,1488.6500000000001,1492.2746500377177,1305.73984,1500.0
4.762634038925171,159,84.517,3413.6497880918641,1490.8199999999999,1492.1527339738573,1311.4654,1500.0
4.787048101425171,159,83.4935,3386.5573294562141,1492.99,1492.8435916690664,1320.1104399999999,1500.0
4.81138014793396,159,82.47,3359.4648708205641,1495.1600000000001,1492.721675605206,1331.6712,1500.0
4.835700035095215,159,82.47,3332.3724121849141,1497.3299999999999,1491.7869857822761,1339.07404,1500.0
4.860059976577759,159,82.47,3305.2799535492641,1499.5,1488.4139746821377,1344.92136,1500.0
4.884366035461426,159,82.517,3305.2799535492641,1499.5,1485.9756534049293,1347.6490800000001,1500.0
4.90870213508606,159,83.5405,3305.2799535492641,1499.5,1484.3501058867901,1343.4734000000001,1500.0
4.9331700801849365,159,84.564,3278.1874949136136,1499.5,1483.4154160638602,1333.56612,1500.0
4.957758188247681,159,84.5875,3278.1874949136136,1499.5,1484.2281898229296,1326.21696,1500.0
4.982107162475586,159,84.611,3251.095036277964,1499.5,1486.5445950362778,1318.89788,1500.0
5.006582021713257,159,85.6345,3227.8729288759787,1499.5,1487.3689798490482,1310.46048,1500.0
5.030917167663574,159,85.6815,3227.8729288759787,1499.5,1487.4850903860583,1307.3849599999999,1500.0
5.055278062820435,159,85.705,3227.8729288759787,1499.5,1488.4139746821377,1308.5615599999999,1500.0
5.0796589851379395,158,86.7285,3227.8729288759787,1497.0699999999999,1488.5300852191478,1307.13012,1500.0
5.104011058807373,159,86.7285,3227.8729288759787,1497.27,1489.4589695152272,1306.9926800000001,1500.0
5.128347158432007,158,86.7285,3227.8729288759787,1494.8399999999999,1491.7811802554256,1309.6571200000001,1500.0
5.152775049209595,158,86.705,3204.6508214739933,1492.6099999999999,1493.3022282902557,1311.1232400000001,1500.0
5.177242994308472,158,85.6815,3204.6508214739933,1490.3800000000001,1494.1150020493253,1313.93704,1500.0
5.201600074768066,158,84.658,3181.428714072008,1492.55,1494.1266131030263,1321.05852,1500.0
5.2259321212768555,158,84.658,3158.2066066700227,1490.3199999999999,1492.6287871755983,1326.91984,1500.0
5.250270128250122,158,83.6345,3181.428714072008,1492.49,1491.3399602147881,1334.09124,1500.0
5.274618148803711,158,84.658,3158.2066066700227,1494.6600000000001,1490.5387975094195,1337.2026799999999,1500.0
5.298968076705933,158,83.658,3158.2066066700227,1496.8299999999999,1489.8421342873598,1341.2845600000001,1500.0
5.323362112045288,158,83.6345,3134.9844992680373,1496.8299999999999,1489.7376348040509,1339.97072,1500.0
5.347788095474243,158,82.6345,3134.9844992680373,1499.0,1491.13096124817,1341.2686799999999,1500.0
5.372159957885742,158,82.6345,3111.762391866052,1499.0,1490.3297985428017,1338.5008399999999,1500.0
5.396620035171509,157,82.658,3111.762391866052,1496.5699999999999,1490.3297985428017,1338.56872,1500.0
5.4210121631622314,157,83.6815,3088.5402844640666,1494.3399999999999,1489.5286358374331,1334.5547200000001,1500.0
5.445413112640381,157,83.705,3088.5402844640666,1492.1099999999999,1489.5286358374331,1333.03304,1500.0
5.469799041748047,157,83.7285,3088.5402844640666,1489.8800000000001,1488.8319726153736,1328.67752,1500.0
5.494134187698364,157,83.752,3065.3181770620813,1487.6500000000001,1489.4241363541241,1325.68012,1500.0
5.5184550285339355,157,83.752,3065.3181770620813,1489.8199999999999,1489.4241363541241,1321.3847600000001,1500.0
5.542868137359619,157,83.7285,3042.096069660096,1491.99,1490.0163000928749,1321.37724,1500.0
5.5672831535339355,157,83.705,3042.096069660096,1494.1600000000001,1490.0163000928749,1321.5013200000001,1500.0
5.591608047485352,158,82.6815,3018.8739622581106,1498.76,1489.2151373875063,1325.72504,1500.0
5.61595606803894,158,81.6345,2998.7481358430568,1503.1600000000001,1488.520796376187,1331.55044,1500.0
5.640339136123657,158,81.6345,2998.7481358430568,1505.3900000000001,1487.9170215837353,1336.0874799999999,1500.0
5.665014028549194,158,80.611,2978.6223094280026,1507.6199999999999,1487.3155690020239,1341.8688,1500.0
5.689396142959595,158,80.611,2958.4964830129488,1509.8499999999999,1486.1103416278609,1346.3241599999999,1500.0
5.713792085647583,158,81.658,2938.3706565978946,1507.6800000000001,1485.6946659053654,1345.1176799999998,1500.0
5.738206148147583,158,81.6815,2918.2448301828408,1505.51,1485.1861017532619,1342.1420000000001,1500.0
5.762628078460693,158,82.705,2898.119003767787,1503.3399999999999,1484.0737628087068,1336.4924799999999,1500.0
5.787063121795654,158,82.752,2877.9931773527328,1501.1700000000001,1482.8685354345437,1329.1132399999999,1500.0
5.8114001750946045,159,83.7755,2857.867350937679,1501.4300000000001,1482.2670828528323,1319.12032,1500.0
5.835736036300659,158,83.799,2837.7415245226248,1501.23,1481.5727418415129,1314.6171200000001,1500.0
5.860108137130737,158,83.799,2837.7415245226248,1501.23,1481.5727418415129,1311.63184,1500.0
5.884459018707275,158,83.799,2817.615698107571,1501.23,1482.0859504150969,1311.5123599999999,1500.0
5.908794164657593,159,83.8225,2817.615698107571,1503.6600000000001,1483.2935,1312.8543999999999,1500.0
5.933243036270142,159,84.846,2817.615698107571,1501.49,1485.1048243773548,1314.3884,1500.0
5.957728147506714,159,84.8695,2817.615698107571,1503.72,1487.5199235471614,1315.73044,1500.0
5.982100009918213,159,85.893,2817.615698107571,1505.95,1489.3312479245162,1314.3666800000001,1500.0
6.006646156311035,159,86.9165,2837.7415245226248,1508.1800000000001,1492.440688105642,1310.1371200000001,1500.0
6.030987024307251,159,86.9165,2857.867350937679,1506.01,1495.5501282867679,1307.1376399999999,1500.0
6.055279970169067,159,86.9165,2857.867350937679,1506.01,1497.9652274565744,1305.6120000000001,1500.0
6.079600095748901,159,86.893,2877.9931773527328,1503.8399999999999,1500.4708928452487,1304.1822400000001,1500.0
6.103996992111206,159,85.8695,2877.9931773527328,1501.6700000000001,1502.8859920150551,1308.2921200000001,1500.0
6.128348112106323,159,84.846,2877.9931773527328,1499.5,1503.4897668075068,1316.74164,1500.0
6.152727127075195,159,83.7755,2877.9931773527328,1499.5,1502.8859920150551,1326.75712,1500.0
6.177150011062622,159,82.7285,2877.9931773527328,1499.5,1502.2822172226035,1336.8601200000001,1500.0
6.201480150222778,159,81.6815,2877.9931773527328,1499.5,1500.4708928452487,1348.3730399999999,1500.0
6.225790023803711,159,80.6345,2877.9931773527328,1499.5,1498.6595684678937,1350,1500.0
6.25005316734314,159,79.5875,2857.867350937679,1499.5,1496.7576778716711,1350,1500.0
6.274304151535034,160,78.564,2837.7415245226248,1501.9300000000001,1494.8557872754486,1350,1500.0
6.2985451221466064,160,78.564,2837.7415245226248,1504.1600000000001,1493.0444628980938,1350,1500.0
6.322843074798584,160,78.5875,2817.615698107571,1506.3900000000001,1491.142572301871,1350,1500.0
6.347171068191528,160,78.5875,2817.615698107571,1508.6199999999999,1489.3312479245162,1350,1500.0
6.371441125869751,160,78.611,2817.615698107571,1510.8499999999999,1488.7274731320647,1350,1500.0
6.395688056945801,160,78.611,2817.615698107571,1508.6800000000001,1489.3312479245162,1348.1495199999999,1500.0
6.420035123825073,160,78.611,2817.615698107571,1506.51,1489.935022716968,1342.41812,1500.0
6.444391965866089,160,78.611,2817.615698107571,1504.3399999999999,1491.7463470943228,1338.17644,1500.0
6.468744993209839,160,78.611,2817.615698107571,1502.1700000000001,1493.5576714716776,1335.35868,1500.0
6.4931321144104,160,78.6345,2817.615698107571,1500.0,1494.7652210565809,1333.9685999999999,1500.0
6.51753306388855,160,79.6345,2817.615698107571,1500.0,1495.3689958490324,1331.35868,1500.0
6.5418431758880615,160,79.6345,2817.615698107571,1500.0,1495.972770641484,1329.94876,1500.0
6.566318035125732,160,79.6345,2817.615698107571,1500.0,1495.972770641484,1328.5068799999999,1500.0
6.590655088424683,161,79.611,2817.615698107571,1502.4300000000001,1495.972770641484,1327.1270399999999,1500.0
6.615031003952026,161,79.5875,2817.615698107571,1504.6600000000001,1495.972770641484,1325.8148799999999,1500.0
6.63941216468811,161,79.564,2817.615698107571,1506.8900000000001,1495.972770641484,1327.33656,1500.0
6.664059162139893,161,79.5405,2817.615698107571,1509.1199999999999,1495.972770641484,1328.8920800000001,1500.0
6.68843412399292,161,79.5405,2817.615698107571,1511.3499999999999,1495.972770641484,1330.4194,1500.0
6.712893962860107,161,79.517,2817.615698107571,1509.1800000000001,1495.972770641484,1331.9429600000001,1500.0
6.737328052520752,161,79.4935,2817.615698107571,1507.01,1495.972770641484,1333.4026000000001,1500.0
6.7617011070251465,161,79.4935,2817.615698107571,1504.8399999999999,1495.972770641484,1333.40824,1500.0
6.786211013793945,161,79.4935,2817.615698107571,1502.6700000000001,1495.972770641484,1333.34808,1500.0
6.810564994812012,161,79.4935,2817.615698107571,1500.5,1495.972770641484,1333.28792,1500.0
6.834908962249756,161,80.4935,2837.7415245226248,1500.5,1496.6671116528034,1330.5539199999998,1500.0
6.859263181686401,161,80.47,2837.7415245226248,1500.5,1497.270886445255,1329.0481200000002,1500.0
6.883691072463989,161,80.47,2837.7415245226248,1500.5,1497.8746612377067,1327.5460800000001,1500.0
6.908131122589111,161,80.4465,2837.7415245226248,1500.5,1498.4784360301583,1326.13804,1500.0
6.932582139968872,161,80.423,2837.7415245226248,1500.5,1499.0822108226098,1324.7638400000001,1500.0
6.957065105438232,161,80.3995,2820.1314264094526,1500.5,1497.8708876452538,1326.2554399999999,1500.0
6.981420993804932,161,79.376,2820.1314264094526,1500.5,1496.7388099094071,1330.3870399999998,1500.0
7.005836009979248,161,79.3525,2820.1314264094526,1500.5,1495.6067321735602,1333.3524799999998,1500.0
7.030193090438843,160,79.329,2820.1314264094526,1498.0699999999999,1494.4746544377135,1336.2859599999999,1500.0
7.05453896522522,160,79.329,2820.1314264094526,1495.8399999999999,1493.3425767018666,1339.12544,1500.0
7.078812122344971,160,79.329,2800.0055999943988,1493.6099999999999,1493.1765386339425,1340.5391200000001,1500.0
7.103162050247192,160,80.3055,2782.3955018812262,1491.3800000000001,1492.4935183999817,1336.5409999999999,1500.0
7.127609014511108,160,80.3055,2764.785403768054,1489.1500000000001,1491.2821952226257,1333.64888,1500.0
7.151952028274536,160,80.3055,2764.785403768054,1491.3199999999999,1490.1501174867788,1330.7229199999999,1500.0
7.176447153091431,160,81.3055,2747.1753056548814,1493.49,1488.4104913660276,1325.1889200000001,1500.0
7.2007670402526855,160,82.329,2747.1753056548814,1495.6600000000001,1487.4293573282937,1318.1848399999999,1500.0
7.225136041641235,160,82.329,2729.5652075417092,1497.8299999999999,1486.8972807924456,1316.53512,1500.0
7.249489068984985,160,83.376,2711.9551094285371,1500.0,1486.8935071999927,1312.15328,1500.0
7.273868083953857,160,83.376,2694.3450113153644,1500.0,1486.3614306641448,1309.0598,1500.0
7.298195123672485,159,85.423,2676.7349132021923,1497.5699999999999,1486.3576570716918,1303.3622399999999,1500.0
7.322589159011841,159,86.4465,2659.1248150890196,1495.3399999999999,1485.2218057433925,1300.28484,1500.0
7.347033977508545,159,86.47,2659.1248150890196,1493.1099999999999,1484.6935027999971,1297.04556,1500.0
7.371406078338623,159,87.4935,2659.1248150890196,1490.8800000000001,1484.6935027999971,1294.06404,1500.0
7.395769119262695,159,87.517,2659.1248150890196,1488.6500000000001,1485.7501086867876,1292.2486799999999,1500.0
7.420133113861084,159,88.517,2676.7349132021923,1490.8199999999999,1487.9425659018775,1292.1931199999999,1500.0
7.444494009017944,159,89.5405,2676.7349132021923,1492.99,1491.1123835622484,1292.1093600000002,1500.0
7.468836069107056,158,90.5875,2676.7349132021923,1492.73,1493.7538982792244,1290.5555200000001,1500.0
7.493206024169922,158,90.5875,2676.7349132021923,1492.6700000000001,1495.8671100528052,1291.6999599999999,1500.0
7.517608165740967,158,90.611,2676.7349132021923,1492.6099999999999,1497.4520188829906,1292.84816,1500.0
7.541944980621338,159,90.611,2694.3450113153644,1492.8099999999999,1498.0595672678951,1294.0406399999999,1500.0
7.566468000411987,159,90.5875,2694.3450113153644,1492.8099999999999,1498.0595672678949,1296.769,1500.0
7.590816020965576,159,89.564,2694.3450113153644,1497.21,1498.0595672678951,1305.0708399999999,1500.0
7.615453004837036,158,88.517,2711.9551094285371,1499.1800000000001,1498.6671156527996,1313.5165999999999,1500.0
7.639839172363281,159,87.47,2711.9551094285371,1503.78,1499.1954185961947,1323.50388,1500.0
7.664234161376953,159,86.4465,2711.9551094285371,1503.78,1499.1954185961947,1333.5768,1500.0
7.6885809898376465,159,85.423,2729.5652075417092,1503.78,1499.8029669810992,1343.6658,1500.0
7.712970018386841,159,84.423,2747.1753056548814,1501.6099999999999,1500.9388183093986,1350,1500.0
7.7373151779174805,159,85.423,2747.1753056548814,1503.8399999999999,1500.9388183093986,1350,1500.0
7.761587142944336,159,85.47,2747.1753056548814,1501.6700000000001,1500.9388183093986,1349.8681999999999,1500.0
7.785923957824707,159,85.47,2729.5652075417092,1501.6700000000001,1500.8595728678893,1345.6106399999999,1500.0
7.8102569580078125,159,84.47,2747.1753056548814,1501.6700000000001,1500.4105153660034,1341.15924,1500.0
7.83459210395813,159,83.423,2764.785403768054,1501.6700000000001,1499.4331549207225,1336.8638799999999,1500.0
7.858947992324829,159,82.3995,2764.785403768054,1499.5,1498.9048519773273,1338.2380800000001,1500.0
7.883325099945068,160,81.376,2764.785403768054,1501.9300000000001,1498.3765490339322,1342.6416400000001,1500.0
7.907763957977295,160,81.329,2764.785403768054,1504.1600000000001,1498.9048519773273,1347.33304,1500.0
7.932085990905762,160,80.329,2764.785403768054,1506.3900000000001,1498.9048519773273,1350,1500.0
7.9566330909729,160,80.329,2764.785403768054,1508.6199999999999,1498.3765490339322,1350,1500.0
7.98089599609375,160,79.3055,2782.3955018812262,1510.8499999999999,1498.4557944754415,1350,1500.0
8.005171060562134,160,79.3055,2800.0055999943988,1508.6800000000001,1499.0633428603458,1350,1500.0
8.029483079910278,160,79.3055,2817.615698107571,1506.51,1499.6708912452502,1350,1500.0
8.053843975067139,160,79.3055,2817.615698107571,1504.3399999999999,1500.7274971320405,1348.4048,1500.0
8.078269004821777,160,78.282,2817.615698107571,1502.1700000000001,1502.3124059622262,1348.37284,1500.0
8.102674007415771,161,78.282,2817.615698107571,1502.4300000000001,1502.8407089056213,1345.6388400000001,1500.0
8.127117156982422,161,78.282,2817.615698107571,1504.6600000000001,1502.3124059622262,1344.2968000000001,1500.0
8.151499032974243,160,78.2585,2817.615698107571,1504.46,1500.7274971320405,1343.0807199999999,1500.0
8.175851106643677,160,78.235,2817.615698107571,1504.46,1499.1425883018551,1343.25848,1500.0
8.200186014175415,161,78.235,2837.7415245226248,1506.8900000000001,1498.2520204829889,1340.54224,1500.0
8.22452998161316,161,77.2115,2837.7415245226248,1504.72,1497.7991893886501,1341.9200000000001,1500.0
8.248887062072754,161,77.2115,2837.7415245226248,1502.55,1497.8746612377067,1342.0695599999999,1500.0
8.273305177688599,161,77.188,2837.7415245226248,1504.78,1498.4784360301583,1342.2153599999999,1500.0
8.297737121582031,160,77.188,2837.7415245226248,1504.5799999999999,1499.0822108226098,1342.2671599999999,1500.0
8.322076082229614,161,77.188,2837.7415245226248,1502.6099999999999,1498.4784360301583,1343.71092,1500.0
8.346557140350342,160,78.188,2857.867350937679,1500.1800000000001,1498.569002249026,1339.64888,1500.0
8.370959043502808,160,78.188,2877.9931773527328,1497.95,1499.2633432603454,1336.78684,1500.0
8.395321130752563,161,78.188,2877.9931773527328,1495.98,1499.867118052797,1333.89096,1500.0
8.419666051864624,160,78.188,2877.9931773527328,1495.78,1500.4708928452487,1331.0270399999999,1500.0
8.444055080413818,160,79.188,2877.9931773527328,1493.55,1501.6784424301518,1325.5231200000001,1500.0
8.46842098236084,160,79.1645,2898.119003767787,1495.72,1502.3727834414713,1325.4731999999999,1500.0
8.49281907081604,160,79.1645,2918.2448301828408,1497.8900000000001,1502.463349660339,1325.39508,1500.0
8.51722002029419,160,79.1645,2938.3706565978946,1495.6600000000001,1503.1576906716584,1325.3489199999999,1500.0
8.541550159454346,160,79.1645,2958.4964830129488,1495.6600000000001,1504.4558064754294,1325.30276,1500.0
8.566205978393555,160,79.1645,2958.4964830129488,1497.8299999999999,1505.6633560603325,1328.0565999999999,1500.0
8.590610980987549,160,80.188,2958.4964830129488,1497.8299999999999,1506.2671308527842,1326.6826000000001,1500.0
8.614971160888672,159,81.2115,2958.4964830129488,1495.4000000000001,1506.2671308527842,1323.83476,1500.0
8.639328956604004,159,81.2115,2958.4964830129488,1495.3399999999999,1505.059581267881,1322.2151200000001,1500.0
8.663706064224243,159,81.2115,2958.4964830129488,1493.1099999999999,1502.6444820980744,1320.59548,1500.0
8.688112020492554,159,82.2115,2938.3706565978946,1490.8800000000001,1499.5350419169486,1314.9758400000001,1500.0
8.712512016296387,158,82.188,2918.2448301828408,1486.22,1496.4256017358227,1313.5160000000001,1500.0
8.736950159072876,158,82.1645,2918.2448301828408,1486.1600000000001,1494.0105025660164,1314.9558,1500.0
8.761298179626465,158,82.141,2918.2448301828408,1486.0999999999999,1492.1991781886613,1316.4294399999999,1500.0
8.785642147064209,158,81.141,2898.119003767787,1486.04,1490.2972875924388,1320.5148799999999,1500.0
8.809973001480103,157,82.141,2898.119003767787,1483.55,1489.6935127999873,1323.56032,1500.0
8.83431601524353,157,82.141,2877.9931773527328,1485.6600000000001,1489.6029465811196,1326.348,1500.0
8.858680009841919,157,83.188,2857.867350937679,1485.5999999999999,1488.9086055698001,1324.9138399999999,1500.0
8.883025169372559,156,84.188,2857.867350937679,1483.1099999999999,1488.3048307773486,1322.0302799999999,1500.0
8.907356023788452,156,85.188,2857.867350937679,1480.8199999999999,1488.9086055698001,1314.90672,1500.0
8.931640148162842,156,86.3055,2857.867350937679,1482.9300000000001,1488.9086055698001,1307.4729600000001,1500.0
8.955965995788574,155,87.3525,2840.2572528245064,1480.4400000000001,1488.9048319773474,1298.6480799999999,1500.0
8.980321168899536,155,88.376,2802.5213282962804,1480,1488.8859640150831,1291.34112,1500.0
9.004584074020386,155,89.3995,2764.785403768054,1480.26,1487.7350183169724,1285.39228,1500.0
9.02893614768982,155,89.3995,2747.1753056548814,1482.3699999999999,1485.5425611018823,1284.8316400000001,1500.0
9.053385019302368,155,89.3995,2729.5652075417092,1482.3099999999999,1482.8218009433972,1286.04,1500.0
9.0778169631958,155,89.376,2711.9551094285371,1486.6500000000001,1480.0255689358555,1290.242,1500.0
9.10216498374939,156,89.376,2694.3450113153644,1493.4200000000001,1478.3614146641607,1295.8576800000001,1500.0
9.126630067825317,156,89.3995,2676.7349132021923,1497.8199999999999,1478.4331129207644,1302.9171200000001,1500.0
9.151010036468506,156,89.423,2659.1248150890196,1502.22,1479.0331141207632,1308.5827199999999,1500.0
9.175359010696411,156,89.47,2659.1248150890196,1506.6199999999999,1480.7689666490617,1312.63264,1500.0
9.199686050415039,156,90.517,2659.1248150890196,1508.8499999999999,1483.0331221207553,1312.48516,1500.0
9.224045991897583,156,91.611,2659.1248150890196,1506.6800000000001,1485.2218057433922,1309.31396,1500.0
9.24845004081726,156,92.6815,2659.1248150890196,1504.51,1487.335017516973,1303.3032800000001,1500.0
9.272979974746704,156,93.7285,2676.7349132021923,1502.3399999999999,1490.5840806188532,1295.8789200000001,1500.0
9.29751205444336,156,94.7755,2676.7349132021923,1500.1700000000001,1493.2255953358292,1287.0784800000001,1500.0
9.321984052658081,157,93.7755,2694.3450113153644,1500.4300000000001,1495.9463554943143,1285.1379999999999,1500.0
9.346704006195068,157,93.7755,2694.3450113153644,1502.6600000000001,1498.0595672678951,1285.0607199999999,1500.0
9.37112307548523,157,93.752,2694.3450113153644,1504.8900000000001,1499.6444760980805,1288.0109199999999,1500.0
9.395538091659546,158,91.7285,2694.3450113153644,1509.55,1499.6444760980805,1299.1746000000001,1500.0
9.419950008392334,158,90.6815,2676.7349132021923,1514.01,1499.0369277131761,1313.5418400000001,1500.0
9.444334983825684,159,88.611,2694.3450113153644,1516.5,1498.0595672678949,1327.8948800000001,1500.0
9.468677997589111,159,87.5875,2711.9551094285371,1518.79,1497.610509766009,1340.9775199999999,1500.0
9.493080139160156,159,86.5405,2711.9551094285371,1520,1497.0822068226139,1350,1500.0
9.517701148986816,160,84.5405,2711.9551094285371,1520,1497.0822068226139,1350,1500.0
9.541872024536133,160,84.5405,2711.9551094285371,1520,1498.1388127094042,1350,1500.0
9.566137075424194,161,83.5405,2711.9551094285371,1520,1498.6671156527996,1350,1500.0
9.590303182601929,161,82.564,2729.5652075417092,1520,1498.7463610943087,1350,1500.0
9.614509105682373,161,82.5875,2747.1753056548814,1520,1499.3539094792131,1350,1500.0
9.638848066329956,161,82.5875,2747.1753056548814,1519.97,1499.8822124226083,1350,1500.0
9.663341999053955,162,80.564,2764.785403768054,1520,1500.4897608075128,1350,1500.0
9.687607049942017,162,79.564,2764.785403768054,1518.1800000000001,1501.5463666943031,1350,1500.0
9.711846113204956,162,79.564,2747.1753056548814,1516.0699999999999,1501.4671212527937,1350,1500.0
9.73623514175415,162,78.5405,2764.785403768054,1513.96,1501.0180637509079,1350,1500.0
9.760564088821411,162,78.5405,2747.1753056548814,1514.02,1499.8822124226083,1350,1500.0
9.7848379611969,163,77.5405,2747.1753056548814,1512.1099999999999,1497.7690006490277,1350,1500.0
9.809098958969116,164,76.517,2747.1753056548814,1514.5999999999999,1495.6557888754469,1350,1500.0
9.833491086959839,164,75.517,2747.1753056548814,1516.8900000000001,1495.1274859320517,1350,1500.0
9.857877969741821,164,75.4935,2729.5652075417092,1519.1800000000001,1493.463331660357,1350,1500.0
9.882138967514038,164,74.47,2747.1753056548814,1520,1493.5425771018663,1350,1500.0
9.906589031219482,164,73.4465,2747.1753056548814,1520,1494.0708800452614,1350,1500.0
9.930797100067139,164,73.47,2729.5652075417092,1517.1900000000001,1493.9916346037521,1350,1500.0
9.955056190490723,164,73.47,2729.5652075417092,1512.8499999999999,1493.463331660357,1350,1500.0
9.979310989379883,164,73.517,2729.5652075417092,1508.51,1494.5199375471473,1350,1500.0
10.003623008728027,164,73.5405,2747.1753056548814,1504.1700000000001,1494.5991829886566,1350,1500.0
10.027943134307861,164,73.5405,2764.785403768054,1502.0,1495.2067313735611,1350,1500.0
10.052216053009033,164,74.5405,2747.1753056548814,1502.0,1496.184091818842,1346.2150799999999,1500.0
10.076709985733032,164,73.517,2729.5652075417092,1502.0,1496.6331493207281,1344.59168,1500.0
10.101030111312866,163,73.4935,2729.5652075417092,1499.5699999999999,1496.6331493207281,1341.96568,1500.0
10.12536907196045,163,72.47,2729.5652075417092,1497.3399999999999,1496.1048463773329,1343.47128,1500.0
10.149734020233154,163,71.4465,2729.5652075417092,1495.1099999999999,1494.5199375471473,1347.84268,1500.0
10.174095153808594,164,71.423,2747.1753056548814,1495.3099999999999,1494.0708800452614,1350,1500.0
10.198347091674805,163,71.3995,2764.785403768054,1492.8800000000001,1495.2067313735611,1350,1500.0
10.222697973251343,163,71.423,2764.785403768054,1495.05,1496.2633372603514,1350,1500.0
10.247130155563354,163,72.4465,2747.1753056548814,1497.22,1497.2406977056326,1350,1500.0
10.271429061889648,163,72.4465,2747.1753056548814,1499.3900000000001,1498.825606535818,1350,1500.0
10.295706987380981,162,73.47,2747.1753056548814,1494.73,1498.825606535818,1344.5248799999999,1500.0
10.320059061050415,162,73.47,2764.785403768054,1494.6700000000001,1497.8482460905368,1338.66356,1500.0
10.344640016555786,162,73.4465,2782.3955018812262,1492.4400000000001,1497.399188588651,1332.9620399999999,1500.0
10.369172096252441,161,73.423,2764.785403768054,1487.78,1497.3199431471417,1331.5521200000001,1500.0
10.393646955490112,161,73.3525,2747.1753056548814,1483.3199999999999,1496.7123947622374,1331.69208,1500.0
10.418111085891724,161,72.329,2747.1753056548814,1485.4300000000001,1496.7123947622374,1337.3472400000001,1500.0
10.442538976669312,160,71.282,2729.5652075417092,1482.9400000000001,1495.5765434339378,1344.57024,1500.0
10.466960191726685,160,71.2585,2711.9551094285371,1480.6500000000001,1492.8557832754525,1350,1500.0
10.491198062896729,160,71.235,2711.9551094285371,1482.76,1490.7425715018719,1350,1500.0
10.515464067459106,160,72.2585,2694.3450113153644,1484.8699999999999,1489.0784172301771,1350,1500.0
10.53973913192749,160,72.2585,2694.3450113153644,1484.8099999999999,1487.4935083999917,1350,1500.0
10.564291954040527,160,73.3055,2676.7349132021923,1489.1500000000001,1486.8859600150872,1347.9912400000001,1500.0
10.588601112365723,160,74.3055,2643.5864932244558,1493.49,1486.7989454126455,1339.42788,1500.0
10.612993001937866,159,76.3995,2643.5864932244558,1493.23,1486.3327957567087,1326.50252,1500.0
10.637446165084839,159,77.4465,2643.5864932244558,1493.1700000000001,1486.3949490441669,1316.28756,1500.0
10.661846160888672,159,78.47,2625.9763951112836,1493.1099999999999,1485.8495539467208,1306.01892,1500.0
10.686426162719727,158,79.4935,2625.9763951112836,1488.45,1485.9117072341789,1298.6319599999999,1500.0
10.710834980010986,158,80.517,2610.4380732467198,1483.99,1486.8983906725789,1292.60312,1500.0
10.735202074050903,158,81.5405,2594.899751382156,1483.9300000000001,1487.4189244550416,1290.9956,1500.0
10.759570121765137,158,82.5405,2594.899751382156,1483.8699999999999,1487.4810777425,1289.5159200000001,1500.0
10.783926010131836,159,82.564,2579.3614295175921,1486.24,1488.0637648124211,1292.04,1500.0
10.808274984359741,158,83.564,2563.8231076530283,1490.3800000000001,1487.6519992830101,1293.3941600000001,1500.0
10.832687139511108,158,84.564,2550.0112659956385,1494.72,1486.7714943773515,1294.81412,1500.0
10.857136011123657,158,84.564,2520.6611024736844,1496.8900000000001,1485.8728614295176,1297.4520400000001,1500.0
10.881448030471802,158,84.564,2505.1227806091206,1499.0599999999999,1484.5702321132051,1301.46604,1500.0
10.905781030654907,158,84.5875,2489.5844587445567,1496.8299999999999,1483.2054495094342,1304.09184,1500.0
10.930130958557129,158,85.5875,2460.2342952226031,1496.8299999999999,1481.8303080244202,1305.51388,1500.0
10.954507112503052,158,85.611,2460.2342952226031,1496.8299999999999,1480.9498031187616,1309.4819199999999,1500.0
10.97887396812439,158,86.6345,2460.2342952226031,1496.8299999999999,1481.3641583684832,1309.3841599999998,1500.0
11.003283023834229,159,87.6815,2444.6959733580393,1499.26,1482.1747408257513,1306.3905199999999,1500.0
11.027719974517822,158,87.705,2444.6959733580393,1501.23,1483.521395387347,1304.62508,1500.0
11.052070140838623,158,88.7755,2444.6959733580393,1501.23,1486.1629101043227,1301.50172,1500.0
11.076579093933105,160,88.8225,2458.5078150154291,1506.0899999999999,1488.8665781087568,1298.24468,1500.0
11.1010000705719,159,90.846,2472.3196566728193,1508.1199999999999,1491.1040964572542,1292.5678,1500.0
11.12534499168396,159,90.893,2472.3196566728193,1505.95,1493.7456111742299,1292.12664,1500.0
11.149685144424438,159,90.893,2472.3196566728193,1508.1800000000001,1495.9209762352689,1291.7757200000001,1500.0
11.17404317855835,159,90.893,2486.1314983302091,1510.4100000000001,1497.692344927829,1293.0622000000001,1500.0
11.198405981063843,159,90.8695,2472.3196566728193,1503.8399999999999,1498.0963412963079,1294.51036,1500.0
11.222829103469849,160,88.799,2472.3196566728193,1504.0999999999999,1497.7337804528013,1305.67028,1500.0
11.247270107269287,160,87.7755,2487.8579785373831,1506.3299999999999,1497.4411420576853,1315.75532,1500.0
11.271648168563843,160,85.7285,2487.8579785373831,1506.3900000000001,1497.0785812141789,1329.9842799999999,1500.0
11.295993089675903,160,84.6815,2487.8579785373831,1506.45,1495.887309871229,1343.06504,1500.0
11.320321083068848,160,83.6345,2487.8579785373831,1510.8499999999999,1495.9391042774441,1350,1500.0
11.344629049301147,160,82.611,2487.8579785373831,1508.6800000000001,1496.4052539333811,1350,1500.0
11.368975162506104,161,80.5875,2487.8579785373831,1508.9400000000001,1495.9391042774441,1350,1500.0
11.393354177474976,161,79.5875,2487.8579785373831,1509.0,1495.4729546215074,1350,1500.0
11.417701959609985,161,79.5875,2487.8579785373831,1509.0599999999999,1495.421160215292,1350,1500.0
11.441996097564697,160,78.611,2501.6698201947729,1506.6900000000001,1495.4315190965351,1350,1500.0
11.466418981552124,161,78.6345,2501.6698201947729,1509.1199999999999,1495.3797246903198,1350,1500.0
11.490699052810669,162,78.658,2486.1314983302091,1509.3800000000001,1495.2580078357141,1350,1500.0
11.515267133712769,162,78.6815,2486.1314983302091,1509.4400000000001,1495.2062134294988,1350,1500.0
11.53954005241394,162,78.705,2486.1314983302091,1509.5,1495.1544190232837,1350,1500.0
11.563847064971924,162,78.705,2486.1314983302091,1513.96,1494.2739141176251,1344.4199599999999,1500.0
11.588248014450073,162,78.7285,2486.1314983302091,1514.02,1493.3934092119664,1338.84836,1500.0
11.612666130065918,163,78.705,2501.6698201947729,1514.28,1493.9812757225091,1336.1847600000001,1500.0
11.637120008468628,162,77.705,2501.6698201947729,1511.9100000000001,1494.4992197846614,1337.5587600000001,1500.0
11.661484956741333,162,76.6345,2501.6698201947729,1509.74,1495.0171638468134,1340.6246799999999,1500.0
11.685898065567017,162,75.611,2501.6698201947729,1505.4000000000001,1495.9494631586872,1346.4360799999999,1500.0
11.710255146026611,162,74.564,2501.6698201947729,1503.23,1496.8817624705609,1350,1500.0
11.734528064727783,162,74.5405,2501.6698201947729,1498.8299999999999,1496.4156128146242,1350,1500.0
11.75886607170105,163,73.5405,2501.6698201947729,1501.26,1495.9494631586872,1350,1500.0
11.783189058303833,163,74.564,2487.8579785373831,1503.49,1495.0068049655704,1350,1500.0
11.807535171508789,163,74.5875,2487.8579785373831,1505.72,1494.1263000599117,1350,1500.0
11.83177900314331,163,75.611,2474.0461368799929,1507.95,1492.7692866170732,1350,1500.0
11.856295108795166,162,75.5875,2458.5078150154291,1509.9200000000001,1491.4045040133024,1346.4074799999999,1500.0
11.880689144134521,162,74.564,2458.5078150154291,1505.52,1490.109643857922,1340.49812,1500.0
11.905012130737305,162,74.5405,2458.5078150154291,1501.1199999999999,1489.643494201985,1337.7442799999999,1500.0
11.929352045059204,162,74.517,2458.5078150154291,1496.72,1489.1773445460481,1336.4820399999999,1500.0
11.953756093978882,162,74.517,2444.6959733580393,1492.3199999999999,1489.0633968523746,1339.4813199999999,1500.0
11.97819995880127,162,74.4935,2444.6959733580393,1492.3199999999999,1489.9439017580332,1342.5088000000001,1500.0
12.002624034881592,162,74.4935,2444.6959733580393,1494.49,1490.8244066636919,1344.0022800000002,1500.0
12.027067184448242,163,75.4935,2444.6959733580393,1499.0899999999999,1491.2905563196289,1341.3980000000001,1500.0
12.05142617225647,163,75.517,2430.884131700649,1503.49,1491.2801974383858,1339.83392,1500.0
12.075762033462524,163,76.517,2430.884131700649,1507.8900000000001,1491.7463470943228,1334.2660800000001,1500.0
12.100102186203003,163,76.5405,2430.884131700649,1510.1199999999999,1491.7463470943228,1329.8023600000001,1500.0
12.124444961547852,163,77.517,2417.0722900432593,1512.3499999999999,1491.2698385571427,1324.18084,1500.0
12.148853063583374,163,78.517,2403.2604483858695,1510.1800000000001,1490.378974770241,1319.92308,1500.0
12.173259019851685,163,77.4935,2377.0906431402882,1508.01,1489.4761164892686,1319.6651200000001,1500.0
12.197679996490479,163,78.4465,2377.0906431402882,1505.8399999999999,1488.2766670821795,1318.4630400000001,1500.0
12.22202205657959,163,78.423,2363.278801482898,1503.6700000000001,1486.6007091379104,1318.5643600000001,1500.0
12.246530055999756,163,78.376,2349.4669598255082,1501.5,1485.3391064433629,1321.49576,1500.0
12.2710280418396,163,78.376,2349.4669598255082,1501.5,1484.9683675357173,1325.8107599999998,1500.0
12.295612096786499,163,78.376,2337.1089962373171,1501.5,1485.327111949292,1327.2280000000001,1500.0
12.320028066635132,163,80.3995,2324.751032649126,1501.5,1485.3151174552211,1324.6116,1500.0
12.34440302848816,163,81.47,2298.5812274035447,1501.5,1485.2845860157679,1321.4995199999998,1500.0
12.368779182434082,163,83.517,2298.5812274035447,1501.5,1485.7861739496416,1312.8083199999999,1500.0
12.393203020095825,163,84.5875,2286.2232638153537,1501.5,1485.447056890001,1302.3874000000001,1500.0
12.417654037475586,163,86.6345,2286.2232638153537,1501.5,1485.1199343244311,1289.2389599999999,1500.0
12.442021131515503,163,87.6345,2273.8653002271631,1501.5,1485.1079398303602,1280.27664,1500.0
12.466483116149902,163,88.6345,2273.8653002271631,1501.5,1486.3073892374493,1272.9036800000001,1500.0
12.491130113601685,163,88.611,2261.507336638972,1501.5,1486.6661336510242,1272.5882799999999,1500.0
12.515498161315918,163,88.5875,2249.1493730507809,1501.5,1487.3956169722449,1275.30412,1500.0
12.539855003356934,162,90.5875,2261.507336638972,1499.0699999999999,1488.2363219657593,1278.44336,1500.0
12.564406156539917,162,90.611,2261.507336638972,1496.8399999999999,1489.3921550307723,1283.9685999999999,1500.0
12.58884310722351,162,91.6345,2250.3851694096002,1494.6099999999999,1489.3791791690048,1288.1641199999999,1500.0
12.613264083862305,162,92.6815,2238.0272058214091,1492.3800000000001,1489.7313811312681,1287.9740400000001,1500.0
12.637717008590698,161,92.7285,2238.0272058214091,1487.72,1490.5099328373242,1287.3946000000001,1500.0
12.662075996398926,161,93.7285,2226.9050385920373,1487.6600000000001,1490.1632919586755,1287.04764,1500.0
12.686542987823486,160,93.705,2239.2630021802279,1485.1700000000001,1489.9223116687058,1286.6685199999999,1500.0
12.710872173309326,160,92.658,2226.9050385920373,1482.8800000000001,1489.8667008325588,1290.53108,1500.0
12.73521113395691,161,92.5875,2239.2630021802279,1483.02,1490.6637894839971,1296.28692,1500.0
12.75956106185913,160,91.564,2239.2630021802279,1484.9300000000001,1491.0345283916429,1304.82376,1500.0
12.783907175064087,160,91.564,2215.782871362665,1484.8699999999999,1491.6332717274906,1312.2124000000001,1500.0
12.808253049850464,160,90.564,2215.782871362665,1489.21,1491.5961978367261,1322.14328,1500.0
12.832679033279419,160,91.5875,2215.782871362665,1493.55,1491.9669367443719,1323.8485599999999,1500.0
12.857174158096313,160,90.6345,2215.782871362665,1493.49,1491.2254589290803,1327.6766399999999,1500.0
12.88151216506958,161,91.658,2204.6607041332932,1498.0899999999999,1490.1002663443758,1324.72936,1500.0
12.905891180038452,161,91.7285,2204.6607041332932,1502.49,1490.1002663443758,1321.46416,1500.0
12.930247068405151,161,92.752,2181.1805733157298,1504.72,1489.6609407388155,1312.81348,1500.0
12.95458197593689,162,92.7755,2159.9954928788311,1509.3800000000001,1488.2256515392155,1309.61868,1500.0
12.978906154632568,162,93.799,2136.5153620612678,1516.01,1486.4463695960214,1301.17752,1500.0
13.003332138061523,162,93.8225,2125.3931948318959,1516.0699999999999,1485.0563635058554,1298.1602800000001,1500.0
13.027753114700317,162,92.8225,2136.5153620612678,1516.1300000000001,1483.3957180131081,1298.00864,1500.0
13.052101135253906,162,91.799,2125.3931948318959,1516.1900000000001,1482.7101158474688,1303.58484,1500.0
13.076593160629272,162,90.752,2125.3931948318959,1511.8499999999999,1483.3456682605758,1309.37076,1500.0
13.10093903541565,162,89.7285,2114.2710276025236,1507.51,1485.0063137533232,1320.7642000000001,1500.0
13.125302076339722,162,89.7285,2114.2710276025236,1505.3399999999999,1487.050674015484,1329.60328,1500.0
13.149630069732666,162,88.752,2114.2710276025236,1503.1700000000001,1488.4277042438825,1338.12444,1500.0
13.173983097076416,162,88.7755,2114.2710276025236,1501.0,1489.7676605815163,1341.154,1500.0
13.198322057723999,162,88.8225,2124.333940810051,1501.0,1490.8192350117029,1341.1241199999999,1500.0
13.222728967666626,163,89.846,2124.333940810051,1503.4300000000001,1491.7884524416911,1334.19084,1500.0
13.247198104858398,163,88.8695,2124.333940810051,1505.6600000000001,1492.4240048547981,1331.0317600000001,1500.0
13.271610021591187,163,88.846,2113.2117735806792,1507.8900000000001,1493.0095075153729,1325.3887199999999,1500.0
13.296005964279175,163,87.8225,2113.2117735806792,1510.1199999999999,1493.3113949115987,1323.8772799999999,1500.0
13.32037901878357,163,85.799,2113.2117735806792,1512.3499999999999,1493.0095075153729,1328.0352,1500.0
13.344762086868286,163,84.752,2113.2117735806792,1510.1800000000001,1492.3739551022659,1336.78676,1500.0
13.369131088256836,163,83.705,2113.2117735806792,1508.01,1491.7384026891589,1344.3117999999999,1500.0
13.393534183502197,163,82.6815,2124.333940810051,1505.8399999999999,1492.1538950792276,1350,1500.0
13.417886018753052,163,82.6815,2124.333940810051,1503.6700000000001,1492.5193377167641,1350,1500.0
13.442522048950195,163,81.6815,2124.333940810051,1501.5,1493.1866677505263,1350,1500.0
13.466892957687378,163,81.6815,2124.333940810051,1501.5,1493.8539977842886,1350,1500.0
13.491124153137207,163,80.6815,2135.4561080394228,1501.5,1494.9050425874643,1350,1500.0
13.515331983566284,163,80.6815,2135.4561080394228,1501.5,1494.9050425874643,1350,1500.0
13.539572954177856,163,80.6815,2135.4561080394228,1501.5,1494.9050425874643,1350,1500.0
13.563905000686646,163,79.6815,2146.5782752687946,1501.5,1495.2887573568776,1348.55744,1500.0
13.588335990905762,163,80.705,2146.5782752687946,1501.5,1495.6224223737588,1344.55952,1500.0
13.612739086151123,163,80.705,2146.5782752687946,1501.5,1495.2887573568776,1340.41372,1500.0
13.637171030044556,163,80.705,2146.5782752687946,1501.5,1495.2887573568776,1337.6598799999999,1500.0
13.661516189575195,163,80.705,2146.5782752687946,1501.5,1495.2887573568776,1334.9060399999998,1500.0
13.685871124267578,163,80.658,2146.5782752687946,1501.5,1494.6214273231153,1330.83628,1500.0
13.710180044174194,163,78.5875,2146.5782752687946,1501.5,1493.9540972893531,1335.04204,1500.0
13.73451018333435,163,77.564,2146.5782752687946,1501.5,1493.6204322724718,1340.8252400000001,1500.0
13.758888959884644,163,77.517,2146.5782752687946,1501.5,1493.2867672555908,1345.50432,1500.0
13.7832510471344,163,77.4935,2146.5782752687946,1501.5,1492.9531022387096,1350,1500.0
13.807576179504395,163,77.4935,2125.3931948318959,1501.5,1492.2222169636366,1350,1500.0
13.831834077835083,163,77.4935,2125.3931948318959,1501.5,1491.5866645505296,1350,1500.0
13.856364965438843,163,77.517,2136.5153620612678,1501.5,1491.334826906836,1350,1500.0
13.88063907623291,163,78.5405,2125.3931948318959,1501.5,1490.6492247411968,1343.4995200000001,1500.0
13.9049711227417,162,79.5405,2125.3931948318959,1499.0699999999999,1490.0136723280898,1334.9842000000001,1500.0
13.929342985153198,162,79.5405,2125.3931948318959,1496.8399999999999,1490.6492247411968,1327.7328,1500.0
13.953809022903442,162,79.4935,2125.3931948318959,1494.6099999999999,1491.2847771543038,1323.42136,1500.0
13.97825002670288,161,78.47,2104.2081143949968,1489.95,1490.5221142585754,1323.2133200000001,1500.0
14.002650022506714,161,78.47,2094.1452011874694,1485.49,1490.1749437529156,1324.7067999999999,1500.0
14.027067184448242,161,79.47,2094.1452011874694,1485.4300000000001,1489.8730563566899,1326.3922399999999,1500.0
14.051414966583252,161,79.47,2104.2081143949968,1485.3699999999999,1489.2827870530168,1329.2776799999999,1500.0
