time,frame,x,y,size_inv,roll,pitch,thrust,yaw
6.604194641113281e-05,1,,,,1500.0,1500.0,1250.0,1500
0.021183013916015625,2,,,,1500.0,1500.0,1250.0,1500
0.04245901107788086,3,,,,1500.0,1500.0,1250.0,1500
0.0634920597076416,4,,,,1500.0,1500.0,1250.0,1500
0.08494710922241211,5,76,191,0.03333333333333333,1491.6,1520,1200,1500
0.1061861515045166,6,,,,1500.0,1500.0,1250.0,1500
0.12729716300964355,7,76,185,0.04,1491.6,1520,1200,1500
0.14847397804260254,8,77,191,0.023809523809523808,1491.7,1520,1200,1500
0.1696619987487793,9,75,184,0.03571428571428571,1491.5,1520,1200,1500
0.19084715843200684,10,76,187,0.04,1491.6,1520,1200,1500
0.2120060920715332,11,75,184,0.06666666666666667,1491.5,1520,1200,1500
0.2331700325012207,12,75,186,0.041666666666666664,1491.5,1520,1200,1500
0.2542691230773926,13,,,,1500.0,1500.0,1250.0,1500
0.2753629684448242,14,76,187,0.03333333333333333,1491.6,1520,1200,1500
0.2965400218963623,15,75,188,0.02857142857142857,1491.5,1520,1200,1500
0.317716121673584,16,70,171,0.05,1491.0,1520,1200,1500
0.3388640880584717,17,75,186,0.05,1491.5,1520,1200,1500
0.35996103286743164,18,,,,1500.0,1500.0,1250.0,1500
0.3810920715332031,19,77,192,0.04,1491.7,1520,1200,1500
0.40226316452026367,20,76,188,0.05,1491.6,1520,1200,1500
0.4234189987182617,21,,,,1500.0,1500.0,1250.0,1500
0.44450902938842773,22,70,170,0.05,1491.0,1520,1200,1500
0.46567606925964355,23,76,188,0.022222222222222223,1491.6,1520,1200,1500
0.4867680072784424,24,,,,1500.0,1500.0,1250.0,1500
0.5078690052032471,25,76,186,0.03333333333333333,1491.6,1520,1200,1500
0.5290570259094238,26,76,189,0.041666666666666664,1491.6,1520,1200,1500
0.55025315284729,27,77,191,0.05,1491.7,1520,1200,1500
0.5714080333709717,28,76,182,0.08333333333333333,1491.6,1520,1200,1500
0.592609167098999,29,78,191,0.020833333333333332,1491.8,1520,1200,1500
0.6137609481811523,30,,,,1500.0,1500.0,1250.0,1500
0.6348791122436523,31,79,188,0.08333333333333333,1491.9,1520,1200,1500
0.6560909748077393,32,81,186,0.02857142857142857,1492.1,1520,1200,1500
0.6772699356079102,33,87,192,0.05,1492.7,1520,1200,1500
0.6983799934387207,34,,,,1500.0,1500.0,1250.0,1500
0.7193770408630371,35,,,,1500.0,1500.0,1250.0,1500
0.7403719425201416,36,,,,1500.0,1500.0,1250.0,1500
0.7613370418548584,37,,,,1500.0,1500.0,1250.0,1500
0.7824001312255859,38,109,184,0.0125,1494.9,1520,1200,1500
0.803570032119751,39,,,,1500.0,1500.0,1250.0,1500
0.8246610164642334,40,120,174,0.03571428571428571,1496.0,1520,1200,1500
0.8458030223846436,41,,,,1500.0,1500.0,1250.0,1500
0.866901159286499,42,168,176,0.017857142857142856,1500.8,1520,1200,1500
0.8880960941314697,43,155,166,0.05555555555555555,1499.5,1520,1200,1500
0.9092860221862793,44,166,164,0.019230769230769232,1500.6,1520,1200,1500
0.9304721355438232,45,173,159,0.017857142857142856,1501.3,1520,1200,1500
0.9516510963439941,46,204,158,0.010526315789473684,1504.4,1520,1200,1500
0.9728500843048096,47,198,152,0.003289473684210526,1503.8,1507.8947368421052,1200,1500
0.9940860271453857,48,201,148,0.002331002331002331,1504.1,1498.3100233100233,1200,1500
1.0153050422668457,49,212,146,0.0022172949002217295,1505.2,1497.1729490022174,1200,1500
1.0365350246429443,50,208,100,0.0012345679012345679,1504.8,1487.3456790123457,1250.0,1500
1.0578160285949707,51,221,139,0.0010683760683760685,1506.1,1485.6837606837607,1200,1500
1.079056978225708,52,226,134,0.000651890482398957,1506.6,1481.5189048239895,1200,1500
1.10030198097229,53,227,129,0.0004222972972972973,1506.7,1480,1200,1500
1.1212000846862793,54,218,119,0.00020678246484698098,1505.8,1480,1212.0,1500
1.1426410675048828,55,218,118,0.00017655367231638418,1505.8,1480,1214.0,1500
1.1641299724578857,56,219,114,0.0001523229246001523,1505.9,1480,1222.0,1500
1.1856200695037842,57,220,114,0.00014277555682467162,1506.0,1480,1222.0,1500
1.2070910930633545,58,174,87,3.959768749505029e-05,1501.4,1480,1276.0,1500
1.2285871505737305,59,173,62,6.435006435006435e-05,1501.3,1480,1300,1500
1.250049114227295,60,171,90,3.461405330564209e-05,1501.1,1480,1270.0,1500
1.271665096282959,61,168,88,2.936857562408223e-05,1500.8,1480,1274.0,1500
1.293360948562622,62,169,88,2.5992929923060926e-05,1500.9,1480,1274.0,1500
1.3150420188903809,63,171,90,2.4665778698633517e-05,1501.1,1480,1270.0,1500
1.3364911079406738,64,173,94,2.3086157539939053e-05,1501.3,1480,1262.0,1500
1.3579671382904053,65,175,100,2.2045855379188714e-05,1501.5,1480,1250.0,1500
1.3794450759887695,66,179,101,2.206287920573635e-05,1501.9,1480,1248.0,1500
1.400892972946167,67,183,104,2.1308331557639037e-05,1502.3,1480,1242.0,1500
1.422508955001831,68,184,106,2.156287735035363e-05,1502.4,1480,1238.0,1500
1.4439990520477295,69,186,107,2.227369921596579e-05,1502.6,1480,1236.0,1500
1.465451955795288,70,186,108,2.2244961516216577e-05,1502.6,1480,1234.0,1500
1.4873299598693848,71,187,106,2.165017644893806e-05,1502.7,1480,1238.0,1500
1.5087990760803223,72,186,106,2.1855057260250022e-05,1502.6,1480,1238.0,1500
1.5304319858551025,73,186,104,2.145738563213458e-05,1502.6,1480,1242.0,1500
1.5519001483917236,74,186,105,2.207115741149466e-05,1502.6,1480,1240.0,1500
1.5735981464385986,75,186,105,2.195437880085183e-05,1502.6,1480,1240.0,1500
1.5950500965118408,76,185,107,2.2644927536231884e-05,1502.5,1480,1236.0,1500
1.6164910793304443,77,185,105,2.2835221044939714e-05,1502.5,1480,1240.0,1500
1.6379239559173584,78,184,104,2.3056881326231813e-05,1502.4,1480,1242.0,1500
1.6593821048736572,79,183,99,2.2904260192395786e-05,1502.3,1480,1252.0,1500
1.6808381080627441,80,183,99,2.3610520848089907e-05,1502.3,1480,1252.0,1500
1.7024519443511963,81,182,98,2.3452707615094163e-05,1502.2,1480,1254.0,1500
1.7239539623260498,82,181,96,2.3553796872055775e-05,1502.1,1480,1258.0,1500
1.7454171180725098,83,181,97,2.4457651576295644e-05,1502.1,1480,1256.0,1500
1.7668721675872803,84,180,94,2.453265296109121e-05,1502.0,1480,1262.0,1500
1.7883141040802002,85,179,95,2.4987506246876562e-05,1501.9,1480,1260.0,1500
1.8097691535949707,86,180,92,2.488862341023918e-05,1502.0,1480,1266.0,1500
1.8313519954681396,87,178,93,2.5284450063211126e-05,1501.8,1480,1264.0,1500
1.8528170585632324,88,177,93,2.5725457913150854e-05,1501.7,1480,1264.0,1500
1.8742899894714355,89,177,95,2.6028110359187923e-05,1501.7,1480,1260.0,1500
1.8957550525665283,90,177,92,2.542976299460889e-05,1501.7,1480,1266.0,1500
1.9172070026397705,91,177,95,2.5656814449917897e-05,1501.7,1480,1260.0,1500
1.9386701583862305,92,178,95,2.5690430314707772e-05,1501.8,1480,1260.0,1500
1.9601199626922607,93,179,94,2.6378264310208388e-05,1501.9,1480,1262.0,1500
1.9817390441894531,94,178,95,2.5140788415124697e-05,1501.8,1480,1260.0,1500
2.003188133239746,95,178,96,2.5284450063211126e-05,1501.8,1480,1258.0,1500
2.0246591567993164,96,181,95,2.5479005299633102e-05,1502.1,1480,1260.0,1500
2.0461230278015137,97,179,96,2.5284450063211126e-05,1501.9,1480,1258.0,1500
2.0675761699676514,98,180,97,2.4998750062496874e-05,1502.0,1480,1256.0,1500
2.089015007019043,99,181,97,2.4473813020068526e-05,1502.1,1480,1256.0,1500
2.1104531288146973,100,180,98,2.4366471734892787e-05,1502.0,1480,1254.0,1500
2.1320271492004395,101,180,98,2.485830764641543e-05,1502.0,1480,1254.0,1500
2.153517007827759,102,180,100,2.5206694898164952e-05,1502.0,1480,1250.0,1500
2.17494797706604,103,180,101,2.4502597275311183e-05,1502.0,1480,1248.0,1500
2.196381092071533,104,179,98,2.4366471734892787e-05,1501.9,1480,1254.0,1500
2.2178521156311035,105,180,98,2.4289531212047607e-05,1502.0,1480,1254.0,1500
2.2392959594726562,106,180,100,2.4021138601969734e-05,1502.0,1480,1250.0,1500
2.260719060897827,107,181,100,2.3862361896580523e-05,1502.1,1480,1250.0,1500
2.2822940349578857,108,181,100,2.3732675147142585e-05,1502.1,1480,1250.0,1500
2.303813934326172,109,180,99,2.4021138601969734e-05,1502.0,1480,1252.0,1500
2.325253963470459,110,180,100,2.3785738071452358e-05,1502.0,1480,1250.0,1500
2.346713066101074,111,180,103,2.4184381726281167e-05,1502.0,1480,1244.0,1500
2.3681540489196777,112,179,101,2.384358607534573e-05,1501.9,1480,1248.0,1500
2.3896141052246094,113,179,100,2.3299161230195714e-05,1501.9,1480,1250.0,1500
2.4111969470977783,114,178,100,2.297582942744233e-05,1501.8,1480,1250.0,1500
2.4328200817108154,115,177,102,2.3610520848089907e-05,1501.7,1480,1246.0,1500
2.4542970657348633,116,177,102,2.3480792711561942e-05,1501.7,1480,1246.0,1500
2.4757540225982666,117,177,100,2.312673450508788e-05,1501.7,1480,1250.0,1500
2.4972071647644043,118,177,101,2.312673450508788e-05,1501.7,1480,1248.0,1500
2.518666982650757,119,176,102,2.2781119008565702e-05,1501.6,1480,1246.0,1500
2.5401439666748047,120,177,104,2.325311010347634e-05,1501.7,1480,1242.0,1500
2.561728000640869,121,177,103,2.390628735357399e-05,1501.7,1480,1244.0,1500
2.5831501483917236,122,176,105,2.3510050546608674e-05,1501.6,1480,1240.0,1500
2.6045970916748047,123,176,105,2.246888060036849e-05,1501.6,1480,1240.0,1500
2.626028060913086,124,176,104,2.293157218858925e-05,1501.6,1480,1242.0,1500
2.6474640369415283,125,176,104,2.2301516503122213e-05,1501.6,1480,1242.0,1500
2.6689281463623047,126,177,104,2.209114807696556e-05,1501.7,1480,1242.0,1500
2.690416097640991,127,175,105,2.2589681033703803e-05,1501.5,1480,1240.0,1500
2.7120611667633057,128,175,108,2.286393671262318e-05,1501.5,1480,1234.0,1500
2.733570098876953,129,175,106,2.2401433691756272e-05,1501.5,1480,1238.0,1500
2.7550101280212402,130,176,104,2.2781119008565702e-05,1501.6,1480,1242.0,1500
2.7764601707458496,131,176,103,2.2807617744326606e-05,1501.6,1480,1244.0,1500
2.7979180812835693,132,174,107,2.2522522522522523e-05,1501.4,1480,1236.0,1500
2.819399118423462,133,174,106,2.2189184991235272e-05,1501.4,1480,1238.0,1500
2.840852975845337,134,175,104,2.1838829438742085e-05,1501.5,1480,1242.0,1500
2.8624470233917236,135,174,106,2.2189184991235272e-05,1501.4,1480,1238.0,1500
2.8839540481567383,136,174,106,2.2216297876121923e-05,1501.4,1480,1238.0,1500
2.9054250717163086,137,174,105,2.2163120567375888e-05,1501.4,1480,1240.0,1500
2.9268901348114014,138,174,106,2.2401433691756272e-05,1501.4,1480,1238.0,1500
2.9483389854431152,139,175,106,2.2401433691756272e-05,1501.5,1480,1238.0,1500
2.9697811603546143,140,174,107,2.2429068072221598e-05,1501.4,1480,1236.0,1500
2.991384983062744,141,176,105,2.232491683968477e-05,1501.6,1480,1240.0,1500
3.012830972671509,142,174,107,2.2522522522522523e-05,1501.4,1480,1236.0,1500
3.034309148788452,143,174,106,2.2097494144164052e-05,1501.4,1480,1238.0,1500
3.0557570457458496,144,174,106,2.2216297876121923e-05,1501.4,1480,1238.0,1500
3.0772039890289307,145,175,105,2.230848168473654e-05,1501.5,1480,1240.0,1500
3.0986549854278564,146,175,105,2.207115741149466e-05,1501.5,1480,1240.0,1500
3.120105028152466,147,176,106,2.2495163539838936e-05,1501.6,1480,1238.0,1500
3.1417019367218018,148,176,107,2.3056881326231813e-05,1501.6,1480,1236.0,1500
3.1631460189819336,149,174,106,2.2401433691756272e-05,1501.4,1480,1238.0,1500
3.184736967086792,150,175,104,2.2021581149526537e-05,1501.5,1480,1242.0,1500
3.2063469886779785,151,176,106,2.2374868547647282e-05,1501.6,1480,1238.0,1500
3.2277891635894775,152,175,107,2.2644927536231884e-05,1501.5,1480,1236.0,1500
3.249230146408081,153,175,108,2.2674194499240414e-05,1501.5,1480,1234.0,1500
3.270672082901001,154,175,105,2.2231114668089458e-05,1501.5,1480,1240.0,1500
3.292273998260498,155,176,106,2.2189184991235272e-05,1501.6,1480,1238.0,1500
3.313810110092163,156,176,107,2.2835221044939714e-05,1501.6,1480,1236.0,1500
3.33525013923645,157,176,106,2.2589681033703803e-05,1501.6,1480,1238.0,1500
3.3566980361938477,158,175,108,2.2989562738516714e-05,1501.5,1480,1234.0,1500
3.378154993057251,159,176,107,2.2522522522522523e-05,1501.6,1480,1236.0,1500
3.3995931148529053,160,175,105,2.2045855379188714e-05,1501.5,1480,1240.0,1500
3.4211771488189697,161,176,106,2.2401433691756272e-05,1501.6,1480,1238.0,1500
3.442639112472534,162,176,106,2.230848168473654e-05,1501.6,1480,1238.0,1500
3.4640750885009766,163,176,107,2.2798777985499978e-05,1501.6,1480,1236.0,1500
3.4855289459228516,164,177,105,2.207115741149466e-05,1501.7,1480,1240.0,1500
3.5069680213928223,165,177,106,2.2374868547647282e-05,1501.7,1480,1238.0,1500
3.528563976287842,166,175,103,2.170138888888889e-05,1501.5,1480,1244.0,1500
3.5500199794769287,167,176,105,2.207115741149466e-05,1501.6,1480,1240.0,1500
3.571810007095337,168,175,105,2.207115741149466e-05,1501.5,1480,1240.0,1500
3.593440055847168,169,177,103,2.1792189679218967e-05,1501.7,1480,1244.0,1500
3.6148879528045654,170,177,107,2.2522522522522523e-05,1501.7,1480,1236.0,1500
3.636327028274536,171,175,107,2.233638597274961e-05,1501.5,1480,1236.0,1500
3.6579020023345947,172,176,105,2.207115741149466e-05,1501.6,1480,1240.0,1500
3.679478168487549,173,175,105,2.2045855379188714e-05,1501.5,1480,1240.0,1500
3.7020840644836426,174,177,106,2.2374868547647282e-05,1501.7,1480,1238.0,1500
3.725020170211792,175,175,106,2.2495163539838936e-05,1501.5,1480,1238.0,1500
3.74760103225708,176,176,108,2.2768670309653916e-05,1501.6,1480,1234.0,1500
3.770108938217163,177,176,106,2.228163992869875e-05,1501.6,1480,1238.0,1500
3.79268217086792,178,177,106,2.2589681033703803e-05,1501.7,1480,1238.0,1500
3.8152740001678467,179,176,106,2.230848168473654e-05,1501.6,1480,1238.0,1500
3.8378219604492188,180,177,105,2.2045855379188714e-05,1501.7,1480,1240.0,1500
3.8606109619140625,181,176,106,2.2097494144164052e-05,1501.6,1480,1238.0,1500
3.883164167404175,182,176,107,2.2457779374775423e-05,1501.6,1480,1236.0,1500
3.9057440757751465,183,176,106,2.230848168473654e-05,1501.6,1480,1238.0,1500
3.928291082382202,184,177,108,2.2893772893772894e-05,1501.7,1480,1234.0,1500
3.950917959213257,185,177,106,2.2097494144164052e-05,1501.7,1480,1238.0,1500
3.9740779399871826,186,177,108,2.2674194499240414e-05,1501.7,1480,1234.0,1500
3.996674060821533,187,177,107,2.2457779374775423e-05,1501.7,1480,1236.0,1500
4.01923394203186,188,177,109,2.295684113865932e-05,1501.7,1480,1232.0,1500
4.041770935058594,189,178,108,2.295684113865932e-05,1501.8,1480,1234.0,1500
4.064666986465454,190,177,106,2.228163992869875e-05,1501.7,1480,1238.0,1500
4.087224006652832,191,177,110,2.3214783173925155e-05,1501.7,1480,1230.0,1500
4.10981011390686,192,178,105,2.2163120567375888e-05,1501.8,1480,1240.0,1500
4.132652044296265,193,178,107,2.2522522522522523e-05,1501.8,1480,1236.0,1500
4.1552369594573975,194,178,107,2.2365360529611736e-05,1501.8,1480,1236.0,1500
4.177889108657837,195,179,105,2.1773684325124653e-05,1501.9,1480,1240.0,1500
4.2004640102386475,196,178,108,2.2893772893772894e-05,1501.8,1480,1234.0,1500
4.22329306602478,197,179,109,2.2862368541380887e-05,1501.9,1480,1232.0,1500
4.245859146118164,198,179,108,2.2487575614473004e-05,1501.9,1480,1234.0,1500
4.268404006958008,199,181,108,2.2989562738516714e-05,1502.1,1480,1234.0,1500
4.290953159332275,200,181,107,2.2616759018432658e-05,1502.1,1480,1236.0,1500
4.313751935958862,201,179,108,2.251846514141596e-05,1501.9,1480,1234.0,1500
4.336315155029297,202,178,107,2.233638597274961e-05,1501.8,1480,1236.0,1500
4.359101057052612,203,179,108,2.2704568159113613e-05,1501.9,1480,1234.0,1500
4.381662130355835,204,179,107,2.255096518130976e-05,1501.9,1480,1236.0,1500
4.404585123062134,205,180,108,2.302025782688766e-05,1502.0,1480,1234.0,1500
4.427410125732422,206,179,109,2.3245002324500234e-05,1501.9,1480,1232.0,1500
4.449952125549316,207,178,109,2.292473808486738e-05,1501.8,1480,1232.0,1500
4.472545146942139,208,177,109,2.305209774089442e-05,1501.7,1480,1232.0,1500
4.4951770305633545,209,176,109,2.2862368541380887e-05,1501.6,1480,1232.0,1500
4.517791032791138,210,177,107,2.255096518130976e-05,1501.7,1480,1236.0,1500
4.540349006652832,211,174,106,2.2124872781981504e-05,1501.4,1480,1238.0,1500
4.563148021697998,212,173,108,2.2704568159113613e-05,1501.3,1480,1234.0,1500
4.585709095001221,213,171,108,2.2704568159113613e-05,1501.1,1480,1234.0,1500
4.608263969421387,214,170,107,2.2835221044939714e-05,1501.0,1480,1236.0,1500
4.630767107009888,215,164,108,2.251846514141596e-05,1500.4,1480,1234.0,1500
4.653532981872559,216,170,105,2.5030036043251902e-05,1501.0,1480,1240.0,1500
4.676061153411865,217,168,109,2.4446291497579817e-05,1500.8,1480,1232.0,1500
4.698629140853882,218,169,105,2.6164311878597592e-05,1500.9,1480,1240.0,1500
4.721158981323242,219,170,103,2.7066529529583716e-05,1501.0,1480,1244.0,1500
4.744168996810913,220,176,102,3.0367446097783177e-05,1501.6,1480,1246.0,1500
4.7667460441589355,221,170,89,6.315523556902867e-05,1501.0,1480,1272.0,1500
4.7893171310424805,222,170,106,3.3242470580413535e-05,1501.0,1480,1238.0,1500
4.811836004257202,223,169,74,5.352459455119628e-05,1500.9,1480,1300,1500
4.834674119949341,224,177,67,8.056719303899453e-05,1501.7,1480,1300,1500
4.857145071029663,225,165,88,0.00015169902912621358,1500.5,1480,1274.0,1500
4.879699945449829,226,107,168,0.0005555555555555556,1494.7,1480.5555555555557,1200,1500
4.902585029602051,227,173,45,0.00125,1501.3,1487.5,1300,1500
4.925133943557739,228,151,37,0.0025252525252525255,1499.1,1500.2525252525252,1300,1500
4.947731018066406,229,81,175,0.005434782608695652,1492.1,1520,1200,1500
4.970203161239624,230,133,138,0.006666666666666667,1497.3,1520,1200,1500
4.992936134338379,231,72,182,0.006172839506172839,1491.2,1520,1200,1500
5.015408039093018,232,55,165,0.030303030303030304,1489.5,1520,1200,1500
5.037899971008301,233,56,179,0.03333333333333333,1489.6,1520,1200,1500
5.060342073440552,234,45,172,0.023809523809523808,1488.5,1520,1200,1500
5.08302903175354,235,104,84,0.03333333333333333,1494.4,1520,1282.0,1500
5.105549097061157,236,100,71,0.05,1494.0,1520,1300,1500
5.12792706489563,237,97,66,0.03333333333333333,1493.7,1520,1300,1500
5.1503660678863525,238,89,180,0.025,1492.9,1520,1200,1500
5.173027038574219,239,93,84,0.02857142857142857,1493.3,1520,1282.0,1500
5.195536136627197,240,94,93,0.03333333333333333,1493.4,1520,1264.0,1500
5.218053102493286,241,96,107,0.04,1493.6,1520,1236.0,1500
5.240525007247925,242,102,109,0.05,1494.2,1520,1232.0,1500
5.263240098953247,243,52,180,0.037037037037037035,1489.2,1520,1200,1500
5.285989046096802,244,65,177,0.013888888888888888,1490.5,1520,1200,1500
5.308438062667847,245,63,167,0.016666666666666666,1490.3,1520,1200,1500
5.330858945846558,246,73,161,0.003105590062111801,1491.3,1506.055900621118,1200,1500
5.353621006011963,247,84,169,0.001388888888888889,1492.4,1488.888888888889,1200,1500
5.376175165176392,248,89,159,0.001488095238095238,1492.9,1489.8809523809523,1200,1500
5.398719072341919,249,112,169,0.0008012820512820513,1495.2,1483.0128205128206,1200,1500
5.421277046203613,250,125,164,0.00045167118337850043,1496.5,1480,1200,1500
5.443985939025879,251,168,81,0.00013802622498274673,1500.8,1480,1288.0,1500
5.466521978378296,252,171,72,8.818342151675486e-05,1501.1,1480,1300,1500
5.489012002944946,253,162,94,3.545093590470789e-05,1500.2,1480,1262.0,1500
5.511543035507202,254,169,93,3.269149040504757e-05,1500.9,1480,1264.0,1500
5.534700155258179,255,177,95,3.1565656565656566e-05,1501.7,1480,1260.0,1500
5.557286977767944,256,180,99,3.023431594860166e-05,1502.0,1480,1252.0,1500
5.579816102981567,257,171,97,2.676086491115393e-05,1501.1,1480,1256.0,1500
5.602350950241089,258,170,98,2.5317737606967443e-05,1501.0,1480,1254.0,1500
5.624997138977051,259,173,100,2.5352398336882668e-05,1501.3,1480,1250.0,1500
5.6475560665130615,260,177,100,2.564891761567662e-05,1501.7,1480,1250.0,1500
5.67009711265564,261,183,98,2.6933850463262227e-05,1502.3,1480,1254.0,1500
5.692939043045044,262,186,101,2.6973080865296434e-05,1502.6,1480,1248.0,1500
5.715476989746094,263,188,98,2.6983270372369132e-05,1502.8,1480,1254.0,1500
5.7380030155181885,264,193,98,2.807726864330638e-05,1503.3,1480,1254.0,1500
5.760540008544922,265,195,99,2.834467120181406e-05,1503.5,1480,1252.0,1500
5.783323049545288,266,197,100,2.8480291638186374e-05,1503.7,1480,1250.0,1500
5.805881023406982,267,198,102,2.892765194249183e-05,1503.8,1480,1246.0,1500
5.828377962112427,268,199,100,2.9005685114282398e-05,1503.9,1480,1250.0,1500
5.850895166397095,269,200,102,2.9005685114282398e-05,1504.0,1480,1246.0,1500
5.873692035675049,270,200,102,2.9209872937052725e-05,1504.0,1480,1246.0,1500
5.896255970001221,271,200,101,2.938583602703497e-05,1504.0,1480,1248.0,1500
5.91880202293396,272,199,101,2.9420417769932333e-05,1503.9,1480,1248.0,1500
5.941359996795654,273,198,101,2.9599810561212407e-05,1503.8,1480,1248.0,1500
5.964837074279785,274,197,98,2.982048070614898e-05,1503.7,1480,1254.0,1500
5.987461090087891,275,196,96,2.9278290147855364e-05,1503.6,1480,1258.0,1500
6.0100109577178955,276,194,94,2.9456816307293507e-05,1503.4,1480,1262.0,1500
6.032585144042969,277,193,92,2.9904306220095695e-05,1503.3,1480,1266.0,1500
6.05518102645874,278,191,85,3.0770177543924426e-05,1503.1,1480,1280.0,1500
6.077725172042847,279,189,80,3.2304958811177516e-05,1502.9,1480,1290.0,1500
6.100255966186523,280,185,72,3.374046831770025e-05,1502.5,1480,1300,1500
6.122992992401123,281,182,67,3.622138510576645e-05,1502.2,1480,1300,1500
6.145472049713135,282,178,63,3.9174207701649236e-05,1501.8,1480,1300,1500
6.167957067489624,283,176,56,4.545041359876375e-05,1501.6,1480,1300,1500
6.1904380321502686,284,179,44,7.02247191011236e-05,1501.9,1480,1300,1500
6.213241100311279,285,174,40,7.863489816780687e-05,1501.4,1480,1300,1500
6.236016035079956,286,174,36,9.995002498750625e-05,1501.4,1480,1300,1500
6.25847315788269,287,189,36,0.00017969451931716083,1502.9,1480,1300,1500
6.280914068222046,288,208,38,0.0005159958720330237,1504.8,1480.1599587203302,1300,1500
6.3037519454956055,289,203,41,0.0010121457489878543,1504.3,1485.1214574898786,1300,1500
6.326326131820679,290,205,39,0.0014005602240896359,1504.5,1489.0056022408965,1300,1500
6.348881006240845,291,199,37,0.0018115942028985507,1503.9,1493.1159420289855,1300,1500
6.3714540004730225,292,197,35,0.0016722408026755853,1503.7,1491.7224080267558,1300,1500
6.394442081451416,293,188,37,0.004629629629629629,1502.8,1520,1300,1500
6.417186975479126,294,196,39,0.004329004329004329,1503.6,1518.2900432900433,1300,1500
6.439758062362671,295,200,39,0.004273504273504274,1504.0,1517.7350427350427,1300,1500
6.462294101715088,296,196,43,0.007692307692307693,1503.6,1520,1300,1500
6.484930992126465,297,206,47,0.0040650406504065045,1504.6,1515.6504065040651,1300,1500
6.507488012313843,298,209,52,0.0029069767441860465,1504.9,1504.0697674418604,1300,1500
6.5300421714782715,299,213,57,0.002717391304347826,1505.3,1502.1739130434783,1300,1500
6.552642107009888,300,213,63,0.003205128205128205,1505.3,1507.051282051282,1300,1500
6.575227975845337,301,213,69,0.0031746031746031746,1505.3,1506.7460317460318,1300,1500
6.597815990447998,302,215,73,0.002857142857142857,1505.5,1503.5714285714287,1300,1500
6.620353937149048,303,223,78,0.0026595744680851063,1506.3,1501.595744680851,1294.0,1500
6.643228054046631,304,219,86,0.001644736842105263,1505.9,1491.4473684210527,1278.0,1500
6.66585111618042,305,223,89,0.0009671179883945841,1506.3,1484.6711798839458,1272.0,1500
6.688745021820068,306,225,94,0.0007122507122507123,1506.5,1482.1225071225072,1262.0,1500
6.711637020111084,307,229,97,0.0004887585532746823,1506.9,1480,1256.0,1500
6.734261989593506,308,231,98,0.00035778175313059033,1507.1,1480,1254.0,1500
6.756773948669434,309,225,96,0.00023014959723820482,1506.5,1480,1258.0,1500
6.779296159744263,310,217,99,0.00016363933889707084,1505.7,1480,1252.0,1500
6.801823139190674,311,215,101,0.00015384615384615385,1505.5,1480,1248.0,1500
6.824720144271851,312,173,60,9.964129135113592e-05,1501.3,1480,1300,1500
6.847188949584961,313,175,82,4.29553264604811e-05,1501.5,1480,1286.0,1500
6.869774103164673,314,173,56,7.25163161711385e-05,1501.3,1480,1300,1500
6.892292022705078,315,176,80,4.363001745200698e-05,1501.6,1480,1290.0,1500
6.914927005767822,316,177,77,4.493776120073698e-05,1501.7,1480,1296.0,1500
6.9374840259552,317,181,73,5.0999592003263974e-05,1502.1,1480,1300,1500
6.959973096847534,318,172,63,4.546281142025823e-05,1501.2,1480,1300,1500
6.982530117034912,319,179,61,5.9199621122424815e-05,1501.9,1480,1300,1500
7.0050740242004395,320,187,50,7.194244604316547e-05,1502.7,1480,1300,1500
7.0275609493255615,321,183,47,7.933989209774674e-05,1502.3,1480,1300,1500
7.050065040588379,322,184,42,9.119927040583675e-05,1502.4,1480,1300,1500
7.072792053222656,323,181,38,0.00010016025641025641,1502.1,1480,1300,1500
7.095253944396973,324,184,33,0.00014400921658986175,1502.4,1480,1300,1500
7.117733001708984,325,197,40,0.000297441998810232,1503.7,1480,1300,1500
7.140448093414307,326,207,37,0.000434593654932638,1504.7,1480,1300,1500
7.163192987442017,327,208,45,0.0010683760683760685,1504.8,1485.6837606837607,1300,1500
7.185757160186768,328,209,43,0.0010121457489878543,1504.9,1485.1214574898786,1300,1500
7.20831298828125,329,207,45,0.0015151515151515152,1504.7,1490.1515151515152,1300,1500
7.231137990951538,330,207,44,0.001488095238095238,1504.7,1489.8809523809523,1300,1500
7.253695964813232,331,210,46,0.00130718954248366,1505.0,1488.0718954248366,1300,1500
7.276270151138306,332,214,46,0.0012755102040816326,1505.4,1487.7551020408164,1300,1500
7.298835039138794,333,216,51,0.0016722408026755853,1505.6,1491.7224080267558,1300,1500
7.3214099407196045,334,223,59,0.0013297872340425532,1506.3,1488.2978723404256,1300,1500
7.344382047653198,335,224,65,0.0013297872340425532,1506.4,1488.2978723404256,1300,1500
7.366956949234009,336,229,74,0.001519756838905775,1506.9,1490.1975683890578,1300,1500
7.389543056488037,337,231,80,0.0009157509157509158,1507.1,1484.1575091575091,1290.0,1500
7.412135124206543,338,234,89,0.0009337068160597573,1507.4,1484.3370681605975,1272.0,1500
7.435111999511719,339,235,96,0.0007541478129713424,1507.5,1482.5414781297134,1258.0,1500
7.457715034484863,340,237,105,0.0006086427267194157,1507.7,1481.0864272671943,1240.0,1500
7.480555057525635,341,239,112,0.000496031746031746,1507.9,1480,1226.0,1500
7.5030741691589355,342,230,110,0.0001948178453146308,1507.0,1480,1230.0,1500
7.52557897567749,343,187,101,5.8754406580493536e-05,1502.7,1480,1248.0,1500
7.548150062561035,344,185,97,3.543962859269235e-05,1502.5,1480,1256.0,1500
7.570668935775757,345,187,100,3.2863386900653985e-05,1502.7,1480,1250.0,1500
7.593472003936768,346,187,104,3.067108330266225e-05,1502.7,1480,1242.0,1500
7.61598801612854,347,189,103,2.7359781121751025e-05,1502.9,1480,1244.0,1500
7.638519048690796,348,190,109,2.6484453625721702e-05,1503.0,1480,1232.0,1500
7.661023139953613,349,192,112,2.6333113890717576e-05,1503.2,1480,1226.0,1500
7.683807134628296,350,192,114,2.63421316052895e-05,1503.2,1480,1222.0,1500
7.706366062164307,351,193,114,2.6106934001670842e-05,1503.3,1480,1222.0,1500
7.7294299602508545,352,194,115,2.6337968815844923e-05,1503.4,1480,1220.0,1500
7.75199294090271,353,194,116,2.6655293741337028e-05,1503.4,1480,1218.0,1500
7.774933099746704,354,195,118,2.7145881969705197e-05,1503.5,1480,1214.0,1500
7.797513008117676,355,195,117,2.6861502095197165e-05,1503.5,1480,1216.0,1500
7.82005500793457,356,196,119,2.7483097894794702e-05,1503.6,1480,1212.0,1500
7.842623949050903,357,195,120,2.77062034189455e-05,1503.5,1480,1210.0,1500
7.865210056304932,358,195,117,2.6816840976133013e-05,1503.5,1480,1216.0,1500
7.887776136398315,359,194,116,2.6655293741337028e-05,1503.4,1480,1218.0,1500
7.910304069519043,360,194,117,2.6816840976133013e-05,1503.4,1480,1216.0,1500
7.933149099349976,361,194,117,2.7221254355400697e-05,1503.4,1480,1216.0,1500
7.955721139907837,362,194,117,2.6936026936026937e-05,1503.4,1480,1216.0,1500
7.978279113769531,363,192,116,2.6732249786142e-05,1503.2,1480,1218.0,1500
8.000846147537231,364,192,116,2.689328743545611e-05,1503.2,1480,1218.0,1500
8.023658990859985,365,193,115,2.6692291266282297e-05,1503.3,1480,1220.0,1500
8.046213150024414,366,192,117,2.7590773645293013e-05,1503.2,1480,1216.0,1500
8.068750143051147,367,192,117,2.73000273000273e-05,1503.2,1480,1216.0,1500
8.091274976730347,368,192,116,2.725835468571117e-05,1503.2,1480,1218.0,1500
8.114053964614868,369,191,116,2.6852125345721114e-05,1503.1,1480,1218.0,1500
8.136784076690674,370,192,115,2.7135569304244003e-05,1503.2,1480,1220.0,1500
8.159710168838501,371,191,116,2.6852125345721114e-05,1503.1,1480,1218.0,1500
8.182562112808228,372,191,116,2.7013885136960397e-05,1503.1,1480,1218.0,1500
8.205175161361694,373,191,115,2.6933850463262227e-05,1503.1,1480,1220.0,1500
8.227741003036499,374,191,115,2.6933850463262227e-05,1503.1,1480,1220.0,1500
8.250270128250122,375,189,116,2.738225629791895e-05,1502.9,1480,1218.0,1500
8.273072957992554,376,190,117,2.7177605652941977e-05,1503.0,1480,1216.0,1500
8.29587697982788,377,190,115,2.738225629791895e-05,1503.0,1480,1220.0,1500
8.318410158157349,378,190,116,2.738225629791895e-05,1503.0,1480,1218.0,1500
8.340904951095581,379,189,117,2.73000273000273e-05,1502.9,1480,1216.0,1500
8.363665103912354,380,189,117,2.742355683532154e-05,1502.9,1480,1216.0,1500
8.386253118515015,381,188,116,2.7218290691344584e-05,1502.8,1480,1218.0,1500
8.408771991729736,382,189,117,2.742355683532154e-05,1502.9,1480,1216.0,1500
8.431287050247192,383,190,117,2.7842744180866465e-05,1503.0,1480,1216.0,1500
8.454077005386353,384,189,117,2.7548209366391185e-05,1502.9,1480,1216.0,1500
8.476657152175903,385,189,116,2.738225629791895e-05,1502.9,1480,1218.0,1500
8.499200105667114,386,190,117,2.7590773645293013e-05,1503.0,1480,1216.0,1500
8.52197813987732,387,190,117,2.7674000276740002e-05,1503.0,1480,1216.0,1500
8.544657945632935,388,189,116,2.738225629791895e-05,1502.9,1480,1218.0,1500
8.567193031311035,389,190,118,2.8142061124556764e-05,1503.0,1480,1214.0,1500
8.589712142944336,390,190,117,2.7674000276740002e-05,1503.0,1480,1216.0,1500
8.61224102973938,391,191,117,2.7674000276740002e-05,1503.1,1480,1216.0,1500
8.634891986846924,392,190,117,2.7800945232137893e-05,1503.0,1480,1216.0,1500
8.65742301940918,393,190,117,2.8058361391694725e-05,1503.0,1480,1216.0,1500
8.679929971694946,394,189,117,2.8229448961156277e-05,1502.9,1480,1216.0,1500
8.702545166015625,395,189,117,2.8229448961156277e-05,1502.9,1480,1216.0,1500
8.725121974945068,396,189,115,2.8668080958660627e-05,1502.9,1480,1220.0,1500
8.747642993927002,397,189,114,2.8938534552610255e-05,1502.9,1480,1222.0,1500
8.770173072814941,398,188,111,2.9904306220095695e-05,1502.8,1480,1228.0,1500
8.79295802116394,399,187,110,3.0475726084173955e-05,1502.7,1480,1230.0,1500
8.815475940704346,400,187,105,3.1117749564351506e-05,1502.7,1480,1240.0,1500
8.838013172149658,401,187,106,3.199283360527242e-05,1502.7,1480,1238.0,1500
8.860563039779663,402,187,104,3.2304958811177516e-05,1502.7,1480,1242.0,1500
8.883363008499146,403,187,102,3.43112026076514e-05,1502.7,1480,1246.0,1500
8.905908107757568,404,186,100,3.339009649737888e-05,1502.6,1480,1250.0,1500
8.928460121154785,405,186,99,3.424657534246575e-05,1502.6,1480,1252.0,1500
8.95104694366455,406,185,100,3.518648838845883e-05,1502.5,1480,1250.0,1500
8.974195957183838,407,185,102,3.604642779900512e-05,1502.5,1480,1246.0,1500
8.99678897857666,408,186,101,3.648836021309202e-05,1502.6,1480,1248.0,1500
9.019296169281006,409,186,104,3.68052999631947e-05,1502.6,1480,1242.0,1500
9.041831970214844,410,186,105,3.68052999631947e-05,1502.6,1480,1240.0,1500
9.06473708152771,411,186,106,3.7458795325142346e-05,1502.6,1480,1238.0,1500
9.087275981903076,412,186,106,3.8887808671981336e-05,1502.6,1480,1238.0,1500
9.109815120697021,413,184,109,4.107788366743346e-05,1502.4,1480,1232.0,1500
9.1323561668396,414,183,110,4.177807486631016e-05,1502.3,1480,1230.0,1500
9.154970169067383,415,182,112,4.4124784891673655e-05,1502.2,1480,1226.0,1500
9.177504062652588,416,180,113,4.49034575662326e-05,1502.0,1480,1224.0,1500
9.200042009353638,417,180,113,4.6781437125748506e-05,1502.0,1480,1224.0,1500
9.222579956054688,418,180,114,4.6781437125748506e-05,1502.0,1480,1222.0,1500
9.245146036148071,419,180,114,4.743382980741865e-05,1502.0,1480,1222.0,1500
9.267668008804321,420,181,114,4.899078973153047e-05,1502.1,1480,1222.0,1500
9.29047703742981,421,181,112,4.763719512195122e-05,1502.1,1480,1226.0,1500
9.313015937805176,422,182,111,4.830684507994783e-05,1502.2,1480,1228.0,1500
9.335549116134644,423,182,108,5.018568704205561e-05,1502.2,1480,1234.0,1500
9.358379125595093,424,182,107,5.1332067142343825e-05,1502.2,1480,1236.0,1500
9.380913019180298,425,182,105,5.122950819672131e-05,1502.2,1480,1240.0,1500
9.40368914604187,426,181,106,5.2742616033755275e-05,1502.1,1480,1238.0,1500
9.426231145858765,427,182,104,5.329922183136126e-05,1502.2,1480,1242.0,1500
9.448759078979492,428,181,103,5.318583129454313e-05,1502.1,1480,1244.0,1500
9.471269130706787,429,181,102,5.352459455119628e-05,1502.1,1480,1246.0,1500
9.494518995285034,430,181,103,5.318583129454313e-05,1502.1,1480,1244.0,1500
9.51709794998169,431,181,103,5.318583129454313e-05,1502.1,1480,1244.0,1500
9.53966212272644,432,181,102,5.363655867839519e-05,1502.1,1480,1246.0,1500
9.562222003936768,433,180,103,5.2742616033755275e-05,1502.0,1480,1244.0,1500
9.58498215675354,434,181,105,5.165289256198347e-05,1502.1,1480,1240.0,1500
9.607781171798706,435,181,104,5.2194790959862204e-05,1502.1,1480,1242.0,1500
9.630311965942383,436,180,106,5.059704513256426e-05,1502.0,1480,1238.0,1500
9.65306305885315,437,180,108,4.9877799391490845e-05,1502.0,1480,1234.0,1500
9.675570964813232,438,180,108,4.8393341076267905e-05,1502.0,1480,1234.0,1500
9.698135137557983,439,180,109,4.6781437125748506e-05,1502.0,1480,1232.0,1500
9.720651149749756,440,179,111,4.622781065088757e-05,1501.9,1480,1228.0,1500
9.743455171585083,441,178,113,4.49034575662326e-05,1501.8,1480,1224.0,1500
9.76596713066101,442,177,113,4.3790506218251886e-05,1501.7,1480,1224.0,1500
9.78884506225586,443,176,116,3.990422984836392e-05,1501.6,1480,1218.0,1500
9.811607122421265,444,176,116,3.848225967828831e-05,1501.6,1480,1218.0,1500
9.834565162658691,445,174,117,3.840245775729647e-05,1501.4,1480,1216.0,1500
9.857396125793457,446,174,119,3.599323327214484e-05,1501.4,1480,1212.0,1500
9.879938125610352,447,173,120,3.431355728648389e-05,1501.3,1480,1210.0,1500
9.902567148208618,448,173,123,3.3738191632928474e-05,1501.3,1480,1204.0,1500
9.925174951553345,449,172,123,3.2356176794150005e-05,1501.2,1480,1204.0,1500
9.947733163833618,450,172,121,3.1269543464665416e-05,1501.2,1480,1208.0,1500
9.970283031463623,451,172,122,3.057636447026449e-05,1501.2,1480,1206.0,1500
9.993124961853027,452,171,121,2.9270577215782695e-05,1501.1,1480,1208.0,1500
10.015680074691772,453,170,121,2.8617216117216117e-05,1501.0,1480,1208.0,1500
10.038207054138184,454,170,121,2.7814090618307236e-05,1501.0,1480,1208.0,1500
10.060739040374756,455,169,121,2.698909640505236e-05,1500.9,1480,1208.0,1500
10.083518028259277,456,168,121,2.6271542664985288e-05,1500.8,1480,1208.0,1500
10.106075048446655,457,166,120,2.6738682852482685e-05,1500.6,1480,1210.0,1500
10.128607988357544,458,163,117,2.81214848143982e-05,1500.3,1480,1216.0,1500
10.151123046875,459,161,110,3.139027529271432e-05,1500.1,1480,1230.0,1500
10.173930168151855,460,157,112,3.0303030303030302e-05,1499.7,1480,1226.0,1500
10.196517944335938,461,154,114,3.018867924528302e-05,1499.4,1480,1222.0,1500
10.219038009643555,462,148,118,2.6690866385522874e-05,1498.8,1480,1214.0,1500
10.241549968719482,463,147,115,2.7173174641993425e-05,1498.7,1480,1220.0,1500
10.264486074447632,464,144,104,3.125e-05,1498.4,1480,1242.0,1500
10.287039995193481,465,144,103,3.0163182819051065e-05,1498.4,1480,1244.0,1500
10.309564113616943,466,144,117,2.3954964666427117e-05,1498.4,1480,1216.0,1500
10.3320951461792,467,142,114,2.5258265767472406e-05,1498.2,1480,1222.0,1500
10.355005979537964,468,142,115,2.4451073402122352e-05,1498.2,1480,1220.0,1500
10.37756896018982,469,143,112,2.4820054604120128e-05,1498.3,1480,1226.0,1500
10.400129079818726,470,143,113,2.4702336841065164e-05,1498.3,1480,1224.0,1500
10.422713041305542,471,144,110,2.6378960141391225e-05,1498.4,1480,1230.0,1500
10.445302963256836,472,147,110,2.8402635764598956e-05,1498.7,1480,1230.0,1500
10.467869997024536,473,150,108,2.9243186337583345e-05,1499.0,1480,1234.0,1500
10.49041199684143,474,152,110,3.144654088050314e-05,1499.2,1480,1230.0,1500
10.513191938400269,475,153,109,3.3255736614566014e-05,1499.3,1480,1232.0,1500
10.53573203086853,476,155,109,3.4444750620005514e-05,1499.5,1480,1232.0,1500
10.558263063430786,477,156,109,3.637818763869184e-05,1499.6,1480,1232.0,1500
10.580788135528564,478,157,109,3.87551835057939e-05,1499.7,1480,1232.0,1500
10.603580951690674,479,159,109,3.9123630672926444e-05,1499.9,1480,1232.0,1500
10.626126050949097,480,159,108,3.9463299131807416e-05,1499.9,1480,1234.0,1500
10.648934125900269,481,160,109,4.1625041625041625e-05,1500.0,1480,1232.0,1500
10.671457052230835,482,164,104,4.2162071000927563e-05,1500.4,1480,1242.0,1500
10.694710969924927,483,166,104,4.312761461163583e-05,1500.6,1480,1242.0,1500
10.71727705001831,484,166,104,4.455136772698922e-05,1500.6,1480,1242.0,1500
10.740041971206665,485,167,102,4.5687134502923974e-05,1500.7,1480,1246.0,1500
10.76268196105957,486,167,102,4.8003072196620584e-05,1500.7,1480,1246.0,1500
10.785340070724487,487,168,103,4.938271604938271e-05,1500.8,1480,1244.0,1500
10.807881116867065,488,166,104,5.1015202530354045e-05,1500.6,1480,1242.0,1500
10.830402135848999,489,164,105,5.409499080385156e-05,1500.4,1480,1240.0,1500
10.853194952011108,490,163,107,5.4923930356456306e-05,1500.3,1480,1236.0,1500
10.875762939453125,491,160,108,5.847953216374269e-05,1500.0,1480,1234.0,1500
10.898348093032837,492,155,115,6.675567423230975e-05,1499.5,1480,1220.0,1500
10.920899152755737,493,152,118,7.054673721340387e-05,1499.2,1480,1214.0,1500
10.943721055984497,494,149,120,7.355104442483083e-05,1498.9,1480,1210.0,1500
10.966316938400269,495,145,125,8.098477486232588e-05,1498.5,1480,1200.0,1500
10.989141941070557,496,144,126,8.379420144126027e-05,1498.4,1480,1200,1500
11.011610984802246,497,138,132,9.29022668153103e-05,1497.8,1480,1200,1500
11.034484148025513,498,134,133,9.881422924901186e-05,1497.4,1480,1200,1500
11.056997060775757,499,143,119,0.0003650967506389193,1498.3,1480,1212.0,1500
11.079523086547852,500,142,115,0.00041511000415110004,1498.2,1480,1220.0,1500
11.102065086364746,501,131,129,0.0011904761904761906,1497.1,1486.904761904762,1200,1500
11.125017166137695,502,137,136,0.001176470588235294,1497.7,1486.764705882353,1200,1500
11.147541046142578,503,141,138,0.0015151515151515152,1498.1,1490.1515151515152,1200,1500
11.170094966888428,504,141,114,0.0010526315789473684,1498.1,1485.5263157894738,1222.0,1500
11.192744016647339,505,128,160,0.0029239766081871343,1496.8,1504.2397660818713,1200,1500
11.215311050415039,506,134,114,0.0010319917440660474,1497.4,1485.3199174406604,1222.0,1500
11.237895965576172,507,134,137,0.0013679890560875513,1497.4,1488.6798905608755,1200,1500
11.260436058044434,508,130,122,0.0008771929824561404,1497.0,1483.7719298245613,1206.0,1500
11.283255100250244,509,131,128,0.000980392156862745,1497.1,1484.8039215686274,1200,1500
11.305631160736084,510,126,129,0.00017094017094017094,1496.6,1480,1200,1500
11.32752013206482,511,122,116,0.0005668934240362812,1496.2,1480.668934240363,1218.0,1500
11.349518060684204,512,123,131,0.0002771618625277162,1496.3,1480,1200,1500
11.371364116668701,513,127,119,0.00021786492374727668,1496.7,1480,1212.0,1500
11.393363952636719,514,126,134,0.0002232142857142857,1496.6,1480,1200,1500
11.41520094871521,515,130,125,0.00015647003598810827,1497.0,1480,1200.0,1500
11.437065124511719,516,130,125,0.00015532774153463808,1497.0,1480,1200.0,1500
11.45895004272461,517,132,127,0.00016189088554314392,1497.2,1480,1200,1500
11.48079514503479,518,133,129,0.0001721763085399449,1497.3,1480,1200,1500
11.502750158309937,519,132,133,0.00021645021645021645,1497.2,1480,1200,1500
11.524628162384033,520,134,133,0.00021141649048625792,1497.4,1480,1200,1500
11.546483993530273,521,135,132,0.00021026072329688813,1497.5,1480,1200,1500
11.568336009979248,522,138,126,0.00016377333770062233,1497.8,1480,1200,1500
11.5901780128479,523,139,128,0.00017825311942959,1497.9,1480,1200,1500
11.612072944641113,524,135,132,0.0002032520325203252,1497.5,1480,1200,1500
11.63400912284851,525,137,117,0.00022893772893772894,1497.7,1480,1216.0,1500
11.655903100967407,526,138,129,0.00017355085039916696,1497.8,1480,1200,1500
11.677762985229492,527,137,127,0.00015391719255040788,1497.7,1480,1200,1500
11.699651956558228,528,137,117,0.0002153316106804479,1497.7,1480,1216.0,1500
11.72162413597107,529,134,137,0.00022197558268590456,1497.4,1480,1200,1500
11.743455171585083,530,136,122,0.0002527805864509606,1497.6,1480,1206.0,1500
11.765344142913818,531,135,125,0.00029069767441860465,1497.5,1480,1200.0,1500
11.787269115447998,532,134,134,0.00020177562550443906,1497.4,1480,1200,1500
11.809093952178955,533,134,136,0.00018628912071535022,1497.4,1480,1200,1500
11.83121395111084,534,134,128,0.00031426775612822125,1497.4,1480,1200,1500
11.853142976760864,535,136,133,0.00016291951775822744,1497.6,1480,1200,1500
11.87499213218689,536,136,138,0.00018726591760299626,1497.6,1480,1200,1500
11.89684009552002,537,138,129,0.0002651113467656416,1497.8,1480,1200,1500
11.918718099594116,538,138,130,0.00026041666666666666,1497.8,1480,1200,1500
11.940551042556763,539,139,140,0.00015460729746444033,1497.9,1480,1200,1500
11.962445974349976,540,145,129,0.00020408163265306123,1498.5,1480,1200,1500
11.984488010406494,541,145,142,0.0001388888888888889,1498.5,1480,1200,1500
12.006330966949463,542,147,130,0.00019623233908948196,1498.7,1480,1200,1500
12.02817416191101,543,151,131,0.00016846361185983828,1499.1,1480,1200,1500
12.050034999847412,544,153,134,0.00015124016938898973,1499.3,1480,1200,1500
12.072005033493042,545,157,135,7.906388361796332e-05,1499.7,1480,1200,1500
12.094283103942871,546,158,136,7.427213309566251e-05,1499.8,1480,1200,1500
12.116184949874878,547,160,138,6.936736958934517e-05,1500.0,1480,1200,1500
12.138056993484497,548,162,138,6.402048655569782e-05,1500.2,1480,1200,1500
12.160086154937744,549,165,141,6.177415369409439e-05,1500.5,1480,1200,1500
12.18208909034729,550,166,141,5.747126436781609e-05,1500.6,1480,1200,1500
12.204116106033325,551,167,141,5.634437683119225e-05,1500.7,1480,1200,1500
12.226051092147827,552,169,141,5.5260831122900086e-05,1500.9,1480,1200,1500
12.247907161712646,553,169,142,5.4010261949770455e-05,1500.9,1480,1200,1500
12.269766092300415,554,168,142,5.334755934915977e-05,1500.8,1480,1200,1500
12.291685104370117,555,169,142,5.252652589557727e-05,1500.9,1480,1200,1500
12.313488960266113,556,168,143,5.2056220718375845e-05,1500.8,1480,1200,1500
12.335448026657104,557,168,143,5.175179837499353e-05,1500.8,1480,1200,1500
12.357311010360718,558,166,143,5.085952598921778e-05,1500.6,1480,1200,1500
12.37919807434082,559,165,142,5.012531328320802e-05,1500.5,1480,1200,1500
12.401044130325317,560,165,142,4.9558925562493803e-05,1500.5,1480,1200,1500
12.422950029373169,561,164,135,5.320563979781857e-05,1500.4,1480,1200,1500
12.444860935211182,562,161,141,4.801690194948622e-05,1500.1,1480,1200,1500
12.46677303314209,563,160,140,4.734400151500805e-05,1500.0,1480,1200,1500
12.48869800567627,564,159,133,5.411255411255411e-05,1499.9,1480,1200,1500
12.510555028915405,565,157,139,4.734848484848485e-05,1499.7,1480,1200,1500
12.532523155212402,566,156,138,4.68384074941452e-05,1499.6,1480,1200,1500
12.554464101791382,567,156,138,4.73798919738463e-05,1499.6,1480,1200,1500
12.576321125030518,568,155,138,4.793404275716614e-05,1499.5,1480,1200,1500
12.598212003707886,569,151,138,4.879000780640125e-05,1499.1,1480,1200,1500
12.620069980621338,570,151,139,5.070222582771384e-05,1499.1,1480,1200,1500
12.64198112487793,571,150,140,5.2194790959862204e-05,1499.0,1480,1200,1500
12.663942098617554,572,149,138,5.211590577444236e-05,1498.9,1480,1200,1500
12.6858389377594,573,148,140,5.6123021663486364e-05,1498.8,1480,1200,1500
12.70771312713623,574,148,140,5.795421616922631e-05,1498.8,1480,1200,1500
12.729634046554565,575,147,137,6.177415369409439e-05,1498.7,1480,1200,1500
12.751552104949951,576,148,139,6.412722842118764e-05,1498.8,1480,1200,1500
12.773396015167236,577,147,137,6.565126050420168e-05,1498.7,1480,1200,1500
12.795287132263184,578,147,138,7.093204709887927e-05,1498.7,1480,1200,1500
12.817154169082642,579,147,138,7.571168988491823e-05,1498.7,1480,1200,1500
12.839008092880249,580,146,139,7.971938775510203e-05,1498.6,1480,1200,1500
12.860864162445068,581,147,123,0.00010986596352450011,1498.7,1480,1204.0,1500
12.882823944091797,582,147,137,8.608815426997245e-05,1498.7,1480,1200,1500
12.904683113098145,583,147,139,8.736676568233443e-05,1498.7,1480,1200,1500
12.92654800415039,584,147,138,9.521995810321844e-05,1498.7,1480,1200,1500
12.948400020599365,585,147,124,0.0001438021282714984,1498.7,1480,1202.0,1500
12.970314979553223,586,147,140,0.00010330578512396694,1498.7,1480,1200,1500
12.992234945297241,587,146,142,0.0001095290251916758,1498.6,1480,1200,1500
13.014446020126343,588,147,138,0.00011204481792717087,1498.7,1480,1200,1500
13.036324977874756,589,146,139,0.00011230907457322552,1498.6,1480,1200,1500
13.058175086975098,590,146,139,0.00011584800741427248,1498.6,1480,1200,1500
13.080014944076538,591,146,138,0.0001207437816952427,1498.6,1480,1200,1500
13.101922988891602,592,145,141,0.00012899896800825592,1498.5,1480,1200,1500
13.123861074447632,593,144,141,0.00012899896800825592,1498.4,1480,1200,1500
13.145702123641968,594,144,141,0.00012987012987012987,1498.4,1480,1200,1500
13.167549133300781,595,142,149,0.00017439832577607255,1498.2,1480,1200,1500
13.189450979232788,596,142,138,0.0002955082742316785,1498.2,1480,1200,1500
13.211329936981201,597,142,139,0.00031289111389236547,1498.2,1480,1200,1500
13.232953071594238,598,141,152,0.00019138755980861245,1498.1,1480,1200,1500
13.254810094833374,599,142,152,0.0001725625539257981,1498.2,1480,1200,1500
13.27663803100586,600,146,145,0.00037650602409638556,1498.6,1480,1200,1500
13.298572063446045,601,141,144,0.0003289473684210526,1498.1,1480,1200,1500
13.320182085037231,602,143,145,0.0003325573661456601,1498.3,1480,1200,1500
13.342092037200928,603,156,146,0.00045433893684688776,1499.6,1480,1200,1500
13.364053964614868,604,168,148,0.0006289308176100629,1500.8,1481.2893081761006,1200,1500
13.386014938354492,605,166,171,0.0006510416666666666,1500.6,1481.5104166666667,1200,1500
13.407953023910522,606,171,148,0.0006738544474393531,1501.1,1481.7385444743936,1200,1500
13.429847002029419,607,166,143,0.0004807692307692308,1500.6,1480,1200,1500
13.451740980148315,608,157,146,0.00037509377344336085,1499.7,1480,1200,1500
13.473572969436646,609,153,144,0.00028935185185185184,1499.3,1480,1200,1500
13.495434999465942,610,148,139,0.00019409937888198756,1498.8,1480,1200,1500
13.517292976379395,611,150,141,0.0001932367149758454,1499.0,1480,1200,1500
13.539112091064453,612,150,140,0.00017442874585731728,1499.0,1480,1200,1500
13.560928106307983,613,152,141,0.0001546551190844417,1499.2,1480,1200,1500
13.582839012145996,614,153,140,0.00015055706112616682,1499.3,1480,1200,1500
13.60469102859497,615,155,156,9.412650602409639e-05,1499.5,1480,1200,1500
13.626341104507446,616,158,157,9.228497600590623e-05,1499.8,1480,1200,1500
13.648278951644897,617,158,156,8.707767328456984e-05,1499.8,1480,1200,1500
13.669918060302734,618,159,155,8.403361344537815e-05,1499.9,1480,1200,1500
13.691882133483887,619,161,156,8.269246671628214e-05,1500.1,1480,1200,1500
13.713844060897827,620,167,143,6.020469596628537e-05,1500.7,1480,1200,1500
13.735692024230957,621,167,145,6.0916179337231965e-05,1500.7,1480,1200,1500
13.75754714012146,622,166,142,5.5872164487652255e-05,1500.6,1480,1200,1500
13.77937912940979,623,166,142,5.5518543193426606e-05,1500.6,1480,1200,1500
13.801246166229248,624,167,142,5.538631957906397e-05,1500.7,1480,1200,1500
13.823133945465088,625,165,128,7.044237813468582e-05,1500.5,1480,1200,1500
13.844964027404785,626,164,142,5.50357732526142e-05,1500.4,1480,1200,1500
13.866815090179443,627,162,140,5.3867700926524454e-05,1500.2,1480,1200,1500
13.888678073883057,628,162,140,5.421523448088913e-05,1500.2,1480,1200,1500
13.91052508354187,629,159,140,5.5862800960840175e-05,1499.9,1480,1200,1500
13.932433128356934,630,157,123,8.503401360544217e-05,1499.7,1480,1204.0,1500
13.95443606376648,631,155,123,8.790436005625879e-05,1499.5,1480,1204.0,1500
13.97639513015747,632,152,123,8.914244963451596e-05,1499.2,1480,1204.0,1500
13.9983069896698,633,152,138,6.435006435006435e-05,1499.2,1480,1200,1500
14.020157098770142,634,151,139,6.951685783802571e-05,1499.1,1480,1200,1500
14.042057991027832,635,149,139,7.396449704142012e-05,1498.9,1480,1200,1500
14.064034938812256,636,148,141,7.751937984496124e-05,1498.8,1480,1200,1500
14.085912942886353,637,149,141,8.296001327360213e-05,1498.9,1480,1200,1500
14.107753992080688,638,152,141,9.153318077803204e-05,1499.2,1480,1200,1500
14.129635095596313,639,147,144,9.157509157509158e-05,1498.7,1480,1200,1500
14.15148401260376,640,148,142,8.939746111210442e-05,1498.8,1480,1200,1500
14.173671007156372,641,147,141,9.250693802035152e-05,1498.7,1480,1200,1500
14.195541143417358,642,148,142,9.746588693957115e-05,1498.8,1480,1200,1500
14.217404127120972,643,147,143,9.555661729574773e-05,1498.7,1480,1200,1500
14.239284038543701,644,148,145,0.00010230179028132993,1498.8,1480,1200,1500
14.261110067367554,645,148,142,0.00010101010101010101,1498.8,1480,1200,1500
14.283010959625244,646,148,147,0.000106951871657754,1498.8,1480,1200,1500
14.304872989654541,647,149,132,0.00015179113539769278,1498.9,1480,1200,1500
14.32671594619751,648,148,145,0.00010667804565820355,1498.8,1480,1200,1500
14.348538160324097,649,149,150,0.00011467889908256881,1498.9,1480,1200,1500
14.370373964309692,650,149,151,0.0001221001221001221,1498.9,1480,1200,1500
14.392333984375,651,148,153,0.00012055455093429777,1498.8,1480,1200,1500
14.414278030395508,652,148,154,0.00011726078799249531,1498.8,1480,1200,1500
14.436130046844482,653,149,155,0.00011399908800729594,1498.9,1480,1200,1500
14.45796799659729,654,149,157,0.00011904761904761905,1498.9,1480,1200,1500
14.479803085327148,655,149,159,0.0001222344456667889,1498.9,1480,1200,1500
14.501719951629639,656,148,163,0.0001397819401733296,1498.8,1480,1200,1500
14.523553133010864,657,147,158,0.0002397506593143131,1498.7,1480,1200,1500
14.545417070388794,658,149,163,0.0001356300013563,1498.9,1480,1200,1500
14.567257165908813,659,145,168,0.00016458196181698485,1498.5,1480,1200,1500
14.589100122451782,660,146,173,0.0002028809089064719,1498.6,1480,1200,1500
14.610932111740112,661,148,162,0.0001429388221841052,1498.8,1480,1200,1500
14.632833003997803,662,150,167,0.0001554001554001554,1499.0,1480,1200,1500
14.654699087142944,663,150,165,0.00013935340022296544,1499.0,1480,1200,1500
14.676733016967773,664,147,168,0.0002380952380952381,1498.7,1480,1200,1500
14.698593139648438,665,151,164,0.00013869625520110957,1499.1,1480,1200,1500
14.720455169677734,666,150,174,0.0001923076923076923,1499.0,1480,1200,1500
14.742359161376953,667,155,172,0.00023912003825920613,1499.5,1480,1200,1500
14.764312028884888,668,150,168,0.00019623233908948196,1499.0,1480,1200,1500
14.786179065704346,669,152,170,0.00015408320493066256,1499.2,1480,1200,1500
14.808016061782837,670,158,160,0.00010818998160770312,1499.8,1480,1200,1500
14.829848051071167,671,156,165,0.00017018379850238256,1499.6,1480,1200,1500
14.851746082305908,672,160,158,9.875567845151097e-05,1500.0,1480,1200,1500
14.873593091964722,673,160,168,0.00014400921658986175,1500.0,1480,1200,1500
14.895424127578735,674,157,168,0.00016160310277957336,1499.7,1480,1200,1500
14.917253017425537,675,161,166,0.00014285714285714287,1500.1,1480,1200,1500
14.93909502029419,676,159,167,0.0001220703125,1499.9,1480,1200,1500
14.960906028747559,677,159,166,0.0001277139208173691,1499.9,1480,1200,1500
14.982809066772461,678,162,157,8.689607229753215e-05,1500.2,1480,1200,1500
15.004702091217041,679,161,157,0.00010427528675703858,1500.1,1480,1200,1500
15.026546955108643,680,166,166,0.00011570056693277797,1500.6,1480,1200,1500
15.048396110534668,681,157,161,9.145783793671118e-05,1499.7,1480,1200,1500
15.070276975631714,682,153,151,0.00011257458065968704,1499.3,1480,1200,1500
15.09218716621399,683,169,155,0.00025138260432378077,1500.9,1480,1200,1500
15.114130973815918,684,157,151,0.0003156565656565657,1499.7,1480,1200,1500
15.135962963104248,685,144,150,0.0003787878787878788,1498.4,1480,1200,1500
15.157835960388184,686,149,144,0.00024437927663734115,1498.9,1480,1200,1500
15.179682970046997,687,159,136,0.0004201680672268908,1499.9,1480,1200,1500
15.201523065567017,688,153,129,0.0006097560975609756,1499.3,1481.0975609756097,1200,1500
15.22354006767273,689,156,154,0.0009718172983479105,1499.6,1484.718172983479,1200,1500
15.245448112487793,690,150,144,0.001893939393939394,1499.0,1493.939393939394,1200,1500
15.267361164093018,691,113,178,0.0030864197530864196,1495.3,1505.8641975308642,1200,1500
15.28931212425232,692,111,176,0.004347826086956522,1495.1,1518.4782608695652,1200,1500
15.3112211227417,693,107,170,0.0027472527472527475,1494.7,1502.4725274725274,1200,1500
15.333513021469116,694,106,161,0.0018796992481203006,1494.6,1493.796992481203,1200,1500
15.355477094650269,695,122,121,0.009259259259259259,1496.2,1520,1208.0,1500
15.377371072769165,696,118,139,0.0029411764705882353,1495.8,1504.4117647058824,1200,1500
15.399338960647583,697,108,130,0.0008873114463176575,1494.8,1483.8731144631765,1200,1500
15.421261072158813,698,120,89,0.001984126984126984,1496.0,1494.8412698412699,1272.0,1500
15.443279027938843,699,104,109,0.0007880220646178094,1494.4,1482.880220646178,1232.0,1500
15.465248107910156,700,97,105,0.002232142857142857,1493.7,1497.3214285714287,1240.0,1500
15.487220048904419,701,95,91,0.00205761316872428,1493.5,1495.5761316872429,1268.0,1500
15.509189128875732,702,96,91,0.008771929824561403,1493.6,1520,1268.0,1500
15.531069993972778,703,98,82,0.0043859649122807015,1493.8,1518.859649122807,1286.0,1500
15.553132057189941,704,97,74,0.0043859649122807015,1493.7,1518.859649122807,1300,1500
15.575057983398438,705,99,64,0.002380952380952381,1493.9,1498.8095238095239,1300,1500
15.597018957138062,706,106,64,0.006578947368421052,1494.6,1520,1300,1500
15.618841171264648,707,101,55,0.002840909090909091,1494.1,1503.409090909091,1300,1500
15.640763998031616,708,101,53,0.002631578947368421,1494.1,1501.3157894736842,1300,1500
15.662759065628052,709,103,52,0.002777777777777778,1494.3,1502.7777777777778,1300,1500
15.684720039367676,710,107,55,0.003367003367003367,1494.7,1508.6700336700337,1300,1500
15.706648111343384,711,106,56,0.0027472527472527475,1494.6,1502.4725274725274,1300,1500
15.728567123413086,712,103,61,0.0028011204481792717,1494.3,1503.0112044817927,1300,1500
15.750559091567993,713,100,63,0.004201680672268907,1494.0,1517.0168067226891,1300,1500
15.772592067718506,714,101,71,0.004807692307692308,1494.1,1520,1300,1500
15.794497966766357,715,101,75,0.0035714285714285713,1494.1,1510.7142857142858,1300.0,1500
15.816543102264404,716,99,79,0.003472222222222222,1493.9,1509.7222222222222,1292.0,1500
15.838529109954834,717,101,92,0.011111111111111112,1494.1,1520,1266.0,1500
15.860473155975342,718,101,92,0.002173913043478261,1494.1,1496.7391304347825,1266.0,1500
15.882447004318237,719,100,101,0.00625,1494.0,1520,1248.0,1500
15.904412984848022,720,101,102,0.003125,1494.1,1506.25,1246.0,1500
15.926339149475098,721,101,108,0.002066115702479339,1494.1,1495.6611570247933,1234.0,1500
15.948303937911987,722,109,112,0.000992063492063492,1494.9,1484.920634920635,1226.0,1500
15.970383167266846,723,116,123,0.0007575757575757576,1495.6,1482.5757575757575,1204.0,1500
15.992367029190063,724,119,123,0.0007751937984496124,1495.9,1482.7519379844962,1204.0,1500
16.014479160308838,725,127,125,0.00034722222222222224,1496.7,1480,1200.0,1500
16.036417961120605,726,132,130,0.0002358490566037736,1497.2,1480,1200,1500
16.058282136917114,727,129,109,8.900756564307967e-05,1496.9,1480,1232.0,1500
16.080180168151855,728,129,115,7.628928898382667e-05,1496.9,1480,1220.0,1500
16.10215997695923,729,134,118,7.200460829493088e-05,1497.4,1480,1214.0,1500
16.124150037765503,730,141,102,5.351027397260274e-05,1498.1,1480,1246.0,1500
16.146075010299683,731,138,120,5.9269796111901376e-05,1497.8,1480,1210.0,1500
16.16798496246338,732,146,125,5.384159801862919e-05,1498.6,1480,1200.0,1500
16.18990397453308,733,153,109,3.814027994965483e-05,1499.3,1480,1232.0,1500
16.21186900138855,734,151,108,3.342245989304813e-05,1499.1,1480,1234.0,1500
16.233864068984985,735,156,109,3.238341968911917e-05,1499.6,1480,1232.0,1500
16.255790948867798,736,155,109,2.9137529137529138e-05,1499.5,1480,1232.0,1500
16.277693033218384,737,155,84,3.8024259477546675e-05,1499.5,1480,1282.0,1500
16.299638986587524,738,160,111,2.506265664160401e-05,1500.0,1480,1228.0,1500
16.32154107093811,739,166,109,2.5352398336882668e-05,1500.6,1480,1232.0,1500
16.343498945236206,740,167,108,2.3410431688360332e-05,1500.7,1480,1234.0,1500
16.365514993667603,741,173,102,2.295684113865932e-05,1501.3,1480,1246.0,1500
16.38744306564331,742,175,102,2.2395413419331722e-05,1501.5,1480,1246.0,1500
16.409361124038696,743,176,100,2.2768670309653916e-05,1501.6,1480,1250.0,1500
16.431539058685303,744,177,97,2.2990091270662345e-05,1501.7,1480,1256.0,1500
16.453547954559326,745,177,95,2.3311110075061775e-05,1501.7,1480,1260.0,1500
16.475461959838867,746,176,92,2.380952380952381e-05,1501.6,1480,1266.0,1500
16.497375965118408,747,177,93,2.390914524805738e-05,1501.7,1480,1264.0,1500
16.519365072250366,748,177,89,2.4249478636209322e-05,1501.7,1480,1272.0,1500
16.541383981704712,749,176,90,2.4075500770416025e-05,1501.6,1480,1270.0,1500
16.563271045684814,750,177,88,2.428127428127428e-05,1501.7,1480,1274.0,1500
16.58521604537964,751,176,87,2.5098511658258665e-05,1501.6,1480,1276.0,1500
16.607136011123657,752,176,85,2.5315814789499e-05,1501.6,1480,1280.0,1500
16.629040956497192,753,175,85,2.5425883549453343e-05,1501.5,1480,1280.0,1500
16.650959014892578,754,175,87,2.5952455102252672e-05,1501.5,1480,1276.0,1500
16.67295503616333,755,175,88,2.6613439787092483e-05,1501.5,1480,1274.0,1500
16.69490909576416,756,176,60,4.1511000415110007e-05,1501.6,1480,1300,1500
16.716773986816406,757,175,86,2.809935933460717e-05,1501.5,1480,1278.0,1500
16.738686084747314,758,174,86,2.9252596167909903e-05,1501.4,1480,1278.0,1500
16.76062512397766,759,173,86,2.94811320754717e-05,1501.3,1480,1278.0,1500
16.782649040222168,760,173,87,3.1017369727047146e-05,1501.3,1480,1276.0,1500
16.804621934890747,761,172,87,3.136959658698789e-05,1501.2,1480,1276.0,1500
16.826548099517822,762,171,89,3.147128245476003e-05,1501.1,1480,1272.0,1500
16.848444938659668,763,172,88,3.273108143493061e-05,1501.2,1480,1274.0,1500
16.8703670501709,764,170,90,3.395355154149124e-05,1501.0,1480,1270.0,1500
16.892320156097412,765,169,92,3.367003367003367e-05,1500.9,1480,1266.0,1500
16.914340019226074,766,169,93,3.465003465003465e-05,1500.9,1480,1264.0,1500
16.936289072036743,767,168,96,3.642191142191142e-05,1500.8,1480,1258.0,1500
16.958187103271484,768,168,97,3.732736095558044e-05,1500.8,1480,1256.0,1500
16.98011302947998,769,167,98,3.7196845707484004e-05,1500.7,1480,1254.0,1500
17.002110958099365,770,166,105,3.9032006245121e-05,1500.6,1480,1240.0,1500
17.024137020111084,771,165,108,3.940110323089047e-05,1500.5,1480,1234.0,1500
17.046041011810303,772,164,111,4.012841091492777e-05,1500.4,1480,1228.0,1500
17.067955017089844,773,163,117,4.296455424274973e-05,1500.3,1480,1216.0,1500
17.0898859500885,774,163,121,4.2643923240938166e-05,1500.3,1480,1208.0,1500
17.11188006401062,775,163,126,4.3790506218251886e-05,1500.3,1480,1200,1500
17.133867025375366,776,162,129,4.533297066956798e-05,1500.2,1480,1200,1500
