time,frame,x,y,size_inv,roll,pitch,thrust,yaw
0,0,,,,1500.0,1500.0,1420.0,1500
0.05,0,,,,1500.0,1500.0,1420.0,1500
0.1,0,,,,1500.0,1500.0,1420.0,1500
0.15000000000000002,0,,,,1500.0,1500.0,1420.0,1500
0.2,0,,,,1500.0,1500.0,1420.0,1500
0.25,0,,,,1500.0,1500.0,1420.0,1500
0.3,0,,,,1500.0,1500.0,1420.0,1500
0.35,0,,,,1500.0,1500.0,1420.0,1500
0.39999999999999997,0,,,,1500.0,1500.0,1420.0,1500
0.44999999999999996,0,,,,1500.0,1500.0,1420.0,1500
0.49999999999999994,0,,,,1500.0,1500.0,1420.0,1500
0.5499999999999999,0,,,,1500.0,1500.0,1420.0,1500
0.6,0,,,,1500.0,1500.0,1420.0,1500
0.65,0,,,,1500.0,1500.0,1420.0,1500
0.7000000000000001,0,,,,1500.0,1500.0,1420.0,1500
0.7500000000000001,0,,,,1500.0,1500.0,1420.0,1500
0.8000000000000002,0,,,,1500.0,1500.0,1420.0,1500
0.8500000000000002,0,,,,1500.0,1500.0,1420.0,1500
0.9000000000000002,0,,,,1500.0,1500.0,1420.0,1500
0.9500000000000003,0,,,,1500.0,1500.0,1420.0,1500
1.0000000000000002,0,,,,1500.0,1500.0,1420.0,1500
1.0500000000000003,0,,,,1500.0,1500.0,1420.0,1500
1.1000000000000003,0,,,,1500.0,1500.0,1420.0,1500
1.1500000000000004,0,,,,1500.0,1500.0,1420.0,1500
1.2000000000000004,0,,,,1500.0,1500.0,1420.0,1500
1.2500000000000004,0,,,,1500.0,1500.0,1420.0,1500
1.3000000000000005,0,,,,1500.0,1500.0,1420.0,1500
1.3500000000000005,0,,,,1500.0,1500.0,1420.0,1500
1.4000000000000006,0,,,,1500.0,1500.0,1420.0,1500
1.4500000000000006,0,,,,1500.0,1500.0,1420.0,1500
1.5000000000000007,0,,,,1500.0,1500.0,1420.0,1500
1.5500000000000007,0,,,,1500.0,1500.0,1420.0,1500
1.6000000000000008,0,,,,1500.0,1500.0,1420.0,1500
1.6500000000000008,0,,,,1500.0,1500.0,1420.0,1500
1.7000000000000008,0,,,,1500.0,1500.0,1420.0,1500
1.7500000000000009,0,,,,1500.0,1500.0,1420.0,1500
1.800000000000001,0,,,,1500.0,1500.0,1420.0,1500
1.850000000000001,0,,,,1500.0,1500.0,1420.0,1500
1.900000000000001,0,,,,1500.0,1500.0,1420.0,1500
1.950000000000001,0,,,,1500.0,1500.0,1420.0,1500
2.000000000000001,0,,,,1500.0,1500.0,1420.0,1500
2.0500000000000007,0,,,,1500.0,1500.0,1420.0,1500
2.1000000000000005,0,,,,1500.0,1500.0,1420.0,1500
2.1500000000000004,0,,,,1500.0,1500.0,1420.0,1500
2.2,0,,,,1500.0,1500.0,1420.0,1500
2.25,0,,,,1500.0,1500.0,1420.0,1500
2.3,0,,,,1500.0,1500.0,1420.0,1500
2.3499999999999996,0,,,,1500.0,1500.0,1420.0,1500
2.3999999999999995,0,,,,1500.0,1500.0,1420.0,1500
2.4499999999999993,0,,,,1500.0,1500.0,1420.0,1500
2.499999999999999,0,,,,1500.0,1500.0,1420.0,1500
2.549999999999999,0,,,,1500.0,1500.0,1420.0,1500
2.5999999999999988,0,,,,1500.0,1500.0,1420.0,1500
2.6499999999999986,0,,,,1500.0,1500.0,1420.0,1500
2.6999999999999984,0,,,,1500.0,1500.0,1420.0,1500
2.7499999999999982,0,,,,1500.0,1500.0,1420.0,1500
2.799999999999998,0,,,,1500.0,1500.0,1420.0,1500
2.849999999999998,0,,,,1500.0,1500.0,1420.0,1500
2.8999999999999977,0,,,,1500.0,1500.0,1420.0,1500
2.9499999999999975,0,,,,1500.0,1500.0,1420.0,1500
2.9999999999999973,0,,,,1500.0,1500.0,1420.0,1500
3.049999999999997,0,,,,1500.0,1500.0,1420.0,1500
3.099999999999997,0,,,,1500.0,1500.0,1420.0,1500
3.149999999999997,0,,,,1500.0,1500.0,1420.0,1500
3.1999999999999966,0,,,,1500.0,1500.0,1420.0,1500
3.2499999999999964,0,,,,1500.0,1500.0,1420.0,1500
3.2999999999999963,0,,,,1500.0,1500.0,1420.0,1500
3.349999999999996,0,,,,1500.0,1500.0,1420.0,1500
3.399999999999996,0,,,,1500.0,1500.0,1420.0,1500
3.4499999999999957,0,,,,1500.0,1500.0,1420.0,1500
3.4999999999999956,0,,,,1500.0,1500.0,1420.0,1500
3.5499999999999954,0,,,,1500.0,1500.0,1420.0,1500
3.599999999999995,0,,,,1500.0,1500.0,1420.0,1500
3.649999999999995,0,,,,1500.0,1500.0,1420.0,1500
3.699999999999995,0,,,,1500.0,1500.0,1420.0,1500
3.7499999999999947,0,,,,1500.0,1500.0,1420.0,1500
3.7999999999999945,0,,,,1500.0,1500.0,1420.0,1500
3.8499999999999943,0,,,,1500.0,1500.0,1420.0,1500
3.899999999999994,0,,,,1500.0,1500.0,1420.0,1500
3.949999999999994,0,,,,1500.0,1500.0,1420.0,1500
3.999999999999994,0,,,,1500.0,1500.0,1420.0,1500
4.049999999999994,0,,,,1500.0,1500.0,1420.0,1500
4.099999999999993,0,,,,1500.0,1500.0,1420.0,1500
4.149999999999993,0,,,,1500.0,1500.0,1420.0,1500
4.199999999999993,0,,,,1500.0,1500.0,1420.0,1500
4.249999999999993,0,,,,1500.0,1500.0,1420.0,1500
4.299999999999993,0,,,,1500.0,1500.0,1420.0,1500
4.3499999999999925,0,,,,1500.0,1500.0,1420.0,1500
4.399999999999992,0,,,,1500.0,1500.0,1420.0,1500
4.449999999999992,0,,,,1500.0,1500.0,1420.0,1500
4.499999999999992,0,,,,1500.0,1500.0,1420.0,1500
4.549999999999992,0,,,,1500.0,1500.0,1420.0,1500
4.599999999999992,0,,,,1500.0,1500.0,1420.0,1500
4.6499999999999915,0,,,,1500.0,1500.0,1420.0,1500
4.699999999999991,0,,,,1500.0,1500.0,1420.0,1500
4.749999999999991,0,,,,1500.0,1500.0,1420.0,1500
4.799999999999991,0,,,,1500.0,1500.0,1420.0,1500
4.849999999999991,0,,,,1500.0,1500.0,1420.0,1500
4.899999999999991,0,,,,1500.0,1500.0,1420.0,1500
4.94999999999999,0,,,,1500.0,1500.0,1420.0,1500
4.99999999999999,0,,,,1500.0,1500.0,1420.0,1500
5.04999999999999,0,,,,1500.0,1500.0,1420.0,1500
5.09999999999999,0,,,,1500.0,1500.0,1420.0,1500
5.14999999999999,0,,,,1500.0,1500.0,1420.0,1500
5.1999999999999895,0,,,,1500.0,1500.0,1420.0,1500
5.249999999999989,0,,,,1500.0,1500.0,1420.0,1500
5.299999999999989,0,,,,1500.0,1500.0,1420.0,1500
5.349999999999989,0,,,,1500.0,1500.0,1420.0,1500
5.399999999999989,0,,,,1500.0,1500.0,1420.0,1500
5.449999999999989,0,,,,1500.0,1500.0,1420.0,1500
5.4999999999999885,0,,,,1500.0,1500.0,1420.0,1500
5.549999999999988,0,,,,1500.0,1500.0,1420.0,1500
5.599999999999988,0,,,,1500.0,1500.0,1420.0,1500
5.649999999999988,0,,,,1500.0,1500.0,1420.0,1500
5.699999999999988,0,,,,1500.0,1500.0,1420.0,1500
5.749999999999988,1,245,101,0,1508.5,1500.5,1419.0,1500
5.799999999999987,2,233,104,0,1507.3,1500.5,1416.0,1500
5.849999999999987,3,230,114,0,1507.0,1500.5,1406.0,1500
5.899999999999987,4,226,115,0,1506.6,1500.5,1405.0,1500
5.949999999999987,5,218,123,0,1505.8,1500.5,1397.0,1500
5.999999999999987,6,211,132,0,1505.1,1500.5,1388.0,1500
6.0499999999999865,7,209,141,0,1504.9,1500.5,1379.0,1500
6.099999999999986,8,204,152,0,1504.4,1500.5,1370,1500
6.149999999999986,9,202,154,0,1504.2,1500.5,1370,1500
6.199999999999986,10,206,155,0,1504.6,1500.5,1370,1500
6.249999999999986,11,211,160,0,1505.1,1500.5,1370,1500
6.299999999999986,12,201,181,0,1504.1,1500.5,1370,1500
6.349999999999985,13,203,177,0,1504.3,1500.5,1370,1500
6.399999999999985,14,199,187,0,1503.9,1500.5,1370,1500
6.449999999999985,15,187,192,0,1502.7,1500.5,1370,1500
6.499999999999985,15,,,,1500.0,1500.0,1420.0,1500
6.549999999999985,16,174,197,0,1501.4,1500.5,1370,1500
6.5999999999999845,16,,,,1500.0,1500.0,1420.0,1500
6.649999999999984,16,,,,1500.0,1500.0,1420.0,1500
6.699999999999984,17,152,191,0,1499.2,1500.5,1370,1500
6.749999999999984,17,,,,1500.0,1500.0,1420.0,1500
6.799999999999984,17,,,,1500.0,1500.0,1420.0,1500
6.849999999999984,18,113,197,0,1495.3,1500.5,1370,1500
6.8999999999999835,18,,,,1500.0,1500.0,1420.0,1500
6.949999999999983,19,143,182,0,1498.3,1500.5,1370,1500
6.999999999999983,20,142,167,0,1498.2,1500.5,1370,1500
7.049999999999983,21,139,161,0,1497.9,1500.5,1370,1500
7.099999999999983,22,137,160,0,1497.7,1500.5,1370,1500
7.149999999999983,23,140,154,0,1498.0,1500.5,1370,1500
7.199999999999982,24,142,153,0,1498.2,1500.5,1370,1500
7.249999999999982,25,130,148,0,1497.0,1500.5,1372.0,1500
7.299999999999982,26,119,170,0,1495.9,1500.5,1370,1500
7.349999999999982,27,120,172,0,1496.0,1500.5,1370,1500
7.399999999999982,28,127,156,0,1496.7,1500.5,1370,1500
7.4499999999999815,29,148,158,0,1498.8,1500.5,1370,1500
7.499999999999981,30,143,163,0,1498.3,1500.5,1370,1500
7.549999999999981,31,141,169,0,1498.1,1500.5,1370,1500
7.599999999999981,32,140,171,0,1498.0,1500.5,1370,1500
7.649999999999981,33,141,169,0,1498.1,1500.5,1370,1500
7.699999999999981,34,139,168,0,1497.9,1500.5,1370,1500
7.7499999999999805,35,138,163,0,1497.8,1500.5,1370,1500
7.79999999999998,36,138,158,0,1497.8,1500.5,1370,1500
7.84999999999998,37,137,153,0,1497.7,1500.5,1370,1500
7.89999999999998,38,136,143,0,1497.6,1500.5,1377.0,1500
7.94999999999998,39,137,137,0,1497.7,1500.5,1383.0,1500
7.99999999999998,40,139,130,0,1497.9,1500.5,1390.0,1500
8.04999999999998,41,139,127,0,1497.9,1500.5,1393.0,1500
8.09999999999998,42,141,123,0,1498.1,1500.5,1397.0,1500
8.14999999999998,43,142,121,0,1498.2,1500.5,1399.0,1500
8.199999999999982,44,144,118,0,1498.4,1500.5,1402.0,1500
8.249999999999982,45,146,117,0,1498.6,1500.5,1403.0,1500
8.299999999999983,46,147,116,0,1498.7,1500.5,1404.0,1500
8.349999999999984,47,148,116,0,1498.8,1500.5,1404.0,1500
8.399999999999984,48,149,116,0,1498.9,1500.5,1404.0,1500
8.449999999999985,49,149,116,0,1498.9,1500.5,1404.0,1500
8.499999999999986,50,149,116,0,1498.9,1500.5,1404.0,1500
8.549999999999986,51,150,117,0,1499.0,1500.5,1403.0,1500
8.599999999999987,52,150,118,0,1499.0,1500.5,1402.0,1500
8.649999999999988,53,151,118,0,1499.1,1500.5,1402.0,1500
8.699999999999989,54,151,119,0,1499.1,1500.5,1401.0,1500
8.74999999999999,55,152,119,0,1499.2,1500.5,1401.0,1500
8.79999999999999,56,152,119,0,1499.2,1500.5,1401.0,1500
8.84999999999999,57,152,118,0,1499.2,1500.5,1402.0,1500
8.899999999999991,58,152,119,0,1499.2,1500.5,1401.0,1500
8.949999999999992,59,152,118,0,1499.2,1500.5,1402.0,1500
8.999999999999993,60,150,118,0,1499.0,1500.5,1402.0,1500
9.049999999999994,61,150,118,0,1499.0,1500.5,1402.0,1500
9.099999999999994,62,149,118,0,1498.9,1500.5,1402.0,1500
9.149999999999995,63,148,118,0,1498.8,1500.5,1402.0,1500
9.199999999999996,64,148,117,0,1498.8,1500.5,1403.0,1500
9.249999999999996,65,147,117,0,1498.7,1500.5,1403.0,1500
9.299999999999997,66,146,117,0,1498.6,1500.5,1403.0,1500
9.349999999999998,67,146,117,0,1498.6,1500.5,1403.0,1500
9.399999999999999,68,146,117,0,1498.6,1500.5,1403.0,1500
9.45,69,145,116,0,1498.5,1500.5,1404.0,1500
9.5,70,145,116,0,1498.5,1500.5,1404.0,1500
9.55,71,145,116,0,1498.5,1500.5,1404.0,1500
9.600000000000001,72,145,116,0,1498.5,1500.5,1404.0,1500
9.650000000000002,73,146,116,0,1498.6,1500.5,1404.0,1500
9.700000000000003,74,146,116,0,1498.6,1500.5,1404.0,1500
9.750000000000004,75,146,115,0,1498.6,1500.5,1405.0,1500
9.800000000000004,76,147,115,0,1498.7,1500.5,1405.0,1500
9.850000000000005,77,147,115,0,1498.7,1500.5,1405.0,1500
9.900000000000006,78,148,115,0,1498.8,1500.5,1405.0,1500
9.950000000000006,79,149,115,0,1498.9,1500.5,1405.0,1500
10.000000000000007,80,149,115,0,1498.9,1500.5,1405.0,1500
10.050000000000008,81,150,115,0,1499.0,1500.5,1405.0,1500
10.100000000000009,82,151,116,0,1499.1,1500.5,1404.0,1500
10.15000000000001,83,152,116,0,1499.2,1500.5,1404.0,1500
10.20000000000001,84,152,116,0,1499.2,1500.5,1404.0,1500
10.25000000000001,85,153,116,0,1499.3,1500.5,1404.0,1500
