time,x,y,size_inv,roll,pitch,thrust,yaw
0.000759124755859375,162,53,0.005555555555555556,1506.0,1500.0,1350,1502.0
0.023777008056640625,162,53,0.005555555555555556,1508.0,1500.0,1350,1502.0
0.04633808135986328,162,53,0.005555555555555556,1510.0,1500.0,1350,1502.0
0.06887006759643555,162,53,0.005555555555555556,1512.0,1500.0,1350,1502.0
0.09161615371704102,162,53,0.005555555555555556,1514.0,1500.0,1350,1502.0
0.11418604850769043,162,53,0.005555555555555556,1516.0,1500.0,1350,1502.0
0.13673806190490723,162,53,0.005555555555555556,1518.0,1500.0,1350,1502.0
0.15935492515563965,162,53,0.005555555555555556,1520.0,1500.0,1350,1502.0
0.18200993537902832,162,53,0.005555555555555556,1520,1500.0,1350,1502.0
0.20446014404296875,162,53,0.005555555555555556,1520,1500.0,1350,1502.0
0.22722506523132324,162,53,0.005555555555555556,1520,1500.0,1350,1502.0
0.25032711029052734,162,53,0.005555555555555556,1520,1500.0,1350,1502.0
0.2734529972076416,162,53,0.005555555555555556,1520,1500.0,1350,1502.0
0.29652905464172363,163,54,0.006493506493506494,1520,1500.0,1350,1503.0
0.31966209411621094,161,54,0.005555555555555556,1520,1500.0,1350,1501.0
0.34284210205078125,160,53,0.005555555555555556,1518.0,1500.0,1350,1500.0
0.3660240173339844,160,52,0.005555555555555556,1516.0,1500.0,1350,1500.0
0.38927602767944336,159,51,0.005555555555555556,1511.0,1500.0,1350,1499.0
0.41253209114074707,160,51,0.007142857142857143,1511.0,1500.0,1350,1500.0
0.43573498725891113,158,52,0.005555555555555556,1503.0,1500.0,1350,1498.0
0.45890092849731445,158,56,0.006493506493506494,1499.0,1500.0,1350,1498.0
0.48221397399902344,157,57,0.005050505050505051,1492.0,1500.0,1350,1497.0
0.5053920745849609,158,58,0.006493506493506494,1490.0,1500.0,1350,1498.0
0.5285661220550537,157,58,0.005555555555555556,1482.0,1500.0,1340.72,1497.0
0.5518290996551514,158,58,0.004784688995215311,1481.0,1500.0,1329.3599999999999,1498.0
0.5751121044158936,158,58,0.005050505050505051,1480,1500.0,1330.5599999999999,1498.0
0.5983121395111084,159,58,0.004784688995215311,1480.0,1500.0,1335.9200000000001,1499.0
0.6215829849243164,160,59,0.006493506493506494,1483.0,1500.0,1342.8,1500.0
0.6448440551757812,159,61,0.0053475935828877,1480.0,1500.0,1345.5999999999999,1499.0
0.6681420803070068,159,62,0.005050505050505051,1481.0,1500.0,1346.8,1499.0
0.6914219856262207,160,63,0.004784688995215311,1485.0,1500.0,1341.1199999999999,1500.0
0.7146871089935303,159,64,0.005555555555555556,1485.0,1500.0,1332.6400000000001,1499.0
0.7379441261291504,161,66,0.006493506493506494,1492.0,1500.0,1321.52,1501.0
0.7612190246582031,160,67,0.005050505050505051,1493.0,1500.0,1315.76,1500.0
0.7844910621643066,161,68,0.006493506493506494,1498.0,1500.0,1311.3599999999999,1501.0
0.8078320026397705,159,69,0.005555555555555556,1495.0,1500.0,1308.3199999999999,1499.0
0.8313050270080566,159,70,0.005050505050505051,1495.0,1500.0,1306.6400000000001,1499.0
0.8546581268310547,160,71,0.006493506493506494,1497.0,1500.0,1307.76,1500.0
0.8779840469360352,158,71,0.005050505050505051,1492.0,1500.0,1310.1600000000001,1498.0
0.9012749195098877,158,72,0.005050505050505051,1491.0,1500.0,1311.3599999999999,1498.0
0.9245579242706299,157,73,0.005050505050505051,1486.0,1500.0,1312.5599999999999,1497.0
0.9478130340576172,157,74,0.005050505050505051,1484.0,1500.0,1313.76,1497.0
0.9710779190063477,158,75,0.006493506493506494,1483.0,1500.0,1313.5999999999999,1498.0
0.9943461418151855,156,76,0.005050505050505051,1480,1500.0,1310.6400000000001,1496.0
1.0175249576568604,156,77,0.005050505050505051,1480,1500.0,1307.6800000000001,1496.0
1.0407040119171143,156,77,0.005050505050505051,1480,1500.0,1307.3599999999999,1496.0
1.0638949871063232,156,77,0.005050505050505051,1480,1500.0,1308.48,1496.0
1.0870959758758545,156,78,0.005050505050505051,1480,1500.0,1308.4000000000001,1496.0
1.1103060245513916,156,78,0.004629629629629629,1480,1500.0,1312.3199999999999,1496.0
1.1335010528564453,157,79,0.006493506493506494,1480,1500.0,1315.04,1497.0
1.1566920280456543,155,80,0.004629629629629629,1480,1500.0,1314.96,1495.0
1.1799819469451904,157,81,0.0043859649122807015,1480,1500.0,1312.0799999999999,1497.0
1.2035541534423828,155,82,0.005050505050505051,1480,1500.0,1309.2,1495.0
1.2267529964447021,156,82,0.0043859649122807015,1480,1500.0,1306.1600000000001,1496.0
1.2500619888305664,155,83,0.005050505050505051,1480,1500.0,1301.9200000000001,1495.0
1.2734060287475586,155,83,0.004629629629629629,1480,1500.0,1301.6800000000001,1495.0
1.296623945236206,155,83,0.004629629629629629,1480,1500.0,1304.24,1495.0
1.3198559284210205,155,84,0.004629629629629629,1480,1500.0,1305.5999999999999,1495.0
1.3431270122528076,156,84,0.0043859649122807015,1480,1500.0,1308.1600000000001,1496.0
1.3663179874420166,156,84,0.004629629629629629,1480,1500.0,1312.1600000000001,1496.0
1.389564037322998,156,84,0.004629629629629629,1480,1500.0,1314.8,1496.0
1.4128260612487793,156,85,0.004629629629629629,1480,1500.0,1313.4400000000001,1496.0
1.4360201358795166,156,85,0.004629629629629629,1480,1500.0,1314.72,1496.0
1.4592490196228027,156,86,0.005050505050505051,1480,1500.0,1313.3599999999999,1496.0
1.482530117034912,156,86,0.004629629629629629,1480,1500.0,1311.8399999999999,1496.0
1.5057251453399658,156,86,0.004629629629629629,1480,1500.0,1310.3199999999999,1496.0
1.528921127319336,156,87,0.004273504273504274,1480,1500.0,1308.96,1496.0
1.5522019863128662,157,87,0.0038461538461538464,1480,1500.0,1307.4400000000001,1497.0
1.5754039287567139,156,86,0.004629629629629629,1480,1500.0,1311.3599999999999,1496.0
1.5985980033874512,157,86,0.004629629629629629,1480,1500.0,1314.0799999999999,1497.0
1.6218409538269043,157,86,0.004629629629629629,1480,1500.0,1316.8,1497.0
1.6450319290161133,158,86,0.004048582995951417,1480,1500.0,1320.96,1498.0
1.6682169437408447,158,86,0.004048582995951417,1480,1500.0,1325.1199999999999,1498.0
1.691431999206543,159,86,0.004048582995951417,1480,1500.0,1325.1199999999999,1499.0
1.7146179676055908,158,86,0.004273504273504274,1480,1500.0,1325.1199999999999,1498.0
1.737800121307373,159,86,0.004048582995951417,1480,1500.0,1325.1199999999999,1499.0
1.7610111236572266,158,86,0.004629629629629629,1480,1500.0,1323.76,1498.0
1.784209966659546,159,86,0.0043859649122807015,1480,1500.0,1322.4000000000001,1499.0
1.807399034500122,159,87,0.0043859649122807015,1480.0,1500.0,1319.76,1499.0
1.8306670188903809,159,87,0.004629629629629629,1482.0,1500.0,1318.3199999999999,1499.0
1.8539459705352783,160,87,0.0043859649122807015,1487.0,1500.0,1316.8800000000001,1500.0
1.8772540092468262,160,87,0.004629629629629629,1489.0,1500.0,1315.4400000000001,1500.0
1.9005799293518066,160,87,0.004273504273504274,1491.0,1500.0,1314.0,1500.0
1.9238791465759277,161,87,0.004048582995951417,1495.0,1500.0,1315.3599999999999,1501.0
1.9480950832366943,161,86,0.0043859649122807015,1498.0,1500.0,1319.3599999999999,1501.0
1.9720029830932617,161,86,0.004048582995951417,1500.0,1500.0,1322.1600000000001,1501.0
1.9958839416503906,160,86,0.004273504273504274,1500.0,1500.0,1324.96,1500.0
2.0197980403900146,162,86,0.003663003663003663,1507.0,1500.0,1327.76,1502.0
2.0437240600585938,162,85,0.0043859649122807015,1510.0,1500.0,1331.8399999999999,1502.0
2.0676019191741943,162,85,0.0043859649122807015,1513.0,1500.0,1331.9200000000001,1502.0
2.09148907661438,162,85,0.0043859649122807015,1515.0,1500.0,1332.0,1502.0
2.1153221130371094,161,85,0.004629629629629629,1514.0,1500.0,1332.0799999999999,1501.0
2.1391680240631104,162,85,0.0043859649122807015,1518.0,1500.0,1332.1600000000001,1502.0
2.163166046142578,162,85,0.0043859649122807015,1519.0,1500.0,1329.4400000000001,1502.0
2.1870551109313965,161,84,0.004629629629629629,1517.0,1500.0,1330.72,1501.0
2.210922956466675,162,84,0.005952380952380952,1520.0,1500.0,1330.8,1502.0
2.234760046005249,162,84,0.005952380952380952,1520,1500.0,1330.8800000000001,1502.0
2.2585370540618896,161,84,0.004166666666666667,1519.0,1500.0,1330.96,1501.0
2.2825441360473633,160,83,0.004629629629629629,1515.0,1500.0,1335.04,1500.0
2.3064160346984863,162,83,0.003968253968253968,1519.0,1500.0,1335.1199999999999,1502.0
2.330291986465454,160,83,0.004629629629629629,1513.0,1500.0,1335.2,1500.0
2.354414939880371,163,83,0.005208333333333333,1520,1500.0,1335.28,1503.0
2.3782429695129395,160,82,0.004629629629629629,1513.0,1500.0,1338.0,1500.0
2.4020819664001465,162,82,0.005952380952380952,1517.0,1500.0,1336.72,1502.0
2.4259400367736816,162,82,0.005952380952380952,1518.0,1500.0,1336.8,1502.0
2.4499149322509766,164,81,0.004629629629629629,1520,1500.0,1339.52,1504.0
2.4738669395446777,163,81,0.003968253968253968,1520,1500.0,1341.04,1503.0
2.497642993927002,163,81,0.004329004329004329,1520,1500.0,1339.76,1503.0
2.5214109420776367,164,80,0.004629629629629629,1520,1500.0,1342.48,1504.0
2.545166015625,164,80,0.004629629629629629,1520,1500.0,1344.0,1504.0
2.568903923034668,160,80,0.004629629629629629,1520,1500.0,1342.72,1500.0
2.592818021774292,162,80,0.003968253968253968,1520,1500.0,1341.4400000000001,1502.0
2.6165950298309326,163,80,0.004629629629629629,1520,1500.0,1341.52,1503.0
2.6403701305389404,163,79,0.004629629629629629,1520,1500.0,1341.4400000000001,1503.0
2.6641359329223633,163,79,0.004629629629629629,1520,1500.0,1340.1600000000001,1503.0
2.6879119873046875,161,79,0.003787878787878788,1520,1500.0,1340.24,1501.0
2.7116570472717285,161,78,0.003968253968253968,1520,1500.0,1342.96,1501.0
2.735419988632202,162,78,0.004629629629629629,1520,1500.0,1344.48,1502.0
2.759253978729248,162,78,0.004629629629629629,1520,1500.0,1344.5599999999999,1502.0
2.7831549644470215,160,78,0.0034965034965034965,1517.0,1500.0,1344.6400000000001,1500.0
2.8070690631866455,160,77,0.003968253968253968,1517.0,1500.0,1347.3599999999999,1500.0
2.831144094467163,160,77,0.003968253968253968,1515.0,1500.0,1346.0799999999999,1500.0
2.8550350666046143,161,77,0.004629629629629629,1515.0,1500.0,1344.8,1501.0
2.878943920135498,159,77,0.003787878787878788,1507.0,1500.0,1344.8800000000001,1499.0
2.9029481410980225,159,77,0.003787878787878788,1503.0,1500.0,1344.96,1499.0
2.9268200397491455,159,77,0.003968253968253968,1501.0,1500.0,1342.24,1499.0
2.9506490230560303,160,77,0.004629629629629629,1502.0,1500.0,1340.8800000000001,1500.0
2.974514961242676,160,77,0.004629629629629629,1500.0,1500.0,1339.52,1500.0
2.998379945755005,160,77,0.004629629629629629,1498.0,1500.0,1338.1600000000001,1500.0
3.0223259925842285,160,78,0.004273504273504274,1498.0,1500.0,1334.1600000000001,1500.0
3.046178102493286,160,77,0.004629629629629629,1498.0,1500.0,1335.3599999999999,1500.0
3.0701029300689697,160,77,0.004629629629629629,1498.0,1500.0,1335.3599999999999,1500.0
3.094057083129883,158,77,0.003787878787878788,1491.0,1500.0,1335.3599999999999,1498.0
3.1179399490356445,158,77,0.0034965034965034965,1490.0,1500.0,1335.3599999999999,1498.0
3.141806125640869,158,77,0.0034965034965034965,1489.0,1500.0,1338.1600000000001,1498.0
3.165673017501831,158,77,0.0034965034965034965,1488.0,1500.0,1338.1600000000001,1498.0
3.189648151397705,158,77,0.0034965034965034965,1486.0,1500.0,1338.1600000000001,1498.0
3.213608980178833,158,77,0.0034965034965034965,1484.0,1500.0,1338.1600000000001,1498.0
3.2374911308288574,158,77,0.0034965034965034965,1482.0,1500.0,1338.1600000000001,1498.0
3.2613770961761475,158,77,0.0034965034965034965,1480.0,1500.0,1336.8,1498.0
3.285223960876465,158,77,0.0034965034965034965,1480,1500.0,1336.8,1498.0
3.309001922607422,158,77,0.0034965034965034965,1480,1500.0,1336.8,1498.0
3.332932949066162,160,77,0.004273504273504274,1482.0,1500.0,1336.8,1500.0
3.356811046600342,159,77,0.0034965034965034965,1481.0,1500.0,1336.8,1499.0
3.380687952041626,159,77,0.003246753246753247,1482.0,1500.0,1336.8,1499.0
3.4045591354370117,159,77,0.003246753246753247,1483.0,1500.0,1336.8,1499.0
3.4284141063690186,159,78,0.0034965034965034965,1484.0,1500.0,1334.1600000000001,1499.0
3.4523699283599854,159,78,0.0034965034965034965,1485.0,1500.0,1332.72,1499.0
3.4762439727783203,159,78,0.0034965034965034965,1486.0,1500.0,1331.28,1499.0
3.5001420974731445,159,77,0.003246753246753247,1487.0,1500.0,1332.48,1499.0
3.5240609645843506,159,77,0.003246753246753247,1488.0,1500.0,1332.48,1499.0
3.5479791164398193,159,77,0.003246753246753247,1489.0,1500.0,1335.28,1499.0
3.572235107421875,159,77,0.003246753246753247,1488.0,1500.0,1338.0799999999999,1499.0
3.5963261127471924,159,77,0.003246753246753247,1488.0,1500.0,1340.8800000000001,1499.0
3.620249032974243,158,77,0.003246753246753247,1485.0,1500.0,1340.8800000000001,1498.0
3.644118070602417,159,77,0.003105590062111801,1487.0,1500.0,1340.8800000000001,1499.0
3.6679840087890625,158,77,0.003246753246753247,1484.0,1500.0,1339.52,1498.0
3.6918580532073975,159,77,0.003105590062111801,1486.0,1500.0,1338.1600000000001,1499.0
3.7157230377197266,159,77,0.003105590062111801,1486.0,1500.0,1336.8,1499.0
3.7396421432495117,158,77,0.003246753246753247,1483.0,1500.0,1336.8,1498.0
3.763603925704956,158,77,0.003246753246753247,1482.0,1500.0,1336.8,1498.0
3.7874879837036133,158,77,0.003246753246753247,1481.0,1500.0,1336.8,1498.0
3.811352014541626,159,78,0.002898550724637681,1483.0,1500.0,1334.1600000000001,1499.0
3.835206985473633,158,78,0.0030303030303030303,1480.0,1500.0,1332.72,1498.0
3.8590550422668457,159,78,0.002898550724637681,1483.0,1500.0,1331.28,1499.0
3.8830440044403076,159,78,0.0030303030303030303,1483.0,1500.0,1329.8399999999999,1499.0
3.9069020748138428,159,78,0.0030303030303030303,1484.0,1500.0,1328.4000000000001,1499.0
3.9307830333709717,159,77,0.003246753246753247,1484.0,1500.0,1332.4000000000001,1499.0
3.9546611309051514,160,77,0.002777777777777778,1487.0,1500.0,1335.2,1500.0
3.9785211086273193,159,77,0.0030303030303030303,1486.0,1500.0,1338.0,1499.0
4.002486944198608,161,77,0.0026666666666666666,1493.0,1500.0,1340.8,1501.0
4.026348114013672,161,77,0.0026666666666666666,1496.0,1500.0,1343.5999999999999,1501.0
4.050220012664795,161,77,0.0026666666666666666,1498.0,1500.0,1342.24,1501.0
4.074103116989136,161,77,0.0026666666666666666,1501.0,1500.0,1340.8800000000001,1501.0
4.09800910949707,161,77,0.0026666666666666666,1503.0,1500.0,1339.52,1501.0
4.12186598777771,161,77,0.0026666666666666666,1505.0,1500.0,1338.1600000000001,1501.0
4.145756006240845,161,77,0.0026666666666666666,1507.0,1500.0,1336.8,1501.0
4.169713973999023,160,77,0.002564102564102564,1506.0,1500.0,1336.8,1500.0
4.193650007247925,160,77,0.002564102564102564,1506.0,1500.0,1336.8,1500.0
4.217505931854248,160,77,0.002564102564102564,1507.0,1500.0,1336.8,1500.0
4.241382122039795,160,76,0.002403846153846154,1506.0,1500.0,1339.4400000000001,1500.0
4.265269041061401,160,76,0.002403846153846154,1505.0,1500.0,1340.8800000000001,1500.0
4.289134979248047,160,76,0.002564102564102564,1504.0,1500.0,1342.3199999999999,1500.0
4.3130950927734375,160,76,0.002403846153846154,1503.0,1500.0,1343.76,1500.0
4.336960077285767,160,76,0.002403846153846154,1502.0,1500.0,1345.2,1500.0
4.360810041427612,160,76,0.002403846153846154,1501.0,1500.0,1343.8399999999999,1500.0
4.3846940994262695,160,76,0.002403846153846154,1500.0,1500.0,1342.48,1500.0
4.408565044403076,160,76,0.002403846153846154,1500.0,1500.0,1341.1199999999999,1500.0
4.4325549602508545,161,76,0.002403846153846154,1503.0,1500.0,1339.76,1501.0
4.456403970718384,161,76,0.002403846153846154,1504.0,1500.0,1338.4000000000001,1501.0
4.480265140533447,161,77,0.002564102564102564,1505.0,1500.0,1335.76,1501.0
4.50413703918457,162,77,0.0023148148148148147,1509.0,1500.0,1334.3199999999999,1502.0
4.5279951095581055,161,77,0.002403846153846154,1508.0,1500.0,1332.8800000000001,1501.0
4.551855087280273,161,77,0.002403846153846154,1509.0,1500.0,1331.4400000000001,1501.0
4.5757529735565186,162,77,0.0023148148148148147,1513.0,1500.0,1330.0,1502.0
4.599653959274292,163,77,0.002840909090909091,1518.0,1500.0,1331.3599999999999,1503.0
4.623573064804077,162,77,0.002403846153846154,1518.0,1500.0,1332.72,1502.0
4.6474289894104,162,77,0.0025,1520.0,1500.0,1334.0799999999999,1502.0
4.671280145645142,162,77,0.002403846153846154,1520,1500.0,1335.4400000000001,1502.0
4.695115089416504,161,76,0.002403846153846154,1519.0,1500.0,1339.4400000000001,1501.0
4.718990087509155,161,76,0.002403846153846154,1519.0,1500.0,1340.8800000000001,1501.0
4.742962121963501,161,76,0.002403846153846154,1518.0,1500.0,1342.3199999999999,1501.0
4.767142057418823,161,77,0.0022624434389140274,1518.0,1500.0,1341.1199999999999,1501.0
4.791068077087402,161,77,0.0022624434389140274,1518.0,1500.0,1341.1199999999999,1501.0
4.814939022064209,161,77,0.002403846153846154,1517.0,1500.0,1338.3199999999999,1501.0
4.838817119598389,162,77,0.002840909090909091,1518.0,1500.0,1335.52,1502.0
4.862839937210083,162,77,0.002840909090909091,1518.0,1500.0,1332.72,1502.0
4.88672399520874,162,77,0.002840909090909091,1518.0,1500.0,1332.72,1502.0
4.910560131072998,162,77,0.002840909090909091,1518.0,1500.0,1332.72,1502.0
4.934412956237793,162,77,0.002840909090909091,1519.0,1500.0,1334.0799999999999,1502.0
4.95828104019165,162,77,0.00267379679144385,1520.0,1500.0,1335.4400000000001,1502.0
4.982140064239502,161,76,0.0023148148148148147,1518.0,1500.0,1339.4400000000001,1501.0
5.005980014801025,162,76,0.002028397565922921,1520,1500.0,1340.8800000000001,1502.0
5.029780149459839,163,76,0.0022624434389140274,1520,1500.0,1342.3199999999999,1503.0
5.0536041259765625,163,76,0.0022624434389140274,1520,1500.0,1343.76,1503.0
5.077371120452881,161,76,0.00196078431372549,1520,1500.0,1345.2,1501.0
5.101128101348877,161,76,0.00196078431372549,1520,1500.0,1343.8399999999999,1501.0
5.124869108200073,160,76,0.001851851851851852,1517.0,1500.0,1342.48,1500.0
5.148715019226074,161,76,0.002136752136752137,1518.0,1500.0,1341.1199999999999,1501.0
5.172810077667236,159,76,0.001851851851851852,1511.0,1500.0,1339.76,1499.0
5.196681022644043,159,76,0.001851851851851852,1508.0,1500.0,1338.4000000000001,1499.0
5.220530033111572,161,76,0.00205761316872428,1512.0,1500.0,1338.4000000000001,1501.0
5.2443859577178955,159,76,0.0017921146953405018,1505.0,1500.0,1338.4000000000001,1499.0
5.268255949020386,158,76,0.001851851851851852,1498.0,1500.0,1338.4000000000001,1498.0
5.292112112045288,158,76,0.001851851851851852,1493.0,1500.0,1338.4000000000001,1498.0
5.315958023071289,159,76,0.002136752136752137,1493.0,1500.0,1338.4000000000001,1499.0
5.339862108230591,158,77,0.001697792869269949,1488.0,1500.0,1335.76,1498.0
5.363790035247803,157,77,0.0017543859649122807,1483.0,1500.0,1334.3199999999999,1497.0
5.3876659870147705,157,77,0.0017543859649122807,1480,1500.0,1332.8800000000001,1497.0
5.411492109298706,157,77,0.0017543859649122807,1480,1500.0,1331.4400000000001,1497.0
5.435298919677734,157,77,0.0017543859649122807,1480,1500.0,1330.0,1497.0
5.459028005599976,158,77,0.0020242914979757085,1480,1500.0,1331.3599999999999,1498.0
5.4829230308532715,156,77,0.0017543859649122807,1480,1500.0,1332.72,1496.0
5.506700038909912,157,77,0.001697792869269949,1480,1500.0,1334.0799999999999,1497.0
5.5304670333862305,158,76,0.001594896331738437,1480,1500.0,1338.0799999999999,1498.0
5.554234027862549,158,76,0.001594896331738437,1480,1500.0,1340.8800000000001,1498.0
5.57802414894104,158,76,0.0015151515151515152,1480,1500.0,1342.3199999999999,1498.0
5.60180401802063,158,76,0.0015151515151515152,1480,1500.0,1343.76,1498.0
5.625575065612793,157,76,0.0014705882352941176,1480,1500.0,1345.2,1497.0
5.649465084075928,157,77,0.0014005602240896359,1480,1500.0,1341.2,1497.0
5.673356056213379,157,77,0.0014005602240896359,1480,1500.0,1338.4000000000001,1497.0
5.697142124176025,157,77,0.0014005602240896359,1480,1500.0,1335.5999999999999,1497.0
5.7209179401397705,156,77,0.0014005602240896359,1480,1500.0,1332.8,1496.0
5.744694948196411,156,76,0.001336898395721925,1480,1500.0,1332.6400000000001,1496.0
5.768456935882568,157,76,0.0012987012987012987,1480,1500.0,1335.4400000000001,1497.0
5.792346954345703,156,76,0.001336898395721925,1480,1500.0,1338.24,1496.0
5.81610894203186,156,76,0.0013605442176870747,1480,1500.0,1341.04,1496.0
5.83994197845459,156,75,0.0012987012987012987,1480,1500.0,1346.48,1496.0
5.863814115524292,156,75,0.0012987012987012987,1480,1500.0,1347.9200000000001,1496.0
5.887614011764526,156,75,0.0012987012987012987,1480,1500.0,1348.0,1496.0
5.9113609790802,157,76,0.0011750881316098707,1480,1500.0,1345.4400000000001,1497.0
5.935110092163086,156,76,0.0012422360248447205,1480,1500.0,1344.0799999999999,1496.0
5.959161996841431,157,75,0.0010964912280701754,1480,1500.0,1342.5599999999999,1497.0
5.983112096786499,157,75,0.0010964912280701754,1480,1500.0,1341.2,1497.0
6.006899118423462,158,75,0.0010683760683760685,1480,1500.0,1339.8399999999999,1498.0
6.0306830406188965,158,75,0.0010683760683760685,1480,1500.0,1341.28,1498.0
6.054455995559692,158,75,0.0010683760683760685,1480,1500.0,1342.72,1498.0
6.078222990036011,158,75,0.0010683760683760685,1480,1500.0,1342.72,1498.0
6.101992130279541,158,75,0.0010683760683760685,1480,1500.0,1342.72,1498.0
6.125751972198486,158,76,0.0010256410256410256,1480,1500.0,1340.0799999999999,1498.0
6.149018049240112,158,76,0.0010256410256410256,1480,1500.0,1337.28,1498.0
6.172560930252075,159,76,0.000975609756097561,1480,1500.0,1334.48,1499.0
6.195816993713379,159,75,0.0009615384615384616,1480,1500.0,1335.6800000000001,1499.0
