time,x,y,size_inv,roll,pitch,thrust,yaw
0.0004420280456542969,175,48,0.006493506493506494,1520,1500.0,1350,1515.0
0.02231311798095703,174,48,0.005050505050505051,1520,1500.0,1350,1514.0
0.04384589195251465,174,48,0.005050505050505051,1520,1500.0,1350,1514.0
0.06531310081481934,175,48,0.006493506493506494,1520,1500.0,1350,1515.0
0.08678412437438965,174,48,0.005050505050505051,1520,1500.0,1350,1514.0
0.10829997062683105,174,48,0.005050505050505051,1520,1500.0,1350,1514.0
0.1299610137939453,174,48,0.005050505050505051,1520,1500.0,1350,1514.0
0.15152692794799805,174,48,0.005050505050505051,1520,1500.0,1350,1514.0
0.1732800006866455,174,48,0.005050505050505051,1520,1500.0,1350,1514.0
0.19477391242980957,175,48,0.006493506493506494,1520,1500.0,1350,1515.0
0.21645498275756836,174,48,0.005050505050505051,1520,1500.0,1350,1514.0
0.23829889297485352,175,48,0.006493506493506494,1520,1500.0,1350,1515.0
0.26009106636047363,173,48,0.005050505050505051,1520,1500.0,1350,1513.0
0.28191208839416504,174,48,0.006493506493506494,1520,1500.0,1350,1514.0
0.30376505851745605,174,48,0.005555555555555556,1520,1500.0,1350,1514.0
0.32555603981018066,172,48,0.005952380952380952,1520,1500.0,1350,1512.0
0.3473539352416992,169,48,0.005050505050505051,1520,1500.0,1350,1509.0
0.36914801597595215,170,47,0.005050505050505051,1520,1500.0,1350,1510.0
0.3909449577331543,168,46,0.005050505050505051,1520,1500.0,1350,1508.0
0.41272711753845215,165,46,0.006060606060606061,1520,1500.0,1350,1505.0
0.4345359802246094,162,47,0.006493506493506494,1520,1500.0,1350,1502.0
0.456326961517334,160,47,0.005952380952380952,1520,1500.0,1350,1500.0
0.4781160354614258,159,47,0.004629629629629629,1520,1500.0,1350,1499.0
0.49992990493774414,155,48,0.004629629629629629,1520,1500.0,1350,1495.0
0.5217471122741699,155,49,0.005952380952380952,1520,1500.0,1350,1495.0
0.5436499118804932,152,50,0.004629629629629629,1499.0,1500.0,1350,1492.0
0.5655009746551514,153,52,0.003968253968253968,1485.0,1500.0,1350,1493.0
0.5873360633850098,153,53,0.005555555555555556,1480,1500.0,1350,1493.0
0.609220027923584,152,55,0.004329004329004329,1480,1500.0,1350,1492.0
0.6311299800872803,152,56,0.003968253968253968,1480,1500.0,1344.6400000000001,1492.0
0.6529850959777832,152,58,0.004329004329004329,1480,1500.0,1336.8,1492.0
0.6748270988464355,152,59,0.003968253968253968,1480,1500.0,1333.1199999999999,1492.0
0.6966650485992432,152,61,0.005952380952380952,1480,1500.0,1328.1600000000001,1492.0
0.7185089588165283,153,63,0.004329004329004329,1480,1500.0,1324.1600000000001,1493.0
0.7404201030731201,153,64,0.003968253968253968,1480,1500.0,1321.3599999999999,1493.0
0.7623000144958496,153,65,0.005952380952380952,1480,1500.0,1320.5599999999999,1493.0
0.7841989994049072,155,66,0.005050505050505051,1480,1500.0,1318.8,1495.0
0.8060319423675537,154,66,0.003968253968253968,1480,1500.0,1321.28,1494.0
0.8278698921203613,155,67,0.004629629629629629,1480,1500.0,1323.5999999999999,1495.0
0.8497390747070312,154,68,0.004329004329004329,1480,1500.0,1325.9200000000001,1494.0
0.8715980052947998,154,68,0.003968253968253968,1480,1500.0,1329.52,1494.0
0.8935561180114746,154,69,0.003968253968253968,1480,1500.0,1331.9200000000001,1494.0
0.915431022644043,154,71,0.003968253968253968,1480,1500.0,1329.1199999999999,1494.0
0.9373059272766113,154,72,0.003968253968253968,1480,1500.0,1326.5599999999999,1494.0
0.9591560363769531,154,73,0.003968253968253968,1480,1500.0,1324.0,1494.0
0.9809908866882324,154,73,0.003968253968253968,1480,1500.0,1321.6800000000001,1494.0
1.00285005569458,154,74,0.003968253968253968,1480,1500.0,1318.1600000000001,1494.0
1.02469801902771,154,75,0.003968253968253968,1480,1500.0,1317.5999999999999,1494.0
1.0465319156646729,154,76,0.003663003663003663,1480,1500.0,1317.04,1494.0
1.0683879852294922,155,76,0.004629629629629629,1480,1500.0,1318.72,1495.0
1.0902280807495117,155,77,0.004629629629629629,1480,1500.0,1318.1600000000001,1495.0
1.1120710372924805,155,78,0.004629629629629629,1480,1500.0,1317.5999999999999,1495.0
1.1339681148529053,153,79,0.003787878787878788,1480,1500.0,1316.0799999999999,1493.0
1.1560800075531006,153,81,0.0034965034965034965,1480,1500.0,1312.3199999999999,1493.0
1.1779389381408691,153,82,0.0034965034965034965,1480,1500.0,1307.76,1493.0
1.1997699737548828,153,83,0.0034965034965034965,1480,1500.0,1304.1600000000001,1493.0
1.2216269969940186,153,84,0.0034965034965034965,1480,1500.0,1300.5599999999999,1493.0
1.2435901165008545,153,85,0.0034965034965034965,1480,1500.0,1296.96,1493.0
1.2654519081115723,153,86,0.0034965034965034965,1480,1500.0,1295.3599999999999,1493.0
1.2872960567474365,153,87,0.0034965034965034965,1480,1500.0,1294.72,1493.0
1.3091371059417725,153,87,0.003246753246753247,1480,1500.0,1296.3199999999999,1493.0
1.3309929370880127,153,88,0.0034965034965034965,1480,1500.0,1296.72,1493.0
1.3528459072113037,154,89,0.003663003663003663,1480,1500.0,1297.1199999999999,1494.0
1.3746891021728516,154,89,0.0034965034965034965,1480,1500.0,1298.8,1494.0
1.396522045135498,154,89,0.003246753246753247,1480,1500.0,1301.52,1494.0
1.418355941772461,154,90,0.0034965034965034965,1480,1500.0,1301.04,1494.0
1.440187931060791,154,90,0.003246753246753247,1480,1500.0,1302.8,1494.0
1.4620530605316162,154,91,0.0034965034965034965,1480,1500.0,1303.3599999999999,1494.0
1.4839410781860352,154,91,0.0034965034965034965,1480,1500.0,1304.1600000000001,1494.0
1.5057940483093262,155,92,0.0033444816053511705,1480,1500.0,1301.76,1495.0
1.5276329517364502,155,92,0.003105590062111801,1480,1500.0,1302.5599999999999,1495.0
1.5494859218597412,155,92,0.003246753246753247,1480,1500.0,1302.4000000000001,1495.0
1.5713400840759277,155,93,0.0034965034965034965,1480,1500.0,1301.04,1495.0
1.593174934387207,155,94,0.0034965034965034965,1480,1500.0,1298.6400000000001,1495.0
1.6150219440460205,155,94,0.003246753246753247,1480,1500.0,1299.4400000000001,1495.0
1.6368598937988281,155,94,0.003246753246753247,1480,1500.0,1299.28,1495.0
1.6586949825286865,155,94,0.003246753246753247,1480,1500.0,1299.1199999999999,1495.0
1.6805570125579834,155,94,0.003246753246753247,1480,1500.0,1300.0,1495.0
1.7023930549621582,156,95,0.0033444816053511705,1480,1500.0,1300.6400000000001,1496.0
1.7242350578308105,156,95,0.0034965034965034965,1480,1500.0,1301.52,1496.0
1.746074914932251,156,95,0.003246753246753247,1480,1500.0,1302.4000000000001,1496.0
1.767930030822754,156,95,0.0034965034965034965,1480,1500.0,1303.28,1496.0
1.7897748947143555,157,95,0.003105590062111801,1480,1500.0,1303.2,1497.0
1.8116040229797363,157,95,0.003246753246753247,1480,1500.0,1304.1600000000001,1497.0
1.8335459232330322,157,94,0.003246753246753247,1480,1500.0,1307.3599999999999,1497.0
1.8554348945617676,158,95,0.0033444816053511705,1480,1500.0,1307.1199999999999,1498.0
1.8773109912872314,158,94,0.003246753246753247,1480,1500.0,1310.3199999999999,1498.0
1.899163007736206,158,94,0.003246753246753247,1480,1500.0,1312.3199999999999,1498.0
1.9210090637207031,158,94,0.003246753246753247,1480,1500.0,1313.3599999999999,1498.0
1.9428670406341553,158,94,0.003246753246753247,1480,1500.0,1312.4000000000001,1498.0
1.9647231101989746,159,94,0.003105590062111801,1480,1500.0,1313.4400000000001,1499.0
1.9867870807647705,159,94,0.003246753246753247,1480,1500.0,1312.48,1499.0
2.0086278915405273,159,93,0.003246753246753247,1480,1500.0,1313.76,1499.0
2.0304601192474365,160,93,0.003105590062111801,1484.0,1500.0,1313.8399999999999,1500.0
2.0523409843444824,160,93,0.003105590062111801,1487.0,1500.0,1314.8800000000001,1500.0
2.0742199420928955,160,93,0.003246753246753247,1489.0,1500.0,1314.96,1500.0
2.096079111099243,160,93,0.003246753246753247,1491.0,1500.0,1316.0,1500.0
2.1179358959198,160,92,0.003246753246753247,1493.0,1500.0,1317.28,1500.0
2.1403141021728516,160,92,0.003246753246753247,1495.0,1500.0,1317.3599999999999,1500.0
2.1637771129608154,160,92,0.003246753246753247,1497.0,1500.0,1317.4400000000001,1500.0
2.1872289180755615,161,91,0.003105590062111801,1501.0,1500.0,1319.76,1501.0
2.210638999938965,161,91,0.0030303030303030303,1503.0,1500.0,1320.8800000000001,1501.0
2.234117031097412,161,90,0.003246753246753247,1505.0,1500.0,1323.2,1501.0
2.2578229904174805,161,90,0.003246753246753247,1506.0,1500.0,1324.3199999999999,1501.0
2.281240940093994,162,89,0.003105590062111801,1510.0,1500.0,1327.6800000000001,1502.0
2.304781913757324,162,89,0.003246753246753247,1512.0,1500.0,1327.8399999999999,1502.0
2.3282289505004883,162,88,0.003246753246753247,1514.0,1500.0,1330.24,1502.0
2.3516640663146973,162,88,0.003246753246753247,1516.0,1500.0,1330.4000000000001,1502.0
2.375209093093872,162,86,0.003246753246753247,1518.0,1500.0,1335.04,1502.0
2.398622989654541,163,86,0.003105590062111801,1520,1500.0,1335.28,1503.0
2.422049045562744,163,86,0.0034965034965034965,1520,1500.0,1336.48,1503.0
2.4455060958862305,163,85,0.003246753246753247,1520,1500.0,1337.9200000000001,1503.0
2.4688050746917725,163,85,0.0034965034965034965,1520,1500.0,1339.1199999999999,1503.0
2.4922070503234863,163,84,0.003246753246753247,1520,1500.0,1338.5599999999999,1503.0
2.5156009197235107,163,84,0.0034965034965034965,1520,1500.0,1337.76,1503.0
2.538973093032837,163,84,0.0034965034965034965,1520,1500.0,1336.96,1503.0
2.5623779296875,163,83,0.0034965034965034965,1520,1500.0,1337.3599999999999,1503.0
2.585836887359619,163,82,0.0034965034965034965,1520,1500.0,1338.8,1503.0
2.609174966812134,163,81,0.003246753246753247,1520,1500.0,1341.2,1503.0
2.6325290203094482,163,81,0.0034965034965034965,1520,1500.0,1342.4000000000001,1503.0
2.655940055847168,164,80,0.004273504273504274,1520,1500.0,1345.8399999999999,1504.0
2.6792891025543213,164,80,0.004273504273504274,1520,1500.0,1347.04,1504.0
2.7026679515838623,164,79,0.004273504273504274,1520,1500.0,1348.48,1504.0
2.7260560989379883,164,78,0.004273504273504274,1520,1500.0,1349.9200000000001,1504.0
2.74937105178833,162,78,0.0034965034965034965,1520,1500.0,1350,1502.0
2.7726480960845947,162,78,0.0034965034965034965,1520,1500.0,1348.4000000000001,1502.0
2.7960360050201416,162,77,0.0034965034965034965,1520,1500.0,1349.8399999999999,1502.0
2.819370985031128,163,77,0.004273504273504274,1520,1500.0,1349.04,1503.0
2.8427560329437256,163,77,0.004273504273504274,1520,1500.0,1347.2,1503.0
2.8661460876464844,164,76,0.0037593984962406013,1520,1500.0,1347.5999999999999,1504.0
2.889478921890259,161,76,0.0034965034965034965,1520,1500.0,1347.76,1501.0
2.912843942642212,161,75,0.003246753246753247,1520,1500.0,1348.1600000000001,1501.0
2.936182975769043,161,75,0.0034965034965034965,1520,1500.0,1348.3199999999999,1501.0
2.959491014480591,162,74,0.003968253968253968,1520,1500.0,1350,1502.0
2.9827349185943604,162,74,0.004273504273504274,1520,1500.0,1350,1502.0
3.0060219764709473,162,73,0.003968253968253968,1520,1500.0,1350,1502.0
3.0292680263519287,162,73,0.004273504273504274,1520,1500.0,1350,1502.0
3.0525479316711426,161,72,0.003105590062111801,1520,1500.0,1350,1501.0
3.0758841037750244,161,72,0.004273504273504274,1519.0,1500.0,1350,1501.0
3.0991950035095215,161,71,0.003968253968253968,1516.0,1500.0,1350,1501.0
3.122653007507324,159,71,0.0034965034965034965,1510.0,1500.0,1350,1499.0
3.1461260318756104,159,70,0.003246753246753247,1508.0,1500.0,1350,1499.0
3.1694509983062744,159,70,0.003246753246753247,1506.0,1500.0,1350,1499.0
3.1928040981292725,159,70,0.0034965034965034965,1503.0,1500.0,1350,1499.0
3.2161660194396973,161,69,0.0037593984962406013,1506.0,1500.0,1350,1501.0
3.23956298828125,160,68,0.003105590062111801,1502.0,1500.0,1350,1500.0
3.2628860473632812,159,68,0.003246753246753247,1497.0,1500.0,1350,1499.0
3.2862050533294678,160,68,0.003105590062111801,1498.0,1500.0,1350,1500.0
3.3095109462738037,161,68,0.0037593984962406013,1500.0,1500.0,1350,1501.0
3.3328189849853516,159,69,0.0034965034965034965,1494.0,1500.0,1350,1499.0
3.3561809062957764,160,69,0.004273504273504274,1497.0,1500.0,1350,1500.0
3.3794898986816406,160,69,0.004273504273504274,1498.0,1500.0,1350,1500.0
3.4028561115264893,160,69,0.004273504273504274,1499.0,1500.0,1348.72,1500.0
3.426292896270752,158,69,0.0034965034965034965,1494.0,1500.0,1345.76,1498.0
3.449690103530884,158,69,0.0034965034965034965,1491.0,1500.0,1345.76,1498.0
3.473098039627075,159,69,0.004273504273504274,1492.0,1500.0,1346.72,1499.0
3.496782064437866,159,69,0.004273504273504274,1492.0,1500.0,1347.6800000000001,1499.0
3.520206928253174,157,69,0.003246753246753247,1485.0,1500.0,1348.6400000000001,1497.0
3.5436360836029053,157,69,0.003246753246753247,1481.0,1500.0,1349.5999999999999,1497.0
3.567012071609497,157,69,0.003246753246753247,1480,1500.0,1349.5999999999999,1497.0
3.5903429985046387,157,69,0.003246753246753247,1480,1500.0,1349.5999999999999,1497.0
3.613672971725464,157,70,0.0034965034965034965,1480,1500.0,1347.3599999999999,1497.0
3.6369941234588623,157,70,0.003246753246753247,1480,1500.0,1346.3199999999999,1497.0
3.6603569984436035,159,70,0.002857142857142857,1480,1500.0,1345.28,1499.0
3.683670997619629,157,70,0.003246753246753247,1480,1500.0,1344.24,1497.0
3.706990957260132,157,71,0.003246753246753247,1480,1500.0,1340.96,1497.0
3.7303149700164795,159,71,0.002857142857142857,1480,1500.0,1340.8800000000001,1499.0
3.7536768913269043,159,72,0.0026666666666666666,1480,1500.0,1338.5599999999999,1499.0
3.776993989944458,159,72,0.002857142857142857,1480,1500.0,1337.4400000000001,1499.0
3.800286054611206,159,72,0.002857142857142857,1480,1500.0,1336.3199999999999,1499.0
3.823638916015625,159,73,0.0026666666666666666,1480.0,1500.0,1334.96,1499.0
3.847048044204712,159,73,0.0026666666666666666,1482.0,1500.0,1333.8399999999999,1499.0
3.8704729080200195,159,73,0.0026666666666666666,1484.0,1500.0,1334.72,1499.0
3.8938889503479004,159,74,0.0026666666666666666,1484.0,1500.0,1333.3599999999999,1499.0
3.917294979095459,158,74,0.002403846153846154,1483.0,1500.0,1333.2,1498.0
3.9407169818878174,158,75,0.002564102564102564,1484.0,1500.0,1331.8399999999999,1498.0
3.9641289710998535,158,75,0.002564102564102564,1483.0,1500.0,1331.6800000000001,1498.0
3.9875268936157227,158,75,0.002403846153846154,1482.0,1500.0,1330.5599999999999,1498.0
4.010910987854004,158,76,0.002564102564102564,1481.0,1500.0,1329.2,1498.0
4.034286022186279,158,76,0.002564102564102564,1480.0,1500.0,1329.04,1498.0
4.057694911956787,158,76,0.002403846153846154,1480,1500.0,1329.9200000000001,1498.0
4.081006050109863,158,76,0.002564102564102564,1480,1500.0,1330.8,1498.0
4.104358911514282,158,76,0.002403846153846154,1480,1500.0,1331.6800000000001,1498.0
4.127702951431274,158,76,0.002564102564102564,1480,1500.0,1333.5999999999999,1498.0
4.151041030883789,158,76,0.002403846153846154,1480,1500.0,1335.52,1498.0
4.174375057220459,158,76,0.002403846153846154,1480,1500.0,1336.48,1498.0
4.19768500328064,159,76,0.0023148148148148147,1480,1500.0,1337.4400000000001,1499.0
4.221040964126587,159,77,0.0023148148148148147,1480.0,1500.0,1336.1600000000001,1499.0
4.244487047195435,159,77,0.0023148148148148147,1481.0,1500.0,1335.1199999999999,1499.0
4.267906904220581,159,78,0.002403846153846154,1482.0,1500.0,1331.8399999999999,1499.0
4.291323900222778,159,79,0.0022624434389140274,1483.0,1500.0,1327.52,1499.0
4.314879894256592,160,79,0.002178649237472767,1487.0,1500.0,1324.4000000000001,1500.0
4.338295936584473,160,79,0.002403846153846154,1489.0,1500.0,1323.28,1500.0
4.361704111099243,161,80,0.002178649237472767,1494.0,1500.0,1319.9200000000001,1501.0
4.385236978530884,161,80,0.002178649237472767,1497.0,1500.0,1319.76,1501.0
4.408670902252197,161,80,0.002178649237472767,1500.0,1500.0,1321.5999999999999,1501.0
4.4321489334106445,161,80,0.0022624434389140274,1502.0,1500.0,1323.4400000000001,1501.0
4.455641031265259,161,79,0.002403846153846154,1504.0,1500.0,1326.5599999999999,1501.0
4.479042053222656,161,80,0.0022624434389140274,1506.0,1500.0,1328.24,1501.0
4.502495050430298,162,80,0.002178649237472767,1511.0,1500.0,1330.1600000000001,1502.0
4.525973081588745,161,80,0.0022624434389140274,1511.0,1500.0,1331.1199999999999,1501.0
4.54938006401062,161,80,0.0022624434389140274,1512.0,1500.0,1332.0799999999999,1501.0
4.5728490352630615,161,80,0.0022624434389140274,1513.0,1500.0,1331.04,1501.0
4.596286058425903,162,81,0.002178649237472767,1516.0,1500.0,1328.8,1502.0
4.619697093963623,162,81,0.002178649237472767,1517.0,1500.0,1327.76,1502.0
4.643409013748169,162,81,0.002178649237472767,1518.0,1500.0,1326.72,1502.0
4.666835069656372,161,81,0.0022624434389140274,1516.0,1500.0,1325.6800000000001,1501.0
4.690244913101196,162,81,0.002178649237472767,1519.0,1500.0,1325.5999999999999,1502.0
4.713665008544922,163,81,0.002178649237472767,1520,1500.0,1326.5599999999999,1503.0
4.736978054046631,162,80,0.002403846153846154,1520,1500.0,1329.76,1502.0
4.7603209018707275,162,80,0.002403846153846154,1520,1500.0,1331.76,1502.0
4.783629894256592,162,80,0.002403846153846154,1520,1500.0,1333.76,1502.0
4.806945085525513,162,80,0.002403846153846154,1520,1500.0,1335.76,1502.0
4.830275058746338,162,80,0.002403846153846154,1520,1500.0,1336.8,1502.0
4.853625059127808,162,80,0.002403846153846154,1520,1500.0,1335.8399999999999,1502.0
4.876928091049194,162,80,0.002403846153846154,1520,1500.0,1334.8800000000001,1502.0
4.900244951248169,162,80,0.002403846153846154,1520,1500.0,1333.9200000000001,1502.0
4.923593997955322,162,80,0.002403846153846154,1520,1500.0,1332.96,1502.0
4.946907997131348,162,80,0.002403846153846154,1520,1500.0,1332.0,1502.0
4.970202922821045,162,80,0.002403846153846154,1520,1500.0,1332.0,1502.0
4.993505954742432,162,80,0.002403846153846154,1520,1500.0,1332.0,1502.0
5.016772985458374,162,80,0.002403846153846154,1520,1500.0,1332.0,1502.0
5.040064096450806,162,80,0.002403846153846154,1520,1500.0,1332.0,1502.0
5.063369035720825,162,80,0.002403846153846154,1520,1500.0,1332.0,1502.0
5.08666205406189,163,80,0.002840909090909091,1520,1500.0,1332.0,1503.0
5.109975099563599,163,80,0.002840909090909091,1520,1500.0,1332.0,1503.0
5.133323907852173,161,80,0.002403846153846154,1520,1500.0,1332.0,1501.0
5.1566550731658936,163,80,0.002028397565922921,1520,1500.0,1332.0,1503.0
5.179959058761597,164,80,0.002403846153846154,1520,1500.0,1332.0,1504.0
5.203223943710327,164,80,0.0022624434389140274,1520,1500.0,1332.0,1504.0
5.22652006149292,164,80,0.0022624434389140274,1520,1500.0,1332.0,1504.0
5.249830961227417,162,80,0.00196078431372549,1520,1500.0,1332.0,1502.0
5.273099899291992,163,79,0.002136752136752137,1520,1500.0,1334.24,1503.0
5.296394109725952,161,79,0.00196078431372549,1520,1500.0,1335.28,1501.0
5.319701910018921,161,79,0.00196078431372549,1520,1500.0,1336.3199999999999,1501.0
5.343043088912964,160,78,0.001851851851851852,1520,1500.0,1339.5999999999999,1500.0
5.366379976272583,160,78,0.001851851851851852,1520,1500.0,1341.6800000000001,1500.0
5.389698028564453,161,78,0.002136752136752137,1520,1500.0,1341.76,1501.0
5.413034915924072,159,77,0.001851851851851852,1513.0,1500.0,1344.0799999999999,1499.0
5.436491966247559,159,77,0.001851851851851852,1508.0,1500.0,1345.2,1499.0
5.4599220752716064,158,77,0.001851851851851852,1500.0,1500.0,1344.3199999999999,1498.0
5.483311891555786,158,77,0.001851851851851852,1496.0,1500.0,1343.4400000000001,1498.0
5.506740093231201,157,77,0.001851851851851852,1488.0,1500.0,1343.52,1497.0
5.530158042907715,157,77,0.001851851851851852,1484.0,1500.0,1341.5999999999999,1497.0
5.553581953048706,157,77,0.001851851851851852,1480.0,1500.0,1339.6800000000001,1497.0
5.576996088027954,157,78,0.0017543859649122807,1480,1500.0,1336.48,1497.0
5.600311994552612,157,78,0.0017543859649122807,1480,1500.0,1334.48,1497.0
5.623682022094727,159,78,0.001949317738791423,1480,1500.0,1332.48,1499.0
5.647021055221558,159,78,0.001949317738791423,1480,1500.0,1331.4400000000001,1499.0
5.6703479290008545,158,77,0.002136752136752137,1480,1500.0,1332.6400000000001,1498.0
5.693679094314575,158,77,0.002136752136752137,1480,1500.0,1334.6400000000001,1498.0
5.716964960098267,156,77,0.001851851851851852,1480,1500.0,1336.6400000000001,1496.0
5.7403130531311035,156,77,0.001851851851851852,1480,1500.0,1338.6400000000001,1496.0
5.763667106628418,156,77,0.001851851851851852,1480,1500.0,1340.6400000000001,1496.0
5.786971092224121,158,77,0.001984126984126984,1480,1500.0,1340.6400000000001,1498.0
5.810295104980469,155,78,0.0017543859649122807,1480,1500.0,1337.4400000000001,1495.0
5.833625078201294,155,77,0.0017543859649122807,1480,1500.0,1337.6800000000001,1495.0
5.857275009155273,155,77,0.0017543859649122807,1480,1500.0,1336.72,1495.0
5.880603075027466,155,77,0.0017543859649122807,1480,1500.0,1335.76,1495.0
5.903947114944458,155,77,0.0017543859649122807,1480,1500.0,1335.76,1495.0
5.927292108535767,155,76,0.0016666666666666668,1480,1500.0,1340.0,1495.0
5.950618028640747,157,76,0.0015151515151515152,1480,1500.0,1341.04,1497.0
5.9739720821380615,156,76,0.0015625,1480,1500.0,1342.0799999999999,1496.0
5.997284889221191,157,76,0.001443001443001443,1480,1500.0,1343.1199999999999,1497.0
6.0206139087677,157,76,0.0014705882352941176,1480,1500.0,1344.1600000000001,1497.0
6.043946027755737,157,76,0.0014705882352941176,1480,1500.0,1342.24,1497.0
6.0672619342803955,157,76,0.0014705882352941176,1480,1500.0,1341.28,1497.0
6.090588092803955,157,77,0.0013605442176870747,1480,1500.0,1338.0799999999999,1497.0
6.113936901092529,157,77,0.0013605442176870747,1480,1500.0,1336.0799999999999,1497.0
6.13729190826416,157,77,0.0012987012987012987,1480,1500.0,1334.0799999999999,1497.0
6.160655975341797,157,77,0.0012987012987012987,1480,1500.0,1333.04,1497.0
6.183972120285034,157,77,0.0012987012987012987,1480,1500.0,1332.0,1497.0
6.207257986068726,157,77,0.0013605442176870747,1480,1500.0,1332.96,1497.0
6.230611085891724,156,77,0.0014005602240896359,1480,1500.0,1333.9200000000001,1496.0
6.253963947296143,156,77,0.001336898395721925,1480,1500.0,1334.8800000000001,1496.0
6.2773048877716064,156,77,0.001336898395721925,1480,1500.0,1335.8399999999999,1496.0
6.30063796043396,156,77,0.001336898395721925,1480,1500.0,1336.8,1496.0
6.323978900909424,156,78,0.0012787723785166241,1480,1500.0,1334.5599999999999,1496.0
6.347325086593628,156,78,0.0012787723785166241,1480,1500.0,1333.52,1496.0
6.370625019073486,157,78,0.0012422360248447205,1480,1500.0,1332.48,1497.0
6.393939971923828,157,78,0.0012422360248447205,1480,1500.0,1331.4400000000001,1497.0
6.417261123657227,157,78,0.0012422360248447205,1480,1500.0,1330.4000000000001,1497.0
6.440603971481323,157,78,0.0012422360248447205,1480,1500.0,1331.3599999999999,1497.0
6.463979005813599,158,78,0.0012422360248447205,1480,1500.0,1332.3199999999999,1498.0
6.487304925918579,158,79,0.0012422360248447205,1480,1500.0,1331.04,1498.0
6.510637044906616,158,78,0.0011574074074074073,1480,1500.0,1333.2,1498.0
6.533941984176636,158,78,0.0011574074074074073,1480,1500.0,1334.1600000000001,1498.0
6.5572779178619385,159,78,0.0011904761904761906,1480,1500.0,1334.1600000000001,1499.0
6.580612897872925,160,78,0.0010964912280701754,1480,1500.0,1334.1600000000001,1500.0
6.603940010070801,160,78,0.0010964912280701754,1482.0,1500.0,1336.1600000000001,1500.0
6.6273510456085205,161,77,0.0010683760683760685,1488.0,1500.0,1338.4000000000001,1501.0
6.650792121887207,162,78,0.0010256410256410256,1495.0,1500.0,1337.2,1502.0
6.674221992492676,162,78,0.0010256410256410256,1500.0,1500.0,1337.2,1502.0
6.697616100311279,162,78,0.001,1504.0,1500.0,1337.2,1502.0
6.721024036407471,163,78,0.0010256410256410256,1511.0,1500.0,1336.24,1503.0
6.74449610710144,163,78,0.0010256410256410256,1516.0,1500.0,1334.24,1503.0
6.767916917800903,163,78,0.0010256410256410256,1520,1500.0,1334.24,1503.0
6.791270017623901,163,78,0.0010256410256410256,1520,1500.0,1334.24,1503.0
6.8147430419921875,163,77,0.0010256410256410256,1520,1500.0,1336.48,1503.0
6.838067054748535,162,77,0.0010256410256410256,1520,1500.0,1337.52,1502.0
6.861409902572632,162,77,0.0010256410256410256,1520,1500.0,1339.52,1502.0
6.884840965270996,162,77,0.0010526315789473684,1520,1500.0,1340.5599999999999,1502.0
6.908186912536621,162,76,0.0010256410256410256,1520,1500.0,1343.8399999999999,1502.0
