time,x,y,size_inv,roll,pitch,thrust,yaw
0.0007159709930419922,162,38.0,1829.9188908905157,1500.46,1508.5281350090074,1350,1500.0
0.02294301986694336,161,37.9765,1822.2623264934841,1500.29,1508.4936804692206,1350,1500.0
0.04495406150817871,161,37.9765,1814.6057620964525,1500.3199999999999,1508.4592259294341,1350,1500.0
0.06692790985107422,161,37.9765,1806.9491976994209,1500.3499999999999,1508.4247713896475,1350,1500.0
0.08884596824645996,164,37.9765,1799.2926333023893,1501.0699999999999,1508.3903168498607,1350,1500.0
0.11063694953918457,161,37.9765,1791.6360689053577,1500.5,1508.3558623100741,1350,1500.0
0.1324460506439209,163,37.9765,1783.979504508326,1500.99,1508.3214077702876,1350,1500.0
0.15430402755737305,161,37.9765,1776.3229401112944,1500.6199999999999,1508.2869532305008,1350,1500.0
0.17611384391784668,161,37.9765,1768.6663757142628,1500.6500000000001,1508.2524986907142,1350,1500.0
0.19789791107177734,161,37.9765,1761.0098113172312,1500.6800000000001,1508.2180441509277,1350,1500.0
0.21990299224853516,161,37.9765,1761.0098113172312,1498.45,1502.7053177850648,1350,1500.0
0.24228692054748535,161,37.9765,1761.0098113172312,1489.6500000000001,1503.1647116488866,1350,1500.0
0.2646298408508301,162,37.953,1761.0098113172312,1492.0799999999999,1503.8538024446195,1350,1500.0
0.28693699836730957,162,36.9295,1768.6663757142628,1494.3099999999999,1505.0367416439608,1350,1500.0
0.3092339038848877,162,36.906,1768.6663757142628,1503.05,1506.4149232354266,1350,1500.0
0.33152294158935547,165,35.8355,1768.6663757142628,1512.5699999999999,1507.5634078949813,1350,1500.0
0.35390496253967285,162,35.812,1768.6663757142628,1518.54,1508.4821956226251,1350,1500.0
0.3762040138244629,162,35.859,1768.6663757142628,1516.3699999999999,1509.171286418358,1350,1500.0
0.3984649181365967,162,37.859,1761.622336468994,1514.2,1508.9282670643961,1350,1500.0
0.4207448959350586,161,41.0705,1754.5782972237253,1509.5999999999999,1508.2442296011654,1350,1500.0
0.44304704666137695,161,44.1645,1747.5342579784563,1492.0,1507.3488709605765,1350,1500.0
0.4653458595275879,161,48.2115,1733.9880286606312,1487.5999999999999,1506.0178655851264,1350,1500.0
0.48764801025390625,160,50.2115,1720.4417993428062,1482.9400000000001,1504.2804733301416,1327.3868399999997,1500.0
0.5099790096282959,160,52.188,1699.2390056279498,1480,1502.5248820105514,1305.6453999999999,1500.0
0.532304048538208,161,55.1175,1685.6927763101253,1480.8499999999999,1500.8200007059295,1287.5660399999999,1500.0
0.5546979904174805,161,56.0705,1672.1465469923,1489.53,1499.1313748764887,1280.6052399999999,1500.0
0.5770330429077148,161,57.0235,1652.5797713109976,1491.7,1497.6414270770429,1283.6356799999999,1500.0
0.599355936050415,162,59.0235,1633.0129956296951,1500.7,1496.3772497662274,1288.0658000000001,1500.0
0.6217269897460938,162,61.0235,1620.4902591936614,1509.5,1495.8299349844679,1292.43012,1500.0
0.6441130638122559,162,64.0235,1607.9675227576276,1511.73,1495.5083906913387,1295.1094000000001,1500.0
0.6664600372314453,162,67.047,1601.4653326850716,1513.96,1495.62032573638,1291.8671999999999,1500.0
0.6888039112091064,162,69.047,1595.4447863215942,1516.1900000000001,1496.3214314485513,1284.13768,1500.0
0.7111518383026123,162,71.047,1589.4242399581165,1511.8499999999999,1497.6095404311616,1276.40816,1500.0
0.7335050106048584,162,74.0235,1583.4036935946388,1507.51,1498.8323133975839,1266.13264,1500.0
0.755856990814209,162,76.0235,1577.383147231161,1505.3399999999999,1500.2194472797291,1258.5647999999999,1500.0
0.778223991394043,161,78.0,1565.7720935301684,1500.74,1501.2168367926445,1255.3487200000002,1500.0
0.8005878925323486,161,80.9765,1565.7720935301684,1496.3399999999999,1502.0407055585838,1250.9504000000002,1500.0
0.822943925857544,161,82.953,1560.1815861926534,1494.1099999999999,1502.4459313327484,1250,1500.0
0.8452479839324951,161,83.9295,1560.1815861926534,1491.8800000000001,1502.8618650786595,1250.0294799999999,1500.0
0.8675699234008789,161,85.906,1554.5910788551384,1489.6500000000001,1503.070477010154,1250,1500.0
0.8898739814758301,161,86.8825,1542.9800251541458,1491.8199999999999,1503.405262391866,1250.6803600000001,1500.0
0.9124948978424072,161,87.8825,1542.9800251541458,1493.99,1503.6116811243282,1255.7598399999999,1500.0
0.934851884841919,161,88.8825,1542.9800251541458,1496.1600000000001,1503.9729139061369,1262.21352,1500.0
0.9571669101715088,161,90.8825,1537.3895178166308,1498.3299999999999,1503.9606577938969,1263.2733600000001,1500.0
0.9795129299163818,161,91.8825,1537.3895178166308,1500.5,1504.1283730140224,1266.9074000000001,1500.0
1.0019049644470215,161,92.906,1542.9800251541458,1500.5,1504.8372923483219,1269.08556,1500.0
1.0242938995361328,161,93.906,1542.9800251541458,1500.5,1505.5210543996025,1268.6038800000001,1500.0
1.046638011932373,160,94.906,1548.5705324916607,1498.0699999999999,1506.2299737339019,1266.7941599999999,1500.0
1.0689868927001953,160,95.906,1554.5910788551384,1495.8399999999999,1507.4568750749736,1267.8163999999999,1500.0
1.0913400650024414,160,95.8825,1566.2021325561311,1493.6099999999999,1508.8895500899682,1270.21264,1500.0
1.1137728691101074,160,95.859,1571.7926398936461,1491.3800000000001,1509.779085815172,1274.18048,1500.0
1.1361289024353027,160,95.859,1577.8131862571238,1489.1500000000001,1510.851173106897,1279.5601200000001,1500.0
1.1584670543670654,160,95.8355,1583.8337326206015,1491.3199999999999,1511.7684463492756,1286.4418000000001,1500.0
1.1808109283447266,159,94.8355,1589.4242399581165,1491.0599999999999,1512.3225516342284,1296.0152800000001,1500.0
1.2031478881835938,159,94.812,1595.4447863215942,1491.0,1512.3625452636429,1303.0250000000001,1500.0
1.225484848022461,160,93.7885,1601.4653326850716,1493.3699999999999,1512.4154400638365,1311.2508,1500.0
1.24782395362854,160,92.765,1613.9880691211054,1495.54,1512.5120440306287,1319.5904399999999,1500.0
1.2701549530029297,159,92.765,1620.0086154845831,1493.1099999999999,1512.5664869713155,1325.2760800000001,1500.0
1.2924940586090088,159,89.7415,1626.5108055571391,1495.28,1512.6633489615233,1334.78376,1500.0
1.3148410320281982,159,88.7415,1633.0129956296951,1497.45,1512.9423754831289,1343.2693999999999,1500.0
1.337156057357788,160,87.718,1645.5357320657288,1497.6500000000001,1513.430658994768,1350,1500.0
1.3594410419464111,159,87.718,1645.5357320657288,1495.22,1513.2918423971873,1350,1500.0
1.381762981414795,160,86.718,1645.5357320657288,1499.8199999999999,1512.9724094087023,1350,1500.0
1.404106855392456,160,85.6945,1651.5562784292065,1502.05,1512.6382690855291,1350,1500.0
1.4263899326324463,159,84.671,1651.5562784292065,1501.8499999999999,1512.0675212902715,1350,1500.0
1.4486868381500244,159,83.671,1651.5562784292065,1499.6199999999999,1510.9260256997561,1350,1500.0
1.4709908962249756,159,82.6475,1645.0540883566507,1501.79,1509.9358866448188,1350,1500.0
1.4932940006256104,159,81.624,1645.0540883566507,1497.3900000000001,1509.155623836112,1350,1500.0
1.5155839920043945,159,80.624,1638.5518982840949,1492.99,1507.9848683902701,1350,1500.0
1.5378859043121338,160,79.624,1632.0497082115389,1495.4200000000001,1506.8141129444282,1350,1500.0
1.5601918697357178,159,78.6005,1625.5475181389829,1497.3900000000001,1505.8239738894906,1350,1500.0
1.5824968814849854,159,77.624,1632.0497082115389,1497.3900000000001,1505.4775516517361,1350,1500.0
1.6047909259796143,159,77.624,1638.5518982840949,1499.5599999999999,1505.3261951161583,1350,1500.0
1.6271240711212158,159,77.624,1645.0540883566507,1501.73,1505.9406520780149,1350,1500.0
1.6494359970092773,160,77.6475,1651.5562784292065,1499.76,1507.1403061464014,1350,1500.0
1.6717760562896729,160,77.6475,1665.1025077470317,1501.99,1509.1681766752797,1350,1500.0
1.6941158771514893,160,77.6475,1678.6487370648567,1504.22,1511.0172369771628,1349.23992,1500.0
1.7164390087127686,160,77.671,1692.1949663826817,1506.45,1512.8825527542274,1343.7040400000001,1500.0
1.7387700080871582,160,77.6945,1698.6971564552375,1508.6800000000001,1514.3260389503348,1339.49432,1500.0
1.7611348628997803,160,77.6945,1705.1993465277933,1508.6800000000001,1515.379393742089,1336.7385999999999,1500.0
1.7834858894348145,160,77.6945,1711.7015366003493,1506.51,1515.6199747747735,1335.3748399999999,1500.0
1.8060259819030762,160,77.671,1711.7015366003493,1504.3399999999999,1515.2135878952388,1335.4011599999999,1500.0
1.8283870220184326,160,77.6475,1718.7455758456181,1502.1700000000001,1514.4325123127728,1335.52712,1500.0
1.8507108688354492,160,76.6005,1718.7455758456181,1500.0,1513.4246728515268,1338.4547600000001,1500.0
1.873033046722412,161,76.577,1725.7896150908869,1502.4300000000001,1512.4647870420656,1340.15608,1500.0
1.896070957183838,161,76.53,1725.7896150908869,1504.6600000000001,1511.4894585311822,1341.9532799999999,1500.0
1.9203648567199707,161,75.5065,1718.7455758456181,1506.8900000000001,1510.6774975458718,1346.33032,1500.0
1.9446320533752441,161,75.483,1711.7015366003493,1509.1199999999999,1509.6379599080219,1349.44344,1500.0
1.9689409732818604,161,75.4595,1711.7015366003493,1511.3499999999999,1508.8251861489525,1349.6268399999999,1500.0
1.993250846862793,162,76.4595,1711.7015366003493,1511.6099999999999,1507.7848357373434,1347.0762399999999,1500.0
2.017526865005493,162,77.4595,1718.7455758456181,1511.6700000000001,1507.1825703818731,1342.9540400000001,1500.0
2.0418429374694824,162,78.483,1725.7896150908869,1511.73,1507.2142685584768,1334.49596,1500.0
2.0661909580230713,162,78.5065,1718.7455758456181,1511.79,1507.6052127365892,1327.1702,1500.0
2.0904929637908936,162,79.5065,1718.7455758456181,1511.8499999999999,1508.0278550913054,1318.59076,1500.0
2.11476993560791,162,80.53,1711.7015366003493,1509.6800000000001,1508.4187992694176,1311.34124,1500.0
2.139037847518921,162,82.53,1704.6574973550803,1507.51,1508.1757799154559,1302.9038399999999,1500.0
2.1632978916168213,162,82.53,1704.6574973550803,1505.3399999999999,1507.3304952060237,1301.1242,1500.0
2.1875579357147217,162,83.5065,1704.6574973550803,1503.1700000000001,1506.6965316739495,1296.86436,1500.0
2.2118780612945557,162,83.5065,1704.6574973550803,1501.0,1506.0625681418753,1296.6082799999999,1500.0
2.2362520694732666,162,84.5065,1704.6574973550803,1501.0,1505.8512469645173,1295.2180000000001,1500.0
2.2605209350585938,162,86.5065,1691.1112680372557,1501.0,1505.8065444077683,1293.9877199999999,1500.0
2.284791946411133,162,87.5065,1677.5650387194305,1501.0,1505.5667761488428,1291.1254799999999,1500.0
2.309069871902466,162,87.53,1677.5650387194305,1501.0,1505.1766447444895,1292.1034399999999,1500.0
2.3333139419555664,162,88.5535,1677.5650387194305,1501.0,1504.7865133401363,1289.04756,1500.0
2.357555866241455,162,89.5535,1677.5650387194305,1501.0,1504.1850607584247,1285.98792,1500.0
2.3819098472595215,162,90.577,1671.0628486468747,1501.0,1503.9607352009216,1284.3062399999999,1500.0
2.4063310623168945,162,91.577,1671.0628486468747,1501.0,1504.5784432578143,1284.0127600000001,1500.0
2.430600881576538,162,91.577,1671.0628486468747,1501.0,1505.1961513147071,1283.6570400000001,1500.0
2.454828977584839,163,92.577,1664.5606585743189,1503.4300000000001,1505.5895338140967,1283.52712,1500.0
2.479095935821533,163,92.577,1664.5606585743189,1505.6600000000001,1506.0121761688129,1286.0372,1500.0
2.5033559799194336,163,93.577,1671.0628486468747,1507.8900000000001,1506.6428886058509,1286.0530799999999,1500.0
2.527613878250122,163,93.577,1677.5650387194305,1510.1199999999999,1507.0622798655309,1288.7089599999999,1500.0
2.5519418716430664,163,94.6005,1677.5650387194305,1512.3499999999999,1507.4524112698841,1288.63084,1500.0
2.5762839317321777,163,94.6005,1677.5650387194305,1510.1800000000001,1508.2326740785909,1291.18896,1500.0
2.600550889968872,162,95.6005,1677.5650387194305,1505.5799999999999,1509.0129368872974,1289.7470800000001,1500.0
2.624819040298462,162,95.624,1684.0672287919865,1501.1800000000001,1509.4323281469774,1290.8512000000001,1500.0
2.6490888595581055,162,96.624,1677.5650387194305,1496.78,1509.2080025894741,1287.98352,1500.0
2.67336106300354,162,96.624,1677.5650387194305,1492.3800000000001,1509.0129368872974,1289.18164,1500.0
2.697603940963745,161,96.624,1684.0672287919865,1487.72,1508.8471310404473,1289.0197600000001,1500.0
2.721920967102051,161,97.6005,1684.0672287919865,1487.6600000000001,1508.6520653382706,1289.0799200000001,1500.0
2.7465670108795166,161,97.6005,1677.5650387194305,1487.5999999999999,1508.037608376414,1289.0176799999999,1500.0
2.7708840370178223,161,97.577,1677.5650387194305,1487.54,1508.037608376414,1291.8174799999999,1500.0
2.7951889038085938,161,97.577,1677.5650387194305,1487.48,1508.037608376414,1293.19712,1500.0
2.819488048553467,161,97.577,1677.5650387194305,1491.8199999999999,1507.6474769720608,1294.5767599999999,1500.0
2.8437490463256836,162,98.577,1684.6090779646995,1496.4200000000001,1507.5003649216692,1294.6905999999999,1500.0
2.868008852005005,162,98.577,1691.6531172099683,1500.8199999999999,1508.1497711551658,1295.9724799999999,1500.0
2.8923499584198,162,98.6005,1705.1993465277933,1505.22,1509.0397584213467,1295.7665199999999,1500.0
2.9167320728302,161,99.6005,1712.2433857730623,1507.1900000000001,1510.1118070095595,1292.94876,1500.0
2.9410009384155273,161,99.6005,1719.2874250183311,1507.1900000000001,1511.5902424773069,1291.3309999999999,1500.0
2.965404987335205,162,99.6005,1726.3314642636001,1505.22,1512.8573567676963,1291.1852000000001,1500.0
2.9896838665008545,161,98.6005,1747.5342579784563,1500.6199999999999,1514.2065612077515,1293.6794,1500.0
3.0139529705047607,162,98.577,1754.5782972237253,1498.6500000000001,1514.8905986709824,1295.1333999999999,1500.0
3.038226842880249,161,98.5535,1761.622336468994,1498.45,1515.363314956855,1299.4212399999999,1500.0
3.062558889389038,162,97.53,1768.6663757142628,1500.8800000000001,1515.6247100653698,1306.38292,1500.0
3.0869250297546387,162,96.5065,1768.6663757142628,1500.8800000000001,1515.6430858199226,1313.4584399999999,1500.0
3.111196994781494,161,96.483,1768.6663757142628,1502.8499999999999,1514.6006151289421,1316.5678,1500.0
3.135586977005005,162,95.483,1776.3229401112944,1503.05,1513.8060404344778,1322.1912,1500.0
3.159976005554199,162,95.4595,1776.3229401112944,1505.28,1512.765690022869,1325.2508399999999,1500.0
3.1844608783721924,162,94.4595,1776.3229401112944,1503.1099999999999,1511.514018433902,1328.05648,1500.0
3.2088069915771484,162,94.4595,1776.3229401112944,1503.1099999999999,1510.4736680222929,1326.7963199999999,1500.0
3.2331008911132812,162,94.4595,1768.6663757142628,1505.3399999999999,1509.8052499504322,1326.8303599999999,1500.0
3.257370948791504,162,93.4595,1776.3229401112944,1505.3399999999999,1509.1873652035918,1326.7363599999999,1500.0
3.281751871109009,162,93.4595,1776.3229401112944,1503.1700000000001,1508.7463470943228,1325.40852,1500.0
3.306180953979492,163,93.483,1776.3229401112944,1505.5999999999999,1508.5166501624117,1322.6106,1500.0
3.3304638862609863,163,93.5065,1783.979504508326,1507.8299999999999,1508.5511047021985,1321.1708000000001,1500.0
3.354719877243042,163,93.53,1791.6360689053577,1507.8900000000001,1509.2746500377179,1319.72912,1500.0
3.3789589405059814,163,93.53,1791.6360689053577,1510.1199999999999,1509.7340439015397,1316.87564,1500.0
3.4032459259033203,163,93.53,1799.2926333023893,1512.3499999999999,1510.4575892370592,1314.05412,1500.0
3.4276950359344482,163,93.53,1806.9491976994209,1510.1800000000001,1511.4108315044898,1312.6584,1500.0
3.4522578716278076,164,93.53,1806.9491976994209,1510.4400000000001,1511.8702253683116,1311.3284800000001,1500.0
3.4766290187835693,164,92.53,1814.6057620964525,1510.5,1511.9046799080982,1312.70436,1500.0
3.500898838043213,164,93.5535,1806.9491976994209,1510.5599999999999,1511.8702253683116,1311.5382,1500.0
3.525167942047119,164,92.5535,1814.6057620964525,1510.6199999999999,1511.6749829761873,1314.2402400000001,1500.0
3.549445867538452,164,92.53,1822.2623264934841,1512.8499999999999,1511.250043652152,1315.7723599999999,1500.0
3.573734998703003,164,92.53,1822.2623264934841,1510.6800000000001,1511.0203467202412,1317.24432,1500.0
3.598008871078491,165,91.5065,1822.2623264934841,1510.9400000000001,1510.5609528564191,1318.58636,1500.0
3.6223459243774414,165,91.5065,1822.2623264934841,1511.0,1510.5609528564191,1321.566,1500.0
3.6466879844665527,165,91.483,1814.6057620964525,1511.0599999999999,1510.0671044528108,1321.8076799999999,1500.0
3.6713080406188965,165,90.483,1814.6057620964525,1511.1199999999999,1509.3780136570779,1324.59536,1500.0
3.695791006088257,165,90.483,1822.2623264934841,1513.3499999999999,1508.9530743330427,1326.1830399999999,1500.0
3.7200870513916016,165,90.483,1814.6057620964525,1511.1800000000001,1508.4592259294341,1326.2649200000001,1500.0
3.744359016418457,165,90.483,1814.6057620964525,1509.01,1507.7701351337012,1324.9548399999999,1500.0
3.7686309814453125,165,90.5065,1814.6057620964525,1506.8399999999999,1507.7701351337012,1324.8769199999999,1500.0
3.7930219173431396,165,90.5065,1814.6057620964525,1504.6700000000001,1507.9998320656121,1322.05916,1500.0
3.8173999786376953,165,90.53,1814.6057620964525,1502.5,1507.7701351337012,1319.1793600000001,1500.0
3.841731071472168,165,90.53,1814.6057620964525,1502.5,1507.9998320656121,1317.7197200000001,1500.0
3.8660778999328613,165,90.5535,1814.6057620964525,1502.5,1508.2295289975232,1316.19804,1500.0
3.8903698921203613,165,90.53,1822.2623264934841,1502.5,1508.4936804692206,1314.86436,1500.0
3.914659023284912,165,90.53,1822.2623264934841,1502.5,1508.7233774011315,1314.86248,1500.0
3.9389119148254395,165,90.53,1822.2623264934841,1502.5,1509.1827712649535,1314.9264000000001,1500.0
3.9632019996643066,165,90.5535,1829.9188908905157,1502.5,1509.6766196685621,1314.9282800000001,1500.0
3.9874839782714844,165,91.5535,1845.9280709933998,1502.5,1510.6883302459335,1312.3841600000001,1500.0
4.011797904968262,165,91.577,1845.9280709933998,1502.5,1511.16860564902,1310.88024,1500.0
4.036144971847534,164,92.577,1854.2806866992523,1500.0699999999999,1511.9370462939585,1306.7645199999999,1500.0
4.060438871383667,165,92.577,1862.6333024051048,1500.27,1512.9560654100724,1303.81684,1500.0
4.084746837615967,164,91.5535,1870.9859181109573,1497.8399999999999,1513.7662691335402,1303.6369999999999,1500.0
4.109045028686523,165,90.53,1888.4866367327436,1498.04,1514.1821100726102,1307.69904,1500.0
4.133316993713379,165,90.5065,1896.8392524385958,1498.04,1515.0370599516448,1310.6926800000001,1500.0
4.15758490562439,164,89.483,1905.1918681444483,1500.01,1515.6414313595039,1319.1601599999999,1500.0
4.18195104598999,164,88.4595,1922.6925867662346,1497.78,1516.3108338467873,1329.10148,1500.0
4.206363916397095,164,88.436,1931.0452024720871,1499.95,1516.9181883316842,1334.9788799999999,1500.0
4.230711936950684,164,87.436,1940.1933053880209,1497.72,1517.2337978822841,1339.2422799999999,1500.0
4.254987001419067,164,86.4125,1948.5459210938734,1495.49,1517.2952492692627,1344.90996,1500.0
4.279249906539917,164,85.389,1957.694024009807,1495.49,1517.3841449649894,1347.8256799999999,1500.0
4.303503036499023,164,84.3655,1966.8421269257408,1497.6600000000001,1516.9480191020623,1349.34944,1500.0
4.327749013900757,164,83.342,1975.9902298416746,1497.6600000000001,1516.5357578554379,1350,1500.0
4.351989984512329,164,83.3185,1966.8421269257408,1499.8299999999999,1515.7428559787893,1350,1500.0
4.376272916793823,165,81.295,1975.9902298416746,1504.4300000000001,1515.0561516446867,1350,1500.0
4.400455951690674,164,80.248,1985.1383327576084,1504.23,1514.3455826942818,1350,1500.0
4.4246368408203125,163,80.248,1985.1383327576084,1501.8,1513.5699826644525,1350,1500.0
4.44880485534668,164,80.248,1994.2864356735422,1502.0,1512.8116844814426,1350,1500.0
4.47301983833313,164,80.248,1985.1383327576084,1502.0,1512.5199395471454,1350,1500.0
4.497267007827759,164,80.248,1985.1383327576084,1497.5999999999999,1511.9710533721893,1350,1500.0
4.521462917327881,163,80.248,1985.1383327576084,1495.1700000000001,1511.1477241097552,1347.01064,1500.0
4.545851945877075,162,80.2715,1985.1383327576084,1494.9100000000001,1510.5988379347993,1341.3488,1500.0
4.570112943649292,163,80.2715,1985.1383327576084,1492.8800000000001,1509.7755086723653,1337.1071199999999,1500.0
4.594377040863037,162,81.295,1985.1383327576084,1488.22,1509.2266224974092,1330.1953599999999,1500.0
4.618651866912842,163,81.295,1985.1383327576084,1488.3599999999999,1508.9521794099312,1327.26376,1500.0
4.642973899841309,163,82.3185,1975.9902298416746,1490.53,1508.6365698593315,1323.05404,1500.0
4.667614936828613,162,82.342,1975.9902298416746,1492.5,1508.3621267718536,1320.07628,1500.0
4.691980838775635,163,83.342,1966.8421269257408,1494.8699999999999,1508.0465172212537,1314.4867199999999,1500.0
4.716349840164185,163,83.342,1975.9902298416746,1501.4400000000001,1507.8132405968975,1312.9629600000001,1500.0
4.740754842758179,163,83.3655,1985.1383327576084,1503.6099999999999,1507.8544070600192,1311.37716,1500.0
4.765244007110596,163,84.3655,1975.9902298416746,1503.6099999999999,1508.0876836843754,1310.0453600000001,1500.0
4.789592981338501,162,84.3655,1975.9902298416746,1503.4100000000001,1508.3621267718536,1309.9474,1500.0
4.81392502784729,162,84.389,1975.9902298416746,1501.1800000000001,1509.1854560342874,1312.5874000000001,1500.0
4.838201999664307,162,84.389,1985.1383327576084,1496.78,1509.7755086723653,1313.86364,1500.0
4.862514019012451,162,85.4125,1975.9902298416746,1494.55,1509.4598991217656,1312.5036399999999,1500.0
4.886898994445801,162,85.4125,1975.9902298416746,1492.3199999999999,1509.4598991217656,1313.77988,1500.0
4.91121506690979,162,85.436,1966.8421269257408,1492.3199999999999,1509.1442895711659,1314.9621199999999,1500.0
4.935642957687378,162,85.436,1966.8421269257408,1494.49,1508.5954033962098,1314.8783599999999,1500.0
4.9599199295043945,162,85.4595,1957.694024009807,1496.6600000000001,1507.4564645831761,1314.7325599999999,1500.0
4.984206914901733,162,85.4595,1948.5459210938729,1498.8299999999999,1506.8664119450982,1317.4487999999999,1500.0
5.008493900299072,161,84.483,1957.694024009807,1498.5699999999999,1506.358692233264,1321.3829999999998,1500.0
5.03281307220459,162,84.5065,1957.694024009807,1498.77,1506.358692233264,1324.1491599999999,1500.0
5.0571558475494385,162,84.5065,1957.694024009807,1498.77,1506.358692233264,1326.91156,1500.0
5.0814208984375,162,84.53,1957.694024009807,1498.77,1507.1820214956981,1329.6777199999999,1500.0
5.105947017669678,162,84.5535,1966.8421269257408,1498.77,1508.5954033962098,1331.0180800000001,1500.0
5.130208969116211,162,84.577,1975.9902298416746,1503.1700000000001,1509.7343422092436,1329.5904,1500.0
5.154502868652344,161,84.6005,1985.1383327576084,1500.74,1510.8732810222773,1328.16272,1500.0
5.178752899169922,162,84.6005,1994.2864356735422,1500.9400000000001,1512.286662922789,1326.76324,1500.0
5.2030720710754395,162,84.6005,2003.4345385894762,1500.9400000000001,1513.7000448233009,1325.3976,1500.0
5.227398872375488,162,84.577,2003.4345385894762,1500.9400000000001,1514.2489309982568,1324.1597999999999,1500.0
5.251733064651489,162,83.577,2003.4345385894762,1498.77,1514.523374085735,1326.9276399999999,1500.0
5.276080846786499,162,83.5535,1994.2864356735422,1503.1700000000001,1513.9333214476571,1328.5913600000001,1500.0
5.300365924835205,162,82.53,1994.2864356735422,1503.1700000000001,1512.8355490977451,1332.9289200000001,1500.0
5.3246519565582275,162,81.5065,1994.2864356735422,1503.1700000000001,1511.188890572877,1338.7083600000001,1500.0
5.3489439487457275,163,80.483,1994.2864356735422,1505.5999999999999,1509.816675135487,1345.8638799999999,1500.0
5.373204946517944,163,80.483,1985.1383327576084,1507.8299999999999,1508.4032932349751,1348.9592399999999,1500.0
5.397464990615845,163,80.483,1975.9902298416746,1507.8900000000001,1507.5387975094195,1350,1500.0
5.421730995178223,163,80.483,1966.8421269257408,1510.1199999999999,1506.6743017838637,1350,1500.0
5.446035861968994,163,80.5065,1957.694024009807,1512.3499999999999,1505.8098060583079,1349.2926,1500.0
5.470304012298584,163,80.53,1957.694024009807,1510.1800000000001,1504.9864767958738,1343.62888,1500.0
5.494570016860962,163,81.5535,1948.5459210938729,1508.01,1504.3964241577962,1336.6513199999999,1500.0
5.518846035003662,163,81.577,1948.5459210938729,1505.8399999999999,1504.1219810703183,1330.8718799999999,1500.0
5.543123960494995,164,81.577,1939.3978181779391,1506.0999999999999,1504.0808146071965,1326.5126,1500.0
5.567389011383057,164,81.577,1921.8970995561529,1506.1600000000001,1504.0259259897009,1323.6110800000001,1500.0
5.591721057891846,165,82.6005,1912.7489966402195,1510.8199999999999,1503.7341810554035,1319.4652800000001,1500.0
5.6164000034332275,165,82.6005,1904.396380934367,1515.28,1503.4698804298541,1319.4134799999999,1500.0
5.640719890594482,165,82.6005,1896.0437652285145,1519.74,1502.6805582456511,1319.4274800000001,1500.0
5.6649720668792725,165,82.6005,1887.691149522662,1519.8,1501.9151006777504,1319.44148,1500.0
5.689229965209961,166,83.624,1887.691149522662,1520,1501.9628299103554,1316.7214799999999,1500.0
5.713379859924316,166,84.6475,1879.3385338168096,1520,1502.2712800760644,1315.36148,1500.0
5.7376298904418945,166,84.671,1870.9859181109573,1518.0699999999999,1502.5558656254709,1313.77568,1500.0
5.762120962142944,166,85.6945,1862.6333024051048,1515.96,1503.0910296460531,1309.4840799999999,1500.0
5.786543846130371,166,86.718,1846.6241223022207,1516.02,1503.3381775786352,1303.7186400000001,1500.0
5.810839891433716,166,86.7415,1846.6241223022207,1511.6800000000001,1503.1323452630265,1301.98516,1500.0
5.835136890411377,166,87.7415,1830.6149421993366,1509.51,1502.6009100887418,1299.1137199999998,1500.0
5.8594069480896,166,88.765,1822.958377802305,1507.3399999999999,1502.1279432243978,1294.8060399999999,1500.0
5.883689880371094,166,88.765,1815.3018134052734,1505.1700000000001,1501.6758578993185,1294.5923600000001,1500.0
5.907970905303955,166,88.765,1815.3018134052734,1503.0,1501.9681994490234,1297.2444800000001,1500.0
5.9323530197143555,166,88.765,1806.9491976994209,1503.0,1501.9723757568763,1298.57044,1500.0
5.956709861755371,166,88.7415,1806.9491976994209,1503.0,1502.7241111704029,1301.3664799999999,1500.0
5.980983018875122,167,88.7415,1806.9491976994209,1505.4300000000001,1503.6846619765761,1306.9681599999999,1500.0
6.005501985549927,167,88.7415,1806.9491976994209,1507.6600000000001,1504.8540281753953,1311.17788,1500.0
6.029785871505737,167,89.7415,1806.9491976994209,1509.8900000000001,1505.5431189711283,1311.35564,1500.0
6.054059028625488,167,89.765,1806.9491976994209,1512.1199999999999,1506.7333667092123,1312.6394,1500.0
6.0783350467681885,167,89.765,1814.6057620964525,1514.3499999999999,1507.7074905159072,1312.52556,1500.0
6.102679967880249,167,90.7885,1822.2623264934841,1512.1800000000001,1508.6816143226024,1308.31772,1500.0
6.127039909362793,167,91.7885,1822.2623264934841,1510.01,1509.3915866575999,1302.6980800000001,1500.0
6.151301860809326,166,91.7885,1822.2623264934841,1505.4100000000001,1510.1015589925973,1301.07844,1500.0
6.175739049911499,166,91.812,1822.2623264934841,1501.01,1510.5609528564191,1299.4625599999999,1500.0
6.200021982192993,166,92.7885,1814.6057620964525,1496.6099999999999,1510.2968013847217,1295.32888,1500.0
6.224315881729126,166,92.765,1806.9491976994209,1494.3800000000001,1509.3435591172911,1295.29484,1500.0
6.248584032058716,166,91.7415,1806.9491976994209,1492.1500000000001,1508.4247713896475,1300.7346399999999,1500.0
6.272908926010132,166,91.6945,1806.9491976994209,1494.3199999999999,1507.5059836620037,1303.7103199999999,1500.0
6.297244071960449,166,90.671,1806.9491976994209,1496.49,1506.5871959343599,1309.3654799999999,1500.0
6.321502923965454,166,90.624,1799.2926333023893,1498.6600000000001,1506.0933475307513,1316.6507200000001,1500.0
6.345893859863281,166,89.624,1799.2926333023893,1500.8299999999999,1506.3230444626622,1325.0617999999999,1500.0
6.370182991027832,166,90.624,1799.2926333023893,1503.0,1506.5527413945731,1325.40708,1500.0
6.394486904144287,166,90.6475,1799.2926333023893,1503.0,1506.7824383264842,1326.75872,1500.0
6.41874885559082,165,91.671,1791.6360689053577,1500.5699999999999,1506.7479837866974,1322.5387600000001,1500.0
6.443074941635132,165,91.6945,1799.2926333023893,1498.3399999999999,1507.241832190306,1318.02532,1500.0
6.467406988143921,165,92.7415,1799.2926333023893,1496.1099999999999,1507.4715291222169,1308.0079599999999,1500.0
6.491736888885498,165,92.765,1799.2926333023893,1493.8800000000001,1507.7012260541278,1303.3769199999999,1500.0
6.516121864318848,164,93.765,1806.9491976994209,1489.22,1508.1950744577364,1296.2637999999999,1500.0
6.540397882461548,164,93.765,1806.9491976994209,1489.1600000000001,1509.1138621853802,1294.60844,1500.0
6.564988851547241,164,93.7415,1814.6057620964525,1489.0999999999999,1509.6077105889888,1293.1448399999999,1500.0
6.589282035827637,164,93.718,1806.9491976994209,1489.04,1509.8029529811131,1296.00668,1500.0
6.613568067550659,164,93.6475,1806.9491976994209,1488.98,1510.032649913024,1297.73224,1500.0
6.637829065322876,163,92.624,1799.2926333023893,1490.8900000000001,1509.5388015094154,1304.84328,1500.0
6.662153005599976,163,92.624,1799.2926333023893,1490.8299999999999,1508.8497107136827,1309.3341600000001,1500.0
6.686491966247559,163,92.6005,1791.6360689053577,1490.77,1507.6667715143412,1313.7893200000001,1500.0
6.710758924484253,163,92.6005,1799.2926333023893,1490.71,1507.241832190306,1316.7265600000001,1500.0
6.734992027282715,162,92.6005,1799.2926333023893,1488.22,1506.7824383264842,1319.43444,1500.0
6.759244918823242,162,92.6005,1799.2926333023893,1488.1600000000001,1507.0121352583951,1317.91652,1500.0
6.783529043197632,162,92.6005,1799.2926333023893,1488.0999999999999,1507.241832190306,1316.3986,1500.0
6.807798862457275,162,92.6005,1799.2926333023893,1488.04,1508.1606199179498,1314.8468399999999,1500.0
6.832145929336548,162,92.624,1806.9491976994209,1487.98,1508.6544683215584,1313.2650000000001,1500.0
6.856499910354614,161,93.6475,1822.958377802305,1489.8900000000001,1509.6661788989297,1309.1052,1500.0
6.880780935287476,161,93.6475,1838.9675579051891,1489.8299999999999,1510.9284679474767,1307.56556,1500.0
6.905072927474976,161,93.6475,1846.6241223022207,1489.77,1512.3828671572583,1306.02592,1500.0
6.929375886917114,161,93.6475,1854.2806866992523,1489.71,1513.83726636704,1304.5182400000001,1500.0
6.953661918640137,161,93.6475,1854.2806866992523,1489.6500000000001,1515.0275141051238,1303.07636,1500.0
6.977937936782837,161,93.624,1862.6333024051048,1491.8199999999999,1515.5453762788868,1304.56232,1500.0
7.002290964126587,161,93.6005,1870.9859181109573,1493.99,1515.3532661176521,1306.08212,1500.0
7.026663064956665,161,92.5535,1879.3385338168096,1496.1600000000001,1514.9523405637713,1310.3378,1500.0
7.05095100402832,161,91.53,1887.691149522662,1498.3299999999999,1514.3425996172439,1316.0391199999999,1500.0
7.075386047363281,161,90.483,1896.0437652285145,1500.5,1514.2131340738031,1323.2443599999999,1500.0
7.099690914154053,161,89.4595,1905.1918681444483,1500.5,1514.3408097710212,1330.4374800000001,1500.0
7.123955011367798,161,89.436,1905.1918681444483,1500.5,1514.4064374658528,1336.3986399999999,1500.0
7.14822793006897,161,89.436,1913.5444838503008,1500.5,1514.4887703920963,1339.3999999999999,1500.0
7.172550916671753,161,88.436,1931.0452024720871,1500.5,1514.8658313296748,1342.1755599999999,1500.0
7.196913957595825,161,88.436,1948.5459210938734,1500.5,1515.2667568835557,1340.81952,1500.0
7.221179962158203,161,88.436,1948.5459210938734,1500.5,1515.2906214998582,1336.6296399999999,1500.0
7.245611906051636,161,88.4595,1948.5459210938734,1500.5,1515.5650645873361,1332.3438799999999,1500.0
7.26989483833313,161,88.4595,1948.5459210938734,1500.5,1515.5889292036386,1329.5102400000001,1500.0
7.294213056564331,161,88.4595,1948.5459210938734,1500.5,1514.8133291738095,1325.26856,1500.0
7.318482875823975,161,88.4595,1948.5459210938734,1500.5,1513.2382644978486,1322.4508000000001,1500.0
7.342787027359009,161,88.436,1939.3978181779398,1500.5,1511.6220333587662,1321.0870399999999,1500.0
7.367111921310425,161,88.436,1939.3978181779398,1500.5,1510.0469686828055,1319.7928400000001,1500.0
7.391382932662964,162,88.4125,1939.3978181779398,1502.9300000000001,1508.7224824780203,1318.56068,1500.0
7.4158079624176025,162,87.389,1921.8970995561535,1505.1600000000001,1507.319243039437,1321.3623600000001,1500.0
7.4401140213012695,162,87.389,1904.3963809343672,1507.3900000000001,1505.9160036008539,1322.9358400000001,1500.0
7.464416980743408,162,88.4125,1904.3963809343672,1509.6199999999999,1505.1404035710248,1321.7414800000001,1500.0
7.488692998886108,162,88.4125,1896.043765228515,1511.8499999999999,1504.0766382993436,1321.7433600000002,1500.0
7.513274908065796,162,89.436,1896.043765228515,1509.6800000000001,1503.0504597983388,1318.9774,1500.0
7.537567853927612,162,89.4595,1887.6911495226625,1507.51,1502.7861591727894,1314.5118,1500.0
7.561925888061523,162,90.483,1887.6911495226625,1505.3399999999999,1503.6094884352235,1307.3723600000001,1500.0
7.586323022842407,163,91.5065,1879.33853381681,1505.5999999999999,1503.8702093683276,1301.6568399999999,1500.0
7.610615015029907,163,92.5535,1879.33853381681,1505.6600000000001,1504.6696740144591,1294.40544,1500.0
7.634897947311401,163,93.577,1879.33853381681,1507.8900000000001,1505.4691386605907,1288.60616,1500.0
7.659154891967773,163,94.6005,1887.6911495226625,1510.1199999999999,1506.5329039322719,1282.7908,1500.0
7.683480978012085,163,94.624,1887.6911495226625,1512.3499999999999,1507.034060874623,1281.0074,1500.0
7.707766056060791,164,95.624,1887.6911495226625,1512.6099999999999,1508.0363747593253,1278.0860400000001,1500.0
7.732120037078857,164,95.624,1896.043765228515,1512.6700000000001,1509.0762754147038,1279.29628,1500.0
7.75647497177124,164,95.6005,1896.043765228515,1512.73,1510.0785892994063,1282.0424,1500.0
7.780734062194824,164,95.577,1904.3963809343672,1512.79,1510.6173330124336,1287.6562000000001,1500.0
7.805019855499268,165,94.577,1896.043765228515,1515.28,1510.8303247129329,1294.55564,1500.0
7.829313039779663,165,94.53,1904.3963809343672,1515.3399999999999,1511.1184899547848,1301.7872,1500.0
7.853564977645874,166,93.53,1904.3963809343672,1517.8299999999999,1510.8679114836093,1310.1784399999999,1500.0
7.877817869186401,166,92.5065,1896.043765228515,1520,1510.3291677705818,1318.6139599999999,1500.0
7.902047872543335,166,91.483,1887.6911495226625,1520,1509.2892671152031,1327.06556,1500.0
7.926307916641235,166,91.483,1887.6911495226625,1520,1508.7881101728519,1331.4569999999999,1500.0
7.950479030609131,166,90.483,1879.33853381681,1520,1507.4976310462978,1336.99684,1500.0
7.974675893783569,167,90.483,1870.9859181109575,1518.45,1506.2071519197436,1338.5366799999999,1500.0
7.998962879180908,167,90.5065,1854.9767380080734,1516.3399999999999,1504.9030997926673,1337.18064,1500.0
8.023226976394653,167,90.53,1838.9675579051896,1514.23,1503.8705076760314,1332.9569200000001,1500.0
8.047466039657593,167,90.53,1831.3109935081579,1514.29,1502.3952269269851,1330.1214,1500.0
8.071799993515015,167,89.5535,1822.9583778023054,1514.3499999999999,1501.4179708894003,1327.1277600000001,1500.0
8.096205949783325,167,89.577,1814.605762096453,1512.1800000000001,1500.6912933229912,1324.26028,1500.0
8.120503902435303,168,90.6005,1806.9491976994213,1512.4400000000001,1500.4480233905583,1320.1767199999999,1500.0
8.14476203918457,168,90.624,1799.2926333023897,1512.5,1500.6850288612118,1318.7170800000001,1500.0
8.169014930725098,168,90.6475,1791.6360689053581,1512.5599999999999,1501.1517312637764,1317.2236,1500.0
8.193300008773804,168,90.671,1783.9795045083265,1512.6199999999999,1501.6393152056055,1314.3220799999999,1500.0
8.21759295463562,168,90.6945,1783.9795045083265,1514.8499999999999,1502.4119321583967,1311.45252,1500.0
8.241929054260254,168,90.718,1791.6360689053581,1512.6800000000001,1503.427819043621,1311.3829599999999,1500.0
8.266299962997437,168,90.718,1791.6360689053581,1510.51,1504.3883698497941,1311.37544,1500.0
8.290562868118286,168,89.718,1799.2926333023897,1508.3399999999999,1505.8427690595756,1314.0737199999999,1500.0
8.314842939376831,168,89.718,1799.2926333023897,1506.1700000000001,1507.4715291222169,1316.9658399999998,1500.0
8.339103937149048,168,89.718,1791.6360689053581,1504.0,1508.585559241985,1319.8917999999999,1500.0
8.36337399482727,168,88.718,1799.2926333023897,1504.0,1509.3091045775045,1324.1315999999999,1500.0
8.387631893157959,168,88.718,1799.2926333023897,1504.0,1509.7684984413265,1327.1394399999999,1500.0
8.41196894645691,167,87.718,1806.9491976994213,1501.5699999999999,1509.8029529811131,1329.95532,1500.0
8.436478853225708,167,87.718,1806.9491976994213,1499.3399999999999,1509.5732560492022,1331.5392400000001,1500.0
8.46101999282837,167,87.718,1799.2926333023897,1497.1099999999999,1509.5388015094154,1333.0912000000001,1500.0
8.485862970352173,167,86.718,1799.2926333023897,1494.8800000000001,1509.3091045775045,1334.4512,1500.0
8.5101900100708,167,85.6945,1806.9491976994213,1492.6500000000001,1509.3435591172911,1337.31324,1500.0
8.534450054168701,167,85.6945,1806.9491976994213,1494.8199999999999,1509.1138621853802,1337.5070800000001,1500.0
8.558717966079712,166,85.6945,1799.2926333023897,1494.5599999999999,1508.6200137817716,1337.70092,1500.0
8.583102941513062,166,84.671,1799.2926333023897,1494.5,1508.3903168498607,1340.5968,1500.0
8.607490062713623,166,84.671,1791.6360689053581,1494.4400000000001,1508.1261653781633,1340.82448,1500.0
8.631840944290161,165,82.671,1799.2926333023897,1491.95,1507.7012260541278,1343.4663599999999,1500.0
8.6562340259552,165,82.6475,1799.2926333023897,1487.49,1507.4715291222169,1345.1302800000001,1500.0
8.680495977401733,165,82.6475,1815.3018134052738,1487.4300000000001,1508.2535427676773,1346.7660000000001,1500.0
8.70477294921875,165,81.6475,1822.9583778023054,1487.3699999999999,1508.9979696424616,1348.1759200000001,1500.0
8.729058980941772,165,81.6475,1831.3109935081579,1487.3099999999999,1510.4555010831327,1349.74584,1500.0
8.753347873687744,164,81.671,1839.6636092140102,1489.22,1511.9339140630686,1347.0456800000002,1500.0
8.777621030807495,164,80.671,1848.0162249198627,1491.3299999999999,1513.6629055141802,1346.9479200000001,1500.0
8.801959991455078,164,80.671,1864.0254050227468,1491.27,1514.7163791700809,1345.6501599999999,1500.0
8.826345920562744,164,79.6475,1880.0345851256309,1491.21,1515.7907343652462,1345.6464000000001,1500.0
8.850618839263916,164,78.624,1905.1918681444483,1491.1500000000001,1516.9301206398354,1347.1164800000001,1500.0
8.87488603591919,164,78.6005,1913.5444838503008,1493.3199999999999,1517.9730043722518,1350,1500.0
8.899080038070679,163,76.577,1921.8970995561533,1493.0599999999999,1518.7653096334927,1350,1500.0
8.923295974731445,164,75.5535,1913.5444838503008,1495.4300000000001,1518.7515874791188,1350,1500.0
8.947474956512451,163,74.5065,1913.5444838503008,1495.1700000000001,1518.0445982211593,1350,1500.0
8.971739053726196,163,74.483,1913.5444838503008,1495.1099999999999,1516.0787504532461,1350,1500.0
8.996031045913696,163,73.4595,1913.5444838503008,1492.8800000000001,1513.8623242141573,1350,1500.0
9.020222902297974,163,72.4125,1905.1918681444483,1495.05,1511.1071542620411,1350,1500.0
9.044407844543457,163,71.389,1905.1918681444483,1492.8199999999999,1509.3710034260389,1350,1500.0
9.068594932556152,163,71.389,1905.1918681444483,1494.99,1508.1151279931232,1350,1500.0
9.092859983444214,162,70.3655,1905.1918681444483,1494.73,1507.6139710507721,1350,1500.0
9.117132902145386,162,70.3655,1905.1918681444483,1494.6700000000001,1507.3633925795966,1350,1500.0
9.141331911087036,162,70.3655,1905.1918681444483,1492.4400000000001,1507.8645495219478,1350,1500.0
9.165678977966309,162,71.4125,1913.5444838503008,1492.3800000000001,1508.4032932349753,1350,1500.0
9.18987488746643,162,72.436,1921.8970995561533,1490.1500000000001,1509.1926154191783,1350,1500.0
9.214047908782959,162,72.4595,1931.0452024720871,1492.3199999999999,1510.2599603833046,1347.1735200000001,1500.0
9.238316059112549,161,73.5065,1940.1933053880209,1492.0599999999999,1511.601748434909,1337.18624,1500.0
9.262624025344849,161,74.53,1948.5459210938734,1492.0,1512.9399567940682,1327.17724,1500.0
9.286958932876587,161,74.53,1957.694024009807,1491.9400000000001,1514.0550309907997,1322.72,1500.0
9.311238050460815,161,75.53,1966.8421269257408,1491.8800000000001,1514.9433913326577,1318.48856,1500.0
9.335644006729126,161,75.5065,1966.8421269257408,1489.6500000000001,1515.2416990364381,1316.9769199999998,1500.0
9.359891891479492,161,75.483,1975.9902298416746,1491.8199999999999,1515.3067301158624,1318.4307199999998,1500.0
9.384150981903076,161,75.436,1985.1383327576084,1493.99,1515.1450473404134,1322.8462,1500.0
9.40843391418457,161,75.436,1994.2864356735422,1496.1600000000001,1514.9594999486619,1325.7813599999999,1500.0
9.432776927947998,161,76.4125,2003.4345385894762,1498.3299999999999,1514.750087940608,1327.5466000000001,1500.0
9.457412004470825,161,76.4125,2003.4345385894762,1500.5,1514.7739525569104,1330.38588,1500.0
9.481791019439697,161,77.4125,2003.4345385894762,1500.5,1514.523374085735,1329.0954400000001,1500.0
9.506203889846802,160,77.4125,2012.58264150541,1498.0699999999999,1514.2900974613785,1327.48144,1500.0
9.530467987060547,160,78.4125,2012.58264150541,1495.8399999999999,1513.7412112864226,1323.2274400000001,1500.0
9.554741859436035,161,78.4125,2012.58264150541,1496.04,1512.9178820239886,1321.54764,1500.0
9.579005002975464,161,79.389,2012.58264150541,1496.04,1512.0945527615545,1317.3218400000001,1500.0
9.603277921676636,161,79.3655,2012.58264150541,1496.04,1511.5456665865984,1317.16184,1500.0
9.627547025680542,160,80.3655,2012.58264150541,1498.01,1510.7223373241645,1314.3975600000001,1500.0
9.651847839355469,160,80.342,2012.58264150541,1500.1800000000001,1510.1734511492084,1315.69532,1500.0
9.67622184753418,160,80.342,2012.58264150541,1497.95,1509.8990080617305,1315.6368399999999,1500.0
9.700479984283447,160,81.3185,2012.58264150541,1495.72,1509.6245649742523,1315.7346,1500.0
9.724892854690552,161,82.3185,2003.4345385894762,1495.9200000000001,1509.0345123361747,1312.9383599999999,1500.0
9.74939489364624,161,82.3185,2003.4345385894762,1498.1500000000001,1508.7600692486967,1314.14212,1500.0
9.773715019226074,161,82.3185,2003.4345385894762,1500.3800000000001,1508.4856261612185,1313.9200799999999,1500.0
9.798040866851807,161,83.342,2003.4345385894762,1504.78,1508.2111830737406,1310.9960000000001,1500.0
9.822397947311401,161,84.3655,1994.2864356735422,1509.1800000000001,1507.6211304356627,1308.00424,1500.0
9.846749067306519,161,85.389,1994.2864356735422,1509.1800000000001,1507.6211304356627,1306.3706,1500.0
9.87102198600769,161,86.389,1985.1383327576084,1507.01,1507.3055208850631,1301.96516,1500.0
9.895458936691284,161,87.4125,1975.9902298416746,1504.8399999999999,1506.7154682469854,1296.0896400000001,1500.0
9.919764995574951,161,87.436,1975.9902298416746,1502.6700000000001,1506.1665820720293,1294.2460799999999,1500.0
9.944042921066284,161,88.436,1966.8421269257408,1500.5,1505.8509725214296,1291.3284799999999,1500.0
9.968315839767456,161,89.4595,1966.8421269257408,1500.5,1505.3020863464735,1288.41464,1500.0
9.992648839950562,162,90.4595,1957.694024009807,1502.9300000000001,1504.9864767958738,1286.8889999999999,1500.0
10.016993999481201,162,90.4595,1948.5459210938729,1505.1600000000001,1504.9453103327521,1289.4291599999999,1500.0
10.041252851486206,162,90.4595,1931.0452024720867,1507.3900000000001,1504.3415355403006,1290.6431599999999,1500.0
10.06567096710205,162,91.483,1931.0452024720867,1509.6199999999999,1504.0909570691249,1290.5631599999999,1500.0
10.089956998825073,163,91.483,1921.8970995561533,1514.28,1503.5247690473498,1293.1851999999999,1500.0
10.114233016967773,163,92.5065,1913.5444838503008,1514.3399999999999,1502.9860253343222,1294.5452,1500.0
10.138504028320312,163,93.5065,1913.5444838503008,1514.4000000000001,1502.759311479449,1293.1014399999999,1500.0
10.162832975387573,163,93.53,1904.3963809343672,1514.46,1503.2670311912834,1292.76368,1500.0
10.187171936035156,163,93.5535,1896.043765228515,1514.52,1503.2533090369095,1293.89788,1500.0
10.211448907852173,164,94.5535,1896.043765228515,1512.6099999999999,1503.8260598281681,1291.0283200000001,1500.0
10.235849857330322,164,95.577,1887.6911495226625,1512.6700000000001,1504.3373592324479,1288.1625200000001,1500.0
10.260109901428223,164,95.6005,1879.33853381681,1512.73,1504.3236370780739,1289.26288,1500.0
10.284363985061646,164,96.624,1871.6819694197784,1512.79,1504.1072148389812,1287.7552000000001,1500.0
10.308615922927856,164,96.624,1863.3293537139259,1512.8499999999999,1504.1382388401744,1286.1495600000001,1500.0
10.332916975021362,164,96.6475,1854.9767380080734,1510.6800000000001,1503.6442412827139,1287.28188,1500.0
10.357244968414307,164,96.6475,1854.9767380080734,1508.51,1503.4384089671053,1289.91624,1500.0
10.381526947021484,165,96.6475,1846.6241223022212,1508.77,1503.4455683519961,1291.2564,1500.0
10.406363010406494,165,96.624,1838.2715065963687,1508.8299999999999,1503.3871000420552,1295.49244,1500.0
10.4306800365448,165,96.624,1838.2715065963687,1508.8900000000001,1503.6167969739661,1299.66832,1500.0
10.454943895339966,165,96.6475,1829.9188908905162,1511.1199999999999,1504.0594856063763,1302.4879599999999,1500.0
10.479207038879395,165,96.6475,1829.9188908905162,1513.3499999999999,1504.2891825382872,1303.9438399999999,1500.0
10.503494024276733,165,97.671,1829.9188908905162,1511.1800000000001,1504.7694579413737,1302.66572,1500.0
10.527763843536377,165,97.6945,1837.5754552875478,1509.01,1505.785344826598,1301.096,1500.0
10.55207896232605,165,98.7415,1829.9188908905162,1506.8399999999999,1506.2520472291626,1296.7903999999999,1500.0
10.576442956924438,165,98.7415,1822.2623264934846,1504.6700000000001,1506.7396311709917,1293.77504,1500.0
10.600720882415771,165,98.765,1814.605762096453,1502.5,1506.9975181809098,1290.6976399999999,1500.0
10.624989986419678,165,98.765,1806.9491976994213,1502.5,1506.7751297877414,1290.51424,1500.0
10.649248838424683,165,97.7415,1806.9491976994213,1502.5,1505.8772235993624,1293.1306400000001,1500.0
10.673516988754272,165,97.7415,1799.2926333023897,1502.5,1505.1745598031075,1297.4504400000001,1500.0
10.697762966156006,165,97.7415,1791.6360689053581,1502.5,1504.451014467588,1301.73828,1500.0
10.72208285331726,165,96.7415,1791.6360689053581,1502.5,1504.2213175356771,1308.7319199999999,1500.0
10.746434926986694,166,96.7415,1783.9795045083265,1504.9300000000001,1504.1868629958904,1313.1335999999999,1500.0
10.770801067352295,166,95.7415,1783.9795045083265,1507.1600000000001,1504.4165599278012,1317.2775200000001,1500.0
10.795244932174683,166,95.7415,1791.6360689053581,1509.3900000000001,1505.1401052633207,1318.7975200000001,1500.0
10.819583892822266,166,95.7415,1791.6360689053581,1511.6199999999999,1506.0588929909645,1320.3175200000001,1500.0
10.843870878219604,166,94.765,1799.2926333023897,1513.8499999999999,1507.0121352583951,1321.5835199999999,1500.0
10.868154048919678,166,94.765,1806.9491976994213,1511.6800000000001,1508.4247713896475,1321.6777199999999,1500.0
10.892510890960693,166,93.7885,1806.9491976994213,1509.51,1509.8029529811131,1322.94184,1500.0
10.916903018951416,166,93.7885,1814.605762096453,1507.3399999999999,1510.7561952485435,1323.0341599999999,1500.0
10.941179990768433,166,93.7885,1830.6149421993371,1505.1700000000001,1511.9976027578259,1323.1264799999999,1500.0
10.965590953826904,166,92.7885,1830.6149421993371,1503.0,1512.7075750928234,1324.4846,1500.0
10.989866971969604,166,91.7885,1838.2715065963687,1503.0,1512.9926081037856,1327.2827199999999,1500.0
11.014148950576782,166,90.7415,1838.2715065963687,1503.0,1513.2431865749611,1330.27072,1500.0
11.03843092918396,166,88.718,1838.2715065963687,1503.0,1513.2640681142257,1337.3443600000001,1500.0
11.06273889541626,166,87.6945,1845.9280709934003,1503.0,1512.588550319015,1344.69184,1500.0
11.087167024612427,166,86.6475,1845.9280709934003,1503.0,1512.1082749159284,1350,1500.0
11.111470937728882,165,85.624,1845.9280709934003,1500.5699999999999,1511.3983025809309,1350,1500.0
11.135922908782959,165,84.577,1845.9280709934003,1498.3399999999999,1510.6883302459335,1350,1500.0
11.160136938095093,166,83.577,1845.9280709934003,1498.54,1510.2080548428469,1350,1500.0
11.184309005737305,166,83.577,1845.9280709934003,1498.54,1509.7486609790251,1350,1500.0
11.20849084854126,165,83.577,1854.2806866992528,1496.1099999999999,1509.5774323570552,1350,1500.0
11.232719898223877,165,82.577,1854.2806866992528,1498.28,1509.5983138963197,1350,1500.0
11.25694990158081,164,82.6005,1854.2806866992528,1498.02,1509.6191954355843,1350,1500.0
11.281131029129028,165,82.577,1854.2806866992528,1495.99,1509.6400769748489,1345.68256,1500.0
11.30567193031311,165,82.577,1854.2806866992528,1493.76,1509.8906554460245,1341.5227600000001,1500.0
11.32994294166565,165,82.5535,1862.633302405105,1495.9300000000001,1509.9282422167009,1338.8489199999999,1500.0
11.354193925857544,165,82.5535,1870.9859181109575,1495.9300000000001,1510.2164074585528,1334.73884,1500.0
11.378751993179321,165,82.5535,1879.33853381681,1500.3299999999999,1510.7551511715803,1332.1184800000001,1500.0
11.403097867965698,165,82.5535,1887.6911495226625,1502.5,1511.5444733557833,1330.79232,1500.0
11.427377939224243,164,83.5535,1887.6911495226625,1502.24,1512.2962087693099,1326.8261600000001,1500.0
11.45171594619751,164,83.53,1887.6911495226625,1500.01,1512.7973657116611,1324.0562399999999,1500.0
11.476049900054932,164,83.53,1896.043765228515,1497.78,1513.0855309535132,1322.6181200000001,1500.0
11.500306844711304,164,83.53,1904.3963809343672,1493.3800000000001,1513.1231177241893,1321.14804,1500.0
11.524566888809204,164,83.53,1912.7489966402197,1491.1500000000001,1512.9101260236903,1319.70992,1500.0
11.548811912536621,164,83.53,1921.1016123460722,1493.3199999999999,1512.9477127943665,1321.0717999999999,1500.0
11.573071956634521,164,84.5065,1921.1016123460722,1495.49,1513.1982912655421,1319.82188,1500.0
11.597336053848267,164,84.5065,1921.1016123460722,1497.6600000000001,1513.1982912655421,1319.7437600000001,1500.0
11.621670961380005,163,84.483,1921.1016123460722,1497.4000000000001,1512.9477127943665,1319.72768,1500.0
11.646015882492065,163,84.4595,1921.1016123460722,1497.3399999999999,1512.4465558520153,1319.7454399999999,1500.0
11.670295000076294,163,84.436,1921.1016123460722,1495.1099999999999,1511.444241967313,1318.43704,1500.0
11.69455885887146,163,84.436,1921.1016123460722,1492.8800000000001,1510.4419280826107,1319.8665999999998,1500.0
11.718836069107056,163,84.4125,1921.1016123460722,1490.6500000000001,1509.6901926690841,1321.3581999999999,1500.0
11.743124961853027,162,84.436,1921.1016123460722,1490.3900000000001,1509.189035726733,1322.6937600000001,1500.0
11.767399072647095,162,85.436,1921.1016123460722,1490.3299999999999,1508.9384572555573,1321.3517200000001,1500.0
11.791790962219238,162,85.4595,1921.1016123460722,1490.27,1508.9384572555573,1321.0818400000001,1500.0
11.816218852996826,162,85.4595,1930.249715262006,1490.21,1509.254066806157,1319.5121200000001,1500.0
11.840489864349365,161,86.483,1939.3978181779398,1487.72,1509.8441194442348,1315.1745599999999,1500.0
11.8647620677948,162,87.483,1948.5459210938739,1490.0899999999999,1510.7086151697906,1309.52296,1500.0
11.889065027236938,161,87.483,1957.6940240098077,1489.8299999999999,1511.8475539828244,1307.9033199999999,1500.0
11.91336989402771,162,88.5065,1976.9050401332684,1492.2,1513.6081063889958,1303.6794,1500.0
11.9376380443573,161,88.5065,1986.0531430492017,1491.9400000000001,1515.0489325982553,1300.6836800000001,1500.0
11.96196985244751,161,88.483,1995.2012459651355,1496.28,1516.2153157200369,1300.6477600000001,1500.0
11.986331939697266,161,88.483,2004.3493488810695,1494.05,1517.1072557543403,1303.35168,1500.0
12.010608911514282,161,88.4595,2013.4974517970034,1496.22,1517.7247527011659,1304.75764,1500.0
12.034850835800171,161,88.436,2022.6455547129372,1493.99,1517.4640317680617,1309.0312799999999,1500.0
12.059115886688232,161,88.4125,2032.7084679204643,1496.1600000000001,1517.2348717900177,1313.3387600000001,1500.0
12.083402872085571,161,88.3655,2042.7713811279914,1496.1600000000001,1517.0331561207213,1316.2843600000001,1500.0
12.107678890228271,161,87.3185,2052.8342943355187,1498.3299999999999,1516.8588847601727,1320.57764,1500.0
12.1320219039917,161,86.295,2062.8972075430456,1498.3299999999999,1516.712057708372,1326.2507600000001,1500.0
12.156398057937622,161,86.248,2062.8972075430456,1500.5,1516.5473918558853,1329.3620000000001,1500.0
12.18063998222351,161,85.248,2062.8972075430456,1500.5,1516.0533942984248,1334.9910400000001,1500.0
12.204884052276611,161,85.2245,2072.960120750573,1500.5,1515.5772355416505,1339.38248,1500.0
12.229136943817139,161,85.2245,2083.0230339581003,1500.5,1515.0736324761283,1340.81412,1500.0
12.253391981124878,161,85.2245,2083.0230339581003,1500.5,1514.1954145961986,1339.41192,1500.0
12.277626991271973,161,86.2245,2093.0859471656272,1500.5,1513.9388103094068,1335.27008,1500.0
12.30193305015564,160,86.2245,2093.0859471656272,1498.0699999999999,1513.9388103094068,1329.5601999999999,1500.0
12.326592922210693,160,86.248,2093.0859471656272,1495.8399999999999,1513.636922913181,1323.7864,1500.0
12.350908041000366,160,86.248,2093.0859471656272,1493.6099999999999,1513.0331481207293,1319.4647199999999,1500.0
12.375207901000977,160,87.248,2093.0859471656272,1491.3800000000001,1512.7312607245035,1313.895,1500.0
12.399492979049683,160,87.248,2093.0859471656272,1489.1500000000001,1511.825598535826,1312.3892000000001,1500.0
12.423747062683105,160,87.248,2103.1488603731545,1491.3199999999999,1511.2671068528082,1312.2434000000001,1500.0
12.447993040084839,160,87.2245,2103.1488603731545,1493.49,1510.9652194565824,1312.2574,1500.0
12.472296953201294,160,87.2245,2103.1488603731545,1495.6600000000001,1510.9652194565824,1312.2431999999999,1500.0
12.496660947799683,160,87.2245,2113.2117735806814,1497.8299999999999,1511.3123899622422,1315.029,1500.0
12.52092695236206,160,87.2245,2113.2117735806814,1500.0,1511.9161647546937,1316.4548,1500.0
12.545183897018433,160,87.248,2124.3339408100537,1500.0,1512.2998795241072,1317.8185599999999,1500.0
12.569496870040894,160,87.248,2135.4561080394255,1500.0,1513.0172593104016,1319.11276,1500.0
12.593804836273193,160,88.2715,2135.4561080394255,1500.0,1513.6845893441639,1317.7049199999999,1500.0
12.618100881576538,160,88.2715,2146.5782752687974,1500.0,1514.1318593548879,1316.1652799999999,1500.0
12.642443895339966,161,88.2715,2157.7004424981692,1502.4300000000001,1514.9127943824931,1314.62564,1500.0
12.666790962219238,161,88.295,2157.7004424981692,1504.6600000000001,1515.2782370200296,1313.0897600000001,1500.0
12.691045045852661,161,87.295,2168.822609727541,1506.8900000000001,1515.360064393217,1314.25404,1500.0
12.71542501449585,161,87.295,2179.9447769569133,1509.1199999999999,1515.7755567832858,1317.08412,1500.0
12.739712953567505,162,86.2715,2191.0669441862851,1513.78,1516.159271552699,1322.6162400000001,1500.0
12.76400089263916,162,85.2715,2202.189111415657,1513.8399999999999,1516.2093213052312,1329.56016,1500.0
12.788284063339233,162,85.2715,2191.0669441862851,1513.9000000000001,1516.159271552699,1335.3379199999999,1500.0
12.812612056732178,162,84.2715,2191.0669441862851,1513.96,1515.825606535818,1340.95568,1500.0
12.836957931518555,162,83.248,2202.189111415657,1514.02,1515.2083262545877,1346.68352,1500.0
12.8612060546875,162,83.248,2191.0669441862851,1509.6800000000001,1513.823616434531,1348.31736,1500.0
12.885637998580933,162,82.2245,2179.9447769569133,1507.51,1511.771576580712,1349.8532399999999,1500.0
12.909942865371704,162,80.2245,2179.9447769569133,1505.3399999999999,1510.4369165131873,1350,1500.0
12.934124946594238,163,79.2245,2168.822609727541,1505.5999999999999,1509.0522066931305,1350,1500.0
12.958291053771973,163,78.2245,2147.6375292906423,1505.6600000000001,1506.6529963336516,1350,1500.0
12.982563972473145,163,78.2245,2136.51536206127,1507.8900000000001,1504.9663991173691,1350,1500.0
13.006898880004883,163,77.248,2115.3302816243713,1510.1199999999999,1503.5999614291891,1350,1500.0
13.031101942062378,164,77.295,2115.3302816243713,1514.78,1501.9951915860938,1350,1500.0
13.055440902709961,164,77.3185,2104.208114394999,1514.8399999999999,1500.6740370073478,1350,1500.0
13.0796480178833,164,77.342,2093.0859471656272,1514.9000000000001,1500.6239872548156,1350,1500.0
13.103811979293823,164,77.389,2083.0230339581003,1514.96,1500.6104817660371,1350,1500.0
13.127981901168823,164,77.436,2072.960120750573,1515.02,1501.2325286903656,1344.79144,1500.0
13.152325868606567,164,78.4595,2072.960120750573,1510.6800000000001,1501.8998587241279,1337.9022400000001,1500.0
13.1766939163208,164,78.5065,2062.8972075430456,1508.51,1502.5536832691116,1333.54296,1500.0
13.200943946838379,164,78.53,2062.8972075430456,1506.3399999999999,1503.2845685441846,1330.60384,1500.0
13.22527003288269,165,79.5535,2062.8972075430456,1506.5999999999999,1504.2855635948281,1325.12248,1500.0
13.249531984329224,165,79.5535,2072.960120750573,1506.6600000000001,1505.6019515304758,1322.3289600000001,1500.0
13.273931980133057,165,79.5535,2072.960120750573,1508.8900000000001,1506.8730563566899,1322.3373199999999,1500.0
13.298730850219727,165,79.577,2072.960120750573,1511.1199999999999,1508.4142709584744,1322.38328,1500.0
13.323077917098999,165,79.577,2072.960120750573,1513.3499999999999,1509.6218205433777,1322.49128,1500.0
13.347349882125854,165,79.577,2083.0230339581003,1511.1800000000001,1510.8746532377147,1325.4011600000001,1500.0
13.37166690826416,166,79.6005,2083.0230339581003,1511.4400000000001,1511.1765406339405,1328.18508,1500.0
13.396023035049438,166,79.6005,2072.960120750573,1511.5,1511.1312575245067,1329.6052400000001,1500.0
13.420328855514526,166,79.624,2072.960120750573,1511.5599999999999,1510.829370128281,1330.96524,1500.0
13.4446120262146,166,79.624,2072.960120750573,1511.6199999999999,1510.527482732055,1332.3214800000001,1500.0
13.468848943710327,166,79.6005,2062.8972075430456,1513.8499999999999,1509.2746500377179,1332.3478,1500.0
13.493098974227905,166,79.6005,2052.8342943355187,1511.6800000000001,1508.0218173433807,1332.4117200000001,1500.0
13.51740288734436,166,78.577,2042.7713811279914,1509.51,1507.0708720452694,1335.17768,1500.0
13.541733980178833,166,78.5535,2032.7084679204643,1507.3399999999999,1505.8180393509324,1336.81132,1500.0
13.566084861755371,165,78.5535,2032.7084679204643,1502.74,1504.6104897660291,1338.4167600000001,1500.0
13.590353965759277,166,78.5535,2032.7084679204643,1500.77,1504.3086023698033,1339.9564,1500.0
13.614634990692139,165,78.5535,2032.7084679204643,1498.3399999999999,1504.6104897660291,1341.46408,1500.0
13.638911962509155,165,78.577,2032.7084679204643,1496.1099999999999,1505.2142645584806,1340.0439200000001,1500.0
13.66318392753601,165,79.624,2032.7084679204643,1493.8800000000001,1506.4218141433839,1335.7901199999999,1500.0
13.687458038330078,165,79.6475,2032.7084679204643,1496.05,1507.6293637282872,1332.7306799999999,1500.0
13.711802959442139,165,80.671,2032.7084679204643,1493.8199999999999,1508.5350259169647,1327.02936,1500.0
13.736160039901733,164,81.671,2042.7713811279914,1493.5599999999999,1509.485971215076,1319.91624,1500.0
13.76043701171875,164,81.671,2052.8342943355187,1493.5,1510.4369165131873,1315.4608800000001,1500.0
13.784719944000244,164,81.671,2052.8342943355187,1493.4400000000001,1511.0406913056388,1313.9690799999998,1500.0
13.809051036834717,164,81.6475,2042.7713811279914,1491.21,1511.2972955924308,1312.6051199999999,1500.0
13.833373069763184,163,81.624,2042.7713811279914,1488.72,1511.5991829886566,1314.1407999999999,1500.0
