time,frame,x,y,size_inv,roll,pitch,thrust,yaw
0.00018715858459472656,1,174,110,0.004273504273504274,1501.4,1535.4700854700855,1380.0,1500
0.02195906639099121,2,174,110,0.004048582995951417,1501.4,1530.9716599190283,1380.0,1500
0.043498992919921875,3,174,110,0.004629629629629629,1501.4,1540,1380.0,1500
0.06474113464355469,4,174,111,0.004273504273504274,1501.4,1535.4700854700855,1378.0,1500
0.08592605590820312,5,174,111,0.004273504273504274,1501.4,1535.4700854700855,1378.0,1500
0.10708403587341309,6,172,111,0.0034965034965034965,1501.2,1519.93006993007,1378.0,1500
0.12836098670959473,7,174,111,0.004048582995951417,1501.4,1530.9716599190283,1378.0,1500
0.14956402778625488,8,172,111,0.0034965034965034965,1501.2,1519.93006993007,1378.0,1500
0.17068004608154297,9,173,111,0.004273504273504274,1501.3,1535.4700854700855,1378.0,1500
0.1918330192565918,10,172,111,0.003663003663003663,1501.2,1523.2600732600733,1378.0,1500
0.2129840850830078,11,172,111,0.003663003663003663,1501.2,1523.2600732600733,1378.0,1500
0.23450207710266113,12,171,110,0.003246753246753247,1501.1,1514.935064935065,1380.0,1500
0.255993127822876,13,171,110,0.003246753246753247,1501.1,1514.935064935065,1380.0,1500
0.27747607231140137,14,173,110,0.0037593984962406013,1501.3,1525.187969924812,1380.0,1500
0.2991471290588379,15,171,110,0.0034965034965034965,1501.1,1519.93006993007,1380.0,1500
0.32062411308288574,16,172,110,0.003663003663003663,1501.2,1523.2600732600733,1380.0,1500
0.3421201705932617,17,172,110,0.0034965034965034965,1501.2,1519.93006993007,1380.0,1500
0.36360597610473633,18,172,109,0.003246753246753247,1501.2,1514.935064935065,1382.0,1500
0.3850700855255127,19,172,109,0.0034965034965034965,1501.2,1519.93006993007,1382.0,1500
0.4065570831298828,20,173,109,0.0034965034965034965,1501.3,1519.93006993007,1382.0,1500
0.4280121326446533,21,173,109,0.0034965034965034965,1501.3,1519.93006993007,1382.0,1500
0.44963502883911133,22,173,109,0.0034965034965034965,1501.3,1519.93006993007,1382.0,1500
0.47109198570251465,23,173,109,0.0034965034965034965,1501.3,1519.93006993007,1382.0,1500
0.4925839900970459,24,173,109,0.0034965034965034965,1501.3,1519.93006993007,1382.0,1500
0.5140631198883057,25,173,109,0.0034965034965034965,1501.3,1519.93006993007,1382.0,1500
0.5355319976806641,26,174,109,0.003968253968253968,1501.4,1529.3650793650793,1382.0,1500
0.5569992065429688,27,172,109,0.003246753246753247,1501.2,1514.935064935065,1382.0,1500
0.5784940719604492,28,173,110,0.004273504273504274,1501.3,1535.4700854700855,1380.0,1500
0.6001009941101074,29,171,110,0.0034965034965034965,1501.1,1519.93006993007,1380.0,1500
0.621636152267456,30,172,110,0.003968253968253968,1501.2,1529.3650793650793,1380.0,1500
0.6431131362915039,31,170,111,0.0034965034965034965,1501.0,1519.93006993007,1378.0,1500
0.6645901203155518,32,170,111,0.0034965034965034965,1501.0,1519.93006993007,1378.0,1500
0.686053991317749,33,172,111,0.004048582995951417,1501.2,1530.9716599190283,1378.0,1500
0.7075271606445312,34,170,111,0.0034965034965034965,1501.0,1519.93006993007,1378.0,1500
0.729168176651001,35,170,111,0.0034965034965034965,1501.0,1519.93006993007,1378.0,1500
0.7506251335144043,36,170,111,0.0034965034965034965,1501.0,1519.93006993007,1378.0,1500
0.7720839977264404,37,170,111,0.0034965034965034965,1501.0,1519.93006993007,1378.0,1500
0.7935380935668945,38,172,111,0.004048582995951417,1501.2,1530.9716599190283,1378.0,1500
0.8149960041046143,39,170,111,0.0034965034965034965,1501.0,1519.93006993007,1378.0,1500
0.8364770412445068,40,170,111,0.0034965034965034965,1501.0,1519.93006993007,1378.0,1500
0.8579370975494385,41,170,111,0.003246753246753247,1501.0,1514.935064935065,1378.0,1500
0.8795809745788574,42,170,111,0.003246753246753247,1501.0,1514.935064935065,1378.0,1500
0.9011011123657227,43,170,111,0.003246753246753247,1501.0,1514.935064935065,1378.0,1500
0.9227840900421143,44,170,112,0.0034965034965034965,1501.0,1519.93006993007,1376.0,1500
0.9443089962005615,45,170,112,0.0034965034965034965,1501.0,1519.93006993007,1376.0,1500
0.9657940864562988,46,169,111,0.003246753246753247,1500.9,1514.935064935065,1378.0,1500
0.9874811172485352,47,171,111,0.004048582995951417,1501.1,1530.9716599190283,1378.0,1500
1.008985996246338,48,169,111,0.0034965034965034965,1500.9,1519.93006993007,1378.0,1500
1.030489206314087,49,169,111,0.0034965034965034965,1500.9,1519.93006993007,1378.0,1500
1.051577091217041,50,169,111,0.0034965034965034965,1500.9,1519.93006993007,1378.0,1500
1.0725769996643066,51,169,111,0.0034965034965034965,1500.9,1519.93006993007,1378.0,1500
1.093583106994629,52,171,111,0.004048582995951417,1501.1,1530.9716599190283,1378.0,1500
1.114577054977417,53,170,110,0.0036231884057971015,1501.0,1522.463768115942,1380.0,1500
1.1355581283569336,54,170,110,0.003663003663003663,1501.0,1523.2600732600733,1380.0,1500
1.156562089920044,55,171,110,0.004273504273504274,1501.1,1535.4700854700855,1380.0,1500
1.1775410175323486,56,170,110,0.003787878787878788,1501.0,1525.7575757575758,1380.0,1500
1.19852614402771,57,170,110,0.003787878787878788,1501.0,1525.7575757575758,1380.0,1500
1.2194910049438477,58,171,111,0.004273504273504274,1501.1,1535.4700854700855,1378.0,1500
1.2405049800872803,59,171,111,0.004273504273504274,1501.1,1535.4700854700855,1378.0,1500
1.2615301609039307,60,170,111,0.003663003663003663,1501.0,1523.2600732600733,1378.0,1500
1.282515048980713,61,171,111,0.004048582995951417,1501.1,1530.9716599190283,1378.0,1500
1.3034911155700684,62,169,110,0.003787878787878788,1500.9,1525.7575757575758,1380.0,1500
1.3244860172271729,63,171,110,0.0037593984962406013,1501.1,1525.187969924812,1380.0,1500
1.3454539775848389,64,169,110,0.003246753246753247,1500.9,1514.935064935065,1380.0,1500
1.3664309978485107,65,169,111,0.0034965034965034965,1500.9,1519.93006993007,1378.0,1500
1.387425184249878,66,169,111,0.0034965034965034965,1500.9,1519.93006993007,1378.0,1500
1.4084031581878662,67,169,111,0.0034965034965034965,1500.9,1519.93006993007,1378.0,1500
1.4293711185455322,68,169,111,0.003246753246753247,1500.9,1514.935064935065,1378.0,1500
1.4503870010375977,69,169,112,0.0034965034965034965,1500.9,1519.93006993007,1376.0,1500
1.4714090824127197,70,169,112,0.0034965034965034965,1500.9,1519.93006993007,1376.0,1500
1.4923841953277588,71,169,111,0.003246753246753247,1500.9,1514.935064935065,1378.0,1500
1.5133700370788574,72,171,112,0.0038461538461538464,1501.1,1526.923076923077,1376.0,1500
1.5343542098999023,73,169,111,0.003787878787878788,1500.9,1525.7575757575758,1378.0,1500
1.5553240776062012,74,169,111,0.0034965034965034965,1500.9,1519.93006993007,1378.0,1500
1.5763020515441895,75,169,111,0.0034965034965034965,1500.9,1519.93006993007,1378.0,1500
1.597278118133545,76,169,111,0.0034965034965034965,1500.9,1519.93006993007,1378.0,1500
1.618246078491211,77,169,112,0.0034965034965034965,1500.9,1519.93006993007,1376.0,1500
1.639207124710083,78,169,112,0.0034965034965034965,1500.9,1519.93006993007,1376.0,1500
1.6601932048797607,79,169,112,0.0034965034965034965,1500.9,1519.93006993007,1376.0,1500
1.681244134902954,80,170,112,0.004048582995951417,1501.0,1530.9716599190283,1376.0,1500
1.7022349834442139,81,170,112,0.004048582995951417,1501.0,1530.9716599190283,1376.0,1500
1.7232251167297363,82,168,113,0.0034965034965034965,1500.8,1519.93006993007,1374.0,1500
1.744211196899414,83,169,113,0.003663003663003663,1500.9,1523.2600732600733,1374.0,1500
1.7651782035827637,84,169,112,0.003401360544217687,1500.9,1518.0272108843537,1376.0,1500
1.7861721515655518,85,168,113,0.0034965034965034965,1500.8,1519.93006993007,1374.0,1500
1.8071420192718506,86,171,113,0.004048582995951417,1501.1,1530.9716599190283,1374.0,1500
1.828132152557373,87,171,113,0.004048582995951417,1501.1,1530.9716599190283,1374.0,1500
1.8491241931915283,88,171,113,0.004048582995951417,1501.1,1530.9716599190283,1374.0,1500
1.8701131343841553,89,169,112,0.003246753246753247,1500.9,1514.935064935065,1376.0,1500
1.8911759853363037,90,169,113,0.0034965034965034965,1500.9,1519.93006993007,1374.0,1500
1.9121651649475098,91,169,113,0.0034965034965034965,1500.9,1519.93006993007,1374.0,1500
1.9331531524658203,92,169,112,0.0034965034965034965,1500.9,1519.93006993007,1376.0,1500
1.9543399810791016,93,169,112,0.0034965034965034965,1500.9,1519.93006993007,1376.0,1500
1.9753351211547852,94,169,112,0.0034965034965034965,1500.9,1519.93006993007,1376.0,1500
1.9963171482086182,95,169,111,0.003787878787878788,1500.9,1525.7575757575758,1378.0,1500
2.017296075820923,96,169,111,0.0034965034965034965,1500.9,1519.93006993007,1378.0,1500
2.0382909774780273,97,169,111,0.0034965034965034965,1500.9,1519.93006993007,1378.0,1500
2.0593061447143555,98,171,111,0.004048582995951417,1501.1,1530.9716599190283,1378.0,1500
2.0805699825286865,99,171,111,0.004048582995951417,1501.1,1530.9716599190283,1378.0,1500
2.1025819778442383,100,169,111,0.0034965034965034965,1500.9,1519.93006993007,1378.0,1500
2.124345064163208,101,169,111,0.0034965034965034965,1500.9,1519.93006993007,1378.0,1500
2.1460981369018555,102,170,111,0.003663003663003663,1501.0,1523.2600732600733,1378.0,1500
2.1678550243377686,103,170,111,0.0034965034965034965,1501.0,1519.93006993007,1378.0,1500
2.189573049545288,104,171,111,0.004273504273504274,1501.1,1535.4700854700855,1378.0,1500
2.2112951278686523,105,169,111,0.0034965034965034965,1500.9,1519.93006993007,1378.0,1500
2.2330431938171387,106,171,111,0.004273504273504274,1501.1,1535.4700854700855,1378.0,1500
2.2547872066497803,107,170,111,0.003663003663003663,1501.0,1523.2600732600733,1378.0,1500
2.276496171951294,108,170,111,0.003663003663003663,1501.0,1523.2600732600733,1378.0,1500
2.298243999481201,109,170,111,0.0034965034965034965,1501.0,1519.93006993007,1378.0,1500
2.31997013092041,110,170,111,0.003246753246753247,1501.0,1514.935064935065,1378.0,1500
2.3417770862579346,111,170,112,0.0034965034965034965,1501.0,1519.93006993007,1376.0,1500
2.3635001182556152,112,170,112,0.0034965034965034965,1501.0,1519.93006993007,1376.0,1500
2.3852200508117676,113,172,112,0.004048582995951417,1501.2,1530.9716599190283,1376.0,1500
2.406934976577759,114,170,112,0.0034965034965034965,1501.0,1519.93006993007,1376.0,1500
2.428654193878174,115,170,112,0.0034965034965034965,1501.0,1519.93006993007,1376.0,1500
2.4504029750823975,116,170,112,0.0034965034965034965,1501.0,1519.93006993007,1376.0,1500
2.4721760749816895,117,170,112,0.0034965034965034965,1501.0,1519.93006993007,1376.0,1500
2.4938831329345703,118,171,112,0.004273504273504274,1501.1,1535.4700854700855,1376.0,1500
2.515571117401123,119,169,112,0.0034965034965034965,1500.9,1519.93006993007,1376.0,1500
2.5372931957244873,120,171,112,0.004048582995951417,1501.1,1530.9716599190283,1376.0,1500
2.5590121746063232,121,169,112,0.0034965034965034965,1500.9,1519.93006993007,1376.0,1500
2.5807111263275146,122,171,112,0.004048582995951417,1501.1,1530.9716599190283,1376.0,1500
2.6024601459503174,123,171,112,0.004048582995951417,1501.1,1530.9716599190283,1376.0,1500
2.624176025390625,124,169,112,0.0034965034965034965,1500.9,1519.93006993007,1376.0,1500
2.645871162414551,125,169,112,0.0034965034965034965,1500.9,1519.93006993007,1376.0,1500
2.667570114135742,126,170,112,0.0033444816053511705,1501.0,1516.8896321070233,1376.0,1500
2.6892971992492676,127,171,111,0.0037593984962406013,1501.1,1525.187969924812,1378.0,1500
2.7110061645507812,128,169,111,0.003246753246753247,1500.9,1514.935064935065,1378.0,1500
2.7327160835266113,129,169,111,0.003246753246753247,1500.9,1514.935064935065,1378.0,1500
2.7544240951538086,130,169,111,0.003246753246753247,1500.9,1514.935064935065,1378.0,1500
2.776125192642212,131,169,111,0.003246753246753247,1500.9,1514.935064935065,1378.0,1500
2.797837972640991,132,169,111,0.003787878787878788,1500.9,1525.7575757575758,1378.0,1500
2.819550037384033,133,169,112,0.0034965034965034965,1500.9,1519.93006993007,1376.0,1500
2.841240167617798,134,170,112,0.004048582995951417,1501.0,1530.9716599190283,1376.0,1500
2.862974166870117,135,169,111,0.003401360544217687,1500.9,1518.0272108843537,1378.0,1500
2.884700059890747,136,170,112,0.004048582995951417,1501.0,1530.9716599190283,1376.0,1500
2.906378984451294,137,168,112,0.0034965034965034965,1500.8,1519.93006993007,1376.0,1500
2.9283900260925293,138,169,111,0.003105590062111801,1500.9,1512.111801242236,1378.0,1500
2.9501349925994873,139,168,111,0.003246753246753247,1500.8,1514.935064935065,1378.0,1500
2.971971035003662,140,168,111,0.003246753246753247,1500.8,1514.935064935065,1378.0,1500
2.99369215965271,141,168,111,0.003246753246753247,1500.8,1514.935064935065,1378.0,1500
3.015407085418701,142,170,111,0.004048582995951417,1501.0,1530.9716599190283,1378.0,1500
3.0371320247650146,143,168,111,0.003246753246753247,1500.8,1514.935064935065,1378.0,1500
3.0588481426239014,144,168,112,0.003663003663003663,1500.8,1523.2600732600733,1376.0,1500
3.0806121826171875,145,167,111,0.003246753246753247,1500.7,1514.935064935065,1378.0,1500
3.1023950576782227,146,167,112,0.0034965034965034965,1500.7,1519.93006993007,1376.0,1500
3.124113082885742,147,167,112,0.0034965034965034965,1500.7,1519.93006993007,1376.0,1500
3.1458301544189453,148,168,112,0.004048582995951417,1500.8,1530.9716599190283,1376.0,1500
3.167574167251587,149,166,112,0.0034965034965034965,1500.6,1519.93006993007,1376.0,1500
3.1892781257629395,150,166,112,0.0034965034965034965,1500.6,1519.93006993007,1376.0,1500
3.2109761238098145,151,166,112,0.0034965034965034965,1500.6,1519.93006993007,1376.0,1500
3.232696056365967,152,168,112,0.004048582995951417,1500.8,1530.9716599190283,1376.0,1500
3.2544031143188477,153,166,112,0.0034965034965034965,1500.6,1519.93006993007,1376.0,1500
3.276106119155884,154,166,112,0.0034965034965034965,1500.6,1519.93006993007,1376.0,1500
3.297837018966675,155,167,112,0.003663003663003663,1500.7,1523.2600732600733,1376.0,1500
3.3195481300354004,156,167,112,0.0034965034965034965,1500.7,1519.93006993007,1376.0,1500
3.3412320613861084,157,167,112,0.0034965034965034965,1500.7,1519.93006993007,1376.0,1500
3.3629310131073,158,167,112,0.0034965034965034965,1500.7,1519.93006993007,1376.0,1500
3.3846230506896973,159,167,112,0.003663003663003663,1500.7,1523.2600732600733,1376.0,1500
3.4063191413879395,160,166,112,0.0034965034965034965,1500.6,1519.93006993007,1376.0,1500
3.428002119064331,161,166,112,0.0034965034965034965,1500.6,1519.93006993007,1376.0,1500
3.4496781826019287,162,168,111,0.0037593984962406013,1500.8,1525.187969924812,1378.0,1500
3.4713501930236816,163,166,111,0.003787878787878788,1500.6,1525.7575757575758,1378.0,1500
3.4930670261383057,164,167,111,0.004048582995951417,1500.7,1530.9716599190283,1378.0,1500
3.5147621631622314,165,167,111,0.004048582995951417,1500.7,1530.9716599190283,1378.0,1500
3.5364270210266113,166,167,111,0.004048582995951417,1500.7,1530.9716599190283,1378.0,1500
3.558101177215576,167,166,111,0.003663003663003663,1500.6,1523.2600732600733,1378.0,1500
3.5798091888427734,168,167,111,0.004273504273504274,1500.7,1535.4700854700855,1378.0,1500
3.6016311645507812,169,166,111,0.0034965034965034965,1500.6,1519.93006993007,1378.0,1500
3.623335123062134,170,166,111,0.0034965034965034965,1500.6,1519.93006993007,1378.0,1500
3.645024061203003,171,166,112,0.0034965034965034965,1500.6,1519.93006993007,1376.0,1500
3.6667160987854004,172,166,112,0.0034965034965034965,1500.6,1519.93006993007,1376.0,1500
3.688400983810425,173,166,111,0.0034965034965034965,1500.6,1519.93006993007,1378.0,1500
3.7100741863250732,174,166,111,0.0034965034965034965,1500.6,1519.93006993007,1378.0,1500
3.7318971157073975,175,168,111,0.004048582995951417,1500.8,1530.9716599190283,1378.0,1500
3.753596067428589,176,168,111,0.004048582995951417,1500.8,1530.9716599190283,1378.0,1500
3.7752790451049805,177,168,111,0.004048582995951417,1500.8,1530.9716599190283,1378.0,1500
3.797013998031616,178,166,111,0.0034965034965034965,1500.6,1519.93006993007,1378.0,1500
3.818763017654419,179,168,111,0.004048582995951417,1500.8,1530.9716599190283,1378.0,1500
3.840550184249878,180,166,111,0.0034965034965034965,1500.6,1519.93006993007,1378.0,1500
3.862342119216919,181,166,111,0.0034965034965034965,1500.6,1519.93006993007,1378.0,1500
3.884093999862671,182,166,110,0.003246753246753247,1500.6,1514.935064935065,1380.0,1500
3.906081199645996,183,166,110,0.003246753246753247,1500.6,1514.935064935065,1380.0,1500
3.9361259937286377,184,166,111,0.0034965034965034965,1500.6,1519.93006993007,1378.0,1500
3.9582300186157227,185,166,110,0.003246753246753247,1500.6,1514.935064935065,1380.0,1500
3.980271100997925,186,166,110,0.003246753246753247,1500.6,1514.935064935065,1380.0,1500
4.002339124679565,187,166,111,0.0034965034965034965,1500.6,1519.93006993007,1378.0,1500
4.024277210235596,188,168,111,0.004048582995951417,1500.8,1530.9716599190283,1378.0,1500
4.0462400913238525,189,166,112,0.003663003663003663,1500.6,1523.2600732600733,1376.0,1500
4.068202018737793,190,165,112,0.003787878787878788,1500.5,1525.7575757575758,1376.0,1500
4.090280055999756,191,165,113,0.0034965034965034965,1500.5,1519.93006993007,1374.0,1500
4.112336158752441,192,165,113,0.003246753246753247,1500.5,1514.935064935065,1374.0,1500
4.134311199188232,193,165,114,0.003401360544217687,1500.5,1518.0272108843537,1372.0,1500
4.156299114227295,194,166,115,0.004048582995951417,1500.6,1530.9716599190283,1370.0,1500
4.178284168243408,195,166,115,0.0037593984962406013,1500.6,1525.187969924812,1370.0,1500
4.200317144393921,196,164,116,0.0034965034965034965,1500.4,1519.93006993007,1368.0,1500
4.222376108169556,197,164,115,0.003401360544217687,1500.4,1518.0272108843537,1370.0,1500
4.2443201541900635,198,165,115,0.004273504273504274,1500.5,1535.4700854700855,1370.0,1500
4.26629114151001,199,165,114,0.0043859649122807015,1500.5,1537.719298245614,1372.0,1500
4.288269996643066,200,163,114,0.0034965034965034965,1500.3,1519.93006993007,1372.0,1500
4.310302019119263,201,165,113,0.0037593984962406013,1500.5,1525.187969924812,1374.0,1500
4.332332134246826,202,163,113,0.0034965034965034965,1500.3,1519.93006993007,1374.0,1500
4.354294061660767,203,163,113,0.0034965034965034965,1500.3,1519.93006993007,1374.0,1500
4.376239061355591,204,165,113,0.004048582995951417,1500.5,1530.9716599190283,1374.0,1500
4.398212194442749,205,163,113,0.0034965034965034965,1500.3,1519.93006993007,1374.0,1500
4.4202210903167725,206,165,113,0.004048582995951417,1500.5,1530.9716599190283,1374.0,1500
4.4422690868377686,207,164,113,0.0034965034965034965,1500.4,1519.93006993007,1374.0,1500
4.464222192764282,208,166,113,0.004048582995951417,1500.6,1530.9716599190283,1374.0,1500
4.486195087432861,209,166,112,0.004273504273504274,1500.6,1535.4700854700855,1376.0,1500
4.508162021636963,210,165,112,0.0034965034965034965,1500.5,1519.93006993007,1376.0,1500
4.53017520904541,211,165,111,0.0034965034965034965,1500.5,1519.93006993007,1378.0,1500
4.552229166030884,212,166,111,0.004273504273504274,1500.6,1535.4700854700855,1378.0,1500
4.574199199676514,213,166,112,0.004048582995951417,1500.6,1530.9716599190283,1376.0,1500
4.596181154251099,214,164,113,0.0034965034965034965,1500.4,1519.93006993007,1374.0,1500
4.618124008178711,215,164,114,0.0034965034965034965,1500.4,1519.93006993007,1372.0,1500
4.640136003494263,216,165,115,0.004273504273504274,1500.5,1535.4700854700855,1370.0,1500
4.662170171737671,217,164,116,0.003663003663003663,1500.4,1523.2600732600733,1368.0,1500
4.684140205383301,218,165,116,0.004048582995951417,1500.5,1530.9716599190283,1368.0,1500
4.706096172332764,219,164,116,0.004273504273504274,1500.4,1535.4700854700855,1368.0,1500
4.728130102157593,220,163,116,0.003663003663003663,1500.3,1523.2600732600733,1368.0,1500
4.750066041946411,221,163,116,0.004273504273504274,1500.3,1535.4700854700855,1368.0,1500
4.772078037261963,222,163,116,0.004048582995951417,1500.3,1530.9716599190283,1368.0,1500
4.794053077697754,223,161,115,0.004629629629629629,1500.1,1540,1370.0,1500
4.815962076187134,224,159,115,0.003663003663003663,1499.9,1523.2600732600733,1370.0,1500
4.837923049926758,225,158,114,0.003787878787878788,1499.8,1525.7575757575758,1372.0,1500
4.859958171844482,226,159,113,0.0043859649122807015,1499.9,1537.719298245614,1374.0,1500
4.882117033004761,227,156,112,0.003968253968253968,1499.6,1529.3650793650793,1376.0,1500
4.904141187667847,228,155,111,0.003787878787878788,1499.5,1525.7575757575758,1378.0,1500
4.926103115081787,229,154,111,0.0034965034965034965,1499.4,1519.93006993007,1378.0,1500
4.948279142379761,230,155,111,0.004273504273504274,1499.5,1535.4700854700855,1378.0,1500
4.970781087875366,231,155,111,0.0043859649122807015,1499.5,1537.719298245614,1378.0,1500
4.992878198623657,232,154,111,0.004629629629629629,1499.4,1540,1378.0,1500
5.014765977859497,233,154,112,0.004629629629629629,1499.4,1540,1376.0,1500
5.036648988723755,234,153,113,0.003968253968253968,1499.3,1529.3650793650793,1374.0,1500
5.058624029159546,235,153,114,0.003968253968253968,1499.3,1529.3650793650793,1372.0,1500
5.080650091171265,236,153,114,0.003968253968253968,1499.3,1529.3650793650793,1372.0,1500
5.102672100067139,237,154,114,0.003968253968253968,1499.4,1529.3650793650793,1372.0,1500
5.124634027481079,238,155,114,0.004629629629629629,1499.5,1540,1372.0,1500
5.146529197692871,239,154,114,0.003968253968253968,1499.4,1529.3650793650793,1372.0,1500
5.168509006500244,240,154,114,0.003787878787878788,1499.4,1525.7575757575758,1372.0,1500
5.190612077713013,241,156,114,0.004629629629629629,1499.6,1540,1372.0,1500
5.212560176849365,242,155,114,0.003968253968253968,1499.5,1529.3650793650793,1372.0,1500
5.234534025192261,243,153,114,0.004629629629629629,1499.3,1540,1372.0,1500
5.256415128707886,244,157,114,0.004629629629629629,1499.7,1540,1372.0,1500
5.278303146362305,245,157,114,0.004629629629629629,1499.7,1540,1372.0,1500
5.300297975540161,246,155,114,0.004629629629629629,1499.5,1540,1372.0,1500
5.322291135787964,247,159,114,0.004629629629629629,1499.9,1540,1372.0,1500
5.34418511390686,248,158,114,0.003968253968253968,1499.8,1529.3650793650793,1372.0,1500
5.366153001785278,249,160,115,0.004629629629629629,1500.0,1540,1370.0,1500
5.388054132461548,250,159,115,0.005208333333333333,1499.9,1540,1370.0,1500
5.410017013549805,251,160,116,0.003968253968253968,1500.0,1529.3650793650793,1368.0,1500
5.4320900440216064,252,161,116,0.005208333333333333,1500.1,1540,1368.0,1500
5.453999042510986,253,161,116,0.005555555555555556,1500.1,1540,1368.0,1500
5.475913047790527,254,160,115,0.004629629629629629,1500.0,1540,1370.0,1500
5.497812986373901,255,163,114,0.004901960784313725,1500.3,1540,1372.0,1500
5.519791126251221,256,163,114,0.006060606060606061,1500.3,1540,1372.0,1500
5.541783094406128,257,163,113,0.004807692307692308,1500.3,1540,1374.0,1500
5.563699007034302,258,162,112,0.004629629629629629,1500.2,1540,1376.0,1500
5.585614204406738,259,162,112,0.004629629629629629,1500.2,1540,1376.0,1500
5.607511043548584,260,163,112,0.004629629629629629,1500.3,1540,1376.0,1500
5.629409074783325,261,164,113,0.004629629629629629,1500.4,1540,1374.0,1500
5.651368141174316,262,166,114,0.006493506493506494,1500.6,1540,1372.0,1500
5.673283100128174,263,166,116,0.005050505050505051,1500.6,1540,1368.0,1500
5.695203065872192,264,167,118,0.005050505050505051,1500.7,1540,1364.0,1500
5.717109203338623,265,168,119,0.005050505050505051,1500.8,1540,1362.0,1500
5.738980054855347,266,171,120,0.006060606060606061,1501.1,1540,1360.0,1500
5.7609241008758545,267,171,119,0.004629629629629629,1501.1,1540,1362.0,1500
5.782831192016602,268,173,118,0.005952380952380952,1501.3,1540,1364.0,1500
5.804708003997803,269,172,118,0.004629629629629629,1501.2,1540,1364.0,1500
5.826594114303589,270,172,118,0.004629629629629629,1501.2,1540,1364.0,1500
5.848478078842163,271,172,119,0.005050505050505051,1501.2,1540,1362.0,1500
5.8704822063446045,272,172,119,0.005050505050505051,1501.2,1540,1362.0,1500
5.892427206039429,273,171,119,0.004629629629629629,1501.1,1540,1362.0,1500
5.914301156997681,274,171,119,0.005050505050505051,1501.1,1540,1362.0,1500
5.936191082000732,275,173,119,0.005952380952380952,1501.3,1540,1362.0,1500
5.958096981048584,276,172,119,0.005050505050505051,1501.2,1540,1362.0,1500
5.980081081390381,277,174,118,0.005208333333333333,1501.4,1540,1364.0,1500
6.002089977264404,278,173,118,0.005050505050505051,1501.3,1540,1364.0,1500
6.0239951610565186,279,176,117,0.006060606060606061,1501.6,1540,1366.0,1500
6.045880079269409,280,175,116,0.005050505050505051,1501.5,1540,1368.0,1500
6.067785978317261,281,176,115,0.005050505050505051,1501.6,1540,1370.0,1500
6.0899012088775635,282,178,113,0.0043859649122807015,1501.8,1537.719298245614,1374.0,1500
6.111788034439087,283,179,112,0.005208333333333333,1501.9,1540,1376.0,1500
6.133475065231323,284,177,111,0.004629629629629629,1501.7,1540,1378.0,1500
6.155167102813721,285,177,110,0.005050505050505051,1501.7,1540,1380.0,1500
6.176819086074829,286,178,110,0.006493506493506494,1501.8,1540,1380.0,1500
6.19849705696106,287,178,109,0.005555555555555556,1501.8,1540,1382.0,1500
6.220158100128174,288,175,110,0.004629629629629629,1501.5,1540,1380.0,1500
6.241917133331299,289,176,111,0.006060606060606061,1501.6,1540,1378.0,1500
6.263568162918091,290,175,110,0.006060606060606061,1501.5,1540,1380.0,1500
6.28530216217041,291,173,109,0.005050505050505051,1501.3,1540,1382.0,1500
6.30695915222168,292,173,109,0.004629629629629629,1501.3,1540,1382.0,1500
6.328603029251099,293,172,109,0.004629629629629629,1501.2,1540,1382.0,1500
6.350250005722046,294,173,110,0.004166666666666667,1501.3,1533.3333333333333,1380.0,1500
6.372127056121826,295,174,112,0.006060606060606061,1501.4,1540,1376.0,1500
6.393805027008057,296,175,113,0.004901960784313725,1501.5,1540,1374.0,1500
6.415462017059326,297,173,115,0.005050505050505051,1501.3,1540,1370.0,1500
6.437119007110596,298,173,116,0.005050505050505051,1501.3,1540,1368.0,1500
6.458777189254761,299,173,116,0.004629629629629629,1501.3,1540,1368.0,1500
6.4804911613464355,300,175,115,0.005555555555555556,1501.5,1540,1370.0,1500
6.502226114273071,301,174,114,0.0043859649122807015,1501.4,1537.719298245614,1372.0,1500
6.5239481925964355,302,174,114,0.006493506493506494,1501.4,1540,1372.0,1500
6.545603036880493,303,173,113,0.004784688995215311,1501.3,1540,1374.0,1500
6.567289113998413,304,174,112,0.005555555555555556,1501.4,1540,1376.0,1500
6.588940143585205,305,172,112,0.0043859649122807015,1501.2,1537.719298245614,1376.0,1500
6.610673189163208,306,171,113,0.005050505050505051,1501.1,1540,1374.0,1500
6.632315158843994,307,171,113,0.005050505050505051,1501.1,1540,1374.0,1500
6.653969049453735,308,172,113,0.004784688995215311,1501.2,1540,1374.0,1500
6.675624132156372,309,171,113,0.005050505050505051,1501.1,1540,1374.0,1500
6.697285175323486,310,171,112,0.004629629629629629,1501.1,1540,1376.0,1500
6.718928098678589,311,171,112,0.005050505050505051,1501.1,1540,1376.0,1500
6.7406251430511475,312,171,111,0.004629629629629629,1501.1,1540,1378.0,1500
6.7623372077941895,313,172,112,0.004784688995215311,1501.2,1540,1376.0,1500
6.7839930057525635,314,171,112,0.004629629629629629,1501.1,1540,1376.0,1500
6.805636167526245,315,171,112,0.004629629629629629,1501.1,1540,1376.0,1500
6.8281941413879395,316,172,113,0.006493506493506494,1501.2,1540,1374.0,1500
6.850463151931763,317,172,113,0.006493506493506494,1501.2,1540,1374.0,1500
6.872673034667969,318,170,113,0.005050505050505051,1501.0,1540,1374.0,1500
6.894810199737549,319,170,113,0.005050505050505051,1501.0,1540,1374.0,1500
6.916946172714233,320,170,113,0.004629629629629629,1501.0,1540,1374.0,1500
6.93906307220459,321,170,114,0.005050505050505051,1501.0,1540,1372.0,1500
6.961219072341919,322,171,114,0.006493506493506494,1501.1,1540,1372.0,1500
6.983399152755737,323,170,114,0.005050505050505051,1501.0,1540,1372.0,1500
7.005545139312744,324,170,113,0.004629629629629629,1501.0,1540,1374.0,1500
7.027696132659912,325,170,113,0.005050505050505051,1501.0,1540,1374.0,1500
7.04981803894043,326,172,113,0.005555555555555556,1501.2,1540,1374.0,1500
7.07213020324707,327,173,113,0.005555555555555556,1501.3,1540,1374.0,1500
7.0943310260772705,328,173,113,0.005555555555555556,1501.3,1540,1374.0,1500
7.116487979888916,329,172,114,0.004629629629629629,1501.2,1540,1372.0,1500
7.138645172119141,330,173,114,0.004629629629629629,1501.3,1540,1372.0,1500
7.160815000534058,331,175,114,0.005208333333333333,1501.5,1540,1372.0,1500
7.182964086532593,332,175,114,0.004629629629629629,1501.5,1540,1372.0,1500
7.205141067504883,333,177,114,0.004784688995215311,1501.7,1540,1372.0,1500
7.227298974990845,334,179,114,0.006060606060606061,1501.9,1540,1372.0,1500
7.249723196029663,335,180,113,0.006060606060606061,1502.0,1540,1374.0,1500
7.272071123123169,336,180,112,0.0043859649122807015,1502.0,1537.719298245614,1376.0,1500
7.294339179992676,337,182,112,0.005208333333333333,1502.2,1540,1376.0,1500
7.3164989948272705,338,183,112,0.006060606060606061,1502.3,1540,1376.0,1500
7.33870005607605,339,182,112,0.005050505050505051,1502.2,1540,1376.0,1500
7.360839128494263,340,183,112,0.005050505050505051,1502.3,1540,1376.0,1500
7.3829569816589355,341,185,112,0.006060606060606061,1502.5,1540,1376.0,1500
7.4051361083984375,342,186,111,0.005555555555555556,1502.6,1540,1378.0,1500
7.427309989929199,343,185,111,0.005050505050505051,1502.5,1540,1378.0,1500
7.449453115463257,344,185,111,0.005050505050505051,1502.5,1540,1378.0,1500
7.4716010093688965,345,186,111,0.005050505050505051,1502.6,1540,1378.0,1500
7.493784189224243,346,186,110,0.005050505050505051,1502.6,1540,1380.0,1500
7.515925168991089,347,186,110,0.005050505050505051,1502.6,1540,1380.0,1500
7.538069009780884,348,187,109,0.005050505050505051,1502.7,1540,1382.0,1500
7.560192108154297,349,187,109,0.005050505050505051,1502.7,1540,1382.0,1500
7.582532167434692,350,188,110,0.005050505050505051,1502.8,1540,1380.0,1500
7.604712009429932,351,188,110,0.005050505050505051,1502.8,1540,1380.0,1500
7.626846075057983,352,190,110,0.0043859649122807015,1503.0,1537.719298245614,1380.0,1500
7.64906120300293,353,189,111,0.005050505050505051,1502.9,1540,1378.0,1500
7.671211004257202,354,192,111,0.006060606060606061,1503.2,1540,1378.0,1500
7.6933770179748535,355,193,110,0.005555555555555556,1503.3,1540,1380.0,1500
7.71553111076355,356,192,110,0.006493506493506494,1503.2,1540,1380.0,1500
7.7376861572265625,357,191,110,0.005050505050505051,1503.1,1540,1380.0,1500
7.759841203689575,358,190,109,0.004629629629629629,1503.0,1540,1382.0,1500
7.782307147979736,359,189,109,0.005050505050505051,1502.9,1540,1382.0,1500
7.804811000823975,360,189,108,0.004629629629629629,1502.9,1540,1384.0,1500
7.827030181884766,361,188,108,0.005050505050505051,1502.8,1540,1384.0,1500
7.8492090702056885,362,189,107,0.005208333333333333,1502.9,1540,1386.0,1500
7.8713719844818115,363,187,107,0.006493506493506494,1502.7,1540,1386.0,1500
7.893558979034424,364,185,106,0.005050505050505051,1502.5,1540,1388.0,1500
7.91571307182312,365,184,105,0.004629629629629629,1502.4,1540,1390.0,1500
7.937870025634766,366,183,105,0.004629629629629629,1502.3,1540,1390.0,1500
7.960046052932739,367,182,105,0.004629629629629629,1502.2,1540,1390.0,1500
7.982485055923462,368,183,105,0.0043859649122807015,1502.3,1537.719298245614,1390.0,1500
8.004760980606079,369,182,106,0.005050505050505051,1502.2,1540,1388.0,1500
8.026930093765259,370,183,106,0.004048582995951417,1502.3,1530.9716599190283,1388.0,1500
8.049144983291626,371,184,106,0.006493506493506494,1502.4,1540,1388.0,1500
8.071314096450806,372,183,105,0.004629629629629629,1502.3,1540,1390.0,1500
8.093517065048218,373,184,104,0.005555555555555556,1502.4,1540,1392.0,1500
8.115673065185547,374,182,104,0.004629629629629629,1502.2,1540,1392.0,1500
8.137839078903198,375,182,104,0.004629629629629629,1502.2,1540,1392.0,1500
8.160045146942139,376,181,104,0.004629629629629629,1502.1,1540,1392.0,1500
8.182445049285889,377,180,104,0.004629629629629629,1502.0,1540,1392.0,1500
8.204621076583862,378,181,104,0.003968253968253968,1502.1,1529.3650793650793,1392.0,1500
8.226864099502563,379,179,104,0.003968253968253968,1501.9,1529.3650793650793,1392.0,1500
8.249077081680298,380,179,105,0.004273504273504274,1501.9,1535.4700854700855,1390.0,1500
8.271305084228516,381,178,105,0.005555555555555556,1501.8,1540,1390.0,1500
8.293509006500244,382,178,107,0.005050505050505051,1501.8,1540,1386.0,1500
8.315683126449585,383,178,109,0.005050505050505051,1501.8,1540,1382.0,1500
8.33784008026123,384,176,111,0.003787878787878788,1501.6,1525.7575757575758,1378.0,1500
8.360099077224731,385,176,114,0.004132231404958678,1501.6,1532.6446280991736,1372.0,1500
8.382507085800171,386,176,115,0.003787878787878788,1501.6,1525.7575757575758,1370.0,1500
8.405014038085938,387,178,116,0.004629629629629629,1501.8,1540,1368.0,1500
8.427187204360962,388,177,116,0.003663003663003663,1501.7,1523.2600732600733,1368.0,1500
8.449404001235962,389,177,115,0.0034965034965034965,1501.7,1519.93006993007,1370.0,1500
8.471630096435547,390,177,113,0.003787878787878788,1501.7,1525.7575757575758,1374.0,1500
8.49387812614441,391,176,112,0.0034965034965034965,1501.6,1519.93006993007,1376.0,1500
8.516113996505737,392,176,112,0.003663003663003663,1501.6,1523.2600732600733,1376.0,1500
8.538324117660522,393,176,112,0.004273504273504274,1501.6,1535.4700854700855,1376.0,1500
8.56062912940979,394,175,113,0.004273504273504274,1501.5,1535.4700854700855,1374.0,1500
8.582962989807129,395,173,113,0.0034965034965034965,1501.3,1519.93006993007,1374.0,1500
8.605177164077759,396,174,114,0.004273504273504274,1501.4,1535.4700854700855,1372.0,1500
8.62737512588501,397,174,114,0.004273504273504274,1501.4,1535.4700854700855,1372.0,1500
8.649591207504272,398,173,113,0.003663003663003663,1501.3,1523.2600732600733,1374.0,1500
8.67195200920105,399,173,113,0.0034965034965034965,1501.3,1519.93006993007,1374.0,1500
8.694221019744873,400,176,112,0.0043859649122807015,1501.6,1537.719298245614,1376.0,1500
8.716475009918213,401,176,112,0.004273504273504274,1501.6,1535.4700854700855,1376.0,1500
8.738214015960693,402,178,111,0.0037593984962406013,1501.8,1525.187969924812,1378.0,1500
8.760593175888062,403,179,111,0.0037593984962406013,1501.9,1525.187969924812,1378.0,1500
8.782989978790283,404,180,111,0.003968253968253968,1502.0,1529.3650793650793,1378.0,1500
8.805215120315552,405,181,112,0.004048582995951417,1502.1,1530.9716599190283,1376.0,1500
8.827421188354492,406,180,111,0.0034965034965034965,1502.0,1519.93006993007,1378.0,1500
8.84963607788086,407,181,110,0.003246753246753247,1502.1,1514.935064935065,1380.0,1500
8.871994018554688,408,182,109,0.003401360544217687,1502.2,1518.0272108843537,1382.0,1500
8.894261121749878,409,182,109,0.003246753246753247,1502.2,1514.935064935065,1382.0,1500
8.916498184204102,410,182,110,0.003246753246753247,1502.2,1514.935064935065,1380.0,1500
8.938713073730469,411,184,110,0.003968253968253968,1502.4,1529.3650793650793,1380.0,1500
8.960957050323486,412,183,111,0.003401360544217687,1502.3,1518.0272108843537,1378.0,1500
8.983196020126343,413,183,112,0.003246753246753247,1502.3,1514.935064935065,1376.0,1500
9.0054030418396,414,183,112,0.003246753246753247,1502.3,1514.935064935065,1376.0,1500
9.027621030807495,415,182,111,0.003246753246753247,1502.2,1514.935064935065,1378.0,1500
9.049877166748047,416,184,110,0.0037593984962406013,1502.4,1525.187969924812,1380.0,1500
9.072516202926636,417,181,110,0.0030303030303030303,1502.1,1510.6060606060605,1380.0,1500
9.094819068908691,418,182,111,0.002898550724637681,1502.2,1507.9710144927535,1378.0,1500
9.117062091827393,419,181,112,0.0030303030303030303,1502.1,1510.6060606060605,1376.0,1500
9.139297008514404,420,181,113,0.003246753246753247,1502.1,1514.935064935065,1374.0,1500
9.161588191986084,421,182,114,0.003105590062111801,1502.2,1512.111801242236,1372.0,1500
9.183849096298218,422,182,115,0.0030303030303030303,1502.2,1510.6060606060605,1370.0,1500
9.206089973449707,423,186,114,0.0030303030303030303,1502.6,1510.6060606060605,1372.0,1500
9.228316068649292,424,185,114,0.002777777777777778,1502.5,1505.5555555555557,1372.0,1500
9.250615119934082,425,188,113,0.002898550724637681,1502.8,1507.9710144927535,1374.0,1500
9.272894144058228,426,187,113,0.0026666666666666666,1502.7,1503.3333333333333,1374.0,1500
9.295160055160522,427,188,114,0.0026666666666666666,1502.8,1503.3333333333333,1372.0,1500
9.31738805770874,428,188,114,0.0026666666666666666,1502.8,1503.3333333333333,1372.0,1500
9.339612007141113,429,188,114,0.0026666666666666666,1502.8,1503.3333333333333,1372.0,1500
9.36195707321167,430,189,114,0.002840909090909091,1502.9,1506.8181818181818,1372.0,1500
9.384235143661499,431,187,115,0.0026666666666666666,1502.7,1503.3333333333333,1370.0,1500
9.40647006034851,432,186,116,0.0026666666666666666,1502.6,1503.3333333333333,1368.0,1500
9.428982973098755,433,186,116,0.0030303030303030303,1502.6,1510.6060606060605,1368.0,1500
9.451242208480835,434,183,117,0.0026666666666666666,1502.3,1503.3333333333333,1366.0,1500
9.473456144332886,435,181,117,0.002564102564102564,1502.1,1501.2820512820513,1366.0,1500
9.495695114135742,436,181,117,0.0030303030303030303,1502.1,1510.6060606060605,1366.0,1500
9.517921209335327,437,180,117,0.002840909090909091,1502.0,1506.8181818181818,1366.0,1500
9.540166139602661,438,179,118,0.002898550724637681,1501.9,1507.9710144927535,1364.0,1500
9.562533140182495,439,177,119,0.002840909090909091,1501.7,1506.8181818181818,1362.0,1500
9.584805011749268,440,177,120,0.002898550724637681,1501.7,1507.9710144927535,1360.0,1500
9.607019186019897,441,175,120,0.002564102564102564,1501.5,1501.2820512820513,1360.0,1500
9.629235029220581,442,176,120,0.0030303030303030303,1501.6,1510.6060606060605,1360.0,1500
9.65144419670105,443,174,119,0.002403846153846154,1501.4,1498.076923076923,1362.0,1500
9.67364501953125,444,173,119,0.002403846153846154,1501.3,1498.076923076923,1362.0,1500
9.695886135101318,445,172,118,0.002403846153846154,1501.2,1498.076923076923,1364.0,1500
9.718115091323853,446,172,118,0.0025,1501.2,1500.0,1364.0,1500
9.740288972854614,447,170,118,0.002564102564102564,1501.0,1501.2820512820513,1364.0,1500
9.762655973434448,448,171,117,0.0026041666666666665,1501.1,1502.0833333333333,1366.0,1500
9.784903049468994,449,169,117,0.002403846153846154,1500.9,1498.076923076923,1366.0,1500
9.807114124298096,450,168,117,0.002403846153846154,1500.8,1498.076923076923,1366.0,1500
9.829320192337036,451,168,117,0.002403846153846154,1500.8,1498.076923076923,1366.0,1500
9.851526975631714,452,167,116,0.002564102564102564,1500.7,1501.2820512820513,1368.0,1500
9.873740196228027,453,167,116,0.002403846153846154,1500.7,1498.076923076923,1368.0,1500
9.895984172821045,454,167,116,0.002403846153846154,1500.7,1498.076923076923,1368.0,1500
9.917695045471191,455,168,116,0.002777777777777778,1500.8,1505.5555555555557,1368.0,1500
9.940558195114136,456,168,116,0.0030303030303030303,1500.8,1510.6060606060605,1368.0,1500
9.963281154632568,457,166,116,0.002564102564102564,1500.6,1501.2820512820513,1368.0,1500
9.985963106155396,458,168,116,0.002898550724637681,1500.8,1507.9710144927535,1368.0,1500
10.008908033370972,459,165,116,0.002403846153846154,1500.5,1498.076923076923,1368.0,1500
10.031580209732056,460,166,117,0.0030303030303030303,1500.6,1510.6060606060605,1366.0,1500
10.054269075393677,461,165,117,0.0030303030303030303,1500.5,1510.6060606060605,1366.0,1500
10.076879978179932,462,162,116,0.002403846153846154,1500.2,1498.076923076923,1368.0,1500
10.099529027938843,463,162,116,0.002403846153846154,1500.2,1498.076923076923,1368.0,1500
10.122497081756592,464,163,116,0.002840909090909091,1500.3,1506.8181818181818,1368.0,1500
10.145088195800781,465,161,116,0.002403846153846154,1500.1,1498.076923076923,1368.0,1500
10.16770315170288,466,161,117,0.002564102564102564,1500.1,1501.2820512820513,1366.0,1500
10.190590143203735,467,162,117,0.0023148148148148147,1500.2,1496.2962962962963,1366.0,1500
10.21320104598999,468,163,118,0.0030303030303030303,1500.3,1510.6060606060605,1364.0,1500
10.235795974731445,469,164,118,0.002898550724637681,1500.4,1507.9710144927535,1364.0,1500
10.258376121520996,470,162,118,0.002403846153846154,1500.2,1498.076923076923,1364.0,1500
10.281229972839355,471,164,118,0.002840909090909091,1500.4,1506.8181818181818,1364.0,1500
10.303608179092407,472,164,117,0.0025,1500.4,1500.0,1366.0,1500
10.325826168060303,473,164,117,0.002564102564102564,1500.4,1501.2820512820513,1366.0,1500
10.348074197769165,474,166,116,0.002717391304347826,1500.6,1504.3478260869565,1368.0,1500
10.370330095291138,475,166,116,0.0030303030303030303,1500.6,1510.6060606060605,1368.0,1500
10.392695188522339,476,165,115,0.002403846153846154,1500.5,1498.076923076923,1370.0,1500
10.414928197860718,477,167,115,0.002717391304347826,1500.7,1504.3478260869565,1370.0,1500
10.437144041061401,478,166,115,0.002840909090909091,1500.6,1506.8181818181818,1370.0,1500
10.459627151489258,479,164,116,0.002564102564102564,1500.4,1501.2820512820513,1368.0,1500
10.482146978378296,480,165,116,0.0030303030303030303,1500.5,1510.6060606060605,1368.0,1500
10.504420042037964,481,165,116,0.002898550724637681,1500.5,1507.9710144927535,1368.0,1500
10.52665400505066,482,162,116,0.002564102564102564,1500.2,1501.2820512820513,1368.0,1500
10.548874139785767,483,162,116,0.0030303030303030303,1500.2,1510.6060606060605,1368.0,1500
10.571096181869507,484,160,116,0.002564102564102564,1500.0,1501.2820512820513,1368.0,1500
10.59334111213684,485,161,116,0.0030303030303030303,1500.1,1510.6060606060605,1368.0,1500
10.61554503440857,486,159,116,0.002564102564102564,1499.9,1501.2820512820513,1368.0,1500
10.637756109237671,487,161,115,0.002717391304347826,1500.1,1504.3478260869565,1370.0,1500
10.659999132156372,488,161,116,0.0030303030303030303,1500.1,1510.6060606060605,1368.0,1500
10.682461977005005,489,160,116,0.0026666666666666666,1500.0,1503.3333333333333,1368.0,1500
10.704694986343384,490,160,116,0.002564102564102564,1500.0,1501.2820512820513,1368.0,1500
10.726895093917847,491,161,116,0.0024691358024691358,1500.1,1499.3827160493827,1368.0,1500
10.749106168746948,492,160,116,0.002564102564102564,1500.0,1501.2820512820513,1368.0,1500
10.77131199836731,493,162,115,0.002840909090909091,1500.2,1506.8181818181818,1370.0,1500
10.793524980545044,494,162,115,0.002840909090909091,1500.2,1506.8181818181818,1370.0,1500
10.815751075744629,495,162,115,0.0030303030303030303,1500.2,1510.6060606060605,1370.0,1500
10.838008165359497,496,160,115,0.002403846153846154,1500.0,1498.076923076923,1370.0,1500
10.860229015350342,497,160,115,0.002403846153846154,1500.0,1498.076923076923,1370.0,1500
10.882707118988037,498,161,115,0.002840909090909091,1500.1,1506.8181818181818,1370.0,1500
10.904916048049927,499,159,116,0.002564102564102564,1499.9,1501.2820512820513,1368.0,1500
10.927126169204712,500,158,116,0.002564102564102564,1499.8,1501.2820512820513,1368.0,1500
10.949334144592285,501,160,116,0.002898550724637681,1500.0,1507.9710144927535,1368.0,1500
10.971546173095703,502,159,116,0.002840909090909091,1499.9,1506.8181818181818,1368.0,1500
10.993774175643921,503,159,116,0.002717391304347826,1499.9,1504.3478260869565,1368.0,1500
11.016010999679565,504,159,116,0.002898550724637681,1499.9,1507.9710144927535,1368.0,1500
11.038252115249634,505,159,116,0.002898550724637681,1499.9,1507.9710144927535,1368.0,1500
11.060589075088501,506,159,115,0.002840909090909091,1499.9,1506.8181818181818,1370.0,1500
11.082952976226807,507,158,116,0.0026666666666666666,1499.8,1503.3333333333333,1368.0,1500
11.105197191238403,508,158,115,0.002403846153846154,1499.8,1498.076923076923,1370.0,1500
11.127427101135254,509,160,115,0.002717391304347826,1500.0,1504.3478260869565,1370.0,1500
11.149658203125,510,158,115,0.0026666666666666666,1499.8,1503.3333333333333,1370.0,1500
11.172031164169312,511,159,115,0.0030303030303030303,1499.9,1510.6060606060605,1370.0,1500
11.194297075271606,512,157,115,0.002564102564102564,1499.7,1501.2820512820513,1370.0,1500
11.216555118560791,513,157,115,0.002564102564102564,1499.7,1501.2820512820513,1370.0,1500
11.238771200180054,514,159,114,0.002717391304347826,1499.9,1504.3478260869565,1372.0,1500
11.260996103286743,515,156,114,0.002403846153846154,1499.6,1498.076923076923,1372.0,1500
11.283277988433838,516,158,114,0.002777777777777778,1499.8,1505.5555555555557,1372.0,1500
11.305516004562378,517,156,113,0.002403846153846154,1499.6,1498.076923076923,1374.0,1500
11.327728033065796,518,156,113,0.002564102564102564,1499.6,1501.2820512820513,1374.0,1500
11.349961042404175,519,156,112,0.002403846153846154,1499.6,1498.076923076923,1376.0,1500
11.372316122055054,520,157,111,0.002717391304347826,1499.7,1504.3478260869565,1378.0,1500
11.394593000411987,521,155,111,0.002564102564102564,1499.5,1501.2820512820513,1378.0,1500
11.416835069656372,522,156,111,0.0030303030303030303,1499.6,1510.6060606060605,1378.0,1500
11.43904709815979,523,154,111,0.002564102564102564,1499.4,1501.2820512820513,1378.0,1500
11.461531162261963,524,156,110,0.002717391304347826,1499.6,1504.3478260869565,1380.0,1500
11.483822107315063,525,155,111,0.002898550724637681,1499.5,1507.9710144927535,1378.0,1500
11.506062030792236,526,153,111,0.002403846153846154,1499.3,1498.076923076923,1378.0,1500
11.528304100036621,527,153,111,0.002403846153846154,1499.3,1498.076923076923,1378.0,1500
11.550580978393555,528,153,112,0.002564102564102564,1499.3,1501.2820512820513,1376.0,1500
11.572885036468506,529,153,112,0.002564102564102564,1499.3,1501.2820512820513,1376.0,1500
11.595121145248413,530,153,112,0.002403846153846154,1499.3,1498.076923076923,1376.0,1500
11.617321014404297,531,155,112,0.002717391304347826,1499.5,1504.3478260869565,1376.0,1500
11.639551162719727,532,154,112,0.002564102564102564,1499.4,1501.2820512820513,1376.0,1500
11.661883115768433,533,155,112,0.0026666666666666666,1499.5,1503.3333333333333,1376.0,1500
11.684165000915527,534,157,112,0.002898550724637681,1499.7,1507.9710144927535,1376.0,1500
11.706390142440796,535,155,112,0.002403846153846154,1499.5,1498.076923076923,1376.0,1500
11.728630065917969,536,156,113,0.002564102564102564,1499.6,1501.2820512820513,1374.0,1500
11.75085997581482,537,156,113,0.002403846153846154,1499.6,1498.076923076923,1374.0,1500
11.773069143295288,538,156,114,0.002564102564102564,1499.6,1501.2820512820513,1372.0,1500
11.795307159423828,539,158,114,0.002840909090909091,1499.8,1506.8181818181818,1372.0,1500
11.817519187927246,540,157,114,0.0025,1499.7,1500.0,1372.0,1500
11.839702129364014,541,157,114,0.002564102564102564,1499.7,1501.2820512820513,1372.0,1500
11.862035036087036,542,159,114,0.0030303030303030303,1499.9,1510.6060606060605,1372.0,1500
11.884283065795898,543,158,114,0.002564102564102564,1499.8,1501.2820512820513,1372.0,1500
11.906522989273071,544,159,113,0.002403846153846154,1499.9,1498.076923076923,1374.0,1500
11.928763151168823,545,161,114,0.0030303030303030303,1500.1,1510.6060606060605,1372.0,1500
11.950993061065674,546,160,114,0.002564102564102564,1500.0,1501.2820512820513,1372.0,1500
11.97322416305542,547,162,114,0.0030303030303030303,1500.2,1510.6060606060605,1372.0,1500
11.995450973510742,548,161,114,0.002403846153846154,1500.1,1498.076923076923,1372.0,1500
12.017652988433838,549,163,114,0.0030303030303030303,1500.3,1510.6060606060605,1372.0,1500
12.039865016937256,550,162,114,0.002564102564102564,1500.2,1501.2820512820513,1372.0,1500
12.062160015106201,551,162,114,0.002564102564102564,1500.2,1501.2820512820513,1372.0,1500
12.08442211151123,552,164,114,0.002898550724637681,1500.4,1507.9710144927535,1372.0,1500
12.106679201126099,553,162,114,0.002564102564102564,1500.2,1501.2820512820513,1372.0,1500
12.12891697883606,554,162,113,0.002564102564102564,1500.2,1501.2820512820513,1374.0,1500
12.151190042495728,555,162,113,0.002564102564102564,1500.2,1501.2820512820513,1374.0,1500
12.173434972763062,556,163,112,0.0030303030303030303,1500.3,1510.6060606060605,1376.0,1500
12.195651054382324,557,163,112,0.0030303030303030303,1500.3,1510.6060606060605,1376.0,1500
12.217858076095581,558,161,112,0.002564102564102564,1500.1,1501.2820512820513,1376.0,1500
12.240092992782593,559,160,112,0.002564102564102564,1500.0,1501.2820512820513,1376.0,1500
12.262476205825806,560,161,112,0.0030303030303030303,1500.1,1510.6060606060605,1376.0,1500
12.284754037857056,561,159,112,0.002564102564102564,1499.9,1501.2820512820513,1376.0,1500
12.306988000869751,562,160,112,0.0030303030303030303,1500.0,1510.6060606060605,1376.0,1500
12.329224109649658,563,160,111,0.0030303030303030303,1500.0,1510.6060606060605,1378.0,1500
12.351430177688599,564,158,111,0.002564102564102564,1499.8,1501.2820512820513,1378.0,1500
12.373650074005127,565,158,110,0.002403846153846154,1499.8,1498.076923076923,1380.0,1500
12.39588212966919,566,158,110,0.002564102564102564,1499.8,1501.2820512820513,1380.0,1500
12.418091058731079,567,158,110,0.002564102564102564,1499.8,1501.2820512820513,1380.0,1500
12.440315008163452,568,160,109,0.0030303030303030303,1500.0,1510.6060606060605,1382.0,1500
12.462956190109253,569,159,108,0.002564102564102564,1499.9,1501.2820512820513,1384.0,1500
12.485238075256348,570,162,108,0.002898550724637681,1500.2,1507.9710144927535,1384.0,1500
12.507466077804565,571,161,107,0.0024691358024691358,1500.1,1499.3827160493827,1386.0,1500
12.529684066772461,572,162,107,0.0030303030303030303,1500.2,1510.6060606060605,1386.0,1500
12.552009105682373,573,163,107,0.002898550724637681,1500.3,1507.9710144927535,1386.0,1500
12.574258089065552,574,161,107,0.002564102564102564,1500.1,1501.2820512820513,1386.0,1500
12.59656810760498,575,162,107,0.0023148148148148147,1500.2,1496.2962962962963,1386.0,1500
12.618802070617676,576,161,107,0.002403846153846154,1500.1,1498.076923076923,1386.0,1500
12.641005039215088,577,163,107,0.0030303030303030303,1500.3,1510.6060606060605,1386.0,1500
12.66322112083435,578,163,107,0.0030303030303030303,1500.3,1510.6060606060605,1386.0,1500
12.685456991195679,579,163,107,0.0030303030303030303,1500.3,1510.6060606060605,1386.0,1500
12.70768404006958,580,162,107,0.0026666666666666666,1500.2,1503.3333333333333,1386.0,1500
12.72989010810852,581,162,107,0.002564102564102564,1500.2,1501.2820512820513,1386.0,1500
12.752233028411865,582,162,106,0.002403846153846154,1500.2,1498.076923076923,1388.0,1500
12.774463176727295,583,162,107,0.002564102564102564,1500.2,1501.2820512820513,1386.0,1500
12.7967050075531,584,163,107,0.0026666666666666666,1500.3,1503.3333333333333,1386.0,1500
12.818928003311157,585,164,106,0.002840909090909091,1500.4,1506.8181818181818,1388.0,1500
12.841149091720581,586,163,106,0.002403846153846154,1500.3,1498.076923076923,1388.0,1500
12.86338210105896,587,165,107,0.0030303030303030303,1500.5,1510.6060606060605,1386.0,1500
12.885609149932861,588,165,106,0.002840909090909091,1500.5,1506.8181818181818,1388.0,1500
12.907817125320435,589,164,106,0.002403846153846154,1500.4,1498.076923076923,1388.0,1500
12.930046081542969,590,164,107,0.002564102564102564,1500.4,1501.2820512820513,1386.0,1500
12.952402114868164,591,166,106,0.002840909090909091,1500.6,1506.8181818181818,1388.0,1500
12.974685192108154,592,166,106,0.0030303030303030303,1500.6,1510.6060606060605,1388.0,1500
12.996986150741577,593,166,105,0.002840909090909091,1500.6,1506.8181818181818,1390.0,1500
13.019225120544434,594,165,105,0.002564102564102564,1500.5,1501.2820512820513,1390.0,1500
13.041443109512329,595,165,105,0.002564102564102564,1500.5,1501.2820512820513,1390.0,1500
13.06369400024414,596,165,105,0.002564102564102564,1500.5,1501.2820512820513,1390.0,1500
13.08594298362732,597,165,104,0.002403846153846154,1500.5,1498.076923076923,1392.0,1500
13.108168125152588,598,165,104,0.002564102564102564,1500.5,1501.2820512820513,1392.0,1500
13.130451202392578,599,165,104,0.002403846153846154,1500.5,1498.076923076923,1392.0,1500
13.152811050415039,600,165,104,0.002564102564102564,1500.5,1501.2820512820513,1392.0,1500
13.175053119659424,601,167,104,0.002840909090909091,1500.7,1506.8181818181818,1392.0,1500
13.19728398323059,602,167,104,0.002840909090909091,1500.7,1506.8181818181818,1392.0,1500
13.219494104385376,603,167,104,0.002840909090909091,1500.7,1506.8181818181818,1392.0,1500
13.241698980331421,604,168,104,0.002898550724637681,1500.8,1507.9710144927535,1392.0,1500
13.263921022415161,605,166,104,0.002564102564102564,1500.6,1501.2820512820513,1392.0,1500
13.28619909286499,606,168,103,0.002717391304347826,1500.8,1504.3478260869565,1394.0,1500
13.308436155319214,607,168,104,0.0030303030303030303,1500.8,1510.6060606060605,1392.0,1500
13.330672979354858,608,168,104,0.0030303030303030303,1500.8,1510.6060606060605,1392.0,1500
13.35290813446045,609,168,104,0.0030303030303030303,1500.8,1510.6060606060605,1392.0,1500
13.375131130218506,610,168,105,0.0030303030303030303,1500.8,1510.6060606060605,1390.0,1500
13.397356986999512,611,166,105,0.002564102564102564,1500.6,1501.2820512820513,1390.0,1500
13.419574975967407,612,166,105,0.002564102564102564,1500.6,1501.2820512820513,1390.0,1500
13.441892147064209,613,168,105,0.002898550724637681,1500.8,1507.9710144927535,1390.0,1500
13.46446704864502,614,167,105,0.0030303030303030303,1500.7,1510.6060606060605,1390.0,1500
13.486767053604126,615,166,105,0.0026666666666666666,1500.6,1503.3333333333333,1390.0,1500
13.508999109268188,616,166,104,0.002840909090909091,1500.6,1506.8181818181818,1392.0,1500
13.531224012374878,617,166,104,0.002840909090909091,1500.6,1506.8181818181818,1392.0,1500
13.553426027297974,618,166,104,0.002840909090909091,1500.6,1506.8181818181818,1392.0,1500
13.575628995895386,619,164,104,0.002403846153846154,1500.4,1498.076923076923,1392.0,1500
13.59786319732666,620,164,104,0.002403846153846154,1500.4,1498.076923076923,1392.0,1500
13.62007212638855,621,165,105,0.0030303030303030303,1500.5,1510.6060606060605,1390.0,1500
13.642431020736694,622,165,105,0.0030303030303030303,1500.5,1510.6060606060605,1390.0,1500
13.664666175842285,623,165,105,0.0030303030303030303,1500.5,1510.6060606060605,1390.0,1500
13.686915159225464,624,165,105,0.002840909090909091,1500.5,1506.8181818181818,1390.0,1500
13.70912504196167,625,166,105,0.002717391304347826,1500.6,1504.3478260869565,1390.0,1500
13.731359004974365,626,165,106,0.0030303030303030303,1500.5,1510.6060606060605,1388.0,1500
13.753568172454834,627,163,106,0.002564102564102564,1500.3,1501.2820512820513,1388.0,1500
13.775776147842407,628,164,106,0.002840909090909091,1500.4,1506.8181818181818,1388.0,1500
13.798017978668213,629,164,106,0.002898550724637681,1500.4,1507.9710144927535,1388.0,1500
13.820250988006592,630,162,107,0.0030303030303030303,1500.2,1510.6060606060605,1386.0,1500
13.842589139938354,631,161,106,0.002840909090909091,1500.1,1506.8181818181818,1388.0,1500
13.864816188812256,632,160,107,0.0030303030303030303,1500.0,1510.6060606060605,1386.0,1500
13.887041091918945,633,159,107,0.0030303030303030303,1499.9,1510.6060606060605,1386.0,1500
13.90928316116333,634,157,108,0.002564102564102564,1499.7,1501.2820512820513,1384.0,1500
13.93153715133667,635,158,108,0.002840909090909091,1499.8,1506.8181818181818,1384.0,1500
13.953282117843628,636,156,109,0.002564102564102564,1499.6,1501.2820512820513,1382.0,1500
13.9755380153656,637,158,109,0.0030303030303030303,1499.8,1510.6060606060605,1382.0,1500
13.997797012329102,638,158,108,0.0030303030303030303,1499.8,1510.6060606060605,1384.0,1500
14.020028114318848,639,159,107,0.002717391304347826,1499.9,1504.3478260869565,1386.0,1500
14.042391061782837,640,158,107,0.0030303030303030303,1499.8,1510.6060606060605,1386.0,1500
14.06468415260315,641,157,107,0.002564102564102564,1499.7,1501.2820512820513,1386.0,1500
14.086979150772095,642,157,107,0.002564102564102564,1499.7,1501.2820512820513,1386.0,1500
14.109202146530151,643,158,107,0.0030303030303030303,1499.8,1510.6060606060605,1386.0,1500
14.13144302368164,644,158,107,0.0030303030303030303,1499.8,1510.6060606060605,1386.0,1500
14.153711080551147,645,157,107,0.002564102564102564,1499.7,1501.2820512820513,1386.0,1500
14.175940036773682,646,157,107,0.002564102564102564,1499.7,1501.2820512820513,1386.0,1500
14.198189973831177,647,157,107,0.0026666666666666666,1499.7,1503.3333333333333,1386.0,1500
14.220489978790283,648,158,107,0.0030303030303030303,1499.8,1510.6060606060605,1386.0,1500
14.242851972579956,649,158,107,0.0030303030303030303,1499.8,1510.6060606060605,1386.0,1500
14.265161991119385,650,158,107,0.0030303030303030303,1499.8,1510.6060606060605,1386.0,1500
14.287485122680664,651,157,107,0.0025,1499.7,1500.0,1386.0,1500
14.309713125228882,652,158,108,0.0030303030303030303,1499.8,1510.6060606060605,1384.0,1500
14.332131147384644,653,157,108,0.002564102564102564,1499.7,1501.2820512820513,1384.0,1500
14.354453086853027,654,157,108,0.002564102564102564,1499.7,1501.2820512820513,1384.0,1500
14.377571105957031,655,157,108,0.002403846153846154,1499.7,1498.076923076923,1384.0,1500
14.400212049484253,656,157,109,0.002564102564102564,1499.7,1501.2820512820513,1382.0,1500
14.422969102859497,657,157,109,0.002564102564102564,1499.7,1501.2820512820513,1382.0,1500
14.445587158203125,658,157,109,0.002564102564102564,1499.7,1501.2820512820513,1382.0,1500
14.472036123275757,659,159,108,0.002840909090909091,1499.9,1506.8181818181818,1384.0,1500
14.494827032089233,660,160,108,0.002898550724637681,1500.0,1507.9710144927535,1384.0,1500
14.517451047897339,661,160,108,0.0030303030303030303,1500.0,1510.6060606060605,1384.0,1500
14.54004716873169,662,160,108,0.0030303030303030303,1500.0,1510.6060606060605,1384.0,1500
14.563014030456543,663,160,108,0.0024691358024691358,1500.0,1499.3827160493827,1384.0,1500
14.58561897277832,664,160,108,0.002564102564102564,1500.0,1501.2820512820513,1384.0,1500
14.608187198638916,665,160,109,0.002564102564102564,1500.0,1501.2820512820513,1382.0,1500
14.631036043167114,666,162,109,0.0030303030303030303,1500.2,1510.6060606060605,1382.0,1500
14.653613090515137,667,161,108,0.002403846153846154,1500.1,1498.076923076923,1384.0,1500
14.676222085952759,668,161,108,0.002564102564102564,1500.1,1501.2820512820513,1384.0,1500
14.69883108139038,669,161,108,0.002564102564102564,1500.1,1501.2820512820513,1384.0,1500
14.721668004989624,670,162,108,0.0024691358024691358,1500.2,1499.3827160493827,1384.0,1500
14.74425220489502,671,161,108,0.002564102564102564,1500.1,1501.2820512820513,1384.0,1500
14.766836166381836,672,161,108,0.002564102564102564,1500.1,1501.2820512820513,1384.0,1500
14.789437055587769,673,161,107,0.002403846153846154,1500.1,1498.076923076923,1386.0,1500
14.812363147735596,674,161,108,0.002564102564102564,1500.1,1501.2820512820513,1384.0,1500
14.834936141967773,675,161,108,0.002564102564102564,1500.1,1501.2820512820513,1384.0,1500
14.857523202896118,676,163,108,0.0030303030303030303,1500.3,1510.6060606060605,1384.0,1500
14.880114078521729,677,164,107,0.002717391304347826,1500.4,1504.3478260869565,1386.0,1500
14.902798175811768,678,162,107,0.002403846153846154,1500.2,1498.076923076923,1386.0,1500
14.92509412765503,679,164,107,0.002840909090909091,1500.4,1506.8181818181818,1386.0,1500
14.947347164154053,680,163,107,0.002403846153846154,1500.3,1498.076923076923,1386.0,1500
14.969573974609375,681,163,108,0.002564102564102564,1500.3,1501.2820512820513,1384.0,1500
14.991912126541138,682,163,108,0.002564102564102564,1500.3,1501.2820512820513,1384.0,1500
15.014139175415039,683,166,108,0.002898550724637681,1500.6,1507.9710144927535,1384.0,1500
15.036346197128296,684,164,108,0.0025,1500.4,1500.0,1384.0,1500
15.058560132980347,685,165,108,0.002840909090909091,1500.5,1506.8181818181818,1384.0,1500
15.080855131149292,686,165,108,0.002840909090909091,1500.5,1506.8181818181818,1384.0,1500
15.103101015090942,687,164,109,0.002564102564102564,1500.4,1501.2820512820513,1382.0,1500
