time,x,y,size_inv,roll,pitch,thrust,yaw
0.0005970001220703125,174,65,0.004048582995951417,1520,1498.0,1343.4000000000001,1514.0
0.022843122482299805,174,65,0.004048582995951417,1520,1498.0,1344.8,1514.0
0.04463315010070801,174,65,0.0043859649122807015,1520,1498.0,1346.2,1514.0
0.06636500358581543,174,65,0.004048582995951417,1520,1498.0,1347.5999999999999,1514.0
0.08797121047973633,174,65,0.004048582995951417,1520,1498.0,1349.0,1514.0
0.10944509506225586,174,64,0.0037593984962406013,1520,1498.0,1350,1514.0
0.1308741569519043,174,65,0.0038461538461538464,1520,1498.0,1350,1514.0
0.15251898765563965,174,64,0.0037593984962406013,1520,1498.0,1350,1514.0
0.1743149757385254,174,64,0.0035714285714285713,1520,1498.0,1350,1514.0
0.19606399536132812,174,64,0.0035087719298245615,1520,1498.0,1350,1514.0
0.2179410457611084,175,65,0.003663003663003663,1520,1498.0,1350,1515.0
0.23998212814331055,174,65,0.004048582995951417,1520,1498.0,1350,1514.0
0.2620561122894287,175,62,0.0026455026455026454,1520,1498.0,1350,1515.0
0.28414201736450195,173,65,0.004166666666666667,1520,1498.0,1350,1513.0
0.3061830997467041,173,64,0.0037593984962406013,1520,1498.0,1350,1513.0
0.3282461166381836,171,64,0.0035714285714285713,1520,1498.0,1350,1511.0
0.35028600692749023,170,64,0.004166666666666667,1520,1498.0,1350,1510.0
0.37233400344848633,169,63,0.004784688995215311,1520,1498.0,1350,1509.0
0.39438605308532715,167,62,0.004784688995215311,1520,1498.0,1350,1507.0
0.4164431095123291,165,61,0.0043859649122807015,1520,1498.0,1350,1505.0
0.4384951591491699,163,61,0.0043859649122807015,1520,1498.0,1350,1503.0
0.4605371952056885,161,63,0.004048582995951417,1520,1498.0,1350,1501.0
0.4825780391693115,158,66,0.004048582995951417,1520,1498.0,1350,1498.0
0.5046250820159912,156,67,0.0038461538461538464,1520,1498.0,1350,1496.0
0.5266780853271484,155,67,0.0037593984962406013,1520,1498.0,1340.0799999999999,1495.0
0.5488090515136719,154,69,0.004784688995215311,1506.0,1498.0,1322.0799999999999,1494.0
0.5709590911865234,153,69,0.004784688995215311,1487.0,1498.0,1312.0799999999999,1493.0
0.5930972099304199,152,68,0.004048582995951417,1480,1498.0,1314.48,1492.0
0.6152060031890869,152,69,0.004048582995951417,1480,1498.0,1317.2,1492.0
0.6375410556793213,152,70,0.004784688995215311,1480,1498.0,1319.8399999999999,1492.0
0.6600639820098877,152,69,0.0033333333333333335,1480,1498.0,1331.9200000000001,1492.0
0.6823971271514893,152,72,0.004048582995951417,1480,1498.0,1332.1600000000001,1492.0
0.7047340869903564,152,73,0.004048582995951417,1480,1498.0,1326.48,1492.0
0.727092981338501,152,74,0.0038461538461538464,1480,1498.0,1320.8,1492.0
0.7494151592254639,152,74,0.0033333333333333335,1480,1498.0,1319.1199999999999,1492.0
0.7719361782073975,153,76,0.004048582995951417,1480,1498.0,1306.6400000000001,1493.0
0.794309139251709,153,74,0.0029239766081871343,1480,1498.0,1310.24,1493.0
0.8166460990905762,153,77,0.0035714285714285713,1480,1498.0,1307.6800000000001,1493.0
0.8389949798583984,153,78,0.0035714285714285713,1480,1498.0,1307.52,1493.0
0.8613309860229492,153,79,0.0043859649122807015,1480,1498.0,1304.5599999999999,1493.0
0.8839280605316162,154,80,0.003401360544217687,1480,1498.0,1307.1199999999999,1494.0
0.9062600135803223,154,80,0.003401360544217687,1480,1498.0,1301.2,1494.0
0.928624153137207,154,82,0.004048582995951417,1480,1498.0,1297.04,1494.0
0.9509661197662354,154,81,0.003289473684210526,1480,1498.0,1299.3599999999999,1494.0
0.9734501838684082,154,84,0.0038461538461538464,1480,1498.0,1295.3599999999999,1494.0
0.9957871437072754,154,84,0.0033333333333333335,1480,1498.0,1295.04,1494.0
1.0181291103363037,154,85,0.004048582995951417,1480,1498.0,1294.8,1494.0
1.0404551029205322,154,85,0.0035714285714285713,1480,1498.0,1297.28,1494.0
1.0629401206970215,154,85,0.0035714285714285713,1480,1498.0,1295.5999999999999,1494.0
1.0852642059326172,154,86,0.0035714285714285713,1480,1498.0,1298.3199999999999,1494.0
1.1076040267944336,154,86,0.0035714285714285713,1480,1498.0,1300.8800000000001,1494.0
1.129930019378662,155,86,0.003401360544217687,1480,1498.0,1306.24,1495.0
1.152623176574707,155,86,0.0037593984962406013,1480,1498.0,1308.8800000000001,1495.0
1.1749730110168457,155,87,0.004048582995951417,1480,1498.0,1310.24,1495.0
1.1973249912261963,155,86,0.0035714285714285713,1480,1498.0,1314.1600000000001,1495.0
1.2196731567382812,155,87,0.0035714285714285713,1480,1498.0,1314.24,1495.0
1.2421901226043701,155,87,0.0035714285714285713,1480,1498.0,1314.1600000000001,1495.0
1.2645771503448486,155,88,0.0038461538461538464,1480,1498.0,1311.4400000000001,1495.0
1.286926031112671,155,88,0.0035714285714285713,1480,1498.0,1312.72,1495.0
1.3092741966247559,155,88,0.0037593984962406013,1480,1498.0,1309.8399999999999,1495.0
1.3318231105804443,155,88,0.0037593984962406013,1480,1498.0,1309.76,1495.0
1.3542180061340332,154,88,0.0035714285714285713,1480,1498.0,1309.6800000000001,1494.0
1.376574993133545,154,88,0.0035714285714285713,1480,1498.0,1312.4000000000001,1494.0
1.3989391326904297,154,88,0.0037593984962406013,1480,1498.0,1313.76,1494.0
1.4212770462036133,154,88,0.0035714285714285713,1480,1498.0,1316.48,1494.0
1.4438371658325195,155,88,0.0035714285714285713,1480,1498.0,1317.8399999999999,1495.0
1.4661860466003418,155,88,0.0037593984962406013,1480,1498.0,1319.2,1495.0
1.4885101318359375,155,88,0.0035714285714285713,1480,1498.0,1319.2,1495.0
1.5108389854431152,155,88,0.0037593984962406013,1480,1498.0,1319.2,1495.0
1.5333189964294434,155,88,0.0035714285714285713,1480,1498.0,1319.2,1495.0
1.555678129196167,155,89,0.0038461538461538464,1480,1498.0,1316.5599999999999,1495.0
1.5780141353607178,156,88,0.003401360544217687,1480,1498.0,1317.76,1496.0
1.6003329753875732,156,88,0.0037593984962406013,1480,1498.0,1317.76,1496.0
1.6228091716766357,157,88,0.0031746031746031746,1480,1498.0,1317.76,1497.0
1.6451821327209473,157,88,0.0031746031746031746,1480,1498.0,1317.76,1497.0
1.6676721572875977,156,87,0.0035714285714285713,1480,1498.0,1323.2,1496.0
1.690007209777832,156,87,0.0037593984962406013,1480,1498.0,1324.6400000000001,1496.0
1.712557077407837,156,87,0.0035714285714285713,1480,1498.0,1326.0799999999999,1496.0
1.735077142715454,156,87,0.0035714285714285713,1480,1498.0,1327.52,1496.0
1.757436990737915,157,87,0.0033333333333333335,1480,1498.0,1328.96,1497.0
1.7799410820007324,158,87,0.0031746031746031746,1480,1498.0,1326.24,1498.0
1.8024401664733887,158,87,0.003401360544217687,1480,1498.0,1324.8800000000001,1498.0
1.8247671127319336,157,87,0.0033333333333333335,1480,1498.0,1323.52,1497.0
1.8471081256866455,157,87,0.0037593984962406013,1480,1498.0,1322.1600000000001,1497.0
1.8694322109222412,158,87,0.0031746031746031746,1480,1498.0,1320.8,1498.0
1.8917880058288574,159,86,0.003401360544217687,1480,1498.0,1323.4400000000001,1499.0
1.9141631126403809,159,86,0.0031746031746031746,1480,1498.0,1324.8800000000001,1499.0
1.9364981651306152,159,85,0.0031746031746031746,1480,1498.0,1328.96,1499.0
1.958846092224121,158,85,0.0033333333333333335,1480,1498.0,1331.8399999999999,1498.0
1.9811770915985107,159,85,0.0030303030303030303,1480.0,1498.0,1334.72,1499.0
2.0037810802459717,160,84,0.0031746031746031746,1484.0,1498.0,1337.4400000000001,1500.0
2.0261521339416504,160,84,0.0030303030303030303,1486.0,1498.0,1338.96,1500.0
2.0486021041870117,160,83,0.003246753246753247,1489.0,1498.0,1340.3199999999999,1500.0
2.071329116821289,160,83,0.003246753246753247,1492.0,1498.0,1340.48,1500.0
2.093762159347534,160,83,0.0030303030303030303,1494.0,1498.0,1340.6400000000001,1500.0
2.116136074066162,160,83,0.0030303030303030303,1495.0,1498.0,1339.3599999999999,1500.0
2.1385200023651123,161,82,0.0031746031746031746,1499.0,1498.0,1340.72,1501.0
2.1608850955963135,161,82,0.0031746031746031746,1501.0,1498.0,1339.4400000000001,1501.0
2.1833951473236084,161,81,0.003401360544217687,1504.0,1498.0,1340.8,1501.0
2.2057931423187256,161,81,0.0031746031746031746,1506.0,1498.0,1340.96,1501.0
2.2281811237335205,161,81,0.0030303030303030303,1507.0,1498.0,1342.48,1501.0
2.250718116760254,161,81,0.0030303030303030303,1508.0,1498.0,1341.2,1501.0
2.2730979919433594,161,81,0.0030303030303030303,1509.0,1498.0,1341.28,1501.0
2.295680046081543,161,80,0.003246753246753247,1510.0,1498.0,1341.2,1501.0
2.318101167678833,161,80,0.0030303030303030303,1511.0,1498.0,1339.9200000000001,1501.0
2.3404781818389893,161,80,0.0030303030303030303,1512.0,1498.0,1338.6400000000001,1501.0
2.363020181655884,161,79,0.003246753246753247,1512.0,1498.0,1341.3599999999999,1501.0
2.385402202606201,162,79,0.0031746031746031746,1515.0,1498.0,1342.8800000000001,1502.0
2.4077701568603516,162,78,0.003246753246753247,1516.0,1498.0,1345.5999999999999,1502.0
2.430307149887085,162,78,0.003246753246753247,1517.0,1498.0,1347.1199999999999,1502.0
2.452697992324829,162,78,0.003246753246753247,1518.0,1498.0,1348.6400000000001,1502.0
2.475088119506836,162,78,0.003246753246753247,1519.0,1498.0,1347.3599999999999,1502.0
2.4975101947784424,162,78,0.003246753246753247,1520.0,1498.0,1346.0799999999999,1502.0
2.519906997680664,162,79,0.0030303030303030303,1520,1498.0,1340.72,1502.0
2.5423781871795654,162,79,0.0030303030303030303,1520,1498.0,1336.5599999999999,1502.0
2.564704179763794,162,79,0.003246753246753247,1520,1498.0,1332.4000000000001,1502.0
2.587067127227783,162,79,0.0030303030303030303,1520,1498.0,1329.5999999999999,1502.0
2.6095731258392334,162,78,0.003246753246753247,1520,1498.0,1329.4400000000001,1502.0
2.632143020629883,162,78,0.003246753246753247,1520,1498.0,1332.24,1502.0
2.6545300483703613,162,78,0.003246753246753247,1520,1498.0,1335.04,1502.0
2.6768710613250732,162,77,0.003246753246753247,1520,1498.0,1340.48,1502.0
2.6992101669311523,163,77,0.003105590062111801,1520,1498.0,1344.72,1503.0
2.7217230796813965,162,77,0.003246753246753247,1520,1498.0,1346.1600000000001,1502.0
2.744091033935547,162,76,0.003246753246753247,1520,1498.0,1348.8800000000001,1502.0
2.766456127166748,162,77,0.0030303030303030303,1520,1498.0,1347.76,1502.0
2.7887821197509766,162,77,0.0030303030303030303,1520,1498.0,1345.04,1502.0
2.8110949993133545,162,76,0.003246753246753247,1520,1498.0,1344.96,1502.0
2.8336410522460938,162,76,0.003246753246753247,1520,1498.0,1345.04,1502.0
2.8559730052948,162,76,0.003246753246753247,1520,1498.0,1342.3199999999999,1502.0
2.8783230781555176,163,77,0.0033444816053511705,1520,1498.0,1339.76,1503.0
2.9006381034851074,162,77,0.0033444816053511705,1520,1498.0,1339.76,1502.0
2.923117160797119,162,75,0.002898550724637681,1520,1498.0,1342.24,1502.0
2.9454660415649414,162,75,0.002976190476190476,1520,1498.0,1342.3199999999999,1502.0
2.9678220748901367,162,74,0.002898550724637681,1520,1498.0,1346.4000000000001,1502.0
2.990140199661255,162,74,0.002976190476190476,1520,1498.0,1350,1502.0
3.012580156326294,162,73,0.003105590062111801,1520,1498.0,1350,1502.0
3.0348610877990723,162,73,0.003105590062111801,1520,1498.0,1350,1502.0
3.057129144668579,161,73,0.002777777777777778,1520,1498.0,1350,1501.0
3.079308032989502,161,72,0.002976190476190476,1520,1498.0,1350,1501.0
3.10128116607666,161,73,0.0033444816053511705,1519.0,1498.0,1350,1501.0
3.1233370304107666,161,72,0.003105590062111801,1518.0,1498.0,1350,1501.0
3.1453311443328857,160,72,0.002976190476190476,1514.0,1498.0,1350,1500.0
3.1672470569610596,160,72,0.003105590062111801,1512.0,1498.0,1350,1500.0
3.189164161682129,160,71,0.003105590062111801,1510.0,1498.0,1350,1500.0
3.211132049560547,160,71,0.003105590062111801,1508.0,1498.0,1350,1500.0
3.2330501079559326,159,70,0.002976190476190476,1503.0,1498.0,1350,1499.0
3.2550342082977295,160,70,0.0026666666666666666,1503.0,1498.0,1350,1500.0
3.276944160461426,159,70,0.003205128205128205,1499.0,1498.0,1350,1499.0
3.29888916015625,159,68,0.002898550724637681,1497.0,1498.0,1350,1499.0
3.3207881450653076,159,67,0.003105590062111801,1495.0,1498.0,1350,1499.0
3.342764139175415,159,66,0.002717391304347826,1493.0,1498.0,1350,1499.0
3.36468505859375,159,66,0.003105590062111801,1492.0,1498.0,1350,1499.0
3.3866090774536133,159,65,0.0026041666666666665,1491.0,1498.0,1350,1499.0
3.4085280895233154,159,65,0.002976190476190476,1490.0,1498.0,1350,1499.0
3.4304370880126953,159,65,0.002898550724637681,1489.0,1498.0,1350,1499.0
3.4526071548461914,159,64,0.0026041666666666665,1489.0,1498.0,1350,1499.0
3.474551200866699,159,64,0.002717391304347826,1488.0,1498.0,1350,1499.0
3.4963431358337402,159,65,0.0033444816053511705,1488.0,1498.0,1350,1499.0
3.5181140899658203,159,64,0.002898550724637681,1488.0,1498.0,1350,1499.0
3.539896011352539,159,64,0.002898550724637681,1488.0,1498.0,1350,1499.0
3.561699151992798,158,63,0.0023148148148148147,1485.0,1498.0,1350,1498.0
3.583515167236328,158,65,0.002777777777777778,1484.0,1498.0,1350,1498.0
3.605762004852295,158,65,0.002976190476190476,1483.0,1498.0,1350,1498.0
3.629014015197754,158,65,0.002777777777777778,1482.0,1498.0,1350,1498.0
3.6522650718688965,158,60,0.0018115942028985507,1481.0,1498.0,1350,1498.0
3.6755239963531494,159,64,0.0022624434389140274,1483.0,1498.0,1350,1499.0
3.6987290382385254,159,65,0.002564102564102564,1483.0,1498.0,1350,1499.0
3.721982002258301,159,64,0.002403846153846154,1483.0,1498.0,1350,1499.0
3.745272159576416,159,65,0.0027472527472527475,1483.0,1498.0,1350,1499.0
3.768482208251953,159,65,0.0027472527472527475,1483.0,1498.0,1349.3599999999999,1499.0
3.7918381690979004,159,64,0.002136752136752137,1484.0,1498.0,1350,1499.0
3.8151261806488037,159,66,0.0022624434389140274,1485.0,1498.0,1348.0799999999999,1499.0
3.838414192199707,159,65,0.002136752136752137,1486.0,1498.0,1346.48,1499.0
3.8617210388183594,159,64,0.0019230769230769232,1487.0,1498.0,1349.1199999999999,1499.0
3.8850831985473633,159,65,0.002105263157894737,1488.0,1498.0,1350,1499.0
3.908306121826172,159,67,0.002352941176470588,1488.0,1498.0,1348.0,1499.0
3.93159818649292,158,66,0.002136752136752137,1485.0,1498.0,1350,1498.0
3.954916000366211,158,65,0.0019230769230769232,1484.0,1498.0,1350,1498.0
3.978126049041748,159,65,0.001851851851851852,1486.0,1498.0,1350,1499.0
4.001347064971924,159,67,0.00205761316872428,1486.0,1498.0,1345.04,1499.0
4.02491021156311,158,68,0.0022624434389140274,1483.0,1498.0,1346.48,1498.0
4.048230171203613,158,68,0.002136752136752137,1482.0,1498.0,1343.5999999999999,1498.0
4.071552991867065,158,68,0.0019230769230769232,1481.0,1498.0,1339.28,1498.0
4.094963073730469,158,69,0.001949317738791423,1480.0,1498.0,1333.6800000000001,1498.0
4.1182451248168945,158,69,0.002136752136752137,1480,1498.0,1333.52,1498.0
4.141456127166748,158,70,0.002136752136752137,1480,1498.0,1330.8,1498.0
4.164786100387573,158,71,0.0022624434389140274,1480,1498.0,1328.0,1498.0
4.187992095947266,159,71,0.00205761316872428,1481.0,1498.0,1327.76,1499.0
4.211259126663208,159,72,0.002178649237472767,1481.0,1498.0,1327.6800000000001,1499.0
4.2347071170806885,159,72,0.001949317738791423,1481.0,1498.0,1326.0799999999999,1499.0
4.258001089096069,159,72,0.00205761316872428,1482.0,1498.0,1325.9200000000001,1499.0
4.281275033950806,159,72,0.00205761316872428,1483.0,1498.0,1328.5599999999999,1499.0
4.304725170135498,159,73,0.0021008403361344537,1484.0,1498.0,1328.5599999999999,1499.0
4.328067064285278,159,73,0.0021008403361344537,1485.0,1498.0,1331.2,1499.0
4.351348161697388,160,73,0.00205761316872428,1489.0,1498.0,1333.8399999999999,1500.0
4.374762058258057,160,73,0.00205761316872428,1491.0,1498.0,1335.1199999999999,1500.0
4.398087978363037,160,73,0.00205761316872428,1493.0,1498.0,1335.04,1500.0
4.42136812210083,160,74,0.00205761316872428,1494.0,1498.0,1335.1199999999999,1500.0
4.44478702545166,160,74,0.00205761316872428,1495.0,1498.0,1335.04,1500.0
4.4680750370025635,160,74,0.001949317738791423,1496.0,1498.0,1334.96,1500.0
4.49136209487915,160,75,0.0018796992481203006,1497.0,1498.0,1332.24,1500.0
4.514816999435425,160,75,0.00205761316872428,1498.0,1498.0,1330.72,1500.0
4.538119077682495,160,75,0.00205761316872428,1499.0,1498.0,1330.6400000000001,1500.0
4.5614001750946045,160,75,0.00205761316872428,1500.0,1498.0,1330.5599999999999,1500.0
4.584822177886963,160,76,0.001949317738791423,1500.0,1498.0,1327.8399999999999,1500.0
4.6081390380859375,160,75,0.00205761316872428,1500.0,1498.0,1331.76,1500.0
4.631463050842285,160,75,0.001984126984126984,1500.0,1498.0,1334.48,1500.0
4.654879093170166,160,72,0.0014814814814814814,1500.0,1498.0,1343.76,1500.0
4.678455114364624,160,75,0.0018796992481203006,1500.0,1498.0,1341.52,1500.0
4.701881170272827,161,75,0.001949317738791423,1503.0,1498.0,1345.6800000000001,1501.0
4.725320100784302,162,73,0.001379310344827586,1507.0,1498.0,1350,1502.0
4.748539209365845,161,75,0.0017241379310344827,1506.0,1498.0,1348.5599999999999,1501.0
4.771900177001953,161,74,0.0014285714285714286,1507.0,1498.0,1342.8,1501.0
4.795295000076294,161,76,0.0017857142857142857,1508.0,1498.0,1338.96,1501.0
4.818600177764893,162,75,0.0015151515151515152,1512.0,1498.0,1338.8,1502.0
4.841994047164917,162,78,0.0017543859649122807,1514.0,1498.0,1325.28,1502.0
4.865378141403198,163,74,0.0011947431302270011,1519.0,1498.0,1331.52,1503.0
4.888695001602173,162,77,0.0016666666666666668,1519.0,1498.0,1326.3199999999999,1502.0
4.912029027938843,163,75,0.0012903225806451613,1520,1498.0,1331.52,1503.0
4.935309171676636,163,76,0.0013440860215053765,1520,1498.0,1328.8800000000001,1503.0
4.958523988723755,162,76,0.0013333333333333333,1520,1498.0,1338.5599999999999,1502.0
4.981792211532593,163,75,0.0013440860215053765,1520,1498.0,1336.96,1503.0
5.005084991455078,162,76,0.0014492753623188406,1520,1498.0,1341.28,1502.0
5.028318166732788,162,78,0.0017543859649122807,1520,1498.0,1333.2,1502.0
5.051516056060791,162,75,0.0013333333333333333,1520,1498.0,1339.5999999999999,1502.0
5.074862003326416,162,77,0.0014492753623188406,1520,1498.0,1333.04,1502.0
5.098088979721069,163,79,0.001697792869269949,1520,1498.0,1326.24,1503.0
5.121309995651245,163,77,0.001358695652173913,1520,1498.0,1325.8399999999999,1503.0
5.14467716217041,162,79,0.001851851851851852,1520,1498.0,1326.0799999999999,1502.0
5.16790509223938,163,78,0.0015151515151515152,1520,1498.0,1321.5999999999999,1503.0
5.191110134124756,162,78,0.0015360983102918587,1520,1498.0,1321.52,1502.0
5.2144410610198975,162,76,0.001402524544179523,1520,1498.0,1333.6800000000001,1502.0
5.237655162811279,162,76,0.0013440860215053765,1520,1498.0,1336.48,1502.0
5.2608420848846436,161,76,0.001358695652173913,1520,1498.0,1342.1600000000001,1501.0
5.2840352058410645,161,78,0.001488095238095238,1520,1498.0,1343.8399999999999,1501.0
5.307228088378906,161,76,0.0013020833333333333,1520,1498.0,1350,1501.0
5.330389976501465,161,76,0.001466275659824047,1520.0,1498.0,1346.4000000000001,1501.0
5.353694200515747,161,77,0.0014204545454545455,1518.0,1498.0,1342.4000000000001,1501.0
5.37701416015625,160,78,0.001358695652173913,1514.0,1498.0,1334.24,1500.0
5.400334119796753,160,77,0.0014204545454545455,1511.0,1498.0,1336.8800000000001,1500.0
5.4236650466918945,160,77,0.001466275659824047,1509.0,1498.0,1332.72,1500.0
5.446969032287598,160,77,0.0013440860215053765,1507.0,1498.0,1331.28,1500.0
5.470264196395874,160,78,0.001443001443001443,1505.0,1498.0,1330.0,1500.0
5.493530988693237,160,78,0.0013440860215053765,1504.0,1498.0,1332.72,1500.0
5.5168211460113525,159,77,0.0014204545454545455,1500.0,1498.0,1332.5599999999999,1499.0
5.540126085281372,160,77,0.0012787723785166241,1501.0,1498.0,1333.9200000000001,1500.0
5.563421010971069,159,78,0.001402524544179523,1497.0,1498.0,1332.6400000000001,1499.0
5.586716175079346,160,77,0.0014005602240896359,1498.0,1498.0,1336.6400000000001,1500.0
5.610014200210571,160,77,0.0012787723785166241,1498.0,1498.0,1338.0799999999999,1500.0
5.633361101150513,160,77,0.0012254901960784314,1498.0,1498.0,1338.0799999999999,1500.0
5.656658172607422,160,76,0.001336898395721925,1498.0,1498.0,1340.72,1500.0
5.679927110671997,160,76,0.0014285714285714286,1498.0,1498.0,1344.96,1500.0
5.703210115432739,160,76,0.0012987012987012987,1498.0,1498.0,1345.04,1500.0
5.726523160934448,160,76,0.0012987012987012987,1498.0,1498.0,1345.1199999999999,1500.0
5.749814033508301,159,76,0.0012987012987012987,1496.0,1498.0,1346.5599999999999,1499.0
5.773120164871216,159,76,0.0012987012987012987,1495.0,1498.0,1345.2,1499.0
5.796416997909546,159,76,0.0012422360248447205,1495.0,1498.0,1342.48,1499.0
5.819694995880127,159,76,0.0012422360248447205,1494.0,1498.0,1341.1199999999999,1499.0
5.843315124511719,158,76,0.0012422360248447205,1490.0,1498.0,1339.76,1498.0
5.866635084152222,158,76,0.0012422360248447205,1488.0,1498.0,1338.4000000000001,1498.0
5.889940023422241,157,75,0.0012987012987012987,1483.0,1498.0,1341.04,1497.0
5.913244009017944,157,75,0.0012626262626262627,1480.0,1498.0,1342.48,1497.0
5.93652606010437,157,75,0.0012987012987012987,1480,1498.0,1343.9200000000001,1497.0
5.9597320556640625,157,75,0.0012987012987012987,1480,1498.0,1345.3599999999999,1497.0
5.982966184616089,156,76,0.0012077294685990338,1480,1498.0,1344.1600000000001,1496.0
6.00619101524353,156,76,0.0012626262626262627,1480,1498.0,1341.3599999999999,1496.0
6.029428005218506,156,77,0.0012077294685990338,1480,1498.0,1335.9200000000001,1496.0
6.052689075469971,157,77,0.0012285012285012285,1480,1498.0,1331.6800000000001,1497.0
6.075922012329102,157,78,0.0011261261261261261,1480,1498.0,1324.8,1497.0
6.099138975143433,156,79,0.0011441647597254005,1480,1498.0,1319.28,1496.0
6.122421026229858,156,79,0.0010964912280701754,1480,1498.0,1316.3199999999999,1496.0
6.145721197128296,156,79,0.0010964912280701754,1480,1498.0,1316.1600000000001,1496.0
6.168941974639893,157,80,0.0010683760683760685,1480,1498.0,1313.3599999999999,1497.0
6.192216157913208,157,81,0.0010256410256410256,1480,1498.0,1311.9200000000001,1497.0
6.215505123138428,157,82,0.0010256410256410256,1480,1498.0,1310.48,1497.0
6.238716125488281,157,82,0.0009861932938856016,1480,1498.0,1310.24,1497.0
6.26198410987854,157,83,0.0010256410256410256,1480,1498.0,1306.0,1497.0
6.285240173339844,156,83,0.001,1480,1498.0,1305.76,1496.0
6.30842399597168,157,83,0.0009033423667570009,1480,1498.0,1306.96,1497.0
6.331632137298584,157,84,0.000949667616334283,1480,1498.0,1306.96,1497.0
6.35496711730957,157,84,0.0009033423667570009,1480,1498.0,1308.1600000000001,1497.0
6.378190994262695,156,85,0.000925925925925926,1480,1498.0,1309.52,1496.0
6.401401042938232,157,85,0.0008710801393728223,1480,1498.0,1310.72,1497.0
6.424872159957886,155,86,0.0008928571428571428,1480,1498.0,1307.9200000000001,1495.0
6.4481260776519775,155,86,0.0008333333333333334,1480,1498.0,1307.76,1495.0
6.471341133117676,156,88,0.0008210180623973727,1480,1498.0,1302.3199999999999,1496.0
6.49468207359314,157,88,0.0007751937984496124,1480,1498.0,1300.72,1497.0
6.517899990081787,157,89,0.0008019246190858059,1480,1498.0,1296.48,1497.0
6.541115045547485,157,88,0.0007267441860465116,1480,1498.0,1298.8800000000001,1497.0
6.5644659996032715,157,90,0.0007407407407407407,1480,1498.0,1293.4400000000001,1497.0
6.587696075439453,157,91,0.0007836990595611285,1480,1498.0,1293.3599999999999,1497.0
6.610925197601318,157,91,0.0007575757575757576,1480,1498.0,1293.1199999999999,1497.0
6.634167194366455,158,91,0.0007407407407407407,1480,1498.0,1295.6800000000001,1498.0
6.657382011413574,158,92,0.0007407407407407407,1480,1498.0,1291.4400000000001,1498.0
6.6805901527404785,158,92,0.0007407407407407407,1480,1498.0,1294.0,1498.0
6.7037951946258545,158,92,0.0007407407407407407,1480,1498.0,1296.6400000000001,1498.0
6.727042198181152,158,92,0.0007407407407407407,1480,1498.0,1299.28,1498.0
6.750255107879639,158,92,0.0007012622720897616,1480,1498.0,1300.5599999999999,1498.0
6.773471117019653,159,91,0.0006510416666666666,1480,1498.0,1308.6400000000001,1499.0
6.7966930866241455,160,91,0.0006510416666666666,1481.0,1498.0,1312.8,1500.0
6.819987058639526,160,90,0.0006510416666666666,1484.0,1498.0,1318.24,1500.0
6.843276023864746,160,90,0.0006510416666666666,1487.0,1498.0,1322.48,1500.0
6.866562128067017,161,90,0.0006184291898577613,1492.0,1498.0,1326.72,1501.0
6.889864206314087,161,89,0.0006184291898577613,1495.0,1498.0,1329.4400000000001,1501.0
6.913163185119629,161,88,0.0006002400960384153,1498.0,1498.0,1333.5999999999999,1501.0
6.936463117599487,161,88,0.0006060606060606061,1501.0,1498.0,1333.76,1501.0
6.959761142730713,161,86,0.0006060606060606061,1504.0,1498.0,1339.2,1501.0
6.983036994934082,162,85,0.0006377551020408163,1510.0,1498.0,1344.8800000000001,1502.0
7.006332159042358,162,83,0.000625,1513.0,1498.0,1350,1502.0
7.029814004898071,162,83,0.0006451612903225806,1515.0,1498.0,1350,1502.0
7.053039073944092,163,81,0.0005941770647653001,1520.0,1498.0,1350,1503.0
7.076215982437134,163,80,0.0005941770647653001,1520,1498.0,1350,1503.0
7.099332094192505,163,79,0.0006009615384615385,1520,1498.0,1350,1503.0
7.122529029846191,164,77,0.0006203473945409429,1520,1498.0,1350,1504.0
7.145754098892212,164,76,0.0006203473945409429,1520,1498.0,1350,1504.0
7.168878078460693,164,75,0.0006009615384615385,1520,1498.0,1350,1504.0
7.192052125930786,164,74,0.0006009615384615385,1520,1498.0,1350,1504.0
7.215236186981201,164,73,0.0006009615384615385,1520,1498.0,1350,1504.0
7.238351106643677,164,73,0.0006009615384615385,1520,1498.0,1350,1504.0
7.261463165283203,165,72,0.0005717552887364208,1520,1498.0,1350,1505.0
7.284692049026489,165,71,0.0005896226415094339,1520,1498.0,1350,1505.0
7.307866096496582,165,69,0.0005787037037037037,1520,1498.0,1350,1505.0
7.331086158752441,166,68,0.0005509641873278236,1520,1498.0,1350,1506.0
7.3542890548706055,165,67,0.0005509641873278236,1520,1498.0,1350,1505.0
7.377446174621582,165,66,0.0005509641873278236,1520,1498.0,1350,1505.0
7.400588035583496,165,65,0.0005411255411255411,1520,1498.0,1350,1505.0
7.4237260818481445,164,64,0.0005411255411255411,1520,1498.0,1350,1504.0
7.446875095367432,165,63,0.000531632110579479,1520,1498.0,1350,1505.0
7.470000982284546,165,62,0.000531632110579479,1520,1498.0,1350,1505.0
7.493141174316406,164,58,0.00046598322460391424,1520,1498.0,1350,1504.0
7.516316175460815,164,58,0.0005224660397074191,1520,1498.0,1350,1504.0
7.539469003677368,164,57,0.00048426150121065375,1520,1498.0,1350,1504.0
7.562644004821777,164,55,0.0004985044865403788,1520,1498.0,1350,1504.0
