time,frame,x,y,size_inv,roll,pitch,thrust,yaw
0,0,,,,1500.0,1500.0,1250.0,1500
0.05,0,,,,1500.0,1500.0,1250.0,1500
0.1,0,,,,1500.0,1500.0,1250.0,1500
0.15000000000000002,0,,,,1500.0,1500.0,1250.0,1500
0.2,0,,,,1500.0,1500.0,1250.0,1500
0.25,0,,,,1500.0,1500.0,1250.0,1500
0.3,0,,,,1500.0,1500.0,1250.0,1500
0.35,0,,,,1500.0,1500.0,1250.0,1500
0.39999999999999997,0,,,,1500.0,1500.0,1250.0,1500
0.44999999999999996,0,,,,1500.0,1500.0,1250.0,1500
0.49999999999999994,0,,,,1500.0,1500.0,1250.0,1500
0.5499999999999999,0,,,,1500.0,1500.0,1250.0,1500
0.6,0,,,,1500.0,1500.0,1250.0,1500
0.65,0,,,,1500.0,1500.0,1250.0,1500
0.7000000000000001,0,,,,1500.0,1500.0,1250.0,1500
0.7500000000000001,0,,,,1500.0,1500.0,1250.0,1500
0.8000000000000002,0,,,,1500.0,1500.0,1250.0,1500
0.8500000000000002,0,,,,1500.0,1500.0,1250.0,1500
0.9000000000000002,0,,,,1500.0,1500.0,1250.0,1500
0.9500000000000003,0,,,,1500.0,1500.0,1250.0,1500
1.0000000000000002,0,,,,1500.0,1500.0,1250.0,1500
1.0500000000000003,0,,,,1500.0,1500.0,1250.0,1500
1.1000000000000003,0,,,,1500.0,1500.0,1250.0,1500
1.1500000000000004,0,,,,1500.0,1500.0,1250.0,1500
1.2000000000000004,0,,,,1500.0,1500.0,1250.0,1500
1.2500000000000004,0,,,,1500.0,1500.0,1250.0,1500
1.3000000000000005,0,,,,1500.0,1500.0,1250.0,1500
1.3500000000000005,0,,,,1500.0,1500.0,1250.0,1500
1.4000000000000006,0,,,,1500.0,1500.0,1250.0,1500
1.4500000000000006,0,,,,1500.0,1500.0,1250.0,1500
1.5000000000000007,0,,,,1500.0,1500.0,1250.0,1500
1.5500000000000007,0,,,,1500.0,1500.0,1250.0,1500
1.6000000000000008,0,,,,1500.0,1500.0,1250.0,1500
1.6500000000000008,0,,,,1500.0,1500.0,1250.0,1500
1.7000000000000008,0,,,,1500.0,1500.0,1250.0,1500
1.7500000000000009,0,,,,1500.0,1500.0,1250.0,1500
1.800000000000001,0,,,,1500.0,1500.0,1250.0,1500
1.850000000000001,0,,,,1500.0,1500.0,1250.0,1500
1.900000000000001,0,,,,1500.0,1500.0,1250.0,1500
1.950000000000001,0,,,,1500.0,1500.0,1250.0,1500
2.000000000000001,0,,,,1500.0,1500.0,1250.0,1500
2.0500000000000007,0,,,,1500.0,1500.0,1250.0,1500
2.1000000000000005,0,,,,1500.0,1500.0,1250.0,1500
2.1500000000000004,0,,,,1500.0,1500.0,1250.0,1500
2.2,0,,,,1500.0,1500.0,1250.0,1500
2.25,0,,,,1500.0,1500.0,1250.0,1500
2.3,0,,,,1500.0,1500.0,1250.0,1500
2.3499999999999996,0,,,,1500.0,1500.0,1250.0,1500
2.3999999999999995,0,,,,1500.0,1500.0,1250.0,1500
2.4499999999999993,0,,,,1500.0,1500.0,1250.0,1500
2.499999999999999,0,,,,1500.0,1500.0,1250.0,1500
2.549999999999999,0,,,,1500.0,1500.0,1250.0,1500
2.5999999999999988,0,,,,1500.0,1500.0,1250.0,1500
2.6499999999999986,0,,,,1500.0,1500.0,1250.0,1500
2.6999999999999984,0,,,,1500.0,1500.0,1250.0,1500
2.7499999999999982,0,,,,1500.0,1500.0,1250.0,1500
2.799999999999998,0,,,,1500.0,1500.0,1250.0,1500
2.849999999999998,0,,,,1500.0,1500.0,1250.0,1500
2.8999999999999977,0,,,,1500.0,1500.0,1250.0,1500
2.9499999999999975,0,,,,1500.0,1500.0,1250.0,1500
2.9999999999999973,0,,,,1500.0,1500.0,1250.0,1500
3.049999999999997,0,,,,1500.0,1500.0,1250.0,1500
3.099999999999997,0,,,,1500.0,1500.0,1250.0,1500
3.149999999999997,0,,,,1500.0,1500.0,1250.0,1500
3.1999999999999966,0,,,,1500.0,1500.0,1250.0,1500
3.2499999999999964,0,,,,1500.0,1500.0,1250.0,1500
3.2999999999999963,0,,,,1500.0,1500.0,1250.0,1500
3.349999999999996,0,,,,1500.0,1500.0,1250.0,1500
3.399999999999996,0,,,,1500.0,1500.0,1250.0,1500
3.4499999999999957,0,,,,1500.0,1500.0,1250.0,1500
3.4999999999999956,0,,,,1500.0,1500.0,1250.0,1500
3.5499999999999954,0,,,,1500.0,1500.0,1250.0,1500
3.599999999999995,0,,,,1500.0,1500.0,1250.0,1500
3.649999999999995,0,,,,1500.0,1500.0,1250.0,1500
3.699999999999995,0,,,,1500.0,1500.0,1250.0,1500
3.7499999999999947,0,,,,1500.0,1500.0,1250.0,1500
3.7999999999999945,0,,,,1500.0,1500.0,1250.0,1500
3.8499999999999943,0,,,,1500.0,1500.0,1250.0,1500
3.899999999999994,0,,,,1500.0,1500.0,1250.0,1500
3.949999999999994,0,,,,1500.0,1500.0,1250.0,1500
3.999999999999994,0,,,,1500.0,1500.0,1250.0,1500
4.049999999999994,0,,,,1500.0,1500.0,1250.0,1500
4.099999999999993,0,,,,1500.0,1500.0,1250.0,1500
4.149999999999993,0,,,,1500.0,1500.0,1250.0,1500
4.199999999999993,0,,,,1500.0,1500.0,1250.0,1500
4.249999999999993,0,,,,1500.0,1500.0,1250.0,1500
4.299999999999993,0,,,,1500.0,1500.0,1250.0,1500
4.3499999999999925,0,,,,1500.0,1500.0,1250.0,1500
4.399999999999992,0,,,,1500.0,1500.0,1250.0,1500
4.449999999999992,0,,,,1500.0,1500.0,1250.0,1500
4.499999999999992,0,,,,1500.0,1500.0,1250.0,1500
4.549999999999992,0,,,,1500.0,1500.0,1250.0,1500
4.599999999999992,0,,,,1500.0,1500.0,1250.0,1500
4.6499999999999915,0,,,,1500.0,1500.0,1250.0,1500
4.699999999999991,0,,,,1500.0,1500.0,1250.0,1500
4.749999999999991,0,,,,1500.0,1500.0,1250.0,1500
4.799999999999991,0,,,,1500.0,1500.0,1250.0,1500
4.849999999999991,0,,,,1500.0,1500.0,1250.0,1500
4.899999999999991,0,,,,1500.0,1500.0,1250.0,1500
4.94999999999999,0,,,,1500.0,1500.0,1250.0,1500
4.99999999999999,0,,,,1500.0,1500.0,1250.0,1500
5.04999999999999,0,,,,1500.0,1500.0,1250.0,1500
5.09999999999999,0,,,,1500.0,1500.0,1250.0,1500
5.14999999999999,0,,,,1500.0,1500.0,1250.0,1500
5.1999999999999895,0,,,,1500.0,1500.0,1250.0,1500
5.249999999999989,0,,,,1500.0,1500.0,1250.0,1500
5.299999999999989,0,,,,1500.0,1500.0,1250.0,1500
5.349999999999989,0,,,,1500.0,1500.0,1250.0,1500
5.399999999999989,0,,,,1500.0,1500.0,1250.0,1500
5.449999999999989,0,,,,1500.0,1500.0,1250.0,1500
5.4999999999999885,0,,,,1500.0,1500.0,1250.0,1500
5.549999999999988,0,,,,1500.0,1500.0,1250.0,1500
5.599999999999988,0,,,,1500.0,1500.0,1250.0,1500
5.649999999999988,0,,,,1500.0,1500.0,1250.0,1500
5.699999999999988,0,,,,1500.0,1500.0,1250.0,1500
5.749999999999988,1,300,68,0.017857142857142856,1514.0,1520,1300,1500
5.799999999999987,2,286,79,0.0015384615384615385,1512.6,1490.3846153846155,1292.0,1500
5.849999999999987,3,258,82,0.0011904761904761906,1509.8,1486.904761904762,1286.0,1500
5.899999999999987,4,264,74,0.0015527950310559005,1510.4,1490.527950310559,1300,1500
5.949999999999987,5,220,75,0.0004909180166912126,1506.0,1480,1300.0,1500
5.999999999999987,6,221,88,0.0002042483660130719,1506.1,1480,1274.0,1500
6.0499999999999865,7,195,79,0.0002311604253351826,1503.5,1480,1292.0,1500
6.099999999999986,8,176,87,0.00012195121951219512,1501.6,1480,1276.0,1500
6.149999999999986,9,198,77,5.458217346214726e-05,1503.8,1480,1296.0,1500
6.199999999999986,10,194,77,3.935458480913026e-05,1503.4,1480,1296.0,1500
6.249999999999986,11,191,77,3.580379520229144e-05,1503.1,1480,1296.0,1500
6.299999999999986,12,192,85,3.961180431768667e-05,1503.2,1480,1280.0,1500
6.349999999999985,13,195,73,3.700277520814061e-05,1503.5,1480,1300,1500
6.399999999999985,14,195,75,4.262029578485275e-05,1503.5,1480,1300.0,1500
6.449999999999985,15,201,66,4.2140750105351876e-05,1504.1,1480,1300,1500
6.499999999999985,16,207,68,5.1888750518887505e-05,1504.7,1480,1300,1500
6.549999999999985,17,209,67,6.387327542156362e-05,1504.9,1480,1300,1500
6.5999999999999845,18,206,63,6.510416666666667e-05,1504.6,1480,1300,1500
6.649999999999984,19,213,68,8.059316569954868e-05,1505.3,1480,1300,1500
6.699999999999984,20,215,59,6.081615277017576e-05,1505.5,1480,1300,1500
6.749999999999984,21,200,59,8.069071249899137e-05,1504.0,1480,1300,1500
6.799999999999984,22,211,63,7.316894709885125e-05,1505.1,1480,1300,1500
6.849999999999984,23,206,64,7.676953784738216e-05,1504.6,1480,1300,1500
6.8999999999999835,24,205,67,8.080808080808081e-05,1504.5,1480,1300,1500
6.949999999999983,25,199,62,7.192174913693901e-05,1503.9,1480,1300,1500
6.999999999999983,26,185,77,0.00011757789535567314,1502.5,1480,1296.0,1500
7.049999999999983,27,187,65,8.677542519958348e-05,1502.7,1480,1300,1500
7.099999999999983,28,183,65,0.00010702054794520547,1502.3,1480,1300,1500
7.149999999999983,29,182,82,0.00013842746400885935,1502.2,1480,1286.0,1500
7.199999999999982,30,180,74,0.00011019283746556474,1502.0,1480,1300,1500
7.249999999999982,31,177,74,0.00011853959222380275,1501.7,1480,1300,1500
7.299999999999982,32,178,63,0.00018867924528301886,1501.8,1480,1300,1500
7.349999999999982,33,190,79,0.00025608194622279127,1503.0,1480,1292.0,1500
7.399999999999982,34,174,79,0.00013935340022296544,1501.4,1480,1292.0,1500
7.4499999999999815,35,174,80,0.00014208581983518045,1501.4,1480,1290.0,1500
7.499999999999981,36,174,81,0.00016622340425531914,1501.4,1480,1288.0,1500
7.549999999999981,37,173,85,0.00014492753623188405,1501.3,1480,1280.0,1500
7.599999999999981,38,174,86,0.00014349261013057828,1501.4,1480,1278.0,1500
7.649999999999981,39,174,84,0.0001441753171856978,1501.4,1480,1282.0,1500
7.699999999999981,40,175,81,0.00013672409078479628,1501.5,1480,1288.0,1500
7.7499999999999805,41,175,82,0.00015024038461538462,1501.5,1480,1286.0,1500
7.79999999999998,42,179,92,0.00021141649048625792,1501.9,1480,1266.0,1500
7.84999999999998,43,181,94,0.00025284450063211124,1502.1,1480,1262.0,1500
7.89999999999998,44,181,73,0.00011748120300751879,1502.1,1480,1300,1500
7.94999999999998,45,186,71,0.00010785159620362382,1502.6,1480,1300,1500
7.99999999999998,46,190,78,0.0001122586439155815,1503.0,1480,1294.0,1500
8.04999999999998,47,193,82,0.0001152073732718894,1503.3,1480,1286.0,1500
8.09999999999998,48,195,74,8.514261387824607e-05,1503.5,1480,1300,1500
8.14999999999998,49,195,76,8.503401360544217e-05,1503.5,1480,1298.0,1500
8.199999999999982,50,206,82,8.130081300813008e-05,1504.6,1480,1286.0,1500
8.249999999999982,51,194,85,8.490405841399219e-05,1503.4,1480,1280.0,1500
8.299999999999983,52,212,79,4.7782874617737003e-05,1505.2,1480,1292.0,1500
8.349999999999984,53,207,88,5.0658561296859166e-05,1504.7,1480,1274.0,1500
8.399999999999984,54,210,80,4.244121891180715e-05,1505.0,1480,1290.0,1500
8.449999999999985,55,203,82,4.513450081242101e-05,1504.3,1480,1286.0,1500
8.499999999999986,56,195,93,6.532532009406845e-05,1503.5,1480,1264.0,1500
8.549999999999986,57,198,81,4.817651876475406e-05,1503.8,1480,1288.0,1500
8.599999999999987,58,193,82,5.507821105970478e-05,1503.3,1480,1286.0,1500
8.649999999999988,59,187,80,6.25e-05,1502.7,1480,1290.0,1500
8.699999999999989,60,185,80,6.971070059254095e-05,1502.5,1480,1290.0,1500
8.74999999999999,61,178,84,0.00010670081092616304,1501.8,1480,1282.0,1500
8.79999999999999,62,179,83,9.562057754828839e-05,1501.9,1480,1284.0,1500
8.84999999999999,63,179,85,0.00011904761904761905,1501.9,1480,1280.0,1500
8.899999999999991,64,183,85,0.00013477088948787063,1502.3,1480,1280.0,1500
8.949999999999992,65,182,66,0.0006662225183211193,1502.2,1481.6622251832111,1300,1500
8.999999999999993,66,170,90,0.0013513513513513514,1501.0,1488.5135135135135,1270.0,1500
9.049999999999994,67,176,106,0.0020242914979757085,1501.6,1495.2429149797572,1238.0,1500
9.099999999999994,68,197,77,0.0007692307692307692,1503.7,1482.6923076923076,1296.0,1500
9.149999999999995,69,199,58,0.001851851851851852,1503.9,1493.5185185185185,1300,1500
9.199999999999996,70,210,73,0.0004528985507246377,1505.0,1480,1300,1500
9.249999999999996,71,201,102,0.0010482180293501049,1504.1,1485.482180293501,1246.0,1500
9.299999999999997,72,217,91,0.0008285004142502071,1505.7,1483.285004142502,1268.0,1500
9.349999999999998,73,230,104,0.001098901098901099,1507.0,1485.989010989011,1242.0,1500
9.399999999999999,74,237,97,0.0010775862068965517,1507.7,1485.7758620689656,1256.0,1500
9.45,75,219,102,0.0004930966469428008,1505.9,1480,1246.0,1500
9.5,76,216,77,0.0005473453749315818,1505.6,1480.473453749316,1296.0,1500
9.55,77,211,99,0.0005980861244019139,1505.1,1480.9808612440193,1252.0,1500
9.600000000000001,78,209,68,0.00024096385542168674,1504.9,1480,1300,1500
9.650000000000002,79,231,88,0.00016852039096730705,1507.1,1480,1274.0,1500
9.700000000000003,80,238,67,0.0003403675970047651,1507.8,1480,1300,1500
9.750000000000004,81,246,94,0.0006105006105006105,1508.6,1481.1050061050062,1262.0,1500
9.800000000000004,82,216,73,0.00015723270440251572,1505.6,1480,1300,1500
9.850000000000005,83,236,62,0.00019357336430507162,1507.6,1480,1300,1500
9.900000000000006,84,251,73,0.0004807692307692308,1509.1,1480,1300,1500
9.950000000000006,85,226,68,9.307520476545048e-05,1506.6,1480,1300,1500
10.000000000000007,86,208,54,0.00018436578171091445,1504.8,1480,1300,1500
10.050000000000008,87,214,69,8.455944529003889e-05,1505.4,1480,1300,1500
10.100000000000009,88,218,59,5.772005772005772e-05,1505.8,1480,1300,1500
10.15000000000001,89,213,60,5.6631555102503115e-05,1505.3,1480,1300,1500
10.20000000000001,90,213,69,7.415647015202076e-05,1505.3,1480,1300,1500
10.25000000000001,91,207,51,9.456264775413712e-05,1504.7,1480,1300,1500
10.300000000000011,92,204,53,0.00010752688172043011,1504.4,1480,1300,1500
10.350000000000012,93,208,68,9.689922480620155e-05,1504.8,1480,1300,1500
10.400000000000013,94,205,71,0.00010888501742160279,1504.5,1480,1300,1500
10.450000000000014,95,203,74,0.00012094823415578132,1504.3,1480,1300,1500
10.500000000000014,96,200,69,0.00016903313049357674,1504.0,1480,1300,1500
10.550000000000015,97,201,97,0.00029761904761904765,1504.1,1480,1256.0,1500
10.600000000000016,98,195,91,0.0005714285714285715,1503.5,1480.7142857142858,1268.0,1500
10.650000000000016,99,205,101,0.001201923076923077,1504.5,1487.0192307692307,1248.0,1500
10.700000000000017,100,194,99,0.0005574136008918618,1503.4,1480.5741360089187,1252.0,1500
10.750000000000018,101,203,85,0.001519756838905775,1504.3,1490.1975683890578,1280.0,1500
10.800000000000018,102,206,99,0.001466275659824047,1504.6,1489.6627565982405,1252.0,1500
10.85000000000002,103,200,97,0.002380952380952381,1504.0,1498.8095238095239,1256.0,1500
10.90000000000002,104,198,102,0.001388888888888889,1503.8,1488.888888888889,1246.0,1500
10.95000000000002,105,192,93,0.001092896174863388,1503.2,1485.9289617486338,1264.0,1500
11.000000000000021,106,190,74,0.00048567265662943174,1503.0,1480,1300,1500
11.050000000000022,107,191,83,0.0007639419404125286,1503.1,1482.6394194041252,1284.0,1500
11.100000000000023,108,187,66,0.0006706908115358819,1502.7,1481.7069081153588,1300,1500
11.150000000000023,109,185,33,0.0005197505197505198,1502.5,1480.1975051975053,1300,1500
11.200000000000024,110,186,38,0.0005,1502.6,1480.0,1300,1500
11.250000000000025,111,172,16,0.0012254901960784314,1501.2,1487.2549019607843,1300,1500
11.300000000000026,112,161,26,0.0020833333333333333,1500.1,1495.8333333333333,1300,1500
11.350000000000026,113,200,12,0.003003003003003003,1504.0,1505.03003003003,1300,1500
11.400000000000027,114,171,25,0.0009398496240601503,1501.1,1484.3984962406016,1300,1500
11.450000000000028,115,178,27,0.0008333333333333334,1501.8,1483.3333333333333,1300,1500
11.500000000000028,116,156,38,0.0011574074074074073,1499.6,1486.5740740740741,1300,1500
11.55000000000003,117,172,40,0.0003787878787878788,1501.2,1480,1300,1500
11.60000000000003,118,170,53,0.00029437739181630853,1501.0,1480,1300,1500
11.65000000000003,119,169,67,0.000392156862745098,1500.9,1480,1300,1500
11.700000000000031,120,162,93,0.000552791597567717,1500.2,1480.5279159756772,1264.0,1500
11.750000000000032,121,170,103,0.00036075036075036075,1501.0,1480,1244.0,1500
11.800000000000033,122,165,122,0.0009057971014492754,1500.5,1484.0579710144928,1206.0,1500
11.850000000000033,123,179,135,0.0006060606060606061,1501.9,1481.060606060606,1200,1500
11.900000000000034,124,184,122,0.001736111111111111,1502.4,1492.361111111111,1206.0,1500
11.950000000000035,125,160,146,0.0034965034965034965,1500.0,1509.9650349650349,1200,1500
12.000000000000036,126,161,138,0.0125,1500.1,1520,1200,1500
12.050000000000036,127,185,144,0.010869565217391304,1502.5,1520,1200,1500
12.100000000000037,128,197,151,0.016666666666666666,1503.7,1520,1200,1500
12.150000000000038,128,,,,1500.0,1500.0,1250.0,1500
12.200000000000038,129,182,149,0.025,1502.2,1520,1200,1500
12.250000000000039,130,161,144,0.01,1500.1,1520,1200,1500
12.30000000000004,131,189,133,0.007575757575757576,1502.9,1520,1200,1500
12.35000000000004,132,165,125,0.00411522633744856,1500.5,1516.1522633744855,1200.0,1500
12.400000000000041,133,189,132,0.0006447453255963894,1502.9,1481.4474532559639,1200,1500
12.450000000000042,134,176,113,0.00027434842249657066,1501.6,1480,1224.0,1500
12.500000000000043,135,184,93,0.0008620689655172414,1502.4,1483.6206896551723,1264.0,1500
12.550000000000043,136,173,72,0.0005040322580645161,1501.3,1480.0403225806451,1300,1500
12.600000000000044,137,180,49,0.00026041666666666666,1502.0,1480,1300,1500
12.650000000000045,138,179,35,0.0005073566717402334,1501.9,1480.0735667174024,1300,1500
12.700000000000045,139,180,28,0.002331002331002331,1502.0,1498.3100233100233,1300,1500
12.750000000000046,140,150,16,0.009259259259259259,1499.0,1520,1300,1500
12.800000000000047,141,207,9,0.020833333333333332,1504.7,1520,1300,1500
12.850000000000048,142,161,1,0.010869565217391304,1500.1,1520,1300,1500
12.900000000000048,143,191,1,0.013157894736842105,1503.1,1520,1300,1500
12.950000000000049,144,197,1,0.015151515151515152,1503.7,1520,1300,1500
13.00000000000005,145,203,1,0.007352941176470588,1504.3,1520,1300,1500
13.05000000000005,146,206,1,0.013888888888888888,1504.6,1520,1300,1500
13.100000000000051,147,153,12,0.037037037037037035,1499.3,1520,1300,1500
13.150000000000052,148,159,1,0.008333333333333333,1499.9,1520,1300,1500
13.200000000000053,149,179,14,0.0030864197530864196,1501.9,1505.8641975308642,1300,1500
13.250000000000053,150,181,1,0.006944444444444444,1502.1,1520,1300,1500
13.300000000000054,151,167,12,0.003289473684210526,1500.7,1507.8947368421052,1300,1500
13.350000000000055,152,156,20,0.005952380952380952,1499.6,1520,1300,1500
13.400000000000055,153,176,17,0.0009950248756218905,1501.6,1484.9502487562188,1300,1500
13.450000000000056,154,192,20,0.0015384615384615385,1503.2,1490.3846153846155,1300,1500
13.500000000000057,155,194,22,0.0016233766233766235,1503.4,1491.2337662337663,1300,1500
13.550000000000058,156,174,30,0.0014124293785310734,1501.4,1489.1242937853108,1300,1500
13.600000000000058,157,191,19,0.000980392156862745,1503.1,1484.8039215686274,1300,1500
13.650000000000059,158,172,37,0.0010256410256410256,1501.2,1485.2564102564102,1300,1500
13.70000000000006,159,176,39,0.0007627765064836003,1501.6,1482.627765064836,1300,1500
13.75000000000006,160,175,43,0.0008058017727639,1501.5,1483.058017727639,1300,1500
13.800000000000061,161,173,36,0.00041407867494824016,1501.3,1480,1300,1500
13.850000000000062,162,175,43,0.0006688963210702341,1501.5,1481.6889632107022,1300,1500
13.900000000000063,163,175,48,0.0012315270935960591,1501.5,1487.3152709359606,1300,1500
13.950000000000063,164,166,41,0.0004789272030651341,1500.6,1480,1300,1500
14.000000000000064,165,165,40,0.00046948356807511736,1500.5,1480,1300,1500
14.050000000000065,166,167,38,0.0006313131313131314,1500.7,1481.3131313131314,1300,1500
14.100000000000065,167,172,48,0.0012531328320802004,1501.2,1487.531328320802,1300,1500
14.150000000000066,168,164,43,0.0005952380952380953,1500.4,1480.952380952381,1300,1500
14.200000000000067,169,164,49,0.0008650519031141869,1500.4,1483.6505190311418,1300,1500
14.250000000000068,170,165,41,0.0003716090672612412,1500.5,1480,1300,1500
14.300000000000068,171,166,45,0.0003827018752391887,1500.6,1480,1300,1500
14.350000000000069,172,181,55,0.0009380863039399625,1502.1,1484.3808630393996,1300,1500
14.40000000000007,173,167,54,0.00032938076416337287,1500.7,1480,1300,1500
14.45000000000007,174,166,59,0.00029342723004694836,1500.6,1480,1300,1500
14.500000000000071,175,169,66,0.0003471017007983339,1500.9,1480,1300,1500
14.550000000000072,176,167,73,0.00032754667540124465,1500.7,1480,1300,1500
14.600000000000072,177,168,92,0.0003770739064856712,1500.8,1480,1266.0,1500
14.650000000000073,178,165,86,0.0005122950819672131,1500.5,1480.122950819672,1278.0,1500
14.700000000000074,179,165,99,0.0004962779156327543,1500.5,1480,1252.0,1500
14.750000000000075,180,166,97,0.0008064516129032258,1500.6,1483.0645161290322,1256.0,1500
14.800000000000075,181,179,129,0.0009090909090909091,1501.9,1484.090909090909,1200,1500
14.850000000000076,182,160,138,0.001451378809869376,1500.0,1489.5137880986938,1200,1500
14.900000000000077,183,165,124,0.0010256410256410256,1500.5,1485.2564102564102,1202.0,1500
14.950000000000077,184,168,156,0.000925925925925926,1500.8,1484.2592592592594,1200,1500
15.000000000000078,185,176,133,0.0020242914979757085,1501.6,1495.2429149797572,1200,1500
15.050000000000079,186,171,146,0.0013333333333333333,1501.1,1488.3333333333333,1200,1500
15.10000000000008,187,182,147,0.0058823529411764705,1502.2,1520,1200,1500
15.15000000000008,188,161,139,0.0021645021645021645,1500.1,1496.6450216450216,1200,1500
15.200000000000081,189,172,142,0.0012787723785166241,1501.2,1487.7877237851662,1200,1500
15.250000000000082,190,176,139,0.0016366612111292963,1501.6,1491.3666121112929,1200,1500
15.300000000000082,191,169,135,0.0045045045045045045,1500.9,1520,1200,1500
15.350000000000083,192,182,170,0.004464285714285714,1502.2,1519.642857142857,1200,1500
15.400000000000084,193,156,146,0.002380952380952381,1499.6,1498.8095238095239,1200,1500
15.450000000000085,194,168,137,0.0024813895781637717,1500.8,1499.8138957816377,1200,1500
15.500000000000085,195,173,154,0.002066115702479339,1501.3,1495.6611570247933,1200,1500
15.550000000000086,196,183,151,0.0014245014245014246,1502.3,1489.2450142450143,1200,1500
15.600000000000087,197,172,144,0.0005291005291005291,1501.2,1480.2910052910054,1200,1500
15.650000000000087,198,172,132,0.0010416666666666667,1501.2,1485.4166666666667,1200,1500
15.700000000000088,199,169,110,0.00125,1500.9,1487.5,1230.0,1500
15.750000000000089,200,180,113,0.00101010101010101,1502.0,1485.1010101010102,1224.0,1500
15.80000000000009,201,165,90,0.0011198208286674132,1500.5,1486.1982082866741,1270.0,1500
15.85000000000009,202,174,81,0.000445632798573975,1501.4,1480,1288.0,1500
15.900000000000091,203,174,75,0.0005216484089723526,1501.4,1480.2164840897235,1300.0,1500
15.950000000000092,204,174,57,0.0005367686527106817,1501.4,1480.3676865271068,1300,1500
16.000000000000092,205,183,43,0.0005602240896358543,1502.3,1480.6022408963586,1300,1500
16.050000000000093,206,174,31,0.0004830917874396135,1501.4,1480,1300,1500
16.100000000000094,207,174,26,0.0004761904761904762,1501.4,1480,1300,1500
16.150000000000095,208,174,21,0.0006510416666666666,1501.4,1481.5104166666667,1300,1500
16.200000000000095,209,177,20,0.0007369196757553427,1501.7,1482.3691967575535,1300,1500
16.250000000000096,210,193,22,0.0032258064516129032,1503.3,1507.258064516129,1300,1500
16.300000000000097,211,187,17,0.002136752136752137,1502.7,1496.3675213675215,1300,1500
16.350000000000097,212,173,24,0.0011655011655011655,1501.3,1486.6550116550115,1300,1500
16.400000000000098,213,172,28,0.003205128205128205,1501.2,1507.051282051282,1300,1500
16.4500000000001,214,180,24,0.0011337868480725624,1502.0,1486.3378684807255,1300,1500
16.5000000000001,215,168,28,0.0018181818181818182,1500.8,1493.1818181818182,1300,1500
16.5500000000001,216,166,29,0.001851851851851852,1500.6,1493.5185185185185,1300,1500
16.6000000000001,217,173,23,0.0007575757575757576,1501.3,1482.5757575757575,1300,1500
16.6500000000001,218,173,22,0.0006720430107526882,1501.3,1481.720430107527,1300,1500
16.700000000000102,219,174,26,0.0009049773755656109,1501.4,1484.0497737556561,1300,1500
16.750000000000103,220,172,28,0.0008650519031141869,1501.2,1483.6505190311418,1300,1500
16.800000000000104,221,174,29,0.001336898395721925,1501.4,1488.3689839572191,1300,1500
16.850000000000104,222,171,34,0.001336898395721925,1501.1,1488.3689839572191,1300,1500
16.900000000000105,223,159,30,0.0008741258741258741,1499.9,1483.7412587412587,1300,1500
16.950000000000106,224,170,27,0.0017730496453900709,1501.0,1492.7304964539007,1300,1500
17.000000000000107,225,172,33,0.0004662004662004662,1501.2,1480,1300,1500
17.050000000000107,226,171,37,0.000407000407000407,1501.1,1480,1300,1500
17.100000000000108,227,173,56,0.0007246376811594203,1501.3,1482.2463768115942,1300,1500
17.15000000000011,228,181,71,0.002066115702479339,1502.1,1495.6611570247933,1300,1500
17.20000000000011,229,180,67,0.0010416666666666667,1502.0,1485.4166666666667,1300,1500
17.25000000000011,230,168,68,0.0011312217194570137,1500.8,1486.3122171945702,1300,1500
17.30000000000011,231,171,80,0.00065359477124183,1501.1,1481.5359477124182,1290.0,1500
17.35000000000011,232,178,105,0.001182033096926714,1501.8,1486.8203309692672,1240.0,1500
17.400000000000112,233,168,119,0.0008064516129032258,1500.8,1483.0645161290322,1212.0,1500
17.450000000000113,234,167,131,0.0004464285714285714,1500.7,1480,1200,1500
17.500000000000114,235,167,131,0.000835421888053467,1500.7,1483.3542188805347,1200,1500
17.550000000000114,236,167,134,0.0010482180293501049,1500.7,1485.482180293501,1200,1500
17.600000000000115,237,181,134,0.004545454545454545,1502.1,1520,1200,1500
17.650000000000116,238,178,142,0.0049261083743842365,1501.8,1520,1200,1500
17.700000000000117,239,150,158,0.007518796992481203,1499.0,1520,1200,1500
17.750000000000117,240,172,142,0.0015873015873015873,1501.2,1490.873015873016,1200,1500
17.800000000000118,241,182,160,0.005376344086021506,1502.2,1520,1200,1500
17.85000000000012,242,171,135,0.0014204545454545455,1501.1,1489.2045454545455,1200,1500
17.90000000000012,243,168,139,0.0015384615384615385,1500.8,1490.3846153846155,1200,1500
17.95000000000012,244,170,150,0.0011574074074074073,1501.0,1486.5740740740741,1200,1500
18.00000000000012,245,182,147,0.002849002849002849,1502.2,1503.4900284900284,1200,1500
18.05000000000012,246,170,137,0.0024390243902439024,1501.0,1499.3902439024391,1200,1500
18.100000000000122,247,176,140,0.00510204081632653,1501.6,1520,1200,1500
18.150000000000123,248,175,135,0.0017421602787456446,1501.5,1492.4216027874565,1200,1500
18.200000000000124,249,172,131,0.002364066193853428,1501.2,1498.6406619385343,1200,1500
18.250000000000124,250,177,128,0.002849002849002849,1501.7,1503.4900284900284,1200,1500
18.300000000000125,251,173,143,0.0011337868480725624,1501.3,1486.3378684807255,1200,1500
18.350000000000126,252,172,138,0.0029411764705882353,1501.2,1504.4117647058824,1200,1500
18.400000000000126,253,180,139,0.0012195121951219512,1502.0,1487.1951219512196,1200,1500
18.450000000000127,254,169,127,0.0004734848484848485,1500.9,1480,1200,1500
18.500000000000128,255,163,125,0.0007396449704142012,1500.3,1482.396449704142,1200.0,1500
18.55000000000013,256,166,106,0.0008818342151675485,1500.6,1483.8183421516756,1238.0,1500
18.60000000000013,257,164,92,0.000835421888053467,1500.4,1483.3542188805347,1266.0,1500
18.65000000000013,258,169,94,0.000445632798573975,1500.9,1480,1262.0,1500
18.70000000000013,259,167,68,0.0006510416666666666,1500.7,1481.5104166666667,1300,1500
18.75000000000013,260,180,77,0.0009276437847866419,1502.0,1484.2764378478664,1296.0,1500
18.800000000000132,261,170,63,0.00041425020712510354,1501.0,1480,1300,1500
18.850000000000133,262,171,53,0.0003061849357011635,1501.1,1480,1300,1500
18.900000000000134,263,170,64,0.0007209805335255948,1501.0,1482.2098053352559,1300,1500
18.950000000000134,264,172,54,0.00040816326530612246,1501.2,1480,1300,1500
19.000000000000135,265,173,48,0.00029342723004694836,1501.3,1480,1300,1500
19.050000000000136,266,171,61,0.0006142506142506142,1501.1,1481.1425061425061,1300,1500
19.100000000000136,267,171,57,0.0004095004095004095,1501.1,1480,1300,1500
19.150000000000137,268,172,50,0.0002937720329024677,1501.2,1480,1300,1500
19.200000000000138,269,172,68,0.001006036217303823,1501.2,1485.0603621730381,1300,1500
19.25000000000014,270,174,60,0.000445632798573975,1501.4,1480,1300,1500
19.30000000000014,271,174,69,0.0009328358208955224,1501.4,1484.3283582089553,1300,1500
19.35000000000014,272,184,63,0.0013605442176870747,1502.4,1488.6054421768708,1300,1500
19.40000000000014,273,190,69,0.001282051282051282,1503.0,1487.820512820513,1300,1500
19.45000000000014,274,174,67,0.0005656108597285068,1501.4,1480.656108597285,1300,1500
19.500000000000142,275,174,51,0.0006269592476489029,1501.4,1481.269592476489,1300,1500
19.550000000000143,276,175,63,0.0005656108597285068,1501.5,1480.656108597285,1300,1500
19.600000000000144,277,173,59,0.0002874389192296637,1501.3,1480,1300,1500
19.650000000000144,278,171,54,0.00043591979075850045,1501.1,1480,1300,1500
19.700000000000145,279,172,63,0.00032754667540124465,1501.2,1480,1300,1500
19.750000000000146,280,172,65,0.0016666666666666668,1501.2,1491.6666666666667,1300,1500
19.800000000000146,281,167,64,0.0008928571428571428,1500.7,1483.9285714285713,1300,1500
19.850000000000147,282,183,59,0.016666666666666666,1502.3,1520,1300,1500
19.900000000000148,282,,,,1500.0,1500.0,1250.0,1500
19.95000000000015,282,,,,1500.0,1500.0,1250.0,1500
20.00000000000015,282,,,,1500.0,1500.0,1250.0,1500
20.05000000000015,282,,,,1500.0,1500.0,1250.0,1500
20.10000000000015,282,,,,1500.0,1500.0,1250.0,1500
20.15000000000015,282,,,,1500.0,1500.0,1250.0,1500
20.200000000000152,282,,,,1500.0,1500.0,1250.0,1500
20.250000000000153,283,162,72,0.020833333333333332,1500.2,1520,1300,1500
20.300000000000153,283,,,,1500.0,1500.0,1250.0,1500
20.350000000000154,283,,,,1500.0,1500.0,1250.0,1500
20.400000000000155,283,,,,1500.0,1500.0,1250.0,1500
20.450000000000156,283,,,,1500.0,1500.0,1250.0,1500
20.500000000000156,283,,,,1500.0,1500.0,1250.0,1500
20.550000000000157,283,,,,1500.0,1500.0,1250.0,1500
20.600000000000158,283,,,,1500.0,1500.0,1250.0,1500
20.65000000000016,283,,,,1500.0,1500.0,1250.0,1500
20.70000000000016,283,,,,1500.0,1500.0,1250.0,1500
20.75000000000016,283,,,,1500.0,1500.0,1250.0,1500
20.80000000000016,283,,,,1500.0,1500.0,1250.0,1500
20.85000000000016,283,,,,1500.0,1500.0,1250.0,1500
20.900000000000162,283,,,,1500.0,1500.0,1250.0,1500
20.950000000000163,283,,,,1500.0,1500.0,1250.0,1500
21.000000000000163,283,,,,1500.0,1500.0,1250.0,1500
21.050000000000164,283,,,,1500.0,1500.0,1250.0,1500
21.100000000000165,283,,,,1500.0,1500.0,1250.0,1500
21.150000000000166,283,,,,1500.0,1500.0,1250.0,1500
21.200000000000166,283,,,,1500.0,1500.0,1250.0,1500
21.250000000000167,283,,,,1500.0,1500.0,1250.0,1500
21.300000000000168,283,,,,1500.0,1500.0,1250.0,1500
21.35000000000017,283,,,,1500.0,1500.0,1250.0,1500
21.40000000000017,283,,,,1500.0,1500.0,1250.0,1500
21.45000000000017,283,,,,1500.0,1500.0,1250.0,1500
21.50000000000017,283,,,,1500.0,1500.0,1250.0,1500
21.55000000000017,283,,,,1500.0,1500.0,1250.0,1500
21.600000000000172,283,,,,1500.0,1500.0,1250.0,1500
21.650000000000173,283,,,,1500.0,1500.0,1250.0,1500
21.700000000000173,283,,,,1500.0,1500.0,1250.0,1500
21.750000000000174,283,,,,1500.0,1500.0,1250.0,1500
21.800000000000175,283,,,,1500.0,1500.0,1250.0,1500
21.850000000000176,283,,,,1500.0,1500.0,1250.0,1500
21.900000000000176,283,,,,1500.0,1500.0,1250.0,1500
21.950000000000177,283,,,,1500.0,1500.0,1250.0,1500
22.000000000000178,283,,,,1500.0,1500.0,1250.0,1500
22.05000000000018,283,,,,1500.0,1500.0,1250.0,1500
22.10000000000018,283,,,,1500.0,1500.0,1250.0,1500
22.15000000000018,283,,,,1500.0,1500.0,1250.0,1500
22.20000000000018,283,,,,1500.0,1500.0,1250.0,1500
22.25000000000018,283,,,,1500.0,1500.0,1250.0,1500
22.300000000000182,283,,,,1500.0,1500.0,1250.0,1500
22.350000000000183,283,,,,1500.0,1500.0,1250.0,1500
22.400000000000183,283,,,,1500.0,1500.0,1250.0,1500
22.450000000000184,283,,,,1500.0,1500.0,1250.0,1500
22.500000000000185,283,,,,1500.0,1500.0,1250.0,1500
22.550000000000185,283,,,,1500.0,1500.0,1250.0,1500
22.600000000000186,283,,,,1500.0,1500.0,1250.0,1500
22.650000000000187,283,,,,1500.0,1500.0,1250.0,1500
22.700000000000188,283,,,,1500.0,1500.0,1250.0,1500
22.75000000000019,283,,,,1500.0,1500.0,1250.0,1500
22.80000000000019,283,,,,1500.0,1500.0,1250.0,1500
22.85000000000019,283,,,,1500.0,1500.0,1250.0,1500
22.90000000000019,283,,,,1500.0,1500.0,1250.0,1500
22.95000000000019,283,,,,1500.0,1500.0,1250.0,1500
23.000000000000192,283,,,,1500.0,1500.0,1250.0,1500
23.050000000000193,283,,,,1500.0,1500.0,1250.0,1500
23.100000000000193,283,,,,1500.0,1500.0,1250.0,1500
23.150000000000194,283,,,,1500.0,1500.0,1250.0,1500
23.200000000000195,283,,,,1500.0,1500.0,1250.0,1500
23.250000000000195,283,,,,1500.0,1500.0,1250.0,1500
23.300000000000196,283,,,,1500.0,1500.0,1250.0,1500
23.350000000000197,283,,,,1500.0,1500.0,1250.0,1500
23.400000000000198,283,,,,1500.0,1500.0,1250.0,1500
23.4500000000002,283,,,,1500.0,1500.0,1250.0,1500
23.5000000000002,283,,,,1500.0,1500.0,1250.0,1500
23.5500000000002,283,,,,1500.0,1500.0,1250.0,1500
23.6000000000002,283,,,,1500.0,1500.0,1250.0,1500
23.6500000000002,283,,,,1500.0,1500.0,1250.0,1500
23.700000000000202,283,,,,1500.0,1500.0,1250.0,1500
23.750000000000203,283,,,,1500.0,1500.0,1250.0,1500
23.800000000000203,283,,,,1500.0,1500.0,1250.0,1500
23.850000000000204,283,,,,1500.0,1500.0,1250.0,1500
23.900000000000205,283,,,,1500.0,1500.0,1250.0,1500
23.950000000000205,283,,,,1500.0,1500.0,1250.0,1500
24.000000000000206,283,,,,1500.0,1500.0,1250.0,1500
24.050000000000207,283,,,,1500.0,1500.0,1250.0,1500
24.100000000000207,283,,,,1500.0,1500.0,1250.0,1500
24.150000000000208,283,,,,1500.0,1500.0,1250.0,1500
24.20000000000021,283,,,,1500.0,1500.0,1250.0,1500
24.25000000000021,283,,,,1500.0,1500.0,1250.0,1500
24.30000000000021,283,,,,1500.0,1500.0,1250.0,1500
24.35000000000021,283,,,,1500.0,1500.0,1250.0,1500
24.40000000000021,283,,,,1500.0,1500.0,1250.0,1500
24.450000000000212,283,,,,1500.0,1500.0,1250.0,1500
24.500000000000213,283,,,,1500.0,1500.0,1250.0,1500
24.550000000000214,283,,,,1500.0,1500.0,1250.0,1500
24.600000000000215,283,,,,1500.0,1500.0,1250.0,1500
24.650000000000215,283,,,,1500.0,1500.0,1250.0,1500
24.700000000000216,283,,,,1500.0,1500.0,1250.0,1500
24.750000000000217,283,,,,1500.0,1500.0,1250.0,1500
24.800000000000217,283,,,,1500.0,1500.0,1250.0,1500
24.850000000000218,283,,,,1500.0,1500.0,1250.0,1500
24.90000000000022,283,,,,1500.0,1500.0,1250.0,1500
24.95000000000022,283,,,,1500.0,1500.0,1250.0,1500
25.00000000000022,283,,,,1500.0,1500.0,1250.0,1500
25.05000000000022,283,,,,1500.0,1500.0,1250.0,1500
25.10000000000022,283,,,,1500.0,1500.0,1250.0,1500
25.150000000000222,283,,,,1500.0,1500.0,1250.0,1500
25.200000000000223,283,,,,1500.0,1500.0,1250.0,1500
25.250000000000224,283,,,,1500.0,1500.0,1250.0,1500
25.300000000000225,283,,,,1500.0,1500.0,1250.0,1500
25.350000000000225,283,,,,1500.0,1500.0,1250.0,1500
25.400000000000226,283,,,,1500.0,1500.0,1250.0,1500
25.450000000000227,283,,,,1500.0,1500.0,1250.0,1500
25.500000000000227,283,,,,1500.0,1500.0,1250.0,1500
25.550000000000228,283,,,,1500.0,1500.0,1250.0,1500
25.60000000000023,283,,,,1500.0,1500.0,1250.0,1500
25.65000000000023,283,,,,1500.0,1500.0,1250.0,1500
25.70000000000023,283,,,,1500.0,1500.0,1250.0,1500
25.75000000000023,283,,,,1500.0,1500.0,1250.0,1500
25.80000000000023,283,,,,1500.0,1500.0,1250.0,1500
25.850000000000232,283,,,,1500.0,1500.0,1250.0,1500
25.900000000000233,283,,,,1500.0,1500.0,1250.0,1500
25.950000000000234,283,,,,1500.0,1500.0,1250.0,1500
26.000000000000234,283,,,,1500.0,1500.0,1250.0,1500
26.050000000000235,283,,,,1500.0,1500.0,1250.0,1500
