time,frame,x,y,size_inv,roll,pitch,thrust,yaw
0.0002789497375488281,1,148,16,0.0002832058906825262,1498.5,1490.0,1165,1500
0.022017955780029297,2,145,15,0.0003360215053763441,1497.825,1490.5809717616321,1165,1500
0.04346203804016113,3,139,13,0.0005367686527106817,1496.7,1492.8420059970035,1165,1500
0.06482601165771484,4,134,12,0.0007547169811320754,1495.55,1495.493000371667,1165,1500
0.08615589141845703,5,131,10,0.0011363636363636363,1494.5250000000001,1500,1165,1500
0.10743403434753418,6,136,9,0.001282051282051282,1494.425,1500,1165,1500
0.12870192527770996,7,134,8,0.0019157088122605363,1493.575,1500,1165,1500
0.14995598793029785,8,138,8,0.0016806722689075631,1493.425,1500,1165,1500
0.17124700546264648,9,136,7,0.0024691358024691358,1492.625,1500,1165,1500
0.19250798225402832,10,137,6,0.002857142857142857,1492.1500000000001,1500,1165,1500
0.21388006210327148,11,136,4,0.005,1491.8699999999999,1500,1165,1500
0.23540592193603516,12,141,5,0.007407407407407408,1491.73,1500,1165,1500
0.2569448947906494,13,141,4,0.01818181818181818,1491.6600000000001,1500,1165,1500
0.2784390449523926,14,142,4,0.006172839506172839,1491.8399999999999,1500,1165,1500
0.29992008209228516,15,138,6,0.025,1491.7650000000001,1500,1165,1500
0.3213920593261719,16,142,2,0.01818181818181818,1492.135,1500,1165,1500
0.3428800106048584,17,145,3,0.008403361344537815,1492.8,1500,1165,1500
0.36436891555786133,18,141,3,0.025,1492.5650000000001,1500,1165,1500
0.38585400581359863,19,144,4,0.015384615384615385,1493.1849999999999,1500,1165,1500
0.4073669910430908,20,142,5,0.015151515151515152,1493.02,1500,1165,1500
0.4288640022277832,21,140,5,0.016666666666666666,1493.1600000000001,1500,1165,1500
0.4503450393676758,22,143,4,0.005263157894736842,1493.6900000000001,1500,1165,1500
0.47183799743652344,23,142,6,0.003787878787878788,1493.585,1500,1165,1500
0.4933328628540039,24,140,8,0.002178649237472767,1493.5150000000001,1500,1165,1500
0.5148248672485352,25,141,9,0.001282051282051282,1493.8399999999999,1500,1165,1500
0.5363049507141113,26,142,11,0.000925925925925926,1493.8199999999999,1500,1165,1500
0.5578100681304932,27,144,13,0.0006377551020408163,1493.905,1500,1165,1500
0.5793240070343018,28,150,15,0.0004166666666666667,1494.52,1500,1165,1500
0.6008179187774658,29,161,18,0.0002574002574002574,1495.2950000000001,1500,1165,1500
0.6223180294036865,30,170,21,0.0001802776275464215,1495.9949999999999,1500,1165,1500
0.6438279151916504,31,166,23,0.00015760441292356187,1495.585,1500,1165,1500
0.6653609275817871,32,165,26,0.00013672409078479628,1495.4349999999999,1495.6640564848888,1165,1500
0.6869730949401855,33,163,28,0.00012677484787018255,1495.6099999999999,1491.9034601157339,1165,1500
0.7086100578308105,34,161,32,0.00010670081092616304,1496.5650000000001,1489.6307713197473,1165,1500
0.7302000522613525,35,158,34,0.00010131712259371833,1497.9200000000001,1488.3962002769651,1165,1500
0.7517518997192383,36,156,36,9.516558812333461e-05,1499.0899999999999,1487.5039245944588,1165,1500
0.7733330726623535,37,155,39,9.210647508519849e-05,1500.1949999999999,1486.9276848371217,1165,1500
0.7949209213256836,38,154,40,8.6333419666753e-05,1500.855,1486.5396210359374,1165.0,1500
0.8166220188140869,39,154,42,8.35282325425994e-05,1500.8900000000001,1486.3376971398382,1164.5,1500
0.8382489681243896,40,153,45,8.35282325425994e-05,1500.155,1486.2409477448343,1163.75,1500
0.8598709106445312,41,152,47,8.18464560484531e-05,1499.5250000000001,1486.1483720230178,1163.25,1500
0.881540060043335,42,151,51,7.978935609989628e-05,1498.895,1486.0708662888474,1162.25,1500
0.9031729698181152,43,151,53,7.978935609989628e-05,1498.415,1486.023880797077,1161.75,1500
0.924813985824585,44,151,55,7.978935609989628e-05,1498.0450000000001,1485.9969693422508,1161.25,1500
0.9464240074157715,45,151,56,7.78089013383131e-05,1497.78,1485.9536565733795,1161.0,1500
0.9680349826812744,46,151,58,8.17594636579184e-05,1497.5650000000001,1485.9797560721101,1160.5,1500
0.9896640777587891,47,151,60,7.874635798094339e-05,1497.345,1485.9362648982362,1160.0,1500
1.011281967163086,48,151,60,8.076239702794379e-05,1497.1800000000001,1485.9508542660674,1160.0,1500
1.0331439971923828,49,151,62,7.926442612555485e-05,1497.0150000000001,1485.9316107506265,1159.5,1500
1.0548019409179688,50,149,61,8.389261744966443e-05,1496.7149999999999,1485.9782570487746,1159.75,1500
1.076436996459961,51,150,55,0.00010237510237510238,1496.7650000000001,1486.1836105443556,1161.25,1500
1.09804105758667,52,151,60,8.656509695290859e-05,1496.865,1486.0322862309868,1160.0,1500
1.1196539402008057,53,150,63,8.490405841399219e-05,1496.77,1486.0207905479117,1159.25,1500
1.1412920951843262,54,129,58,0.00014029180695847364,1494.78,1486.635170484215,1160.5,1500
1.1629540920257568,55,136,64,0.00010423181154888472,1495.4349999999999,1486.3009934403296,1159.0,1500
1.1846380233764648,56,149,66,8.398421096833795e-05,1496.6849999999999,1486.1007421818347,1158.5,1500
1.2064740657806396,57,149,64,8.495454931611588e-05,1496.6949999999999,1486.1166537566476,1159.0,1500
1.2281670570373535,58,149,58,9.259259259259259e-05,1496.645,1486.2048643849771,1160.5,1500
1.2497918605804443,59,150,62,8.130081300813008e-05,1495.4300000000001,1486.093982976015,1159.5,1500
1.2714059352874756,60,151,58,8.333333333333333e-05,1494.74,1486.1137488951506,1160.5,1500
1.293030023574829,61,151,55,8.130081300813008e-05,1494.675,1486.0723494025317,1161.25,1500
1.314655065536499,62,153,50,8.503401360544217e-05,1494.7449999999999,1486.1081503251573,1162.5,1500
1.3363080024719238,63,154,42,9.201324990798675e-05,1494.7650000000001,1486.1850518796768,1164.5,1500
1.3579440116882324,64,157,37,9.45000945000945e-05,1496.1849999999999,1486.1641286131394,1165,1500
1.3795409202575684,65,160,34,0.00010060362173038229,1497.2650000000001,1486.2215356956237,1165,1500
1.4011120796203613,66,160,31,0.00011748120300751879,1497.3299999999999,1486.4238085004345,1165,1500
1.4226999282836914,67,164,29,0.0001234567901234568,1497.895,1486.5220666124012,1165,1500
1.4442720413208008,68,164,27,0.00013631406761177754,1498.1199999999999,1486.6943608623035,1165,1500
1.4658398628234863,69,164,26,0.0001485663348685188,1498.47,1486.8841490567313,1165,1500
1.48738694190979,70,159,24,0.00017593244194229416,1498.47,1487.250409236078,1165,1500
1.5089480876922607,71,155,22,0.00020903010033444816,1498.5899999999999,1487.7091151073259,1165,1500
1.530513048171997,72,155,20,0.0002414875633904854,1499.24,1488.1901432876714,1165,1500
1.5520670413970947,73,154,19,0.00027277686852154935,1499.74,1488.6837999575955,1165,1500
1.573632001876831,74,154,18,0.00029568302779420464,1500.175,1489.1140444836162,1165,1500
1.595215082168579,75,156,18,0.00032092426187419767,1500.335,1489.5867774645599,1165,1500
1.6168670654296875,76,156,17,0.00037537537537537537,1500.0550000000001,1490.3891827719394,1165,1500
1.638437032699585,77,149,18,0.0008771929824561404,1498.8900000000001,1496.1610950350798,1165,1500
1.6600139141082764,78,146,19,0.001488095238095238,1498.0799999999999,1500,1165,1500
1.6815130710601807,79,145,18,0.005681818181818182,1497.4749999999999,1500,1165,1500
1.7029240131378174,80,,,,1498.79,1497.213530583517,1150.0,1500
1.7243139743804932,81,,,,1498.825,1497.2877063738651,1150.0,1500
1.7456550598144531,82,,,,1498.4400000000001,1497.3294247011572,1150.0,1500
1.7671740055084229,83,112,1,0.016666666666666666,1493.3699999999999,1500,1165,1500
1.788701057434082,84,112,3,0.007936507936507936,1493.04,1500,1165,1500
1.8101820945739746,85,114,4,0.005,1493.6900000000001,1500,1165,1500
1.8316550254821777,86,175,6,0.0034965034965034965,1499.9349999999999,1500,1165,1500
1.8531320095062256,87,171,9,0.001851851851851852,1500.085,1500,1165,1500
1.8746960163116455,88,167,11,0.001402524544179523,1497.54,1500,1165,1500
1.896385908126831,89,163,14,0.001075268817204301,1495.0699999999999,1500,1165,1500
1.9179918766021729,90,161,16,0.0009191176470588235,1492.105,1500,1165,1500
1.9395170211791992,91,147,29,0.00031387319522912746,1491.6700000000001,1500,1165,1500
1.9610400199890137,92,138,32,0.00021978021978021978,1491.54,1500,1165,1500
1.9826228618621826,93,135,39,0.00021743857360295715,1494.425,1500,1165,1500
2.004369020462036,94,133,44,0.00022768670309653916,1497.1800000000001,1500,1164.0,1500
2.0259768962860107,95,128,48,0.00027056277056277056,1499.4300000000001,1497.0361177110467,1163.0,1500
2.047589063644409,96,127,54,0.00029806259314456036,1497.8900000000001,1494.1126750335059,1161.5,1500
2.069195032119751,97,125,57,0.00031347962382445143,1495.9400000000001,1492.7284731122772,1160.75,1500
2.0908010005950928,98,123,62,0.0003132832080200501,1494.04,1491.6372676180738,1159.5,1500
2.1124038696289062,99,122,64,0.0003315649867374005,1492.345,1491.0763815747803,1159.0,1500
2.1340370178222656,100,121,68,0.00032530904359141186,1490.4649999999999,1490.420013539853,1158.0,1500
2.1556789875030518,101,120,70,0.000326797385620915,1489.3,1490.44782115054,1157.5,1500
2.1773738861083984,102,119,71,0.0003459010722933241,1488.5150000000001,1490.764978869777,1157.25,1500
2.1989920139312744,103,118,72,0.00034153005464480874,1487.78,1490.8453601743338,1157.0,1500
2.220615863800049,104,115,75,0.0003506311360448808,1486.9100000000001,1491.0593154212829,1156.25,1500
2.242249011993408,105,114,77,0.0003633720930232558,1486.46,1491.2795343135272,1155.75,1500
2.2638518810272217,106,113,80,0.0003471017007983339,1486.01,1491.1658694989317,1155.0,1500
2.2854859828948975,107,111,81,0.0003663003663003663,1485.52,1491.410676896428,1154.75,1500
2.3071560859680176,108,110,82,0.00036075036075036075,1485.1849999999999,1491.4026439936581,1154.5,1500
2.3287739753723145,109,109,85,0.0003527336860670194,1484.73,1491.3436459461543,1153.75,1500
2.3503799438476562,110,107,89,0.00033898305084745765,1484.1800000000001,1491.2198136012148,1152.75,1500
2.371978998184204,111,106,89,0.00036683785766691124,1483.73,1491.5384021414552,1152.75,1500
2.3936049938201904,112,106,91,0.0003720238095238095,1483.3150000000001,1491.6163843972547,1152.25,1500
2.4152228832244873,113,106,100,0.0006184291898577613,1482.895,1494.3573373358072,1150.0,1500
2.436901092529297,114,105,99,0.00037993920972644377,1482.4849999999999,1492.0017456081757,1150.25,1500
2.4585139751434326,115,104,105,0.0006756756756756757,1482.0150000000001,1495.2714138503204,1148.75,1500
2.480117082595825,116,102,108,0.0008718395815170009,1481.45,1497.7577907894522,1148.0,1500
2.5017120838165283,117,103,115,0.0010121457489878543,1481.29,1499.8066978468482,1146.25,1500
2.523305892944336,118,99,108,0.0025252525252525255,1480.7049999999999,1500,1148.0,1500
2.544843912124634,119,101,126,0.004273504273504274,1480.7049999999999,1500,1143.5,1500
2.566387891769409,120,99,123,0.00909090909090909,1480.365,1500,1144.25,1500
2.5879170894622803,121,97,126,0.03333333333333333,1480,1500,1143.5,1500
2.6093270778656006,122,,,,1485.8199999999999,1500,1150.0,1500
2.6306638717651367,123,,,,1485.1300000000001,1500,1150.0,1500
2.651993989944458,124,,,,1484.615,1500,1150.0,1500
2.6733238697052,125,,,,1484.0350000000001,1500,1150.0,1500
2.6946558952331543,126,,,,1483.4449999999999,1500,1150.0,1500
2.7159838676452637,127,,,,1486.5799999999999,1500,1150.0,1500
2.737299919128418,128,,,,1489.9349999999999,1500,1150.0,1500
2.7586400508880615,129,,,,1493.1800000000001,1500,1150.0,1500
2.7799808979034424,130,,,,1496.5350000000001,1500,1150.0,1500
2.801316976547241,131,,,,1500.0,1490.0,1150.0,1500
2.8226819038391113,132,,,,1500.0,1490.0,1150.0,1500
2.844043016433716,133,,,,1500.0,1490.0,1150.0,1500
2.8654420375823975,134,,,,1500.0,1490.0,1150.0,1500
2.886841058731079,135,,,,1500.0,1490.0,1150.0,1500
2.9082188606262207,136,,,,1500.0,1490.0,1150.0,1500
2.9295830726623535,137,,,,1500.0,1490.0,1150.0,1500
2.9509410858154297,138,,,,1500.0,1490.0,1150.0,1500
2.9722940921783447,139,,,,1500.0,1490.0,1150.0,1500
2.9936718940734863,140,,,,1500.0,1490.0,1150.0,1500
3.0150270462036133,141,,,,1500.0,1490.0,1150.0,1500
3.0364620685577393,142,,,,1500.0,1490.0,1150.0,1500
3.057831048965454,143,,,,1500.0,1490.0,1150.0,1500
3.07926607131958,144,,,,1500.0,1490.0,1150.0,1500
3.100672960281372,145,,,,1500.0,1490.0,1150.0,1500
3.122044086456299,146,,,,1500.0,1490.0,1150.0,1500
3.1437489986419678,147,,,,1500.0,1490.0,1150.0,1500
3.1666290760040283,148,,,,1500.0,1490.0,1150.0,1500
3.189192056655884,149,,,,1500.0,1490.0,1150.0,1500
3.2118380069732666,150,,,,1500.0,1490.0,1150.0,1500
3.234355926513672,151,,,,1500.0,1490.0,1150.0,1500
3.256814956665039,152,,,,1500.0,1490.0,1150.0,1500
3.2792980670928955,153,,,,1500.0,1490.0,1150.0,1500
3.3017818927764893,154,,,,1500.0,1490.0,1150.0,1500
3.324267864227295,155,,,,1500.0,1490.0,1150.0,1500
3.3467729091644287,156,,,,1500.0,1490.0,1150.0,1500
3.369278907775879,157,,,,1500.0,1490.0,1150.0,1500
3.3917548656463623,158,,,,1500.0,1490.0,1150.0,1500
3.4142448902130127,159,,,,1500.0,1490.0,1150.0,1500
3.4367358684539795,160,,,,1500.0,1490.0,1150.0,1500
3.4592409133911133,161,,,,1500.0,1490.0,1150.0,1500
3.481718063354492,162,,,,1500.0,1490.0,1150.0,1500
3.5041658878326416,163,,,,1500.0,1490.0,1150.0,1500
3.5266518592834473,164,,,,1500.0,1490.0,1150.0,1500
3.549118995666504,165,,,,1500.0,1490.0,1150.0,1500
3.571568012237549,166,,,,1500.0,1490.0,1150.0,1500
3.5940310955047607,167,,,,1500.0,1490.0,1150.0,1500
3.61649489402771,168,,,,1500.0,1490.0,1150.0,1500
3.6389400959014893,169,,,,1500.0,1490.0,1150.0,1500
3.6614460945129395,170,,,,1500.0,1490.0,1150.0,1500
3.6839280128479004,171,,,,1500.0,1490.0,1150.0,1500
3.7063920497894287,172,,,,1500.0,1490.0,1150.0,1500
3.728856086730957,173,,,,1500.0,1490.0,1150.0,1500
3.7513298988342285,174,,,,1500.0,1490.0,1150.0,1500
3.773793935775757,175,,,,1500.0,1490.0,1150.0,1500
3.796264886856079,176,,,,1500.0,1490.0,1150.0,1500
3.8187339305877686,177,,,,1500.0,1490.0,1150.0,1500
3.841186046600342,178,,,,1500.0,1490.0,1150.0,1500
3.86365008354187,179,,,,1500.0,1490.0,1150.0,1500
3.8861188888549805,180,,,,1500.0,1490.0,1150.0,1500
3.9085888862609863,181,,,,1500.0,1490.0,1150.0,1500
3.931046962738037,182,,,,1500.0,1490.0,1150.0,1500
3.9535090923309326,183,,,,1500.0,1490.0,1150.0,1500
3.975996971130371,184,,,,1500.0,1490.0,1150.0,1500
3.9986419677734375,185,103,123,0.010416666666666666,1494.585,1500,1144.25,1500
4.02142596244812,186,102,113,0.005555555555555556,1494.7750000000001,1500,1146.75,1500
4.044179916381836,187,108,115,0.007692307692307693,1495.635,1500,1146.25,1500
4.066942930221558,188,108,102,0.0015479876160990713,1495.895,1500,1149.5,1500
4.089696884155273,189,110,99,0.0008620689655172414,1496.345,1500,1150.25,1500
4.112452983856201,190,110,100,0.000625,1493.175,1500,1150.0,1500
4.135202884674072,191,112,96,0.0004948045522018803,1490.135,1500,1151.0,1500
4.158597946166992,192,113,91,0.000445632798573975,1487.3499999999999,1500,1152.25,1500
4.182097911834717,193,114,86,0.0003952569169960474,1484.5599999999999,1500,1153.5,1500
4.204992055892944,194,117,79,0.00033456005352960856,1482.075,1500,1155.25,1500
4.227946043014526,195,119,76,0.00030048076923076925,1482.615,1500,1156.0,1500
4.250725984573364,196,123,72,0.0002932551319648094,1483.51,1500,1157.0,1500
4.273510932922363,197,128,67,0.0002699055330634278,1484.21,1492.6038898541606,1158.25,1500
4.296397924423218,198,131,64,0.0002492522432701894,1484.7550000000001,1491.0986215833993,1159.0,1500
4.31927490234375,199,135,61,0.00022401433691756272,1485.45,1490.2081878912734,1159.75,1500
4.342165946960449,200,139,59,0.00021743857360295715,1486.2449999999999,1489.7348688317302,1160.25,1500
4.365100860595703,201,142,57,0.0001967729240456513,1487.0550000000001,1489.2301807080009,1160.75,1500
4.388227939605713,202,148,54,0.00017768301350390902,1488.3800000000001,1488.7713318175136,1161.5,1500
4.411172866821289,203,150,54,0.00016852039096730705,1489.4200000000001,1488.4529690661188,1161.5,1500
4.43408989906311,204,153,53,0.00015649452269170578,1490.6199999999999,1488.1546448525248,1161.75,1500
4.45697808265686,205,155,52,0.00015649452269170578,1491.8399999999999,1488.0106586059858,1162.0,1500
4.4798688888549805,206,157,52,0.00014934289127837514,1493.01,1487.7952300511661,1162.0,1500
4.502758979797363,207,159,52,0.00014269406392694063,1494.2550000000001,1487.6015303085153,1162.0,1500
4.5256829261779785,208,159,51,0.00014076576576576576,1495.2550000000001,1487.473760849399,1162.25,1500
4.5490028858184814,209,161,52,0.000136986301369863,1496.405,1487.3489381698923,1162.0,1500
4.571959972381592,210,162,51,0.00013468013468013467,1497.3499999999999,1487.2431180640722,1162.25,1500
4.594904899597168,211,162,51,0.00013157894736842105,1498.1500000000001,1487.1469122142778,1162.25,1500
4.617914915084839,212,164,52,0.0001282051282051282,1498.9300000000001,1487.0636961373461,1162.0,1500
4.640784025192261,213,165,52,0.00012608750472828143,1499.4949999999999,1487.0000870163385,1162.0,1500
4.663707971572876,214,164,53,0.000132013201320132,1499.8199999999999,1487.0348626608854,1161.75,1500
4.686590909957886,215,164,53,0.00012774655084312725,1500.1949999999999,1486.963448184267,1161.75,1500
4.709452867507935,216,163,54,0.0001337971635001338,1500.365,1487.0084085830588,1161.5,1500
4.732326984405518,217,161,55,0.0001365001365001365,1500.4549999999999,1487.029244385632,1161.25,1500
4.7552170753479,218,161,58,0.0001422677479015507,1500.8050000000001,1487.0884224817819,1160.5,1500
4.778259038925171,219,159,59,0.00014371945961483184,1500.7950000000001,1487.1096727571596,1160.25,1500
4.801164865493774,220,154,63,0.00016291951775822744,1500.4549999999999,1487.3299127216717,1159.25,1500
4.824025869369507,221,151,66,0.00017170329670329672,1500.27,1487.4578748604572,1158.5,1500
4.846919059753418,222,147,70,0.00018244845831052726,1499.7750000000001,1487.6195698066349,1157.5,1500
4.869807958602905,223,144,74,0.00018456995201181247,1499.3399999999999,1487.6992671909313,1156.5,1500
4.8926849365234375,224,140,77,0.00019201228878648233,1498.76,1487.8336896461444,1155.75,1500
4.915651082992554,225,136,81,0.00021777003484320557,1497.9000000000001,1488.1812905907118,1154.75,1500
4.938611030578613,226,132,86,0.00021659085986571366,1496.9349999999999,1488.2522925373023,1153.5,1500
4.961524963378906,227,127,89,0.0002331002331002331,1495.7650000000001,1488.5139863662478,1152.75,1500
4.984410047531128,228,118,95,0.00026737967914438503,1494.0599999999999,1488.981892757932,1151.25,1500
5.007293939590454,229,114,100,0.0003205128205128205,1492.7449999999999,1489.6900175325143,1150.0,1500
5.030168056488037,230,111,106,0.0003770739064856712,1491.5799999999999,1490.4697827809703,1148.5,1500
5.053041934967041,231,110,109,0.0004347826086956522,1490.5450000000001,1491.3099491150624,1147.75,1500
5.0759758949279785,232,109,112,0.0005175983436853002,1489.4349999999999,1492.4732563503337,1147.0,1500
5.098937034606934,233,107,115,0.000664451827242525,1487.8599999999999,1494.4216730611367,1146.25,1500
5.1218249797821045,234,103,115,0.0011160714285714285,1486.085,1499.8619282142106,1146.25,1500
5.144743919372559,235,100,114,0.003125,1484.4649999999999,1500,1146.5,1500
5.167677879333496,236,99,127,0.003703703703703704,1483.21,1500,1143.25,1500
5.190341949462891,237,,,,1488.0650000000001,1497.9777213018988,1150.0,1500
5.212908983230591,238,,,,1487.1949999999999,1497.9935475134369,1150.0,1500
5.235574960708618,239,,,,1486.3050000000001,1497.9562405836066,1150.0,1500
5.258311033248901,240,,,,1485.4000000000001,1497.8623725678035,1150.0,1500
5.280862092971802,241,,,,1484.49,1497.7107958497904,1150.0,1500
5.303377866744995,242,,,,1487.2950000000001,1497.4764033967876,1150.0,1500
5.325924873352051,243,,,,1490.21,1497.0951574602275,1150.0,1500
5.348443031311035,244,,,,1493.345,1496.2622919223386,1150.0,1500
5.37095308303833,245,,,,1496.645,1493.4204978130213,1150.0,1500
5.393492937088013,246,,,,1500.0,1490.0,1150.0,1500
5.415987014770508,247,,,,1500.0,1490.0,1150.0,1500
5.4384520053863525,248,,,,1500.0,1490.0,1150.0,1500
5.460917949676514,249,,,,1500.0,1490.0,1150.0,1500
5.483377933502197,250,,,,1500.0,1490.0,1150.0,1500
5.50589394569397,251,,,,1500.0,1490.0,1150.0,1500
5.528403043746948,252,,,,1500.0,1490.0,1150.0,1500
5.550869941711426,253,,,,1500.0,1490.0,1150.0,1500
5.573330879211426,254,,,,1500.0,1490.0,1150.0,1500
5.595885992050171,255,,,,1500.0,1490.0,1150.0,1500
5.61847186088562,256,,,,1500.0,1490.0,1150.0,1500
5.641067028045654,257,126,95,0.047619047619047616,1496.77,1500,1151.25,1500
5.66403603553772,258,,,,1500.1700000000001,1500,1150.0,1500
5.686446905136108,259,,,,1500.1700000000001,1500,1150.0,1500
5.708836078643799,260,,,,1500.1700000000001,1500,1150.0,1500
5.731282949447632,261,,,,1500.1700000000001,1500,1150.0,1500
5.753706932067871,262,,,,1498.1300000000001,1500,1150.0,1500
5.776141881942749,263,,,,1498.1300000000001,1500,1150.0,1500
5.79855489730835,264,,,,1498.1300000000001,1500,1150.0,1500
5.820935010910034,265,,,,1498.1300000000001,1500,1150.0,1500
5.84334397315979,266,,,,1498.1300000000001,1500,1150.0,1500
5.865871906280518,267,,,,1500.0,1490.0,1150.0,1500
5.888462066650391,268,,,,1500.0,1490.0,1150.0,1500
5.910956859588623,269,,,,1500.0,1490.0,1150.0,1500
5.933435916900635,270,,,,1500.0,1490.0,1150.0,1500
5.955935001373291,271,,,,1500.0,1490.0,1150.0,1500
5.978471994400024,272,,,,1500.0,1490.0,1150.0,1500
6.00094199180603,273,,,,1500.0,1490.0,1150.0,1500
6.023406982421875,274,,,,1500.0,1490.0,1150.0,1500
6.045979022979736,275,,,,1500.0,1490.0,1150.0,1500
6.06848406791687,276,,,,1500.0,1490.0,1150.0,1500
6.090946912765503,277,,,,1500.0,1490.0,1150.0,1500
6.113410949707031,278,,,,1500.0,1490.0,1150.0,1500
6.135986089706421,279,,,,1500.0,1490.0,1150.0,1500
6.158529996871948,280,,,,1500.0,1490.0,1150.0,1500
6.181037902832031,281,,,,1500.0,1490.0,1150.0,1500
6.203505992889404,282,,,,1500.0,1490.0,1150.0,1500
6.225967884063721,283,,,,1500.0,1490.0,1150.0,1500
6.248449087142944,284,,,,1500.0,1490.0,1150.0,1500
6.2709269523620605,285,,,,1500.0,1490.0,1150.0,1500
6.293370008468628,286,,,,1500.0,1490.0,1150.0,1500
6.315902948379517,287,,,,1500.0,1490.0,1150.0,1500
6.338443994522095,288,,,,1500.0,1490.0,1150.0,1500
6.360918998718262,289,,,,1500.0,1490.0,1150.0,1500
6.383411884307861,290,,,,1500.0,1490.0,1150.0,1500
6.405916929244995,291,,,,1500.0,1490.0,1150.0,1500
6.428406000137329,292,,,,1500.0,1490.0,1150.0,1500
6.450886964797974,293,,,,1500.0,1490.0,1150.0,1500
6.473383903503418,294,,,,1500.0,1490.0,1150.0,1500
6.49590802192688,295,,,,1500.0,1490.0,1150.0,1500
6.518442869186401,296,,,,1500.0,1490.0,1150.0,1500
6.540895938873291,297,,,,1500.0,1490.0,1150.0,1500
6.563380002975464,298,,,,1500.0,1490.0,1150.0,1500
6.585922002792358,299,,,,1500.0,1490.0,1150.0,1500
6.6083948612213135,300,,,,1500.0,1490.0,1150.0,1500
6.6308770179748535,301,,,,1500.0,1490.0,1150.0,1500
6.653342962265015,302,,,,1500.0,1490.0,1150.0,1500
6.675899028778076,303,,,,1500.0,1490.0,1150.0,1500
6.69847297668457,304,,,,1500.0,1490.0,1150.0,1500
6.7210729122161865,305,,,,1500.0,1490.0,1150.0,1500
6.743635892868042,306,,,,1500.0,1490.0,1150.0,1500
6.766180992126465,307,,,,1500.0,1490.0,1150.0,1500
6.788696050643921,308,,,,1500.0,1490.0,1150.0,1500
6.811182022094727,309,,,,1500.0,1490.0,1150.0,1500
6.833664894104004,310,,,,1500.0,1490.0,1150.0,1500
6.856162071228027,311,,,,1500.0,1490.0,1150.0,1500
6.878653049468994,312,,,,1500.0,1490.0,1150.0,1500
6.901139974594116,313,,,,1500.0,1490.0,1150.0,1500
6.923632860183716,314,,,,1500.0,1490.0,1150.0,1500
6.946119070053101,315,,,,1500.0,1490.0,1150.0,1500
6.968616008758545,316,,,,1500.0,1490.0,1150.0,1500
6.991101980209351,317,,,,1500.0,1490.0,1150.0,1500
7.013566017150879,318,,,,1500.0,1490.0,1150.0,1500
7.036046028137207,319,,,,1500.0,1490.0,1150.0,1500
7.058513879776001,320,,,,1500.0,1490.0,1150.0,1500
7.081032037734985,321,,,,1500.0,1490.0,1150.0,1500
7.103607892990112,322,,,,1500.0,1490.0,1150.0,1500
7.126389980316162,323,,,,1500.0,1490.0,1150.0,1500
7.148983001708984,324,,,,1500.0,1490.0,1150.0,1500
7.171567916870117,325,,,,1500.0,1490.0,1150.0,1500
7.194061040878296,326,,,,1500.0,1490.0,1150.0,1500
7.216551065444946,327,,,,1500.0,1490.0,1150.0,1500
7.239078998565674,328,,,,1500.0,1490.0,1150.0,1500
7.261564016342163,329,,,,1500.0,1490.0,1150.0,1500
7.28404688835144,330,,,,1500.0,1490.0,1150.0,1500
7.306535005569458,331,,,,1500.0,1490.0,1150.0,1500
7.3290300369262695,332,,,,1500.0,1490.0,1150.0,1500
7.351515054702759,333,,,,1500.0,1490.0,1150.0,1500
7.374007940292358,334,,,,1500.0,1490.0,1150.0,1500
7.396503925323486,335,,,,1500.0,1490.0,1150.0,1500
7.419314861297607,336,,,,1500.0,1490.0,1150.0,1500
7.44181489944458,337,,,,1500.0,1490.0,1150.0,1500
7.464298963546753,338,,,,1500.0,1490.0,1150.0,1500
7.486783981323242,339,,,,1500.0,1490.0,1150.0,1500
7.509267091751099,340,,,,1500.0,1490.0,1150.0,1500
7.531735897064209,341,,,,1500.0,1490.0,1150.0,1500
7.554213047027588,342,,,,1500.0,1490.0,1150.0,1500
7.576688051223755,343,,,,1500.0,1490.0,1150.0,1500
7.5991809368133545,344,,,,1500.0,1490.0,1150.0,1500
7.6216490268707275,345,,,,1500.0,1490.0,1150.0,1500
7.644106864929199,346,,,,1500.0,1490.0,1150.0,1500
7.6666178703308105,347,,,,1500.0,1490.0,1150.0,1500
7.689126014709473,348,,,,1500.0,1490.0,1150.0,1500
7.711585998535156,349,,,,1500.0,1490.0,1150.0,1500
7.734060049057007,350,,,,1500.0,1490.0,1150.0,1500
7.756521940231323,351,,,,1500.0,1490.0,1150.0,1500
7.77904200553894,352,,,,1500.0,1490.0,1150.0,1500
7.801629066467285,353,,,,1500.0,1490.0,1150.0,1500
7.824153900146484,354,,,,1500.0,1490.0,1150.0,1500
7.846668004989624,355,,,,1500.0,1490.0,1150.0,1500
7.869185924530029,356,,,,1500.0,1490.0,1150.0,1500
7.8917200565338135,357,,,,1500.0,1490.0,1150.0,1500
7.91423487663269,358,,,,1500.0,1490.0,1150.0,1500
7.936730861663818,359,,,,1500.0,1490.0,1150.0,1500
7.95926308631897,360,,,,1500.0,1490.0,1150.0,1500
7.981787919998169,361,,,,1500.0,1490.0,1150.0,1500
8.004256963729858,362,,,,1500.0,1490.0,1150.0,1500
8.026750087738037,363,,,,1500.0,1490.0,1150.0,1500
8.049261093139648,364,,,,1500.0,1490.0,1150.0,1500
8.071778059005737,365,,,,1500.0,1490.0,1150.0,1500
8.09424090385437,366,,,,1500.0,1490.0,1150.0,1500
8.116878986358643,367,96,133,0.03333333333333333,1493.9200000000001,1500,1141.75,1500
8.139694929122925,368,99,128,0.006493506493506494,1494.5250000000001,1500,1143.0,1500
8.162533044815063,369,96,117,0.009259259259259259,1494.5450000000001,1500,1145.75,1500
8.185528993606567,370,98,120,0.0022222222222222222,1495.0550000000001,1500,1145.0,1500
8.2085280418396,371,96,116,0.001644736842105263,1495.175,1500,1146.0,1500
8.231432914733887,372,97,113,0.0011695906432748538,1491.75,1500,1146.75,1500
8.254477977752686,373,99,104,0.0008163265306122449,1488.595,1500,1149.0,1500
8.277304887771606,374,99,99,0.000676132521974307,1485.0599999999999,1500,1150.25,1500
8.300158023834229,375,100,98,0.0004743833017077799,1481.74,1500,1150.5,1500
8.3229398727417,376,100,97,0.00048216007714561236,1480,1500,1150.75,1500
8.345754861831665,377,102,93,0.0005194805194805195,1480,1500,1151.75,1500
8.368640899658203,378,105,91,0.0005012531328320802,1480,1500,1152.25,1500
8.391385078430176,379,109,87,0.00048262548262548264,1480,1498.1510482865847,1153.25,1500
8.414252042770386,380,112,83,0.00048262548262548264,1480,1496.411451546988,1154.25,1500
8.437089920043945,381,115,80,0.000449842555105713,1480.01,1494.8887279847906,1155.0,1500
8.45999789237976,382,121,73,0.00039872408293460925,1480.79,1493.6066767027394,1156.75,1500
8.482905864715576,383,124,70,0.0003898635477582846,1481.325,1493.0916083681223,1157.5,1500
8.50596809387207,384,127,67,0.0003518648838845883,1482.085,1492.3873540912955,1158.25,1500
8.529011011123657,385,130,65,0.0003315649867374005,1482.9549999999999,1492.0415368048532,1158.75,1500
8.551913976669312,386,134,63,0.00029726516052318666,1484.085,1491.5136436260887,1159.25,1500
8.574824094772339,387,143,59,0.0002016942315449778,1485.9200000000001,1490.2401480483711,1160.25,1500
8.59794807434082,388,146,52,0.00016244314489928524,1487.155,1489.5088271939812,1162.0,1500
8.62086796760559,389,150,48,0.00013683634373289546,1488.4300000000001,1488.906970043425,1163.0,1500
8.643764019012451,390,155,46,0.00012484394506866417,1489.7950000000001,1488.4292645192256,1163.5,1500
8.666713953018188,391,156,45,0.00012077294685990338,1490.8299999999999,1488.0594849288923,1163.75,1500
8.689656019210815,392,158,45,0.00011574074074074075,1492.165,1487.7261795255067,1163.75,1500
8.712538003921509,393,160,45,0.0001156737998843262,1493.5050000000001,1487.4513203690688,1163.75,1500
8.735559940338135,394,160,45,0.0001156737998843262,1494.72,1487.2151292850685,1163.75,1500
8.758903980255127,395,160,46,0.00011446886446886447,1496.0699999999999,1486.9859838086452,1163.5,1500
8.78187108039856,396,160,46,0.0001156737998843262,1497.26,1486.8164418021611,1163.5,1500
8.80477786064148,397,160,47,0.00011322463768115942,1498.075,1486.7034805862656,1163.25,1500
8.827828884124756,398,159,49,0.00011091393078970719,1498.75,1486.6288443032415,1162.75,1500
8.850749015808105,399,158,51,0.00011446886446886447,1499.21,1486.6420261607691,1162.25,1500
8.873650074005127,400,157,52,0.00011827321111768185,1499.4000000000001,1486.6734988933063,1162.0,1500
8.896547079086304,401,155,54,0.00012088974854932302,1499.4449999999999,1486.6997810693119,1161.5,1500
8.919548034667969,402,155,56,0.00012081672103419114,1499.5799999999999,1486.7041267744542,1161.0,1500
8.9424889087677,403,152,59,0.00012631047113805733,1499.26,1486.7697009467465,1160.25,1500
8.965580940246582,404,151,61,0.00012487512487512488,1499.085,1486.764548809108,1159.75,1500
8.988709926605225,405,149,64,0.00012631047113805733,1498.76,1486.7907438784066,1159.0,1500
9.011599063873291,406,147,68,0.00013061650992685477,1498.325,1486.848746976337,1158.0,1500
9.03450608253479,407,139,74,0.0001417233560090703,1497.3299999999999,1486.9883141554872,1156.5,1500
9.057448863983154,408,138,78,0.00014705882352941175,1496.915,1487.0778137234302,1155.5,1500
9.080374956130981,409,132,84,0.00015822784810126583,1496.0250000000001,1487.2332629527812,1154.0,1500
9.103267908096313,410,130,87,0.0001602307322544464,1495.48,1487.2952493154498,1153.25,1500
9.126163959503174,411,126,90,0.00016877637130801687,1494.7449999999999,1487.4285923287441,1152.5,1500
9.149091005325317,412,122,96,0.00018018018018018018,1493.55,1487.6019938766117,1151.0,1500
9.172051906585693,413,120,100,0.00020412329046744235,1492.6700000000001,1487.9192377988138,1150.0,1500
9.19495701789856,414,117,102,0.0002405002405002405,1491.4000000000001,1488.3986324147668,1149.5,1500
9.218213081359863,415,113,109,0.0003773584905660377,1490.04,1490.0182629348528,1147.75,1500
9.241173028945923,416,112,112,0.0005167958656330749,1488.855,1491.7988160412294,1147.0,1500
9.26407504081726,417,111,114,0.0005672149744753262,1487.875,1492.7284987481182,1146.5,1500
9.286963939666748,418,107,117,0.000794912559618442,1486.55,1495.6533283356384,1145.75,1500
9.309849977493286,419,105,121,0.001277139208173691,1485.585,1500,1144.75,1500
9.332633972167969,420,101,122,0.002777777777777778,1484.3099999999999,1500,1144.5,1500
9.35557508468628,421,99,130,0.010101010101010102,1483.405,1500,1142.5,1500
9.378390073776245,422,,,,1488.655,1500,1150.0,1500
9.400835037231445,423,,,,1487.675,1500,1150.0,1500
9.423269987106323,424,,,,1486.74,1500,1150.0,1500
9.445741891860962,425,,,,1485.7850000000001,1500,1150.0,1500
9.468225955963135,426,,,,1484.7650000000001,1500,1150.0,1500
9.490632057189941,427,,,,1487.46,1500,1150.0,1500
9.513020038604736,428,,,,1490.375,1500,1150.0,1500
9.535587072372437,429,,,,1493.4000000000001,1500,1150.0,1500
9.558223009109497,430,,,,1496.645,1499.8178042103275,1150.0,1500
9.580772876739502,431,,,,1500.0,1490.0,1150.0,1500
9.603267908096313,432,,,,1500.0,1490.0,1150.0,1500
9.625813007354736,433,,,,1500.0,1490.0,1150.0,1500
9.648384094238281,434,,,,1500.0,1490.0,1150.0,1500
9.670902967453003,435,,,,1500.0,1490.0,1150.0,1500
9.693389892578125,436,,,,1500.0,1490.0,1150.0,1500
9.715925931930542,437,,,,1500.0,1490.0,1150.0,1500
9.738468885421753,438,,,,1500.0,1490.0,1150.0,1500
9.760968923568726,439,,,,1500.0,1490.0,1150.0,1500
9.783499002456665,440,,,,1500.0,1490.0,1150.0,1500
9.805994987487793,441,,,,1500.0,1490.0,1150.0,1500
9.828451871871948,442,,,,1500.0,1490.0,1150.0,1500
9.850936889648438,443,,,,1500.0,1490.0,1150.0,1500
9.873440980911255,444,,,,1500.0,1490.0,1150.0,1500
9.89594292640686,445,,,,1500.0,1490.0,1150.0,1500
9.918442964553833,446,,,,1500.0,1490.0,1150.0,1500
9.940921068191528,447,,,,1500.0,1490.0,1150.0,1500
9.963420867919922,448,,,,1500.0,1490.0,1150.0,1500
9.986051082611084,449,,,,1500.0,1490.0,1150.0,1500
10.00927996635437,450,,,,1500.0,1490.0,1150.0,1500
10.031980037689209,451,,,,1500.0,1490.0,1150.0,1500
10.05451488494873,452,,,,1500.0,1490.0,1150.0,1500
10.077048063278198,453,,,,1500.0,1490.0,1150.0,1500
10.099555015563965,454,,,,1500.0,1490.0,1150.0,1500
10.122037887573242,455,,,,1500.0,1490.0,1150.0,1500
10.14454197883606,456,,,,1500.0,1490.0,1150.0,1500
10.16708493232727,457,,,,1500.0,1490.0,1150.0,1500
10.189604997634888,458,,,,1500.0,1490.0,1150.0,1500
10.212090969085693,459,,,,1500.0,1490.0,1150.0,1500
10.234611988067627,460,,,,1500.0,1490.0,1150.0,1500
10.257333993911743,461,95,132,0.03333333333333333,1493.825,1500,1142.0,1500
10.28038501739502,462,101,130,0.005050505050505051,1494.72,1500,1142.5,1500
10.303222894668579,463,102,125,0.001984126984126984,1495.1099999999999,1500,1143.75,1500
10.326122999191284,464,103,122,0.0013717421124828531,1495.4949999999999,1500,1144.5,1500
10.348973989486694,465,105,115,0.0008064516129032258,1495.97,1500,1146.25,1500
10.371773958206177,466,106,113,0.0006211180124223603,1492.4400000000001,1500,1146.75,1500
10.39457893371582,467,108,110,0.0004601932811780948,1489.3599999999999,1500,1147.5,1500
10.417373895645142,468,109,107,0.0003766478342749529,1486.2349999999999,1500,1148.25,1500
10.440152883529663,469,110,103,0.00029708853238265005,1483.165,1500,1149.25,1500
10.462939023971558,470,111,100,0.00025510204081632655,1480.21,1500,1150.0,1500
10.485904932022095,471,113,97,0.00022222222222222223,1480.98,1498.0033020918863,1150.75,1500
10.508995056152344,472,116,91,0.00021222410865874363,1481.625,1493.0650400144052,1152.25,1500
10.531888008117676,473,120,88,0.00021074815595363542,1482.355,1491.2769016591808,1153.0,1500
10.554785966873169,474,125,83,0.0001987281399046105,1483.165,1489.9836875261124,1154.25,1500
10.577924013137817,475,129,77,0.00017461148943600488,1483.8050000000001,1489.1106808979591,1155.75,1500
10.600867986679077,476,132,75,0.00016504373659019642,1484.395,1488.5589290936689,1156.25,1500
10.623780012130737,477,135,71,0.00015278838808250572,1485.04,1488.1289707154963,1157.25,1500
10.646689891815186,478,137,70,0.00014367816091954023,1485.76,1487.8048987705113,1157.5,1500
10.669645071029663,479,139,68,0.00013528138528138528,1486.7149999999999,1487.5591238670286,1158.0,1500
10.692569017410278,480,142,67,0.0001277139208173691,1487.9400000000001,1487.3560611023893,1158.25,1500
10.715641021728516,481,144,65,0.00012351778656126481,1489.125,1487.2153953241673,1158.75,1500
10.73874807357788,482,145,63,0.00012351778656126481,1490.22,1487.12668900207,1159.25,1500
10.761674880981445,483,148,65,0.00011441647597254005,1491.4000000000001,1486.9393442162016,1158.75,1500
10.784658908843994,484,149,65,0.00011205737337516809,1492.22,1486.8290824236983,1158.75,1500
10.807991027832031,485,147,66,0.00011816140848398913,1492.71,1486.8336726938346,1158.5,1500
10.830942869186401,486,147,68,0.00011562030292519366,1493.355,1486.7588382045817,1158.0,1500
10.853892087936401,487,146,70,0.00011439029970258523,1493.8,1486.7081400839756,1157.5,1500
10.876829862594604,488,146,71,0.00011091393078970719,1494.415,1486.6406121647169,1157.25,1500
10.899772882461548,489,145,72,0.00011091393078970719,1494.885,1486.6162447102254,1157.0,1500
10.922703981399536,490,145,73,0.00011349449551696743,1495.1700000000001,1486.6278309321976,1156.75,1500
10.945757865905762,491,142,76,0.0001156737998843262,1495.0599999999999,1486.6417799891942,1156.0,1500
10.968890905380249,492,141,77,0.0001156737998843262,1495.04,1486.6339360025172,1155.75,1500
10.991821050643921,493,140,77,0.00011695906432748539,1494.8599999999999,1486.6493312353039,1155.75,1500
11.014708995819092,494,139,79,0.00011827321111768185,1494.5699999999999,1486.6686885409483,1155.25,1500
11.037787914276123,495,137,79,0.00011947431302270011,1494.3,1486.6820124645371,1155.25,1500
11.06071400642395,496,137,80,0.00012081672103419114,1494.05,1486.7006329627611,1155.0,1500
11.083656072616577,497,137,79,0.00012239902080783354,1493.7950000000001,1486.7244646816027,1155.25,1500
11.106666088104248,498,137,80,0.00012239902080783354,1493.48,1486.7359497716209,1155.0,1500
11.129930019378662,499,136,80,0.00011973180076628352,1493.0650000000001,1486.718095441182,1155.0,1500
11.152901887893677,500,135,79,0.00012800819252432156,1492.5350000000001,1486.8153730557697,1155.25,1500
11.176040887832642,501,136,81,0.00011574074074074075,1492.365,1486.6927654787903,1154.75,1500
11.19912600517273,502,135,82,0.00012081672103419114,1492.0550000000001,1486.7486682028746,1154.5,1500
11.222081899642944,503,135,82,0.00011695906432748539,1491.9000000000001,1486.7100916358077,1154.5,1500
11.245014905929565,504,133,82,0.00012227928588897041,1491.55,1486.7672999261938,1154.5,1500
11.268287897109985,505,133,83,0.00011837121212121212,1491.45,1486.7271160876146,1154.25,1500
11.291205883026123,506,132,86,0.00012227928588897041,1491.3150000000001,1486.7676593901469,1153.5,1500
11.314091920852661,507,131,89,0.00012099213551119177,1491.125,1486.7533810010725,1152.75,1500
11.336993932723999,508,126,93,0.00013550135501355014,1490.5599999999999,1486.9115755303019,1151.75,1500
11.359920024871826,509,124,95,0.00014534883720930232,1490.24,1487.0356673887024,1151.25,1500
11.38285207748413,510,122,99,0.00016666666666666666,1489.9849999999999,1487.2875041574184,1150.25,1500
11.405921936035156,511,122,100,0.0001893939393939394,1489.8150000000001,1487.5884300833443,1150.0,1500
11.429007053375244,512,120,104,0.00021701388888888888,1489.45,1487.9608267461485,1149.0,1500
11.451933860778809,513,120,107,0.0002652519893899204,1488.9849999999999,1488.5915006762214,1148.25,1500
11.474853038787842,514,117,110,0.0003225806451612903,1488.2249999999999,1489.3650885932072,1147.5,1500
11.497941017150879,515,117,113,0.00039872408293460925,1487.645,1490.4068758417538,1146.75,1500
11.520854949951172,516,113,118,0.0005668934240362812,1486.74,1492.5331833909179,1145.5,1500
11.543752908706665,517,111,120,0.0007496251874062968,1485.98,1494.9891340765132,1145.0,1500
11.56663703918457,518,110,126,0.0011614401858304297,1485.5999999999999,1500,1143.5,1500
11.589473009109497,519,109,125,0.0010869565217391304,1485.155,1500,1143.75,1500
11.612276077270508,520,102,129,0.0030303030303030303,1484.2550000000001,1500,1142.75,1500
11.635056018829346,521,98,132,0.007936507936507936,1483.4349999999999,1500,1142.0,1500
11.6580970287323,522,,,,1488.895,1500,1150.0,1500
11.680518865585327,523,,,,1488.095,1500,1150.0,1500
11.702924013137817,524,,,,1487.4000000000001,1500,1150.0,1500
11.725504875183105,525,,,,1486.2850000000001,1500,1150.0,1500
11.748143911361694,526,,,,1485.1500000000001,1500,1150.0,1500
11.77057409286499,527,,,,1487.845,1500,1150.0,1500
11.792995929718018,528,,,,1490.595,1500,1150.0,1500
11.815546035766602,529,,,,1493.4000000000001,1500,1150.0,1500
11.838140964508057,530,,,,1496.5899999999999,1497.6533020458255,1150.0,1500
11.86067795753479,531,,,,1500.0,1490.0,1150.0,1500
11.883145093917847,532,,,,1500.0,1490.0,1150.0,1500
11.905776023864746,533,,,,1500.0,1490.0,1150.0,1500
11.928464889526367,534,,,,1500.0,1490.0,1150.0,1500
11.950984954833984,535,,,,1500.0,1490.0,1150.0,1500
11.973550081253052,536,,,,1500.0,1490.0,1150.0,1500
11.996059894561768,537,,,,1500.0,1490.0,1150.0,1500
12.01855206489563,538,,,,1500.0,1490.0,1150.0,1500
12.041034936904907,539,,,,1500.0,1490.0,1150.0,1500
12.063518047332764,540,,,,1500.0,1490.0,1150.0,1500
12.086026906967163,541,,,,1500.0,1490.0,1150.0,1500
12.108498096466064,542,,,,1500.0,1490.0,1150.0,1500
12.130974054336548,543,,,,1500.0,1490.0,1150.0,1500
12.15348196029663,544,,,,1500.0,1490.0,1150.0,1500
12.17607593536377,545,,,,1500.0,1490.0,1150.0,1500
12.198652982711792,546,,,,1500.0,1490.0,1150.0,1500
12.22121787071228,547,,,,1500.0,1490.0,1150.0,1500
12.243754863739014,548,,,,1500.0,1490.0,1150.0,1500
12.266232013702393,549,,,,1500.0,1490.0,1150.0,1500
12.288708925247192,550,,,,1500.0,1490.0,1150.0,1500
12.311198949813843,551,,,,1500.0,1490.0,1150.0,1500
12.333667993545532,552,,,,1500.0,1490.0,1150.0,1500
12.356138944625854,553,,,,1500.0,1490.0,1150.0,1500
12.378676891326904,554,,,,1500.0,1490.0,1150.0,1500
12.401483058929443,555,,,,1500.0,1490.0,1150.0,1500
12.424006938934326,556,,,,1500.0,1490.0,1150.0,1500
12.44648289680481,557,,,,1500.0,1490.0,1150.0,1500
12.468957901000977,558,,,,1500.0,1490.0,1150.0,1500
12.491432905197144,559,,,,1500.0,1490.0,1150.0,1500
12.513890027999878,560,,,,1500.0,1490.0,1150.0,1500
12.536371946334839,561,,,,1500.0,1490.0,1150.0,1500
12.558878898620605,562,,,,1500.0,1490.0,1150.0,1500
12.58136796951294,563,,,,1500.0,1490.0,1150.0,1500
12.603847026824951,564,,,,1500.0,1490.0,1150.0,1500
12.626335859298706,565,,,,1500.0,1490.0,1150.0,1500
12.64882493019104,566,,,,1500.0,1490.0,1150.0,1500
12.671351909637451,567,,,,1500.0,1490.0,1150.0,1500
12.693865060806274,568,,,,1500.0,1490.0,1150.0,1500
12.716366052627563,569,,,,1500.0,1490.0,1150.0,1500
12.738935947418213,570,,,,1500.0,1490.0,1150.0,1500
12.761483907699585,571,,,,1500.0,1490.0,1150.0,1500
12.784008979797363,572,,,,1500.0,1490.0,1150.0,1500
12.806520938873291,573,,,,1500.0,1490.0,1150.0,1500
12.829041957855225,574,,,,1500.0,1490.0,1150.0,1500
12.851562976837158,575,,,,1500.0,1490.0,1150.0,1500
12.874101877212524,576,,,,1500.0,1490.0,1150.0,1500
12.896622896194458,577,,,,1500.0,1490.0,1150.0,1500
12.919161081314087,578,,,,1500.0,1490.0,1150.0,1500
12.941673040390015,579,,,,1500.0,1490.0,1150.0,1500
12.964176893234253,580,,,,1500.0,1490.0,1150.0,1500
12.986698865890503,581,,,,1500.0,1490.0,1150.0,1500
13.009214878082275,582,,,,1500.0,1490.0,1150.0,1500
13.031697988510132,583,,,,1500.0,1490.0,1150.0,1500
13.054203033447266,584,,,,1500.0,1490.0,1150.0,1500
13.07674503326416,585,,,,1500.0,1490.0,1150.0,1500
13.099262952804565,586,,,,1500.0,1490.0,1150.0,1500
13.1217679977417,587,,,,1500.0,1490.0,1150.0,1500
13.144274950027466,588,,,,1500.0,1490.0,1150.0,1500
13.16682505607605,589,,,,1500.0,1490.0,1150.0,1500
13.189334869384766,590,,,,1500.0,1490.0,1150.0,1500
13.211926937103271,591,,,,1500.0,1490.0,1150.0,1500
13.23469090461731,592,,,,1500.0,1490.0,1150.0,1500
13.257498025894165,593,,,,1500.0,1490.0,1150.0,1500
13.280122995376587,594,,,,1500.0,1490.0,1150.0,1500
13.30268406867981,595,,,,1500.0,1490.0,1150.0,1500
13.32522702217102,596,,,,1500.0,1490.0,1150.0,1500
13.348035097122192,597,,,,1500.0,1490.0,1150.0,1500
13.370577096939087,598,,,,1500.0,1490.0,1150.0,1500
13.393095016479492,599,,,,1500.0,1490.0,1150.0,1500
13.41576600074768,600,,,,1500.0,1490.0,1150.0,1500
13.438452959060669,601,,,,1500.0,1490.0,1150.0,1500
13.460982084274292,602,,,,1500.0,1490.0,1150.0,1500
13.483468055725098,603,,,,1500.0,1490.0,1150.0,1500
13.506022930145264,604,,,,1500.0,1490.0,1150.0,1500
13.528517961502075,605,,,,1500.0,1490.0,1150.0,1500
13.551024913787842,606,,,,1500.0,1490.0,1150.0,1500
13.573555946350098,607,,,,1500.0,1490.0,1150.0,1500
13.596076965332031,608,,,,1500.0,1490.0,1150.0,1500
13.618589878082275,609,,,,1500.0,1490.0,1150.0,1500
13.641114950180054,610,,,,1500.0,1490.0,1150.0,1500
13.663644075393677,611,,,,1500.0,1490.0,1150.0,1500
13.686169862747192,612,,,,1500.0,1490.0,1150.0,1500
13.70867395401001,613,,,,1500.0,1490.0,1150.0,1500
13.731162071228027,614,,,,1500.0,1490.0,1150.0,1500
13.753673076629639,615,,,,1500.0,1490.0,1150.0,1500
13.776171922683716,616,,,,1500.0,1490.0,1150.0,1500
13.798680067062378,617,,,,1500.0,1490.0,1150.0,1500
13.821168899536133,618,,,,1500.0,1490.0,1150.0,1500
13.843683004379272,619,,,,1500.0,1490.0,1150.0,1500
13.866200923919678,620,,,,1500.0,1490.0,1150.0,1500
13.888815879821777,621,,,,1500.0,1490.0,1150.0,1500
13.911580085754395,622,,,,1500.0,1490.0,1150.0,1500
13.934138059616089,623,,,,1500.0,1490.0,1150.0,1500
13.956722021102905,624,,,,1500.0,1490.0,1150.0,1500
13.979269027709961,625,,,,1500.0,1490.0,1150.0,1500
14.001786947250366,626,,,,1500.0,1490.0,1150.0,1500
14.024302005767822,627,,,,1500.0,1490.0,1150.0,1500
14.046810865402222,628,,,,1500.0,1490.0,1150.0,1500
14.06936001777649,629,,,,1500.0,1490.0,1150.0,1500
14.091863870620728,630,,,,1500.0,1490.0,1150.0,1500
14.114357948303223,631,,,,1500.0,1490.0,1150.0,1500
14.136877059936523,632,,,,1500.0,1490.0,1150.0,1500
14.159777879714966,633,,,,1500.0,1490.0,1150.0,1500
14.182322025299072,634,,,,1500.0,1490.0,1150.0,1500
14.2047860622406,635,,,,1500.0,1490.0,1150.0,1500
14.227412939071655,636,,,,1500.0,1490.0,1150.0,1500
14.249908924102783,637,,,,1500.0,1490.0,1150.0,1500
14.272398948669434,638,,,,1500.0,1490.0,1150.0,1500
14.294897079467773,639,,,,1500.0,1490.0,1150.0,1500
14.317607879638672,640,,,,1500.0,1490.0,1150.0,1500
14.340133905410767,641,,,,1500.0,1490.0,1150.0,1500
14.362678050994873,642,,,,1500.0,1490.0,1150.0,1500
14.385354995727539,643,,,,1500.0,1490.0,1150.0,1500
14.407996892929077,644,,,,1500.0,1490.0,1150.0,1500
14.430548906326294,645,,,,1500.0,1490.0,1150.0,1500
14.453068017959595,646,,,,1500.0,1490.0,1150.0,1500
14.475759983062744,647,,,,1500.0,1490.0,1150.0,1500
14.498457908630371,648,,,,1500.0,1490.0,1150.0,1500
14.520943880081177,649,,,,1500.0,1490.0,1150.0,1500
14.543442964553833,650,,,,1500.0,1490.0,1150.0,1500
14.565941095352173,651,,,,1500.0,1490.0,1150.0,1500
14.588486909866333,652,,,,1500.0,1490.0,1150.0,1500
14.610957860946655,653,,,,1500.0,1490.0,1150.0,1500
14.633409023284912,654,,,,1500.0,1490.0,1150.0,1500
14.656017065048218,655,,,,1500.0,1490.0,1150.0,1500
14.678576946258545,656,,,,1500.0,1490.0,1150.0,1500
14.701042890548706,657,,,,1500.0,1490.0,1150.0,1500
14.723512887954712,658,,,,1500.0,1490.0,1150.0,1500
14.745990991592407,659,,,,1500.0,1490.0,1150.0,1500
14.768451929092407,660,,,,1500.0,1490.0,1150.0,1500
14.790966033935547,661,,,,1500.0,1490.0,1150.0,1500
14.81343698501587,662,,,,1500.0,1490.0,1150.0,1500
14.835907936096191,663,,,,1500.0,1490.0,1150.0,1500
14.858371019363403,664,,,,1500.0,1490.0,1150.0,1500
14.880847930908203,665,,,,1500.0,1490.0,1150.0,1500
14.903335094451904,666,,,,1500.0,1490.0,1150.0,1500
14.926009893417358,667,,,,1500.0,1490.0,1150.0,1500
14.94884204864502,668,,,,1500.0,1490.0,1150.0,1500
14.971544027328491,669,95,132,0.017857142857142856,1493.825,1500,1142.0,1500
14.994355916976929,670,98,122,0.005681818181818182,1494.4349999999999,1500,1144.5,1500
15.017108917236328,671,99,125,0.004807692307692308,1494.8399999999999,1500,1143.75,1500
15.039874076843262,672,101,110,0.0022624434389140274,1495.335,1500,1147.5,1500
15.06264591217041,673,101,112,0.001152073732718894,1495.6300000000001,1500,1147.0,1500
15.085464000701904,674,102,103,0.001282051282051282,1492.1199999999999,1500,1149.25,1500
15.108309984207153,675,104,110,0.0005599104143337066,1488.8800000000001,1500,1147.5,1500
15.131078958511353,676,105,105,0.0005807200929152149,1485.595,1500,1148.75,1500
15.15385890007019,677,105,102,0.0005291005291005291,1482.3299999999999,1500,1149.5,1500
15.176728963851929,678,107,98,0.00044365572315882877,1480,1500,1150.5,1500
15.199419021606445,679,109,94,0.00041017227235438887,1480,1500,1151.5,1500
15.222146034240723,680,110,88,0.0003748125937031484,1480.2049999999999,1500,1153.0,1500
15.244942903518677,681,112,86,0.00033456005352960856,1480.7,1495.6109828544252,1153.5,1500
15.268189907073975,682,113,83,0.00030048076923076925,1480.98,1493.3082273417535,1154.25,1500
15.291120052337646,683,115,80,0.0002870264064293915,1481.47,1492.3086363874502,1155.0,1500
15.31400203704834,684,117,79,0.0002587991718426501,1482.0150000000001,1491.0031119313742,1155.25,1500
15.336883068084717,685,119,77,0.00024213075060532688,1482.5,1490.5186480552727,1155.75,1500
15.359795093536377,686,123,73,0.00023618327822390176,1483.23,1490.114636516767,1156.75,1500
15.382746934890747,687,125,71,0.0002145002145002145,1483.8099999999999,1489.5832055649298,1157.25,1500
15.405858993530273,688,131,65,0.0001967729240456513,1484.77,1489.1590498612711,1158.75,1500
15.428991079330444,689,133,62,0.0001893939393939394,1485.3299999999999,1488.8644816817934,1159.5,1500
15.451924085617065,690,136,61,0.0001789228842368939,1486.04,1488.5638814207568,1159.75,1500
15.47492504119873,691,137,58,0.00017006802721088434,1486.675,1488.3108408241778,1160.5,1500
15.498255968093872,692,140,56,0.00016570008285004143,1487.5599999999999,1488.1323806941889,1161.0,1500
15.521497964859009,693,142,54,0.00015782828282828284,1488.585,1487.92446457037,1161.5,1500
15.544450998306274,694,144,53,0.0001518372304889159,1489.6099999999999,1487.7575921056227,1161.75,1500
15.567414045333862,695,146,51,0.00014459224985540774,1490.6949999999999,1487.5876037985377,1162.25,1500
15.590358018875122,696,150,48,0.0001349527665317139,1491.8,1487.3899784536086,1163.0,1500
15.613285064697266,697,151,47,0.0001291655902867476,1492.6700000000001,1487.2467720669454,1163.25,1500
15.636229038238525,698,152,45,0.000125,1493.325,1487.1333432400322,1163.75,1500
15.65916395187378,699,154,45,0.00012103606874848704,1494.0799999999999,1487.0253460568717,1163.75,1500
15.682106018066406,700,155,43,0.0001207437816952427,1494.6849999999999,1486.9642440837977,1164.25,1500
15.705018997192383,701,156,42,0.00011870845204178538,1495.47,1486.8925312120939,1164.5,1500
15.72827696800232,702,157,40,0.00011986096128490951,1496.145,1486.8582171829601,1165.0,1500
15.75119400024414,703,157,40,0.00011726078799249531,1496.6700000000001,1486.7916479552002,1165.0,1500
15.774143934249878,704,158,40,0.00011646866992778943,1497.3,1486.7483582139919,1165.0,1500
15.797070980072021,705,160,39,0.00011720581340834506,1497.97,1486.7283432123504,1165,1500
15.819865942001343,706,162,38,0.00012025012025012025,1498.47,1486.7440836344865,1165,1500
15.842664957046509,707,163,38,0.000117000117000117,1498.8699999999999,1486.6994181287,1165,1500
15.86564302444458,708,162,37,0.00012183235867446393,1499.02,1486.7445729041178,1165,1500
15.888654947280884,709,164,36,0.00012567550584391103,1499.4100000000001,1486.7876438129078,1165,1500
15.911472082138062,710,165,35,0.00012804097311139564,1499.76,1486.8185956769987,1165,1500
15.934254884719849,711,167,34,0.00012939958592132506,1500.2650000000001,1486.8428729389775,1165,1500
15.957067012786865,712,168,32,0.0001386001386001386,1500.6700000000001,1486.9536176430809,1165,1500
15.97992205619812,713,169,30,0.0001466275659824047,1501.01,1487.0632586948936,1165,1500
16.002726078033447,714,163,23,0.00022644927536231884,1500.7449999999999,1487.9714563941272,1165,1500
16.025696992874146,715,159,20,0.00029761904761904765,1500.6500000000001,1488.8635673509052,1165,1500
16.048703908920288,716,159,17,0.0003912363067292645,1500.9649999999999,1490.0707261284865,1165,1500
16.0715389251709,717,157,14,0.0005224660397074191,1501.095,1491.7884893809753,1165,1500
16.094313859939575,718,168,9,0.0011695906432748538,1502.585,1499.30749370125,1165,1500
16.116961002349854,719,,,,1501.7449999999999,1490.6011765601654,1150.0,1500
16.139566898345947,720,,,,1501.4100000000001,1490.7563414777367,1150.0,1500
16.162170886993408,721,,,,1500.9649999999999,1490.9101477824977,1150.0,1500
16.18474006652832,722,,,,1500.345,1491.0547535345802,1150.0,1500
16.207406997680664,723,,,,1500.3299999999999,1491.1913318592804,1150.0,1500
16.230005979537964,724,,,,1500.165,1491.2480884746005,1150.0,1500
16.25254988670349,725,,,,1500.22,1491.2336753176639,1150.0,1500
16.275105953216553,726,,,,1500.2750000000001,1491.1256449016173,1150.0,1500
16.298107862472534,727,126,96,0.05,1497.21,1500,1151.0,1500
16.320745944976807,728,,,,1500.1700000000001,1500,1150.0,1500
16.343172073364258,729,,,,1500.1700000000001,1500,1150.0,1500
16.365638971328735,730,,,,1500.1700000000001,1500,1150.0,1500
16.388155937194824,731,,,,1500.1700000000001,1500,1150.0,1500
16.41057300567627,732,,,,1498.1300000000001,1500,1150.0,1500
16.432960987091064,733,,,,1498.1300000000001,1500,1150.0,1500
16.45550799369812,734,,,,1498.1300000000001,1500,1150.0,1500
16.478095054626465,735,,,,1498.1300000000001,1500,1150.0,1500
16.50048589706421,736,,,,1498.1300000000001,1500,1150.0,1500
16.52287006378174,737,,,,1500.0,1490.0,1150.0,1500
16.545511960983276,738,,,,1500.0,1490.0,1150.0,1500
16.56824803352356,739,,,,1500.0,1490.0,1150.0,1500
16.590770959854126,740,,,,1500.0,1490.0,1150.0,1500
16.613269090652466,741,,,,1500.0,1490.0,1150.0,1500
16.635874032974243,742,,,,1500.0,1490.0,1150.0,1500
16.658500909805298,743,,,,1500.0,1490.0,1150.0,1500
16.681652069091797,744,,,,1500.0,1490.0,1150.0,1500
16.704313039779663,745,,,,1500.0,1490.0,1150.0,1500
16.726813077926636,746,,,,1500.0,1490.0,1150.0,1500
16.74928307533264,747,,,,1500.0,1490.0,1150.0,1500
16.771760940551758,748,,,,1500.0,1490.0,1150.0,1500
16.794254064559937,749,,,,1500.0,1490.0,1150.0,1500
16.81672692298889,750,,,,1500.0,1490.0,1150.0,1500
16.839200973510742,751,,,,1500.0,1490.0,1150.0,1500
16.861680030822754,752,,,,1500.0,1490.0,1150.0,1500
16.884135007858276,753,,,,1500.0,1490.0,1150.0,1500
16.90662908554077,754,,,,1500.0,1490.0,1150.0,1500
16.92913007736206,755,,,,1500.0,1490.0,1150.0,1500
16.95159387588501,756,,,,1500.0,1490.0,1150.0,1500
16.974068880081177,757,,,,1500.0,1490.0,1150.0,1500
16.996556043624878,758,,,,1500.0,1490.0,1150.0,1500
17.01900601387024,759,,,,1500.0,1490.0,1150.0,1500
17.04147505760193,760,,,,1500.0,1490.0,1150.0,1500
17.063955068588257,761,,,,1500.0,1490.0,1150.0,1500
17.0864360332489,762,,,,1500.0,1490.0,1150.0,1500
17.108922004699707,763,,,,1500.0,1490.0,1150.0,1500
17.13138508796692,764,,,,1500.0,1490.0,1150.0,1500
17.153864860534668,765,,,,1500.0,1490.0,1150.0,1500
17.176428079605103,766,,,,1500.0,1490.0,1150.0,1500
17.198944091796875,767,,,,1500.0,1490.0,1150.0,1500
17.222243070602417,768,186,9,0.0014285714285714286,1502.47,1500,1165,1500
17.24587893486023,769,179,13,0.0007142857142857143,1501.675,1495.887243597524,1165,1500
17.2688250541687,770,170,19,0.00033738191632928474,1500.7249999999999,1492.1723816436065,1165,1500
17.291717052459717,771,172,22,0.00026191723415400735,1500.865,1491.3964461653252,1165,1500
17.314533948898315,772,173,26,0.0001949317738791423,1500.9000000000001,1490.6383174457731,1165,1500
17.337316036224365,773,171,30,0.00015969338869370808,1502.2049999999999,1490.1624210919299,1165,1500
17.360135078430176,774,174,37,0.00010964912280701755,1503.575,1489.4884216651876,1165,1500
17.38296103477478,775,171,41,9.75800156128025e-05,1503.8199999999999,1489.1821047181757,1164.75,1500
17.406005859375,776,168,45,8.93415527561869e-05,1504.2,1488.9058557516832,1163.75,1500
17.429075956344604,777,166,48,8.313934153641503e-05,1504.75,1488.6437670903392,1163.0,1500
17.45195698738098,778,162,52,8.19672131147541e-05,1503.5699999999999,1487.2854415906661,1162.0,1500
17.47485589981079,779,161,58,8.098477486232588e-05,1503.26,1486.6423162687183,1160.5,1500
17.497956037521362,780,161,65,8.862105636299185e-05,1503.365,1486.4699182237587,1158.75,1500
17.520850896835327,781,159,70,9.344921035417251e-05,1502.99,1486.3497317398708,1157.5,1500
17.543734073638916,782,153,79,0.00010208248264597796,1502.0699999999999,1486.3432151715556,1155.25,1500
17.56664490699768,783,150,81,0.0001069747539580659,1501.335,1486.3394192499409,1154.75,1500
17.58953309059143,784,147,84,0.00011358473421172194,1500.3900000000001,1486.4094546638821,1154.0,1500
17.612406969070435,785,146,85,0.00011450818733539448,1499.8150000000001,1486.4356173668414,1153.75,1500
17.635401010513306,786,146,85,0.00011904761904761905,1499.385,1486.510717750255,1153.75,1500
17.658516883850098,787,147,85,0.00012004801920768308,1498.8,1486.5576304295271,1153.75,1500
17.681423902511597,788,146,86,0.00012077294685990338,1498.0599999999999,1486.6036854397944,1153.5,1500
17.704330921173096,789,148,85,0.00012054001928640309,1497.4849999999999,1486.6409114084834,1153.75,1500
17.727220058441162,790,148,84,0.0001180637544273908,1496.6500000000001,1486.6455914579576,1154.0,1500
17.75010108947754,791,149,82,0.00011291779584462511,1496.02,1486.6136004576206,1154.5,1500
17.77299189567566,792,149,81,0.00010279605263157894,1495.6800000000001,1486.5130965954756,1154.75,1500
17.79605507850647,793,150,82,0.00010840108401084011,1495.54,1486.570573239321,1154.5,1500
17.81909990310669,794,152,80,0.00010225994477962981,1495.7750000000001,1486.4978370575768,1155.0,1500
17.841989994049072,795,153,79,0.00010611205432937182,1495.96,1486.5279620200683,1155.25,1500
17.864886045455933,796,156,78,0.00010810810810810811,1496.3900000000001,1486.536983046916,1155.5,1500
17.88787293434143,797,157,78,0.00010958904109589041,1496.5599999999999,1486.5413333986821,1155.5,1500
17.911130905151367,798,160,78,0.00011936022917164001,1497.03,1486.6376325617514,1155.5,1500
17.93405508995056,799,182,82,0.00020614306328592042,1499.3,1487.5910639468937,1154.5,1500
17.956965923309326,800,178,83,0.0001966955153422502,1499.05,1487.5752202283718,1154.25,1500
17.979896068572998,801,165,81,0.00013873473917869035,1498.0899999999999,1487.0214294100704,1154.75,1500
18.002779960632324,802,157,82,0.000111781801922647,1497.73,1486.7608857868008,1154.5,1500
18.025803089141846,803,156,83,0.00011267605633802817,1498.2,1486.7741033032819,1154.25,1500
18.04886794090271,804,156,83,0.00010936132983377078,1499.98,1486.7480574232934,1154.25,1500
18.071754932403564,805,157,84,0.00010619093129446746,1501.5599999999999,1486.7164323148656,1154.0,1500
18.094636917114258,806,156,83,0.00010725010725010725,1502.0,1486.7261660735639,1154.25,1500
18.117682933807373,807,156,84,0.00010416666666666667,1502.0050000000001,1486.6899092933004,1154.0,1500
18.140636920928955,808,158,83,0.00010475591870940707,1501.9749999999999,1486.6811975032656,1154.25,1500
18.163606882095337,809,158,83,0.00010640561821664184,1500.5350000000001,1486.5979570532686,1154.25,1500
18.186501026153564,810,158,83,0.00010702054794520547,1499.375,1486.5144313831572,1154.25,1500
18.20939588546753,811,159,83,0.00010702054794520547,1498.9649999999999,1486.4827171919237,1154.25,1500
18.232326984405518,812,160,83,0.00010619093129446746,1498.99,1486.4688301547881,1154.25,1500
18.255189895629883,813,160,82,0.00010475591870940707,1499.0899999999999,1486.4465598913089,1154.5,1500
18.278430938720703,814,160,82,0.00010395010395010396,1499.1900000000001,1486.4330905178322,1154.5,1500
18.301342010498047,815,161,82,0.00010315659170621003,1499.3299999999999,1486.4221210558051,1154.5,1500
18.324235916137695,816,161,82,0.00010178117048346055,1499.4849999999999,1486.4028979068109,1154.5,1500
18.34715509414673,817,162,82,0.00010178117048346055,1499.7950000000001,1486.4005124106277,1154.5,1500
18.370086908340454,818,162,81,0.0001004419445560466,1499.895,1486.3828061772001,1154.75,1500
18.39300298690796,819,162,81,0.0001004419445560466,1499.9949999999999,1486.3768425035396,1154.75,1500
18.416066884994507,820,161,82,0.00010256410256410256,1500.0599999999999,1486.393607638239,1154.5,1500
18.439126014709473,821,162,81,0.00010121457489878542,1500.2650000000001,1486.3743063885395,1154.75,1500
18.46202301979065,822,163,81,0.0001004419445560466,1500.47,1486.3608310983736,1154.75,1500
18.484893083572388,823,163,81,9.968102073365231e-05,1500.575,1486.3481469621738,1154.75,1500
