time,x,y,roll,pitch,thrust,yaw
0.00027489662170410156,218,56,1505.8,1495,1386.0,1520
0.02190089225769043,217,55,1505.7,1495,1386.25,1520
0.04314589500427246,214,55,1505.4000000000001,1495,1386.25,1520
0.06429600715637207,216,54,1505.5999999999999,1495,1386.5,1520
0.08545207977294922,216,54,1505.5999999999999,1495,1386.5,1520
0.10658693313598633,215,53,1505.5,1495,1386.75,1520
0.12773704528808594,215,53,1505.5,1495,1386.75,1520
0.1489551067352295,215,52,1505.5,1495,1387.0,1520
0.17011499404907227,215,52,1505.5,1495,1387.0,1520
0.19127798080444336,215,52,1505.5,1495,1387.0,1520
0.21255207061767578,216,52,1505.5999999999999,1495,1387.0,1520
0.23396801948547363,213,51,1505.3,1495,1387.25,1520
0.2554490566253662,214,51,1505.4000000000001,1495,1387.25,1520
0.2768700122833252,211,52,1505.0999999999999,1495,1387.0,1520
0.2982790470123291,212,52,1505.2,1495,1387.0,1520
0.31969594955444336,211,52,1505.0999999999999,1495,1387.0,1520
0.3411099910736084,211,53,1505.0999999999999,1495,1386.75,1520
0.36252808570861816,210,53,1505.0,1495,1386.75,1520
0.3839259147644043,207,54,1504.7,1495,1386.5,1520
0.40541696548461914,204,55,1504.4000000000001,1495,1386.25,1520
0.4268379211425781,204,56,1504.4000000000001,1495,1386.0,1520
0.44825100898742676,201,56,1504.0999999999999,1495,1386.0,1520
0.46967005729675293,200,57,1504.0,1495,1385.75,1520
0.4910600185394287,197,57,1503.7,1495,1385.75,1520
0.5124609470367432,198,58,1503.8,1495,1385.5,1520
0.533858060836792,199,58,1503.9000000000001,1495,1385.5,1520
0.5553569793701172,197,58,1503.7,1495,1385.5,1520
0.5767810344696045,196,58,1503.5999999999999,1495,1385.5,1520
0.5981919765472412,196,57,1503.5999999999999,1495,1385.75,1520
0.6195991039276123,194,57,1503.4000000000001,1495,1385.75,1520
0.6409940719604492,194,57,1503.4000000000001,1495,1385.75,1520
0.6624228954315186,190,56,1503.0,1495,1386.0,1520
0.6838159561157227,191,56,1503.0999999999999,1495,1386.0,1520
0.705298900604248,189,55,1502.9000000000001,1495,1386.25,1520
0.7267239093780518,189,55,1502.9000000000001,1495,1386.25,1520
0.7481529712677002,188,54,1502.8,1495,1386.5,1520
0.7695651054382324,187,54,1502.7,1495,1386.5,1520
0.7909560203552246,184,53,1502.4000000000001,1495,1386.75,1520
0.8123610019683838,183,52,1502.3,1495,1387.0,1520
0.8337700366973877,182,50,1502.2,1495,1387.5,1520
0.8553240299224854,182,49,1502.2,1495,1387.75,1520
0.8767919540405273,181,47,1502.0999999999999,1495,1388.25,1520
0.8982360363006592,181,45,1502.0999999999999,1495,1388.75,1520
0.9196960926055908,179,42,1501.9000000000001,1495,1389.5,1519.0
0.941166877746582,182,41,1502.2,1495,1389.75,1520
0.9625968933105469,181,39,1502.0999999999999,1495,1390,1520
0.9839870929718018,181,37,1502.0999999999999,1495,1390,1520
1.005429983139038,179,36,1501.9000000000001,1495,1390,1519.0
1.0268430709838867,180,35,1502.0,1495,1390,1520.0
1.0482370853424072,182,34,1502.2,1495,1390,1520
1.0696001052856445,182,34,1502.2,1495,1390,1520
1.0909359455108643,182,33,1502.2,1495,1390,1520
1.1122910976409912,182,33,1502.2,1495,1390,1520
1.1336419582366943,182,33,1502.2,1495,1390,1520
1.1550180912017822,180,34,1502.0,1495,1390,1520.0
1.176421880722046,181,35,1502.0999999999999,1495,1390,1520
1.1977670192718506,181,37,1502.0999999999999,1495,1390,1520
1.2191228866577148,179,38,1501.9000000000001,1495,1390,1519.0
1.2405259609222412,178,40,1501.8,1495,1390.0,1518.0
1.2619869709014893,179,42,1501.9000000000001,1495,1389.5,1519.0
1.2834439277648926,179,44,1501.9000000000001,1495,1389.0,1519.0
1.3048958778381348,180,46,1502.0,1495,1388.5,1520.0
1.3263468742370605,179,47,1501.9000000000001,1495,1388.25,1519.0
1.3478260040283203,181,49,1502.0999999999999,1495,1387.75,1520
1.3692400455474854,180,50,1502.0,1495,1387.5,1520.0
1.3906750679016113,182,52,1502.2,1495,1387.0,1520
1.412081003189087,182,52,1502.2,1495,1387.0,1520
1.4335041046142578,182,52,1502.2,1495,1387.0,1520
1.4549040794372559,183,52,1502.3,1495,1387.0,1520
1.4762940406799316,181,51,1502.0999999999999,1495,1387.25,1520
1.4977130889892578,182,51,1502.2,1495,1387.25,1520
1.519124984741211,181,50,1502.0999999999999,1495,1387.5,1520
1.540781021118164,180,50,1502.0,1495,1387.5,1520.0
1.5622570514678955,177,49,1501.7,1495,1387.75,1517.0
1.583725929260254,177,48,1501.7,1495,1388.0,1517.0
1.6052699089050293,176,47,1501.5999999999999,1495,1388.25,1516.0
1.6267380714416504,174,47,1501.4000000000001,1495,1388.25,1514.0
1.6481869220733643,175,46,1501.5,1495,1388.5,1515.0
1.6696360111236572,176,46,1501.5999999999999,1495,1388.5,1516.0
1.6910851001739502,176,45,1501.5999999999999,1495,1388.75,1516.0
1.7125399112701416,178,44,1501.8,1495,1389.0,1518.0
1.7339930534362793,179,44,1501.9000000000001,1495,1389.0,1519.0
1.7555339336395264,178,43,1501.8,1495,1389.25,1518.0
1.7769958972930908,180,42,1502.0,1495,1389.5,1520.0
1.7984530925750732,180,41,1502.0,1495,1389.75,1520.0
1.8198950290679932,181,41,1502.0999999999999,1495,1389.75,1520
1.8413159847259521,180,41,1502.0,1495,1389.75,1520.0
1.8628199100494385,179,41,1501.9000000000001,1495,1389.75,1519.0
1.8843200206756592,177,42,1501.7,1495,1389.5,1517.0
1.9061949253082275,178,43,1501.8,1495,1389.25,1518.0
1.9288930892944336,178,46,1501.8,1495,1388.5,1518.0
1.9515259265899658,178,47,1501.8,1495,1388.25,1518.0
1.9741950035095215,177,47,1501.7,1495,1388.25,1517.0
1.996872901916504,175,48,1501.5,1495,1388.0,1515.0
2.019486904144287,178,48,1501.8,1495,1388.0,1518.0
2.0420920848846436,178,48,1501.8,1495,1388.0,1518.0
2.0647308826446533,178,47,1501.8,1495,1388.25,1518.0
2.0873429775238037,180,47,1502.0,1495,1388.25,1520.0
2.109929084777832,181,46,1502.0999999999999,1495,1388.5,1520
2.132459878921509,183,45,1502.3,1495,1388.75,1520
2.15500807762146,183,44,1502.3,1495,1389.0,1520
2.177517890930176,184,44,1502.4000000000001,1495,1389.0,1520
2.2000410556793213,185,44,1502.5,1495,1389.0,1520
2.2225539684295654,186,43,1502.5999999999999,1495,1389.25,1520
2.245058059692383,186,43,1502.5999999999999,1495,1389.25,1520
2.2675540447235107,184,43,1502.4000000000001,1495,1389.25,1520
2.2900450229644775,182,43,1502.2,1495,1389.25,1520
2.312577962875366,181,43,1502.0999999999999,1495,1389.25,1520
2.3351519107818604,180,43,1502.0,1495,1389.25,1520.0
2.3577609062194824,181,43,1502.0999999999999,1495,1389.25,1520
2.380305051803589,178,43,1501.8,1495,1389.25,1518.0
2.4029290676116943,178,43,1501.8,1495,1389.25,1518.0
2.4255568981170654,176,43,1501.5999999999999,1495,1389.25,1516.0
2.4481709003448486,178,42,1501.8,1495,1389.5,1518.0
2.4707770347595215,176,42,1501.5999999999999,1495,1389.5,1516.0
2.493359088897705,174,42,1501.4000000000001,1495,1389.5,1514.0
2.5159709453582764,173,41,1501.3,1495,1389.75,1513.0
2.5385899543762207,172,41,1501.2,1495,1389.75,1512.0
2.561192035675049,174,40,1501.4000000000001,1495,1390.0,1514.0
2.5838069915771484,172,40,1501.2,1495,1390.0,1512.0
2.606580972671509,170,38,1501.0,1495,1390,1510.0
2.6291160583496094,170,36,1501.0,1495,1390,1510.0
2.6516129970550537,169,35,1500.9000000000001,1495,1390,1509.0
2.674186944961548,167,34,1500.7,1495,1390,1507.0
2.696790933609009,165,33,1500.5,1495,1390,1505.0
2.7193360328674316,164,32,1500.4000000000001,1495,1390,1504.0
2.7418770790100098,162,31,1500.2,1495,1390,1502.0
2.764470100402832,159,31,1499.9000000000001,1495,1390,1499.0
2.7870750427246094,160,31,1500.0,1495,1390,1500.0
2.809566020965576,158,31,1499.8,1495,1390,1498.0
2.8321149349212646,157,30,1499.7,1495,1390,1497.0
2.8546910285949707,157,29,1499.7,1495,1390,1497.0
2.8773128986358643,158,29,1499.8,1495,1390,1498.0
2.8998820781707764,158,28,1499.8,1495,1390,1498.0
2.9224469661712646,158,28,1499.8,1495,1390,1498.0
2.944995880126953,159,27,1499.9000000000001,1495,1390,1499.0
2.967503070831299,160,27,1500.0,1495,1390,1500.0
2.9899919033050537,160,26,1500.0,1495,1390,1500.0
3.0125069618225098,162,26,1500.2,1495,1390,1502.0
3.0350539684295654,160,26,1500.0,1495,1390,1500.0
3.057565927505493,162,26,1500.2,1495,1390,1502.0
3.08011794090271,161,27,1500.0999999999999,1495,1390,1501.0
3.102663993835449,160,29,1500.0,1495,1390,1500.0
3.125192880630493,159,30,1499.9000000000001,1495,1390,1499.0
3.1477560997009277,161,32,1500.0999999999999,1495,1390,1501.0
3.170598030090332,160,34,1500.0,1495,1390,1500.0
3.1931140422821045,161,36,1500.0999999999999,1495,1390,1501.0
3.215651035308838,163,38,1500.3,1495,1390,1503.0
3.2381930351257324,164,39,1500.4000000000001,1495,1390,1504.0
3.26070499420166,163,39,1500.3,1495,1390,1503.0
3.2832279205322266,163,39,1500.3,1495,1390,1503.0
3.3057398796081543,163,39,1500.3,1495,1390,1503.0
3.3282508850097656,162,38,1500.2,1495,1390,1502.0
3.3507819175720215,161,38,1500.0999999999999,1495,1390,1501.0
3.3733019828796387,161,38,1500.0999999999999,1495,1390,1501.0
3.3958048820495605,159,38,1499.9000000000001,1495,1390,1499.0
3.418346881866455,159,38,1499.9000000000001,1495,1390,1499.0
3.440865993499756,158,38,1499.8,1495,1390,1498.0
3.46337890625,160,38,1500.0,1495,1390,1500.0
3.485888957977295,159,38,1499.9000000000001,1495,1390,1499.0
3.508409023284912,161,38,1500.0999999999999,1495,1390,1501.0
3.5309460163116455,164,37,1500.4000000000001,1495,1390,1504.0
3.5534870624542236,166,38,1500.5999999999999,1495,1390,1506.0
3.576124906539917,165,38,1500.5,1495,1390,1505.0
3.598630905151367,167,38,1500.7,1495,1390,1507.0
3.621145009994507,167,39,1500.7,1495,1390,1507.0
3.6436328887939453,169,39,1500.9000000000001,1495,1390,1509.0
3.6662960052490234,167,39,1500.7,1495,1390,1507.0
3.6888110637664795,169,39,1500.9000000000001,1495,1390,1509.0
3.7113399505615234,167,40,1500.7,1495,1390.0,1507.0
3.7339649200439453,168,40,1500.8,1495,1390.0,1508.0
3.756714105606079,163,41,1500.3,1495,1389.75,1503.0
3.779309034347534,165,41,1500.5,1495,1389.75,1505.0
3.801913022994995,163,41,1500.3,1495,1389.75,1503.0
3.824591875076294,163,41,1500.3,1495,1389.75,1503.0
3.847292900085449,162,40,1500.2,1495,1390.0,1502.0
3.8699419498443604,161,40,1500.0999999999999,1495,1390.0,1501.0
3.8925490379333496,162,39,1500.2,1495,1390,1502.0
3.9151179790496826,163,38,1500.3,1495,1390,1503.0
3.937709093093872,163,37,1500.3,1495,1390,1503.0
3.9602298736572266,163,36,1500.3,1495,1390,1503.0
3.98275089263916,166,33,1500.5999999999999,1495,1390,1506.0
4.005282878875732,165,32,1500.5,1495,1390,1505.0
4.02778697013855,165,31,1500.5,1495,1390,1505.0
4.0502870082855225,166,31,1500.5999999999999,1495,1390,1506.0
4.072813987731934,166,30,1500.5999999999999,1495,1390,1506.0
4.095326900482178,166,30,1500.5999999999999,1495,1390,1506.0
4.117865085601807,163,29,1500.3,1495,1390,1503.0
4.140394926071167,164,28,1500.4000000000001,1495,1390,1504.0
4.162895917892456,162,27,1500.2,1495,1390,1502.0
4.185419082641602,162,26,1500.2,1495,1390,1502.0
4.207926034927368,162,26,1500.2,1495,1390,1502.0
4.230453968048096,162,25,1500.2,1495,1390,1502.0
4.252955913543701,163,25,1500.3,1495,1390,1503.0
4.27546501159668,162,25,1500.2,1495,1390,1502.0
4.297966003417969,163,24,1500.3,1495,1390,1503.0
4.320496082305908,162,24,1500.2,1495,1390,1502.0
4.343034982681274,164,23,1500.4000000000001,1495,1390,1504.0
4.365576982498169,163,22,1500.3,1495,1390,1503.0
4.388077974319458,165,21,1500.5,1495,1390,1505.0
4.410568952560425,164,19,1500.4000000000001,1495,1390,1504.0
4.433093070983887,164,18,1500.4000000000001,1495,1390,1504.0
4.455615997314453,165,16,1500.5,1495,1390,1505.0
4.478110074996948,164,16,1500.4000000000001,1495,1390,1504.0
4.500633001327515,162,16,1500.2,1495,1390,1502.0
4.5231640338897705,164,17,1500.4000000000001,1495,1390,1504.0
4.545691013336182,164,18,1500.4000000000001,1495,1390,1504.0
4.568208932876587,164,18,1500.4000000000001,1495,1390,1504.0
4.5907299518585205,164,18,1500.4000000000001,1495,1390,1504.0
4.613236904144287,162,18,1500.2,1495,1390,1502.0
4.635765075683594,162,19,1500.2,1495,1390,1502.0
4.658273935317993,164,19,1500.4000000000001,1495,1390,1504.0
4.6807920932769775,162,19,1500.2,1495,1390,1502.0
4.70332407951355,164,19,1500.4000000000001,1495,1390,1504.0
4.725845098495483,165,19,1500.5,1495,1390,1505.0
4.748367071151733,165,19,1500.5,1495,1390,1505.0
4.770875930786133,164,19,1500.4000000000001,1495,1390,1504.0
4.793385982513428,162,19,1500.2,1495,1390,1502.0
4.815892934799194,164,19,1500.4000000000001,1495,1390,1504.0
4.846205949783325,164,19,1500.4000000000001,1495,1390,1504.0
4.868895053863525,164,19,1500.4000000000001,1495,1390,1504.0
4.891465902328491,164,19,1500.4000000000001,1495,1390,1504.0
4.914077043533325,164,19,1500.4000000000001,1495,1390,1504.0
4.936745882034302,165,19,1500.5,1495,1390,1505.0
4.959276914596558,163,19,1500.3,1495,1390,1503.0
4.981817007064819,164,19,1500.4000000000001,1495,1390,1504.0
5.004409074783325,162,19,1500.2,1495,1390,1502.0
5.0270209312438965,162,19,1500.2,1495,1390,1502.0
5.049560070037842,164,19,1500.4000000000001,1495,1390,1504.0
5.072082042694092,162,19,1500.2,1495,1390,1502.0
5.094729900360107,163,19,1500.3,1495,1390,1503.0
5.117444038391113,164,19,1500.4000000000001,1495,1390,1504.0
5.140032052993774,164,19,1500.4000000000001,1495,1390,1504.0
5.162574052810669,164,19,1500.4000000000001,1495,1390,1504.0
5.185112953186035,162,19,1500.2,1495,1390,1502.0
5.207624912261963,162,19,1500.2,1495,1390,1502.0
5.230133056640625,162,19,1500.2,1495,1390,1502.0
5.252662897109985,164,19,1500.4000000000001,1495,1390,1504.0
5.2751898765563965,164,19,1500.4000000000001,1495,1390,1504.0
5.297717094421387,162,19,1500.2,1495,1390,1502.0
5.320285081863403,162,19,1500.2,1495,1390,1502.0
5.342817068099976,162,19,1500.2,1495,1390,1502.0
5.365336894989014,163,19,1500.3,1495,1390,1503.0
5.387850046157837,164,19,1500.4000000000001,1495,1390,1504.0
5.410378932952881,164,19,1500.4000000000001,1495,1390,1504.0
5.432924032211304,165,19,1500.5,1495,1390,1505.0
5.455436944961548,164,19,1500.4000000000001,1495,1390,1504.0
5.477942943572998,164,19,1500.4000000000001,1495,1390,1504.0
5.500480890274048,163,19,1500.3,1495,1390,1503.0
5.523000001907349,162,19,1500.2,1495,1390,1502.0
5.545478105545044,165,19,1500.5,1495,1390,1505.0
5.568063974380493,164,19,1500.4000000000001,1495,1390,1504.0
5.590581893920898,165,19,1500.5,1495,1390,1505.0
5.613074064254761,164,19,1500.4000000000001,1495,1390,1504.0
5.635613918304443,162,19,1500.2,1495,1390,1502.0
5.658118009567261,164,19,1500.4000000000001,1495,1390,1504.0
5.680685997009277,165,19,1500.5,1495,1390,1505.0
5.703300952911377,164,19,1500.4000000000001,1495,1390,1504.0
5.725915908813477,164,19,1500.4000000000001,1495,1390,1504.0
5.748503923416138,164,19,1500.4000000000001,1495,1390,1504.0
5.771039962768555,163,19,1500.3,1495,1390,1503.0
5.793581008911133,163,19,1500.3,1495,1390,1503.0
5.816332101821899,162,19,1500.2,1495,1390,1502.0
5.838896036148071,165,19,1500.5,1495,1390,1505.0
5.8614630699157715,164,19,1500.4000000000001,1495,1390,1504.0
5.883992910385132,164,19,1500.4000000000001,1495,1390,1504.0
5.9066550731658936,164,19,1500.4000000000001,1495,1390,1504.0
5.9292120933532715,163,19,1500.3,1495,1390,1503.0
5.951781988143921,164,19,1500.4000000000001,1495,1390,1504.0
5.974370002746582,162,19,1500.2,1495,1390,1502.0
5.996924877166748,164,19,1500.4000000000001,1495,1390,1504.0
6.019469976425171,162,19,1500.2,1495,1390,1502.0
6.041974067687988,165,19,1500.5,1495,1390,1505.0
6.064536094665527,164,19,1500.4000000000001,1495,1390,1504.0
6.087121963500977,165,19,1500.5,1495,1390,1505.0
6.109638929367065,164,19,1500.4000000000001,1495,1390,1504.0
6.132163047790527,164,19,1500.4000000000001,1495,1390,1504.0
6.154748916625977,164,19,1500.4000000000001,1495,1390,1504.0
6.177294015884399,164,19,1500.4000000000001,1495,1390,1504.0
6.199850082397461,164,19,1500.4000000000001,1495,1390,1504.0
6.2224440574646,162,19,1500.2,1495,1390,1502.0
6.245019912719727,164,19,1500.4000000000001,1495,1390,1504.0
6.267560005187988,164,19,1500.4000000000001,1495,1390,1504.0
6.2900779247283936,164,19,1500.4000000000001,1495,1390,1504.0
6.3125879764556885,165,19,1500.5,1495,1390,1505.0
6.335134029388428,162,19,1500.2,1495,1390,1502.0
6.357692003250122,164,19,1500.4000000000001,1495,1390,1504.0
6.380198001861572,164,19,1500.4000000000001,1495,1390,1504.0
6.402724981307983,164,19,1500.4000000000001,1495,1390,1504.0
6.425282001495361,164,19,1500.4000000000001,1495,1390,1504.0
6.447783946990967,164,19,1500.4000000000001,1495,1390,1504.0
6.4706549644470215,165,19,1500.5,1495,1390,1505.0
6.493200063705444,164,19,1500.4000000000001,1495,1390,1504.0
6.5157248973846436,165,19,1500.5,1495,1390,1505.0
6.5382750034332275,165,19,1500.5,1495,1390,1505.0
6.560784101486206,162,19,1500.2,1495,1390,1502.0
6.583302021026611,165,19,1500.5,1495,1390,1505.0
6.605824947357178,164,19,1500.4000000000001,1495,1390,1504.0
6.628369092941284,165,19,1500.5,1495,1390,1505.0
6.65087890625,164,19,1500.4000000000001,1495,1390,1504.0
6.673393964767456,163,19,1500.3,1495,1390,1503.0
6.695893049240112,162,19,1500.2,1495,1390,1502.0
6.718425989151001,164,19,1500.4000000000001,1495,1390,1504.0
6.740977048873901,162,19,1500.2,1495,1390,1502.0
6.763462066650391,164,19,1500.4000000000001,1495,1390,1504.0
6.785976886749268,162,19,1500.2,1495,1390,1502.0
6.808490991592407,164,19,1500.4000000000001,1495,1390,1504.0
6.831012010574341,164,19,1500.4000000000001,1495,1390,1504.0
6.8535380363464355,164,19,1500.4000000000001,1495,1390,1504.0
6.876236915588379,162,19,1500.2,1495,1390,1502.0
6.898802042007446,164,19,1500.4000000000001,1495,1390,1504.0
6.921411991119385,164,19,1500.4000000000001,1495,1390,1504.0
6.943980932235718,162,19,1500.2,1495,1390,1502.0
6.966639041900635,162,19,1500.2,1495,1390,1502.0
6.989166975021362,164,19,1500.4000000000001,1495,1390,1504.0
7.011692047119141,162,19,1500.2,1495,1390,1502.0
7.034275054931641,163,19,1500.3,1495,1390,1503.0
7.05687403678894,164,19,1500.4000000000001,1495,1390,1504.0
7.0793890953063965,165,19,1500.5,1495,1390,1505.0
7.101906061172485,162,19,1500.2,1495,1390,1502.0
7.124505043029785,164,19,1500.4000000000001,1495,1390,1504.0
7.147099018096924,164,19,1500.4000000000001,1495,1390,1504.0
7.169667959213257,164,19,1500.4000000000001,1495,1390,1504.0
7.192224025726318,165,19,1500.5,1495,1390,1505.0
7.2147440910339355,164,19,1500.4000000000001,1495,1390,1504.0
7.237292051315308,164,19,1500.4000000000001,1495,1390,1504.0
7.2598230838775635,164,19,1500.4000000000001,1495,1390,1504.0
7.282325029373169,164,19,1500.4000000000001,1495,1390,1504.0
7.304843902587891,162,19,1500.2,1495,1390,1502.0
7.327383995056152,163,19,1500.3,1495,1390,1503.0
7.349941968917847,165,19,1500.5,1495,1390,1505.0
7.3724730014801025,164,19,1500.4000000000001,1495,1390,1504.0
7.39503288269043,164,19,1500.4000000000001,1495,1390,1504.0
7.417608022689819,164,19,1500.4000000000001,1495,1390,1504.0
7.440140008926392,164,19,1500.4000000000001,1495,1390,1504.0
7.4626710414886475,164,19,1500.4000000000001,1495,1390,1504.0
7.4852070808410645,165,19,1500.5,1495,1390,1505.0
7.507728099822998,162,19,1500.2,1495,1390,1502.0
7.53024697303772,164,19,1500.4000000000001,1495,1390,1504.0
7.552776098251343,164,19,1500.4000000000001,1495,1390,1504.0
7.575299024581909,165,19,1500.5,1495,1390,1505.0
7.597771883010864,164,19,1500.4000000000001,1495,1390,1504.0
7.620301008224487,162,19,1500.2,1495,1390,1502.0
7.642818927764893,164,19,1500.4000000000001,1495,1390,1504.0
7.6653220653533936,164,19,1500.4000000000001,1495,1390,1504.0
7.687854051589966,164,19,1500.4000000000001,1495,1390,1504.0
7.710376024246216,164,19,1500.4000000000001,1495,1390,1504.0
7.732886075973511,164,19,1500.4000000000001,1495,1390,1504.0
7.7554240226745605,164,19,1500.4000000000001,1495,1390,1504.0
7.777945041656494,164,19,1500.4000000000001,1495,1390,1504.0
7.800466060638428,164,19,1500.4000000000001,1495,1390,1504.0
7.823004961013794,164,19,1500.4000000000001,1495,1390,1504.0
7.845560073852539,162,19,1500.2,1495,1390,1502.0
7.868161916732788,162,19,1500.2,1495,1390,1502.0
7.890702962875366,162,19,1500.2,1495,1390,1502.0
7.913249969482422,162,19,1500.2,1495,1390,1502.0
7.9358038902282715,164,19,1500.4000000000001,1495,1390,1504.0
7.958343029022217,164,19,1500.4000000000001,1495,1390,1504.0
7.980849981307983,165,19,1500.5,1495,1390,1505.0
8.003351926803589,164,19,1500.4000000000001,1495,1390,1504.0
8.025893926620483,164,19,1500.4000000000001,1495,1390,1504.0
8.048414945602417,163,19,1500.3,1495,1390,1503.0
8.070930004119873,164,19,1500.4000000000001,1495,1390,1504.0
8.09375810623169,164,19,1500.4000000000001,1495,1390,1504.0
8.116612911224365,164,19,1500.4000000000001,1495,1390,1504.0
8.139211893081665,165,19,1500.5,1495,1390,1505.0
8.161766052246094,165,19,1500.5,1495,1390,1505.0
8.18435788154602,163,19,1500.3,1495,1390,1503.0
8.20697808265686,164,19,1500.4000000000001,1495,1390,1504.0
8.229554891586304,164,19,1500.4000000000001,1495,1390,1504.0
8.252084970474243,164,19,1500.4000000000001,1495,1390,1504.0
8.27466893196106,163,19,1500.3,1495,1390,1503.0
8.297240018844604,163,19,1500.3,1495,1390,1503.0
8.319786071777344,164,19,1500.4000000000001,1495,1390,1504.0
8.342339038848877,163,19,1500.3,1495,1390,1503.0
8.36483907699585,164,19,1500.4000000000001,1495,1390,1504.0
8.387346029281616,164,19,1500.4000000000001,1495,1390,1504.0
8.409871101379395,164,19,1500.4000000000001,1495,1390,1504.0
8.432384967803955,164,19,1500.4000000000001,1495,1390,1504.0
8.454911947250366,164,19,1500.4000000000001,1495,1390,1504.0
8.477418899536133,162,19,1500.2,1495,1390,1502.0
8.49992299079895,164,19,1500.4000000000001,1495,1390,1504.0
8.522473096847534,163,19,1500.3,1495,1390,1503.0
8.545021057128906,164,19,1500.4000000000001,1495,1390,1504.0
8.56754207611084,164,19,1500.4000000000001,1495,1390,1504.0
8.590053081512451,163,19,1500.3,1495,1390,1503.0
8.612567901611328,164,19,1500.4000000000001,1495,1390,1504.0
8.635089874267578,164,19,1500.4000000000001,1495,1390,1504.0
8.657599925994873,165,19,1500.5,1495,1390,1505.0
8.680759906768799,163,19,1500.3,1495,1390,1503.0
8.703531980514526,164,19,1500.4000000000001,1495,1390,1504.0
8.72632908821106,164,19,1500.4000000000001,1495,1390,1504.0
8.748914003372192,164,19,1500.4000000000001,1495,1390,1504.0
8.771450996398926,164,19,1500.4000000000001,1495,1390,1504.0
8.793986082077026,165,19,1500.5,1495,1390,1505.0
8.81672191619873,164,19,1500.4000000000001,1495,1390,1504.0
8.839273929595947,162,19,1500.2,1495,1390,1502.0
8.861839056015015,163,19,1500.3,1495,1390,1503.0
8.884407997131348,163,19,1500.3,1495,1390,1503.0
8.90704894065857,165,19,1500.5,1495,1390,1505.0
8.929627895355225,162,19,1500.2,1495,1390,1502.0
8.952198028564453,165,19,1500.5,1495,1390,1505.0
8.974739074707031,164,19,1500.4000000000001,1495,1390,1504.0
8.997266054153442,164,19,1500.4000000000001,1495,1390,1504.0
9.019829988479614,164,19,1500.4000000000001,1495,1390,1504.0
9.042346954345703,164,19,1500.4000000000001,1495,1390,1504.0
9.064825057983398,164,19,1500.4000000000001,1495,1390,1504.0
9.087435960769653,164,19,1500.4000000000001,1495,1390,1504.0
9.109971046447754,164,19,1500.4000000000001,1495,1390,1504.0
9.132492065429688,163,19,1500.3,1495,1390,1503.0
9.155046939849854,164,19,1500.4000000000001,1495,1390,1504.0
9.177581071853638,164,19,1500.4000000000001,1495,1390,1504.0
9.200089931488037,165,19,1500.5,1495,1390,1505.0
9.222615957260132,164,19,1500.4000000000001,1495,1390,1504.0
9.24515700340271,165,19,1500.5,1495,1390,1505.0
9.267666101455688,165,19,1500.5,1495,1390,1505.0
9.290170907974243,164,19,1500.4000000000001,1495,1390,1504.0
9.312697887420654,164,19,1500.4000000000001,1495,1390,1504.0
9.335234880447388,163,19,1500.3,1495,1390,1503.0
9.357800960540771,164,19,1500.4000000000001,1495,1390,1504.0
9.380326986312866,162,19,1500.2,1495,1390,1502.0
9.402860879898071,165,19,1500.5,1495,1390,1505.0
9.425402879714966,164,19,1500.4000000000001,1495,1390,1504.0
9.44793701171875,164,19,1500.4000000000001,1495,1390,1504.0
9.470470905303955,163,19,1500.3,1495,1390,1503.0
9.49299693107605,163,19,1500.3,1495,1390,1503.0
9.515521049499512,162,19,1500.2,1495,1390,1502.0
9.538093090057373,163,19,1500.3,1495,1390,1503.0
9.560626983642578,162,19,1500.2,1495,1390,1502.0
9.583128929138184,164,19,1500.4000000000001,1495,1390,1504.0
9.6056489944458,163,19,1500.3,1495,1390,1503.0
9.628161907196045,164,19,1500.4000000000001,1495,1390,1504.0
9.650665044784546,164,19,1500.4000000000001,1495,1390,1504.0
9.673202991485596,165,19,1500.5,1495,1390,1505.0
9.695709943771362,164,19,1500.4000000000001,1495,1390,1504.0
9.71854305267334,165,19,1500.5,1495,1390,1505.0
9.741089105606079,164,19,1500.4000000000001,1495,1390,1504.0
9.763617038726807,164,19,1500.4000000000001,1495,1390,1504.0
9.786280870437622,163,19,1500.3,1495,1390,1503.0
9.808806896209717,164,19,1500.4000000000001,1495,1390,1504.0
9.831351041793823,164,19,1500.4000000000001,1495,1390,1504.0
9.853945970535278,165,19,1500.5,1495,1390,1505.0
9.876821994781494,165,19,1500.5,1495,1390,1505.0
9.899409055709839,165,19,1500.5,1495,1390,1505.0
9.921987056732178,164,19,1500.4000000000001,1495,1390,1504.0
9.9446120262146,163,19,1500.3,1495,1390,1503.0
9.967187881469727,164,19,1500.4000000000001,1495,1390,1504.0
9.989720106124878,164,19,1500.4000000000001,1495,1390,1504.0
10.012247085571289,163,19,1500.3,1495,1390,1503.0
10.03478193283081,163,19,1500.3,1495,1390,1503.0
10.057311058044434,163,19,1500.3,1495,1390,1503.0
10.079850912094116,162,19,1500.2,1495,1390,1502.0
10.102367877960205,165,19,1500.5,1495,1390,1505.0
10.124976873397827,165,19,1500.5,1495,1390,1505.0
10.14755392074585,164,19,1500.4000000000001,1495,1390,1504.0
10.170106887817383,164,19,1500.4000000000001,1495,1390,1504.0
10.19264006614685,163,19,1500.3,1495,1390,1503.0
10.215169906616211,163,19,1500.3,1495,1390,1503.0
10.237726926803589,164,19,1500.4000000000001,1495,1390,1504.0
10.260252952575684,164,19,1500.4000000000001,1495,1390,1504.0
10.282770872116089,164,19,1500.4000000000001,1495,1390,1504.0
10.305304050445557,164,19,1500.4000000000001,1495,1390,1504.0
10.327836990356445,162,19,1500.2,1495,1390,1502.0
10.350360870361328,164,19,1500.4000000000001,1495,1390,1504.0
10.372905969619751,163,19,1500.3,1495,1390,1503.0
10.39542007446289,164,19,1500.4000000000001,1495,1390,1504.0
10.417958974838257,164,19,1500.4000000000001,1495,1390,1504.0
10.440510988235474,165,19,1500.5,1495,1390,1505.0
10.463221073150635,164,19,1500.4000000000001,1495,1390,1504.0
10.485817909240723,164,19,1500.4000000000001,1495,1390,1504.0
10.508397102355957,164,19,1500.4000000000001,1495,1390,1504.0
10.530945062637329,162,19,1500.2,1495,1390,1502.0
10.553498029708862,163,19,1500.3,1495,1390,1503.0
10.5762300491333,164,19,1500.4000000000001,1495,1390,1504.0
10.598788976669312,164,19,1500.4000000000001,1495,1390,1504.0
10.621341943740845,164,19,1500.4000000000001,1495,1390,1504.0
10.643887996673584,163,19,1500.3,1495,1390,1503.0
10.666537046432495,164,19,1500.4000000000001,1495,1390,1504.0
10.689081907272339,164,19,1500.4000000000001,1495,1390,1504.0
10.711612939834595,164,19,1500.4000000000001,1495,1390,1504.0
10.734193086624146,164,19,1500.4000000000001,1495,1390,1504.0
10.756824970245361,163,19,1500.3,1495,1390,1503.0
10.779344081878662,164,19,1500.4000000000001,1495,1390,1504.0
10.801858901977539,164,19,1500.4000000000001,1495,1390,1504.0
10.824469089508057,164,19,1500.4000000000001,1495,1390,1504.0
10.847090005874634,164,19,1500.4000000000001,1495,1390,1504.0
10.869668006896973,162,19,1500.2,1495,1390,1502.0
10.892189025878906,164,19,1500.4000000000001,1495,1390,1504.0
10.914779901504517,164,19,1500.4000000000001,1495,1390,1504.0
10.937344074249268,164,19,1500.4000000000001,1495,1390,1504.0
10.959886074066162,163,19,1500.3,1495,1390,1503.0
10.982420921325684,164,19,1500.4000000000001,1495,1390,1504.0
11.00495195388794,164,19,1500.4000000000001,1495,1390,1504.0
11.027483940124512,164,19,1500.4000000000001,1495,1390,1504.0
11.0500168800354,164,19,1500.4000000000001,1495,1390,1504.0
11.072537899017334,164,19,1500.4000000000001,1495,1390,1504.0
11.095088005065918,163,19,1500.3,1495,1390,1503.0
11.117635011672974,164,19,1500.4000000000001,1495,1390,1504.0
11.140199899673462,164,19,1500.4000000000001,1495,1390,1504.0
11.162726879119873,164,19,1500.4000000000001,1495,1390,1504.0
11.185272932052612,163,19,1500.3,1495,1390,1503.0
11.207866907119751,162,19,1500.2,1495,1390,1502.0
11.230427026748657,163,19,1500.3,1495,1390,1503.0
11.25295090675354,164,19,1500.4000000000001,1495,1390,1504.0
11.27553105354309,162,19,1500.2,1495,1390,1502.0
11.298161029815674,164,19,1500.4000000000001,1495,1390,1504.0
11.321032047271729,164,19,1500.4000000000001,1495,1390,1504.0
11.343622922897339,164,19,1500.4000000000001,1495,1390,1504.0
11.366288900375366,165,19,1500.5,1495,1390,1505.0
11.388794898986816,163,19,1500.3,1495,1390,1503.0
11.411323070526123,163,19,1500.3,1495,1390,1503.0
11.433852910995483,164,19,1500.4000000000001,1495,1390,1504.0
11.456511974334717,165,19,1500.5,1495,1390,1505.0
11.47902798652649,164,19,1500.4000000000001,1495,1390,1504.0
11.501544952392578,162,19,1500.2,1495,1390,1502.0
11.524152994155884,162,19,1500.2,1495,1390,1502.0
11.546767950057983,162,19,1500.2,1495,1390,1502.0
11.56929087638855,164,19,1500.4000000000001,1495,1390,1504.0
11.591826915740967,163,19,1500.3,1495,1390,1503.0
11.614420890808105,163,19,1500.3,1495,1390,1503.0
11.637018918991089,164,19,1500.4000000000001,1495,1390,1504.0
11.659548997879028,163,19,1500.3,1495,1390,1503.0
11.682179927825928,164,19,1500.4000000000001,1495,1390,1504.0
11.704998016357422,163,19,1500.3,1495,1390,1503.0
11.727624893188477,164,19,1500.4000000000001,1495,1390,1504.0
11.75019097328186,163,19,1500.3,1495,1390,1503.0
11.772718906402588,164,19,1500.4000000000001,1495,1390,1504.0
11.795247077941895,164,19,1500.4000000000001,1495,1390,1504.0
11.817754983901978,164,19,1500.4000000000001,1495,1390,1504.0
11.840308904647827,164,19,1500.4000000000001,1495,1390,1504.0
11.862891912460327,163,19,1500.3,1495,1390,1503.0
11.885416030883789,163,19,1500.3,1495,1390,1503.0
11.907989025115967,163,19,1500.3,1495,1390,1503.0
11.930567026138306,164,19,1500.4000000000001,1495,1390,1504.0
11.95311188697815,164,19,1500.4000000000001,1495,1390,1504.0
11.975635051727295,163,19,1500.3,1495,1390,1503.0
11.998152017593384,164,19,1500.4000000000001,1495,1390,1504.0
12.020670890808105,164,19,1500.4000000000001,1495,1390,1504.0
12.0431969165802,163,19,1500.3,1495,1390,1503.0
12.06571102142334,163,19,1500.3,1495,1390,1503.0
12.088222980499268,164,19,1500.4000000000001,1495,1390,1504.0
12.110769033432007,164,19,1500.4000000000001,1495,1390,1504.0
12.133307933807373,164,19,1500.4000000000001,1495,1390,1504.0
12.155833959579468,163,19,1500.3,1495,1390,1503.0
12.178404092788696,162,19,1500.2,1495,1390,1502.0
12.201059103012085,164,19,1500.4000000000001,1495,1390,1504.0
12.22362995147705,164,19,1500.4000000000001,1495,1390,1504.0
12.246329069137573,163,19,1500.3,1495,1390,1503.0
12.268852949142456,164,19,1500.4000000000001,1495,1390,1504.0
12.291368961334229,164,19,1500.4000000000001,1495,1390,1504.0
12.313901901245117,165,19,1500.5,1495,1390,1505.0
12.33659291267395,163,19,1500.3,1495,1390,1503.0
12.359164953231812,163,19,1500.3,1495,1390,1503.0
12.381695032119751,163,19,1500.3,1495,1390,1503.0
12.40431809425354,163,19,1500.3,1495,1390,1503.0
12.427006959915161,164,19,1500.4000000000001,1495,1390,1504.0
12.449595928192139,163,19,1500.3,1495,1390,1503.0
12.472173929214478,163,19,1500.3,1495,1390,1503.0
12.494736909866333,164,19,1500.4000000000001,1495,1390,1504.0
12.517271995544434,164,19,1500.4000000000001,1495,1390,1504.0
12.539859056472778,164,19,1500.4000000000001,1495,1390,1504.0
12.562397956848145,164,19,1500.4000000000001,1495,1390,1504.0
12.584920883178711,162,19,1500.2,1495,1390,1502.0
12.607438087463379,162,19,1500.2,1495,1390,1502.0
12.629976987838745,163,19,1500.3,1495,1390,1503.0
12.652498960494995,164,19,1500.4000000000001,1495,1390,1504.0
