time,x,y,roll,pitch,thrust,yaw
0.0003008842468261719,245,53,1510.625,1500,1361.75,1520
0.02178502082824707,245,53,1512.75,1500,1361.75,1520
0.042983055114746094,245,53,1514.875,1500,1361.75,1520
0.06427693367004395,245,53,1517.0,1500,1361.75,1520
0.0856170654296875,245,53,1519.125,1500,1361.75,1520
0.10681295394897461,245,53,1520,1500,1361.75,1520
0.1279439926147461,245,53,1520,1500,1361.75,1520
0.14928483963012695,245,53,1520,1500,1361.75,1520
0.17131590843200684,245,53,1520,1500,1361.75,1520
0.193281888961792,245,53,1520,1500,1361.75,1520
0.21544098854064941,244,53,1520,1500,1361.75,1520
0.23778104782104492,245,53,1520,1500,1361.75,1520
0.26018190383911133,244,52,1520,1500,1362.0,1520
0.28268003463745117,244,52,1520,1500,1362.0,1520
0.30520105361938477,244,52,1520,1500,1362.0,1520
0.32757997512817383,243,52,1520,1500,1362.0,1520
0.34996986389160156,242,51,1520,1500,1362.25,1520
0.3724398612976074,243,50,1520,1500,1362.5,1520
0.39491701126098633,241,50,1520,1500,1362.5,1520
0.41733288764953613,237,49,1520,1500,1362.75,1520
0.43976402282714844,235,48,1520,1500,1363.0,1520
0.46225404739379883,232,48,1520,1500,1363.0,1520
0.4847419261932373,229,48,1520,1500,1363.0,1520
0.507145881652832,225,48,1520,1500,1363.0,1520
0.5295310020446777,221,47,1520,1500,1363.25,1520
0.5519108772277832,218,46,1520,1500,1363.5,1520
0.5744688510894775,215,46,1520,1500,1363.5,1520
0.5969040393829346,210,46,1520,1500,1363.5,1520
0.6193039417266846,209,47,1520,1500,1363.25,1520
0.641697883605957,205,47,1520,1500,1363.25,1520
0.6642429828643799,202,47,1520,1500,1363.25,1520
0.686676025390625,195,48,1519.335,1500,1363.0,1520
0.7091920375823975,190,49,1517.8900000000001,1500,1362.75,1520
0.7317140102386475,187,49,1516.8199999999999,1500,1362.75,1520
0.7544598579406738,186,49,1515.9349999999999,1500,1362.75,1520
0.777026891708374,183,49,1514.8499999999999,1500,1362.75,1520
0.7995710372924805,178,49,1513.335,1500,1362.75,1518.0
0.8222439289093018,177,49,1512.2,1500,1362.75,1517.0
0.8449358940124512,174,49,1510.7550000000001,1500,1362.75,1514.0
0.8676269054412842,171,50,1509.4849999999999,1500,1362.5,1511.0
0.8902668952941895,168,50,1508.2149999999999,1500,1362.5,1508.0
0.9129090309143066,163,50,1506.855,1500,1362.5,1503.0
0.9355309009552002,162,51,1506.115,1500,1362.25,1502.0
0.9581718444824219,160,51,1505.27,1500,1362.25,1500.0
0.9808330535888672,158,50,1504.3099999999999,1500,1362.5,1498.0
1.0034759044647217,157,50,1503.4400000000001,1500,1362.5,1497.0
1.026106834411621,156,50,1502.55,1500,1362.5,1496.0
1.0487399101257324,156,50,1501.7550000000001,1500,1362.5,1496.0
1.071401834487915,154,50,1500.8150000000001,1500,1362.5,1494.0
1.094006061553955,152,50,1499.9300000000001,1500,1362.5,1492.0
1.1166388988494873,154,50,1499.54,1500,1362.5,1494.0
1.1393048763275146,153,50,1499.0699999999999,1500,1362.5,1493.0
1.161952018737793,151,50,1498.5650000000001,1500,1362.5,1491.0
1.1847259998321533,153,49,1498.4400000000001,1500,1362.75,1493.0
1.2073678970336914,153,49,1498.105,1500,1362.75,1493.0
1.229984998703003,151,49,1497.7550000000001,1500,1362.75,1491.0
1.2526578903198242,153,49,1497.79,1500,1362.75,1493.0
1.2753679752349854,153,49,1497.5050000000001,1500,1362.75,1493.0
1.2979910373687744,153,49,1497.45,1500,1362.75,1493.0
1.3206028938293457,153,50,1497.5050000000001,1500,1362.5,1493.0
1.343207836151123,154,50,1497.425,1500,1362.5,1494.0
1.3658490180969238,155,48,1497.5150000000001,1500,1363.0,1495.0
1.3884899616241455,153,48,1497.425,1500,1363.0,1493.0
1.4110949039459229,154,48,1497.52,1500,1363.0,1494.0
1.4337270259857178,155,48,1497.6099999999999,1500,1363.0,1495.0
1.456362009048462,155,49,1497.77,1500,1362.75,1495.0
1.478971004486084,154,49,1497.7850000000001,1500,1362.75,1494.0
1.501607894897461,153,49,1497.6849999999999,1500,1362.75,1493.0
1.5243639945983887,153,50,1497.7449999999999,1500,1362.5,1493.0
1.5470130443572998,152,50,1497.77,1500,1362.5,1492.0
1.5696680545806885,150,50,1497.6500000000001,1500,1362.5,1490.0
1.592376947402954,150,49,1497.615,1500,1362.75,1490.0
1.6150588989257812,152,48,1497.8199999999999,1500,1363.0,1492.0
1.6380469799041748,153,49,1497.865,1500,1362.75,1493.0
1.66068696975708,152,50,1497.5999999999999,1500,1362.5,1492.0
1.6833059787750244,153,50,1497.4100000000001,1500,1362.5,1493.0
1.7059109210968018,151,50,1496.9849999999999,1500,1362.5,1491.0
1.7285170555114746,151,50,1496.9349999999999,1500,1362.5,1491.0
1.751147985458374,152,50,1497.04,1500,1362.5,1492.0
1.773803949356079,152,49,1497.04,1500,1362.75,1492.0
1.7964160442352295,150,49,1497.02,1500,1362.75,1490.0
1.8190279006958008,151,48,1497.175,1500,1363.0,1491.0
1.8416378498077393,150,48,1497.0250000000001,1500,1363.0,1490.0
1.8644139766693115,148,49,1496.79,1500,1362.75,1488.0
1.8870849609375,150,49,1497.0,1500,1362.75,1490.0
1.9096779823303223,150,49,1496.835,1500,1362.75,1490.0
1.9324090480804443,149,49,1496.7449999999999,1500,1362.75,1489.0
1.9551770687103271,151,48,1496.885,1500,1363.0,1491.0
1.9778058528900146,151,47,1496.6500000000001,1500,1363.25,1491.0
2.0004520416259766,151,47,1496.5350000000001,1500,1363.25,1491.0
2.0231339931488037,151,49,1496.53,1500,1362.75,1491.0
2.0457730293273926,152,48,1496.5050000000001,1500,1363.0,1492.0
2.0684309005737305,151,47,1496.46,1500,1363.25,1491.0
2.091075897216797,151,47,1496.625,1500,1363.25,1491.0
2.1136820316314697,151,46,1496.6800000000001,1500,1363.5,1491.0
2.1363370418548584,151,46,1496.7349999999999,1500,1363.5,1491.0
2.159031867980957,150,46,1496.8099999999999,1500,1363.5,1490.0
2.1816859245300293,151,46,1496.9100000000001,1500,1363.5,1491.0
2.204516887664795,150,46,1496.8150000000001,1500,1363.5,1490.0
2.227648973464966,150,46,1496.8199999999999,1500,1363.5,1490.0
2.250325918197632,150,46,1496.825,1500,1363.5,1490.0
2.272986888885498,148,46,1496.5250000000001,1500,1363.5,1488.0
2.2956149578094482,149,47,1496.635,1500,1363.25,1489.0
2.3183019161224365,150,47,1496.6800000000001,1500,1363.25,1490.0
2.340930938720703,148,46,1496.4349999999999,1500,1363.5,1488.0
2.3635740280151367,148,46,1496.3900000000001,1500,1363.5,1488.0
2.386216878890991,150,46,1496.47,1500,1363.5,1490.0
2.4088408946990967,148,46,1496.165,1500,1363.5,1488.0
2.431472063064575,149,46,1496.27,1500,1363.5,1489.0
2.454108953475952,150,46,1496.25,1500,1363.5,1490.0
2.476733922958374,150,46,1496.1300000000001,1500,1363.5,1490.0
2.4993648529052734,149,46,1496.145,1500,1363.5,1489.0
2.521988868713379,151,45,1496.2750000000001,1500,1363.75,1491.0
2.5447540283203125,149,45,1496.02,1500,1363.75,1489.0
2.567412853240967,151,45,1496.325,1500,1363.75,1491.0
2.5900609493255615,150,45,1496.335,1500,1363.75,1490.0
2.6127309799194336,149,46,1496.1800000000001,1500,1363.5,1489.0
2.6354360580444336,151,46,1496.5450000000001,1500,1363.5,1491.0
2.6580770015716553,150,46,1496.4400000000001,1500,1363.5,1490.0
2.680712938308716,153,46,1496.7850000000001,1500,1363.5,1493.0
2.7034120559692383,152,45,1496.675,1500,1363.75,1492.0
2.7260749340057373,151,46,1496.5650000000001,1500,1363.5,1491.0
2.748692035675049,154,45,1496.8499999999999,1500,1363.75,1494.0
2.771333932876587,152,45,1496.6949999999999,1500,1363.75,1492.0
2.7939870357513428,152,45,1496.8099999999999,1500,1363.75,1492.0
2.816614866256714,154,45,1497.1099999999999,1500,1363.75,1494.0
2.8392398357391357,151,45,1496.9200000000001,1500,1363.75,1491.0
2.86188006401062,154,45,1497.385,1500,1363.75,1494.0
2.8847239017486572,153,45,1497.3900000000001,1500,1363.75,1493.0
2.907377004623413,153,44,1497.3299999999999,1500,1364.0,1493.0
2.929975986480713,153,44,1497.4449999999999,1500,1364.0,1493.0
2.952648878097534,151,44,1497.2449999999999,1500,1364.0,1491.0
2.9753780364990234,151,44,1497.26,1500,1364.0,1491.0
2.9980030059814453,151,45,1497.325,1500,1363.75,1491.0
3.020659923553467,150,44,1497.2950000000001,1500,1364.0,1490.0
3.043313980102539,152,43,1497.4449999999999,1500,1364.25,1492.0
3.0659918785095215,150,43,1497.25,1500,1364.25,1490.0
3.088606834411621,152,43,1497.28,1500,1364.25,1492.0
3.111217975616455,150,43,1496.9749999999999,1500,1364.25,1490.0
3.133852005004883,151,43,1496.905,1500,1364.25,1491.0
3.1567978858947754,152,43,1496.95,1500,1364.25,1492.0
3.179450035095215,152,43,1496.885,1500,1364.25,1492.0
3.2020790576934814,152,43,1496.9400000000001,1500,1364.25,1492.0
3.2248289585113525,153,43,1496.97,1500,1364.25,1493.0
3.247446060180664,151,43,1496.825,1500,1364.25,1491.0
3.270089864730835,152,42,1496.925,1500,1364.5,1492.0
3.2927629947662354,151,42,1496.9400000000001,1500,1364.5,1491.0
3.315458059310913,151,42,1496.9449999999999,1500,1364.5,1491.0
3.338096857070923,152,43,1497.2149999999999,1500,1364.25,1492.0
3.360750913619995,152,43,1497.21,1500,1364.25,1492.0
3.383409023284912,152,42,1497.21,1500,1364.5,1492.0
3.406045913696289,152,41,1497.1500000000001,1500,1364.75,1492.0
3.428652048110962,153,40,1497.1849999999999,1500,1365.0,1493.0
3.4512970447540283,155,41,1497.3150000000001,1500,1364.75,1495.0
3.4739599227905273,152,41,1497.0699999999999,1500,1364.75,1492.0
3.496572971343994,152,42,1497.0699999999999,1500,1364.5,1492.0
3.5191988945007324,153,43,1497.22,1500,1364.25,1493.0
3.5418200492858887,152,42,1497.2349999999999,1500,1364.5,1492.0
3.5646228790283203,153,41,1497.51,1500,1364.75,1493.0
3.587307929992676,153,41,1497.5050000000001,1500,1364.75,1493.0
3.609920024871826,153,41,1497.5,1500,1364.75,1493.0
3.6326520442962646,152,40,1497.46,1500,1365.0,1492.0
3.6554338932037354,151,40,1497.3099999999999,1500,1365.0,1491.0
3.6780588626861572,152,40,1497.3050000000001,1500,1365.0,1492.0
3.7006888389587402,153,40,1497.46,1500,1365.0,1493.0
3.723306894302368,153,41,1497.5150000000001,1500,1364.75,1493.0
3.7459139823913574,152,42,1497.3599999999999,1500,1364.5,1492.0
3.7685530185699463,153,42,1497.395,1500,1364.5,1493.0
3.791195869445801,152,41,1497.24,1500,1364.75,1492.0
3.8137989044189453,150,40,1497.0550000000001,1500,1365.0,1490.0
3.8364310264587402,152,40,1497.26,1500,1365.0,1492.0
3.859066963195801,150,40,1497.0699999999999,1500,1365.0,1490.0
3.8817150592803955,152,40,1497.385,1500,1365.0,1492.0
3.9044928550720215,151,40,1497.29,1500,1365.0,1491.0
3.927126884460449,150,40,1497.0250000000001,1500,1365.0,1490.0
3.949842929840088,150,41,1496.98,1500,1364.75,1490.0
3.9727320671081543,150,41,1496.8699999999999,1500,1364.75,1490.0
3.9954819679260254,149,40,1496.73,1500,1365.0,1489.0
4.018161058425903,151,40,1496.875,1500,1365.0,1491.0
4.0407750606536865,151,40,1496.8699999999999,1500,1365.0,1491.0
4.0633769035339355,151,40,1496.7550000000001,1500,1365.0,1491.0
4.086003065109253,149,40,1496.5599999999999,1500,1365.0,1489.0
4.108595848083496,151,41,1496.585,1500,1364.75,1491.0
4.131245851516724,151,41,1496.585,1500,1364.75,1491.0
4.154052972793579,152,41,1496.7349999999999,1500,1364.75,1492.0
4.1767590045928955,150,40,1496.595,1500,1365.0,1490.0
4.1993749141693115,150,40,1496.5350000000001,1500,1365.0,1490.0
4.221987962722778,150,38,1496.6500000000001,1500,1365,1490.0
4.244688034057617,150,38,1496.655,1500,1365,1490.0
4.267223834991455,150,38,1496.72,1500,1365,1490.0
4.28973388671875,151,39,1496.76,1500,1365,1491.0
4.312303066253662,150,38,1496.7149999999999,1500,1365,1490.0
4.334890842437744,150,38,1496.6600000000001,1500,1365,1490.0
4.357420921325684,150,38,1496.605,1500,1365,1490.0
4.379935026168823,150,37,1496.4949999999999,1500,1365,1490.0
4.402509927749634,152,38,1496.7449999999999,1500,1365,1492.0
4.425092935562134,152,37,1496.7349999999999,1500,1365,1492.0
4.447591066360474,150,38,1496.5350000000001,1500,1365,1490.0
4.470113039016724,151,39,1496.6300000000001,1500,1365,1491.0
4.492689847946167,152,38,1496.72,1500,1365,1492.0
4.515249967575073,151,38,1496.6800000000001,1500,1365,1491.0
4.537762880325317,151,37,1496.7950000000001,1500,1365,1491.0
4.560268878936768,151,36,1496.79,1500,1365,1491.0
4.5828468799591064,151,36,1496.845,1500,1365,1491.0
4.605411052703857,151,35,1496.96,1500,1365,1491.0
4.627910852432251,151,35,1496.905,1500,1365,1491.0
4.650439023971558,150,35,1496.7550000000001,1500,1365,1490.0
4.672986030578613,150,36,1496.8150000000001,1500,1365,1490.0
4.69549298286438,152,36,1497.01,1500,1365,1492.0
4.717979907989502,150,36,1496.76,1500,1365,1490.0
4.7407989501953125,151,35,1496.8599999999999,1500,1365,1491.0
