time,x,y,size_inv,roll,pitch,thrust,yaw
0.0014410018920898438,166,30.0,2012.5826415054094,1518.0,1497.2661218867743,1350,1506.0
0.025751113891601562,167,30.376,2022.6455547129365,1520,1497.3114049962082,1350,1507.0
0.049375057220458984,167,30.376,2032.7084679204636,1520,1497.356688105642,1350,1507.0
0.07291197776794434,167,30.376,2042.7713811279907,1520,1497.4019712150759,1350,1507.0
0.09643101692199707,167,30.376,2052.8342943355178,1520,1497.4472543245099,1350,1507.0
0.11994814872741699,166,30.376,2043.686191419584,1520,1497.4060878613882,1350,1506.0
0.14345312118530273,166,29.376,2043.686191419584,1520,1497.4060878613882,1350,1506.0
0.16696906089782715,166,29.376,2043.686191419584,1520,1497.4060878613882,1350,1506.0
0.1904740333557129,166,29.376,2043.686191419584,1520,1497.4060878613882,1350,1506.0
0.21400904655456543,167,29.376,2043.686191419584,1520,1497.4060878613882,1350,1507.0
0.237807035446167,168,30.376,2034.5380885036502,1520,1497.8040303382313,1350,1508.0
0.26196718215942383,167,30.3995,2015.3270723801895,1520,1496.2355880932944,1350,1507.0
0.28619909286499023,167,30.3995,1996.1160562567288,1520,1494.3927027608795,1350,1507.0
0.310319185256958,166,29.376,1986.0531430492017,1520,1492.5909838915863,1350,1506.0
0.33444714546203613,164,29.3525,1975.9902298416746,1520,1490.7892650222932,1350,1504.0
0.358565092086792,159,30.3525,1995.2012459651353,1520,1489.9700524061714,1350,1499.0
0.38271212577819824,157,31.376,2005.2641591726624,1520,1490.5642216905612,1350,1497.0
0.406879186630249,156,32.4935,2005.2641591726624,1520,1492.265768832925,1350,1496.0
0.4310190677642822,153,35.564,2005.2641591726624,1510.0,1494.5710907677403,1350,1493.0
0.4553849697113037,154,37.611,2005.2641591726624,1499.0,1497.4801874950072,1350,1494.0
0.47960400581359863,152,41.611,2014.412262088596,1480,1499.2777897179881,1350,1492.0
0.5037341117858887,152,42.5875,2023.5603650045298,1480,1500.1697297522917,1340.6513600000001,1492.0
0.5279560089111328,152,43.564,2032.7084679204636,1480,1500.7597823903695,1326.38588,1492.0
0.5522210597991943,152,44.517,2032.7084679204636,1480,1501.0067811690997,1320.7656400000003,1492.0
0.5765361785888672,153,46.4935,2023.5603650045298,1480,1500.6362830010044,1316.8345999999999,1493.0
0.6007921695709229,154,48.4935,2004.3493488810691,1480,1499.6716155485192,1319.83536,1494.0
0.6251580715179443,155,52.517,1985.1383327576084,1480,1497.8836188335999,1315.95632,1495.0
0.6493949890136719,155,54.517,1975.9902298416746,1480,1495.3175759656804,1312.8398799999998,1495.0
0.6736180782318115,155,56.4935,1966.8421269257408,1480,1492.4770900102831,1305.3979999999999,1495.0
0.6978640556335449,155,57.4465,1966.8421269257408,1480,1490.2266566929634,1300.5622799999999,1495.0
0.7221801280975342,156,59.376,1957.694024009807,1480,1489.0877178799296,1291.9362799999999,1496.0
0.7464871406555176,156,61.329,1957.694024009807,1480,1489.4170495849032,1290.40752,1496.0
0.7707221508026123,156,62.2585,1957.694024009807,1480,1490.5697105523109,1293.04044,1496.0
0.7950680255889893,156,64.235,1948.5459210938729,1480,1491.9556481440748,1295.8089199999999,1496.0
0.8193399906158447,156,66.235,1948.5459210938729,1480,1493.1083091114824,1295.6495600000001,1496.0
0.8436040878295898,156,69.2585,1948.5459210938729,1480,1494.2335257701423,1292.59076,1496.0
0.8678281307220459,156,71.3055,1940.1933053880207,1480,1494.4942467032463,1287.75252,1496.0
0.8921430110931396,155,76.3055,1931.8406896821682,1480,1494.2299460776969,1272.0532800000001,1495.0
0.9165480136871338,155,78.329,1931.8406896821682,1480,1494.2776753103019,1259.85816,1495.0
0.9407660961151123,155,80.3055,1922.6925867662344,1480,1494.009794992307,1250,1495.0
0.9649951457977295,154,81.282,1914.3399710603819,1480,1493.220472808104,1250,1494.0
0.9890990257263184,154,83.2585,1905.1918681444483,1480,1492.6542847863286,1250,1494.0
1.0132009983062744,154,84.2115,1896.0437652285145,1480,1492.3148106194265,1250,1494.0
1.0373129844665527,153,87.2115,1896.0437652285145,1480,1491.7420598281681,1250,1493.0
1.061493158340454,154,88.2115,1887.691149522662,1480,1491.4300299700137,1254.01964,1494.0
1.0861461162567139,153,90.235,1879.3385338168096,1480,1491.3685785830348,1255.05108,1493.0
1.1103901863098145,153,92.2585,1871.6819694197779,1480,1491.3788701988153,1255.91896,1493.0
1.1346170902252197,153,93.3055,1871.6819694197779,1480,1491.7219240581628,1252.31936,1493.0
1.1588160991668701,152,96.329,1863.3293537139257,1480,1491.7768126756584,1250,1492.0
1.1829249858856201,152,98.3525,1854.9767380080732,1480,1491.8078366768516,1250,1492.0
1.2070260047912598,152,99.3525,1854.9767380080732,1480,1492.1270259198966,1250,1492.0
1.231132984161377,152,100.376,1838.9675579051891,1480,1492.0788492257361,1250,1492.0
1.2553579807281494,152,100.3525,1830.6149421993366,1480,1491.5401055127086,1250,1492.0
1.2794899940490723,152,100.3525,1822.2623264934841,1480,1491.2519402708567,1250,1492.0
1.3036561012268066,152,101.3525,1822.2623264934841,1480,1491.2519402708567,1255.6586399999999,1492.0
1.3278741836547852,152,101.3525,1822.2623264934841,1480,1491.0013617996813,1265.1784399999999,1492.0
1.3521530628204346,153,102.3525,1829.9188908905157,1480,1491.7457886744653,1272.1720800000001,1493.0
1.3764221668243408,153,102.376,1829.9188908905157,1480,1492.9569179518139,1278.81396,1493.0
1.4006359577178955,153,102.376,1829.9188908905157,1480,1494.418625700338,1281.3720800000001,1493.0
1.4248740673065186,153,102.3995,1829.9188908905157,1480,1495.6297549776866,1283.9161999999999,1493.0
1.4490959644317627,154,102.423,1829.9188908905157,1480,1496.8408842550352,1285.06648,1494.0
1.4732930660247803,154,102.423,1837.5754552875474,1480,1497.3764957371732,1287.653,1494.0
1.4974961280822754,155,102.4465,1837.5754552875474,1480,1497.6270742083486,1290.2752399999999,1495.0
1.5217700004577637,154,102.423,1845.9280709933998,1480,1497.9152394502007,1292.9877200000001,1494.0
1.5460710525512695,155,101.423,1845.9280709933998,1480,1498.1658179213762,1297.0178000000001,1495.0
1.5702781677246094,156,100.423,1854.2806866992523,1480,1498.7045616344037,1302.55368,1496.0
1.5944840908050537,156,99.376,1854.2806866992523,1480,1498.976021644844,1308.2936400000001,1496.0
1.618697166442871,156,98.3525,1862.6333024051048,1480,1499.5356468971361,1315.5130799999999,1496.0
1.6428980827331543,156,97.329,1870.9859181109573,1480,1499.8446936782525,1324.1405600000001,1496.0
1.6671149730682373,156,96.3055,1879.3385338168096,1480,1500.4043189305446,1331.4099200000001,1496.0
1.691451072692871,157,95.3055,1879.3385338168096,1480,1500.4252004698092,1337.2591199999999,1497.0
1.7158379554748535,157,94.3055,1887.691149522662,1480,1500.9639441828367,1341.61672,1497.0
1.7400541305541992,157,93.3055,1887.691149522662,1480,1500.9639441828367,1344.51656,1497.0
1.7642490863800049,158,93.3055,1887.691149522662,1480,1500.7133657116613,1343.38256,1498.0
1.7884399890899658,158,92.3055,1887.691149522662,1480,1499.9616302981344,1343.38276,1498.0
1.8127119541168213,158,92.3055,1887.691149522662,1480,1499.4604733557833,1340.74296,1498.0
1.837010145187378,159,91.3055,1896.0437652285145,1480,1498.7463247129328,1339.36708,1499.0
1.8612620830535889,159,90.282,1896.0437652285145,1480,1498.2451677705817,1338.0852,1499.0
1.885634183883667,159,89.2585,1887.691149522662,1480,1497.7064240575544,1339.66912,1499.0
1.9098689556121826,160,89.235,1887.691149522662,1482.0,1497.4558455863787,1338.67884,1500.0
1.9341731071472168,160,89.235,1896.0437652285145,1485.0,1497.4934323570551,1339.02036,1500.0
1.9584879875183105,160,88.235,1896.0437652285145,1488.0,1497.2428538858794,1340.56188,1500.0
1.9828369617462158,161,88.235,1904.396380934367,1494.0,1497.2804406565558,1339.3976,1501.0
2.0071420669555664,161,88.235,1904.396380934367,1497.0,1497.781597598907,1335.36752,1501.0
2.031491994857788,161,88.235,1912.7489966402195,1500.0,1498.57091978311,1332.6316400000001,1501.0
2.0558700561523438,161,88.2115,1912.7489966402195,1503.0,1498.8214982542856,1329.9577999999999,1501.0
2.0802180767059326,161,88.2115,1912.7489966402195,1505.0,1499.3226551966368,1325.81576,1501.0
2.1045281887054443,161,87.1645,1921.8970995561533,1507.0,1499.6382647472365,1325.8297600000001,1501.0
2.129136085510254,162,87.1645,1939.3978181779396,1512.0,1500.2659041559905,1325.9793199999999,1502.0
2.1534600257873535,162,87.141,1948.5459210938729,1514.0,1500.6292429391951,1326.22288,1502.0
2.1777560710906982,162,87.1175,1957.694024009807,1516.0,1501.5176032810532,1326.4344799999999,1502.0
2.2021119594573975,162,87.1175,1966.8421269257408,1518.0,1502.6804067103894,1327.9778799999999,1502.0
2.2265090942382812,162,87.1175,1975.9902298416746,1519.0,1503.8193455234232,1326.58968,1502.0
2.250808000564575,162,87.094,1985.1383327576084,1520.0,1504.1826843066278,1325.26352,1502.0
2.275218963623047,162,88.094,2004.3493488810691,1520,1504.8693289791897,1321.20336,1502.0
2.2994439601898193,162,88.1175,2023.5603650045298,1520,1505.5834179604992,1318.2473199999999,1502.0
2.323678970336914,162,89.1175,2042.7713811279905,1520,1506.3249512505568,1312.67948,1502.0
2.3478810787200928,162,89.1175,2052.8342943355174,1520,1507.0527623862401,1309.7355600000001,1502.0
2.372143030166626,163,90.1175,2062.8972075430447,1520,1508.058596301847,1304.08584,1503.0
2.39642596244812,163,90.1175,2084.0822879799439,1520,1508.8718145031635,1302.4680799999999,1503.0
2.420642137527466,163,90.094,2105.2673684168431,1520,1509.4423672376572,1301.0101199999999,1503.0
2.4448611736297607,162,90.047,2126.4524488537418,1520,1509.7702545053285,1302.44804,1502.0
2.4690730571746826,163,90.0,2159.995492878832,1520,1510.8307122249255,1303.95364,1503.0
2.4932851791381836,163,88.9765,2181.1805733157312,1520,1512.1417798165089,1310.9368400000001,1503.0
2.51753306388855,163,88.9295,2204.6607041332945,1520,1513.4728047168223,1315.4559200000001,1503.0
2.541807174682617,163,88.906,2228.1408349508574,1520,1514.8134591991525,1319.8828800000001,1503.0
2.566110134124756,162,88.8825,2251.6209657684203,1520,1516.1637432634991,1322.8520800000001,1502.0
2.5903191566467285,162,88.859,2275.1010965859832,1520,1516.5077360070934,1325.72352,1502.0
2.614544153213501,162,88.859,2298.5812274035461,1520,1516.5869152452262,1324.34096,1502.0
2.6387460231781006,162,88.8355,2310.9391909917367,1520,1516.2135282025258,1322.8888400000001,1502.0
2.662950038909912,162,88.812,2323.2971545799278,1520,1515.4376246315244,1321.4367200000002,1502.0
2.6871490478515625,162,87.7415,2323.2971545799278,1520,1513.8328547884294,1322.7806399999999,1502.0
2.711395025253296,161,87.6945,2323.2971545799278,1520,1511.8255684170331,1322.96216,1501.0
2.735689163208008,161,86.671,2335.6551181681189,1520,1509.4713763534826,1327.18128,1501.0
2.7599120140075684,161,86.624,2335.6551181681189,1520.0,1507.0244995630208,1330.2944,1501.0
2.784212112426758,161,86.6005,2335.6551181681189,1518.0,1504.5405488817944,1333.37932,1501.0
2.8084871768951416,160,86.624,2335.6551181681189,1514.0,1502.761002125095,1333.4085600000001,1500.0
2.8328299522399902,160,86.6475,2323.2971545799278,1512.0,1501.2595095491299,1333.30432,1500.0
2.8571810722351074,160,87.671,2310.9391909917367,1510.0,1499.3502041747543,1327.6604400000001,1500.0
2.8815460205078125,160,88.718,2298.5812274035461,1508.0,1497.4408988003788,1320.38104,1500.0
2.905938148498535,159,90.7415,2286.223263815355,1503.0,1495.5315934260034,1308.98216,1499.0
2.9302539825439453,159,91.765,2286.223263815355,1500.0,1493.6778988877745,1298.8311200000001,1499.0
2.9545371532440186,159,92.7885,2273.865300227164,1498.0,1492.1393324210449,1287.3359599999999,1499.0
2.9788260459899902,159,93.7885,2273.865300227164,1496.0,1491.7685935133991,1278.68676,1499.0
3.0031039714813232,159,93.812,2261.5073366389729,1494.0,1491.7129826772523,1274.1710399999999,1499.0
3.027398109436035,159,94.812,2261.5073366389729,1492.0,1492.4544604925436,1272.74128,1499.0
3.0517501831054688,158,96.8355,2261.5073366389729,1488.0,1493.1959383078351,1270.00332,1498.0
3.0761289596557617,158,97.8825,2273.865300227164,1486.0,1494.7345047745648,1269.76332,1498.0
3.100445032119751,157,98.906,2286.223263815355,1481.0,1496.2730712412947,1269.4857200000001,1497.0
3.1247310638427734,157,98.9295,2298.5812274035461,1480,1498.5531155233159,1269.0161599999999,1497.0
3.1489641666412354,157,99.953,2310.9391909917367,1480,1500.8331598053371,1265.9207999999999,1497.0
3.1735010147094727,156,100.953,2323.2971545799278,1480,1503.4839429950041,1265.6874800000001,1496.0
3.197761058807373,157,100.953,2335.6551181681189,1480,1505.3932483693798,1268.1938,1497.0
3.2220451831817627,156,100.9765,2335.6551181681189,1480,1506.5054650923169,1272.1438799999999,1496.0
3.2463440895080566,156,100.953,2348.0130817563099,1480,1506.9318148361094,1276.21804,1496.0
3.270581007003784,156,100.953,2348.0130817563099,1480,1506.5610759284637,1281.7698,1496.0
3.2948241233825684,156,100.9295,2348.0130817563099,1480,1505.4488592055266,1287.43164,1496.0
3.319099187850952,156,99.9295,2348.0130817563099,1480,1503.9659035749437,1294.2813599999999,1496.0
3.3432910442352295,156,98.906,2348.0130817563099,1480,1502.8536868520064,1301.3069599999999,1496.0
3.3675100803375244,155,98.8825,2348.0130817563099,1480,1501.3707312214235,1307.06864,1495.0
3.391817092895508,155,97.8825,2348.0130817563099,1480,1500.2585144984862,1314.05016,1495.0
3.416192054748535,155,97.906,2348.0130817563099,1480,1499.5170366831949,1318.34384,1495.0
3.440412998199463,155,96.9295,2335.6551181681189,1480,1498.7199480317565,1322.4436800000001,1495.0
3.464614152908325,155,96.9295,2335.6551181681189,1480,1497.978470216465,1322.47396,1495.0
3.4887940883636475,155,96.953,2335.6551181681189,1480,1497.6077313088194,1322.4083599999999,1495.0
3.5130040645599365,155,96.953,2335.6551181681189,1480,1497.2369924011737,1319.57096,1495.0
3.5372250080108643,155,95.9765,2323.2971545799278,1480,1496.4399037497353,1319.4092800000001,1495.0
3.5614891052246094,155,95.9765,2323.2971545799278,1480,1496.4399037497353,1316.7015999999999,1495.0
3.5858030319213867,156,94.9765,2310.9391909917367,1480,1496.0135540059428,1318.0258799999999,1496.0
3.6100211143493652,156,94.9765,2310.9391909917367,1480,1495.642815098297,1318.24792,1496.0
3.6342110633850098,156,95.0,2310.9391909917367,1480,1495.2720761906512,1319.76792,1496.0
3.658384084701538,156,94.0,2298.5812274035461,1480,1495.2164653545044,1321.1899599999999,1496.0
3.682636022567749,156,94.0,2298.5812274035461,1480,1494.8457264468586,1322.7400399999999,1496.0
3.7069170475006104,156,94.0235,2298.5812274035461,1480,1495.2164653545044,1321.4280799999999,1496.0
3.7311201095581055,156,94.0235,2298.5812274035461,1480,1495.5872042621502,1320.1123600000001,1496.0
3.7554590702056885,156,94.047,2298.5812274035461,1480,1495.957943169796,1318.8004000000001,1496.0
3.7796621322631836,157,93.0705,2298.5812274035461,1480,1496.6994209850873,1318.62264,1497.0
3.8038699626922607,157,93.0705,2286.223263815355,1480,1497.0145490565862,1317.2730799999999,1497.0
3.8281071186065674,157,93.094,2286.223263815355,1480,1497.0145490565862,1317.28728,1497.0
3.852389097213745,157,93.1175,2273.865300227164,1480,1496.5881993127937,1317.26764,1497.0
3.8766820430755615,157,93.1175,2261.5073366389729,1480,1495.7911106613553,1317.3100400000001,1497.0
3.900902032852173,157,93.141,2261.5073366389729,1480,1494.678893938418,1315.9161999999999,1497.0
3.92520809173584,157,93.141,2261.5073366389729,1480,1494.3081550307722,1314.5505599999999,1497.0
3.9493789672851562,157,93.141,2249.1493730507818,1480,1493.5110663793341,1313.21876,1497.0
3.9735851287841797,158,93.141,2236.7914094625912,1480,1493.0847166355413,1311.9527599999999,1498.0
3.997807025909424,158,93.1645,2224.4334458744001,1480,1493.0291057993945,1310.59276,1498.0
4.022063970565796,158,93.1645,2213.3112786450283,1480,1492.6453910299813,1310.6548,1498.0
4.046338081359863,158,93.188,2213.3112786450283,1480,1491.9409871054543,1310.6548,1498.0
4.070548057556152,158,93.2115,2213.3112786450283,1480,1491.978060996219,1310.5889999999999,1498.0
4.094779014587402,158,93.2585,2213.3112786450283,1480,1492.3858737946293,1310.39536,1498.0
4.119009971618652,158,94.282,2225.6692422332189,1480,1493.590775244478,1307.6218800000001,1498.0
4.1432249546051025,159,94.282,2225.6692422332189,1480,1495.4073958919419,1306.0446400000001,1499.0
4.167421102523804,159,94.3055,2225.6692422332189,1480,1497.224016539406,1304.4711600000001,1499.0
4.192023992538452,159,93.3055,2225.6692422332189,1481.0,1498.6698982792243,1305.63168,1499.0
4.216493129730225,159,93.3055,2225.6692422332189,1482.0,1499.7450411113969,1305.7238,1499.0
4.240802049636841,160,93.3055,2225.6692422332189,1486.0,1499.7079672206323,1308.64976,1500.0
4.265235185623169,160,92.282,2236.7914094625912,1488.0,1499.7209430824,1314.2777599999999,1500.0
4.289535999298096,160,92.2585,2236.7914094625912,1490.0,1499.6838691916355,1318.7734399999999,1500.0
4.313827991485596,160,91.235,2236.7914094625912,1492.0,1499.646795300871,1323.1110000000001,1500.0
4.338129043579102,160,90.235,2236.7914094625912,1494.0,1499.6097214101064,1328.7964400000001,1500.0
4.362488031387329,161,90.2115,2224.4334458744001,1499.0,1499.5170366831949,1331.9519599999999,1501.0
4.386861085891724,161,89.2115,2224.4334458744001,1501.0,1498.8126327586681,1334.85348,1501.0
4.4111549854278564,161,89.2115,2224.4334458744001,1503.0,1498.1082288341411,1336.45724,1501.0
4.435590982437134,161,89.2115,2224.4334458744001,1505.0,1497.4038249096143,1336.5552,1501.0
4.459907054901123,161,89.235,2224.4334458744001,1507.0,1496.6994209850873,1333.7911199999999,1501.0
4.4842209815979,161,89.235,2236.7914094625912,1508.0,1497.1628446196444,1330.9894400000001,1501.0
4.508514165878296,161,88.2115,2236.7914094625912,1509.0,1497.9043224349359,1329.4817599999999,1501.0
4.532824993133545,161,88.2115,2236.7914094625912,1510.0,1498.6458002502275,1326.77784,1501.0
4.557135105133057,161,88.2115,2249.1493730507818,1511.0,1499.8136278093114,1325.46588,1501.0
4.581494092941284,161,88.235,2261.5073366389729,1512.0,1501.3521942760412,1325.5176799999999,1501.0
4.6058900356292725,161,88.235,2261.5073366389729,1512.0,1501.7229331836868,1325.6296400000001,1501.0
4.630223989486694,162,88.235,2273.865300227164,1515.0,1502.5200218351251,1324.2357999999999,1502.0
4.65453314781189,162,88.2115,2286.223263815355,1516.0,1503.6878493942093,1322.904,1502.0
4.67882513999939,162,88.2115,2298.5812274035461,1517.0,1504.4849380456476,1321.5440000000001,1502.0
4.70310115814209,162,88.2115,2310.9391909917367,1518.0,1504.9112877894402,1320.21784,1502.0
4.727370977401733,163,88.2115,2310.9391909917367,1520,1505.6527656047317,1318.89168,1503.0
4.751645088195801,163,88.235,2323.2971545799278,1520,1506.0791153485243,1318.89544,1503.0
4.77594518661499,163,88.235,2335.6551181681189,1520,1506.1347261846711,1318.8616,1503.0
4.800146102905273,163,88.235,2349.4669598255086,1520,1506.2404958142054,1318.8277599999999,1503.0
4.8243491649627686,163,88.2115,2363.2788014828989,1520,1506.3898817858155,1318.8240000000001,1503.0
4.84855318069458,163,88.2115,2375.6367650710899,1520,1506.9034642137601,1318.79204,1503.0
4.872795104980469,163,88.188,2375.6367650710899,1520,1506.9906968979119,1318.8879199999999,1503.0
4.897078990936279,162,87.188,2389.4486067284797,1520,1507.1836992115982,1321.6275599999999,1502.0
4.921378135681152,162,87.188,2403.2604483858695,1520,1507.3330851832084,1323.1672000000001,1502.0
4.945657968521118,162,87.1645,2417.0722900432597,1520,1507.4388548127426,1324.70308,1502.0
4.969840049743652,162,87.1645,2430.8841317006495,1520,1507.217501876707,1326.2107599999999,1502.0
4.994024038314819,162,87.141,2444.6959733580397,1520,1507.7812430980389,1327.68272,1502.0
5.018237113952637,162,87.094,2458.5078150154295,1520,1508.3013679772948,1326.45056,1502.0
5.042505979537964,162,86.0705,2444.6959733580397,1520,1507.8684757821909,1327.8640399999999,1502.0
5.066761016845703,161,85.0235,2444.6959733580397,1520,1507.0833816248235,1330.7795599999999,1501.0
5.0909340381622314,161,83.9765,2458.5078150154295,1520,1506.3168244128383,1335.2027599999999,1501.0
5.115426063537598,161,83.9295,2472.3196566728193,1519.0,1505.1359119511314,1338.4598000000001,1501.0
5.139726161956787,161,83.9295,2458.5078150154295,1518.0,1503.0019824150647,1342.8888400000001,1501.0
5.164031982421875,161,83.906,2444.6959733580397,1517.0,1501.6967633784413,1344.5141199999998,1501.0
5.188344955444336,160,83.906,2444.6959733580397,1513.0,1500.868052878998,1343.21156,1500.0
5.212922096252441,160,83.906,2444.6959733580397,1511.0,1499.6249871298328,1338.9774,1500.0
5.237221956253052,160,84.9295,2430.8841317006495,1509.0,1497.4910575937661,1331.94156,1500.0
5.261576175689697,160,84.9295,2417.0722900432597,1507.0,1496.1858385571427,1326.19784,1500.0
5.285968065261841,159,85.953,2417.0722900432597,1502.0,1495.3571280576994,1319.0782400000001,1499.0
5.31026816368103,159,86.9765,2403.2604483858695,1500.0,1494.051909021076,1311.9087199999999,1499.0
5.334571123123169,159,86.9765,2403.2604483858695,1498.0,1493.2231985216326,1307.39132,1499.0
5.358860015869141,158,88.0,2389.4486067284797,1493.0,1493.1610452341745,1303.1016,1498.0
5.383136987686157,158,88.0,2403.2604483858695,1490.0,1494.051909021076,1300.04008,1498.0
5.4074201583862305,158,89.0235,2403.2604483858695,1487.0,1494.4662642707976,1297.17428,1498.0
5.431802988052368,158,90.047,2389.4486067284797,1485.0,1495.2328214827828,1295.7004400000001,1498.0
5.456202030181885,158,91.047,2389.4486067284797,1483.0,1496.0615319822264,1292.8148000000001,1498.0
5.480479955673218,158,92.0705,2389.4486067284797,1481.0,1497.3045977313914,1289.9009599999999,1498.0
5.504764080047607,158,93.094,2389.4486067284797,1480,1497.3045977313914,1285.5132800000001,1498.0
5.528969049453735,157,93.094,2389.4486067284797,1480,1497.3045977313914,1283.82764,1497.0
5.553202152252197,157,93.094,2403.2604483858695,1480,1498.1954615182931,1283.6158399999999,1497.0
5.577402114868164,157,93.0705,2403.2604483858695,1480,1499.0241720177364,1286.2660800000001,1497.0
5.601672172546387,157,93.0705,2417.0722900432597,1480,1499.9150358046381,1290.36196,1497.0
5.625969171524048,157,93.047,2417.0722900432597,1480,1501.1581015538031,1297.3856800000001,1497.0
5.650166034698486,157,93.047,2430.8841317006495,1480,1502.8776758401482,1302.9892400000001,1497.0
5.674371957778931,156,93.0235,2444.6959733580397,1480,1503.7685396270499,1307.26288,1496.0
5.698596000671387,156,93.0235,2444.6959733580397,1480,1504.5972501264932,1310.0825199999999,1496.0
5.722819089889526,156,93.047,2458.5078150154295,1480,1505.0737586636733,1311.4481599999999,1496.0
5.747019052505493,156,93.047,2472.3196566728193,1480,1505.9646224505748,1311.3842400000001,1496.0
5.771209955215454,156,94.047,2472.3196566728193,1480,1505.9646224505748,1308.6803199999999,1496.0
5.7955591678619385,156,94.047,2458.5078150154295,1480,1505.0737586636733,1307.1106,1496.0
5.819808006286621,156,94.0705,2444.6959733580397,1480,1503.7685396270499,1305.5108,1496.0
5.8440539836883545,156,94.0705,2430.8841317006495,1480,1501.6346100909832,1304.0050000000001,1496.0
5.8682861328125,156,93.047,2417.0722900432597,1480,1498.2576148057512,1305.2332000000001,1496.0
5.892758131027222,156,93.047,2403.2604483858695,1480,1494.8806195205195,1308.0332000000001,1496.0
5.917309045791626,156,92.0235,2377.0906431402882,1480,1491.9059849909384,1313.5672,1496.0
5.9416210651397705,156,92.0235,2350.9208378947069,1480,1488.9749668034333,1317.9387999999999,1496.0
5.965963125228882,156,92.0235,2337.1089962373171,1480,1486.9282699515186,1322.27844,1496.0
5.99018406867981,156,92.0235,2323.2971545799273,1480,1485.710283599047,1323.7522799999999,1496.0
6.014497995376587,156,92.047,2323.2971545799273,1480,1485.3831610334773,1323.8040799999999,1496.0
6.038866996765137,156,92.0705,2310.9391909917363,1480,1485.7855217891281,1320.95624,1496.0
6.0630950927734375,156,93.1175,2298.5812274035452,1480,1486.9729767021463,1315.3405599999999,1496.0
6.087316989898682,157,94.2115,2286.2232638153541,1480,1488.2040479572406,1308.09312,1497.0
6.1116039752960205,156,96.2585,2273.8653002271631,1480,1489.4787355544108,1298.14636,1496.0
6.135926008224487,157,96.329,2261.5073366389724,1480,1489.9683289942136,1290.53568,1497.0
6.160149097442627,156,97.3525,2261.5073366389724,1480,1490.4699169280871,1281.76532,1496.0
6.1843421459198,156,97.376,2261.5073366389724,1480,1490.9278885198848,1277.0927200000001,1496.0
6.208544969558716,156,97.376,2249.1493730507814,1480,1491.2866329334597,1275.51152,1496.0
6.232814073562622,156,97.3525,2236.7914094625903,1480,1491.6017610049585,1279.72396,1496.0
6.26242208480835,157,96.329,2224.4334458743992,1480,1492.2876279841032,1286.77568,1497.0
6.2868101596832275,157,96.329,2224.4334458743992,1480,1492.6583668917488,1295.4330400000001,1497.0
6.311028957366943,157,96.3055,2213.3112786450274,1480,1492.2746521223355,1302.79432,1497.0
6.3353869915008545,157,95.3055,2213.3112786450274,1480,1492.3117260131,1311.2795599999999,1497.0
6.359656095504761,158,95.329,2202.1891114156556,1480,1492.3358240420971,1315.6530400000001,1498.0
6.3838770389556885,158,94.329,2202.1891114156556,1480,1492.7807107312719,1319.7330400000001,1498.0
6.408082962036133,158,94.3525,2202.1891114156556,1480,1493.2255974204468,1321.15904,1498.0
6.43234395980835,158,94.376,2202.1891114156556,1480,1494.3378141433841,1322.45344,1498.0
6.456621170043945,158,94.3995,2202.1891114156556,1480,1495.0792919586754,1320.914,1498.0
6.480832099914551,158,94.423,2202.1891114156556,1480,1496.1173609000834,1319.43848,1498.0
6.5051960945129395,159,94.423,2202.1891114156556,1480,1496.7846909338459,1316.58312,1499.0
6.529383182525635,159,94.4465,2191.0669441862838,1480,1497.0683061981949,1313.73152,1499.0
6.553534984588623,159,93.4465,2202.1891114156556,1480.0,1497.4520209676082,1313.64588,1499.0
6.577808141708374,160,93.423,2191.0669441862838,1485.0,1497.4019712150759,1313.84808,1500.0
6.602164030075073,160,92.3995,2202.1891114156556,1487.0,1497.4520209676082,1316.7579599999999,1500.0
6.626556158065796,161,91.376,2191.0669441862838,1492.0,1497.0683061981947,1322.5016800000001,1501.0
6.650835990905762,161,90.3525,2179.9447769569115,1495.0,1497.0182564456625,1329.75308,1501.0
6.67526912689209,161,89.329,2179.9447769569115,1498.0,1496.3509264119002,1335.64636,1501.0
6.69956111907959,161,88.3055,2179.9447769569115,1501.0,1496.3509264119002,1342.91572,1501.0
6.723862171173096,162,88.3055,2168.8226097275397,1507.0,1495.2998816087247,1346.0591200000001,1502.0
6.7481529712677,162,87.3055,2168.8226097275397,1510.0,1494.9662165918435,1348.9767200000001,1502.0
6.7725231647491455,162,87.329,2179.9447769569115,1513.0,1495.3499313612567,1347.73452,1502.0
6.79690408706665,162,87.329,2179.9447769569115,1516.0,1496.0172613950192,1345.0147200000001,1502.0
6.821210145950317,162,87.3525,2191.0669441862838,1518.0,1496.7346411813137,1339.39904,1502.0
6.8456690311431885,162,87.3525,2191.0669441862838,1520.0,1498.4029662657194,1335.20352,1502.0
6.869982004165649,162,87.376,2214.5470750038467,1520,1500.54769084645,1329.53792,1502.0
6.89422607421875,162,86.376,2225.6692422332189,1520,1501.9694745572715,1327.99828,1502.0
6.918452978134155,163,86.3525,2225.6692422332189,1520,1503.3412085155605,1326.71264,1503.0
6.942721128463745,162,86.3525,2238.0272058214096,1520,1504.4719621838801,1326.8565599999999,1502.0
6.966978073120117,162,86.329,2261.5073366389724,1520,1506.0235045123775,1327.0625199999999,1502.0
6.991173982620239,162,85.3055,2287.6771418845537,1520,1506.9634366841146,1331.3681200000001,1502.0
7.015661001205444,162,85.3055,2300.0351054727448,1520,1507.8782894591579,1331.61356,1502.0
7.0398900508880615,162,85.3055,2312.3930690609359,1520,1509.1638811418472,1331.7932000000001,1502.0
7.064118146896362,162,85.282,2324.751032649127,1520,1510.4123989337718,1332.0029200000001,1502.0
7.088320016860962,162,85.282,2337.108996237318,1520,1510.6228477842883,1332.1186400000001,1502.0
7.112583160400391,161,84.2585,2350.9208378947078,1520,1510.38840994563,1332.03864,1501.0
7.136875152587891,161,84.235,2377.0906431402891,1520,1510.5868643020756,1332.15248,1501.0
7.161117076873779,162,84.2115,2389.4486067284802,1520,1510.3524264634173,1332.33212,1502.0
7.185465097427368,162,83.188,2403.2604483858699,1520,1510.1681474181464,1335.1197999999999,1502.0
7.209690093994141,161,83.141,2403.2604483858699,1519.0,1509.8846411946527,1336.8353199999999,1501.0
7.233975172042847,162,82.094,2389.4486067284802,1520,1509.0810100919027,1339.78468,1502.0
7.258203983306885,161,82.047,2389.4486067284802,1518.0,1507.1400828695223,1341.53592,1501.0
7.282595157623291,162,81.0,2389.4486067284802,1520.0,1504.8284167394959,1345.92904,1502.0
7.307302951812744,161,79.953,2389.4486067284802,1517.0,1502.0587790176719,1348.9960000000001,1501.0
7.331676006317139,161,79.9295,2389.4486067284802,1516.0,1499.6598802034937,1350,1501.0
7.355978965759277,161,79.9295,2375.6367650710899,1516.0,1498.0275386013004,1350,1501.0
7.3801891803741455,161,79.9295,2349.4669598255086,1516.0,1496.3395861629606,1350,1501.0
7.404415130615234,161,80.9295,2349.4669598255086,1515.0,1495.1401367558715,1345.51756,1501.0
7.42874002456665,161,81.953,2323.2971545799273,1514.0,1493.4521843175314,1337.0097599999999,1501.0
7.453041076660156,160,83.0,2310.9391909917367,1511.0,1491.455646259004,1326.9641999999999,1500.0
7.477319955825806,160,84.0235,2298.5812274035457,1509.0,1489.5027245425524,1316.8969199999999,1500.0
7.501676082611084,160,85.047,2286.2232638153546,1508.0,1488.7492522331902,1305.4197200000001,1500.0
7.526069164276123,160,86.0705,2273.8653002271635,1506.0,1487.625041016182,1296.6926000000001,1500.0
7.550371170043945,160,88.0705,2273.8653002271635,1505.0,1488.1266289500559,1288.2034000000001,1500.0
7.5746471881866455,160,88.094,2261.5073366389724,1504.0,1488.9433449554283,1285.0157200000001,1500.0
7.59895396232605,159,89.1175,2249.1493730507818,1500.0,1489.7164446187248,1282.02,1499.0
7.623263120651245,159,90.141,2249.1493730507818,1498.0,1490.5015387760923,1280.41624,1499.0
7.647565126419067,159,91.141,2236.7914094625908,1496.0,1491.6017610049585,1278.9064800000001,1499.0
7.671935081481934,159,92.1645,2236.7914094625908,1494.0,1491.9724999126042,1280.1027199999999,1499.0
7.696343183517456,158,94.188,2249.1493730507818,1490.0,1493.1403274716884,1275.827,1498.0
7.720647096633911,158,94.188,2249.1493730507818,1488.0,1494.6232831022712,1275.4533199999998,1498.0
7.744937181472778,158,95.2115,2261.5073366389724,1486.0,1496.1618495690011,1273.8514399999999,1498.0
7.769232988357544,157,95.188,2273.8653002271635,1481.0,1498.4418938510223,1274.94784,1497.0
7.793536186218262,157,95.2115,2261.5073366389724,1480,1500.2399775531039,1276.0998,1497.0
7.8177690505981445,156,96.2115,2273.8653002271635,1480,1501.407805112188,1280.2737999999999,1496.0
7.84207010269165,156,96.2115,2286.2232638153546,1480,1502.5756326712722,1284.25584,1496.0
7.866400957107544,155,96.188,2298.5812274035457,1480,1503.3727213227105,1289.77376,1495.0
7.890624046325684,155,96.188,2310.9391909917367,1480,1503.4283321588573,1293.8376800000001,1495.0
7.914849042892456,155,95.1645,2310.9391909917367,1480,1504.1698099741488,1299.27748,1495.0
7.939100980758667,154,95.1645,2310.9391909917367,1480,1504.5405488817944,1303.53712,1494.0
7.9633400440216064,153,95.1645,2323.2971545799273,1480,1504.5961597179414,1307.7967599999999,1493.0
7.987571954727173,153,95.1645,2323.2971545799273,1480,1504.2254208102956,1310.5986399999999,1493.0
8.011851072311401,152,94.1645,2310.9391909917367,1480,1503.0575932512115,1316.07248,1492.0
8.036158084869385,152,94.1645,2323.2971545799273,1480,1502.0009873644212,1317.44856,1492.0
8.060391187667847,151,94.1645,2323.2971545799273,1480,1501.2595095491297,1317.4646399999999,1491.0
8.08461308479309,150,92.141,2310.9391909917367,1480,1499.7209430824,1322.82276,1490.0
8.108843088150024,150,92.1175,2310.9391909917367,1480,1498.6087263594627,1325.8466799999999,1490.0
8.133071184158325,150,91.094,2298.5812274035457,1480,1498.1823766156701,1328.7444399999999,1490.0
8.157294988632202,149,90.094,2298.5812274035457,1480,1497.070159892733,1334.44596,1489.0
8.181575059890747,150,89.0705,2286.2232638153546,1480,1495.5315934260034,1341.6495199999999,1490.0
8.205902099609375,150,89.094,2273.8653002271635,1480,1494.734504774565,1341.8970400000001,1490.0
8.230149030685425,150,89.094,2250.3851694096002,1480,1493.1829624460674,1342.1069600000001,1490.0
8.254382133483887,150,89.1175,2239.2630021802283,1480,1491.7241048444816,1340.7490400000002,1490.0
8.27861213684082,150,89.1175,2215.782871362665,1480,1489.8759713898676,1336.61932,1490.0
8.302885055541992,150,89.141,2192.3027405451021,1480,1488.0649118260183,1329.56176,1490.0
8.327110052108765,150,89.1645,2181.1805733157303,1480,1486.3465369890801,1325.2881199999999,1490.0
8.351696014404297,150,89.188,2168.8226097275392,1480,1485.6606700099355,1321.0126,1490.0
8.376026153564453,151,90.2115,2157.7004424981674,1480,1484.943290223641,1315.521,1491.0
8.40024995803833,151,90.235,2146.5782752687956,1480,1485.3010532695193,1312.55556,1491.0
8.424461126327515,151,90.235,2135.4561080394237,1480,1486.3632202399242,1311.07608,1491.0
8.448666095733643,151,91.2585,2124.3339408100519,1480,1487.3883133195648,1306.9284,1491.0
8.47288703918457,152,91.282,2124.3339408100519,1480,1488.5005300425021,1304.01268,1492.0
8.497115135192871,152,92.3055,2124.3339408100519,1480,1489.9464117823204,1301.2569600000002,1492.0
8.521404027938843,152,92.3525,2124.3339408100519,1480,1491.3552196313742,1299.6711600000001,1492.0
8.545711994171143,152,93.376,2124.3339408100519,1480,1492.7269535896633,1295.4077600000001,1492.0
8.569924116134644,152,93.376,2124.3339408100519,1480,1494.4323525648338,1295.2064,1492.0
8.594139099121094,152,93.376,2113.2117735806796,1480,1495.383297862945,1295.0388800000001,1492.0
8.618364095687866,152,93.376,2113.2117735806796,1480,1496.0506278967073,1296.3452,1492.0
8.642642974853516,152,93.3525,2113.2117735806796,1480,1496.3842929135883,1297.8132000000001,1492.0
8.666927099227905,152,92.3525,2103.1488603731527,1480,1496.0371224079288,1304.7588000000001,1492.0
8.691140174865723,152,92.329,2093.0859471656254,1480,1495.0543994891621,1309.1744799999999,1492.0
8.71563196182251,152,91.3055,2083.0230339580985,1480,1494.4371192079318,1316.2320400000001,1492.0
8.739879131317139,153,91.3055,2072.9601207505711,1480,1493.517951530476,1320.6694400000001,1493.0
8.76409912109375,153,90.3055,2062.8972075430438,1480,1492.2968964567942,1327.6171200000001,1493.0
8.788333177566528,153,90.282,2052.8342943355169,1480,1491.3777287793382,1329.23488,1493.0
8.812595129013062,153,90.282,2033.6232782120562,1480,1490.4448389475083,1330.75864,1493.0
8.836874961853027,153,89.282,2023.5603650045291,1480,1489.5213379581448,1332.0566000000001,1493.0
8.861109018325806,154,90.3055,2004.3493488810684,1480,1488.5841148144075,1329.45252,1494.0
8.88549518585205,154,90.329,1985.1383327576077,1480,1487.6743359794177,1325.24656,1494.0
8.909764051437378,154,90.3525,1975.9902298416739,1480,1486.83728456261,1322.30096,1494.0
8.934008121490479,155,90.3995,1966.8421269257401,1480,1486.5765636295059,1319.29144,1495.0
8.958232164382935,155,90.423,1957.6940240098061,1480,1486.3432870051495,1314.86824,1495.0
8.982515096664429,155,90.4465,1957.6940240098061,1480,1487.0019504150969,1313.277,1495.0
9.006808996200562,155,91.47,1948.5459210938723,1480,1488.195777845626,1310.4377199999999,1495.0
9.031054973602295,156,91.517,1948.5459210938723,1480,1489.6777705180073,1308.8003200000001,1496.0
9.055433988571167,156,92.5405,1948.5459210938723,1480,1491.1323188816407,1304.64888,1496.0
9.079660177230835,156,92.5405,1939.3978181779385,1480,1492.5182564734046,1303.1514400000001,1496.0
9.103888034820557,156,91.5405,1948.5459210938723,1480,1493.6846395951861,1302.96784,1496.0
9.128089189529419,156,92.5405,1948.5459210938723,1480,1494.7824119450984,1301.77808,1496.0
9.152379035949707,156,91.5405,1948.5459210938723,1480,1495.6057412075322,1304.5279600000001,1496.0
9.17671012878418,157,91.517,1948.5459210938723,1480,1496.1546273824883,1308.9417599999999,1497.0
9.20094895362854,157,90.517,1948.5459210938723,1480,1496.9779566449224,1315.9354000000001,1497.0
9.225291013717651,157,90.4935,1939.3978181779385,1480,1496.9367901818007,1318.95912,1497.0
9.24951696395874,157,89.47,1939.3978181779385,1480,1496.6623470943227,1326.0647200000001,1497.0
9.273741006851196,157,89.4465,1930.2497152620047,1480,1496.0722944562451,1329.1402399999999,1497.0
9.29800295829773,158,88.4465,1921.8970995561522,1480,1495.2352430394371,1333.3697999999999,1498.0
9.322297096252441,158,88.47,1913.5444838502997,1480,1493.8731700639755,1333.5373199999999,1498.0
9.346589088439941,158,88.517,1896.0437652285134,1480,1492.7682383291726,1334.9031600000001,1498.0
9.370804071426392,158,89.5405,1896.0437652285134,1480,1491.7420598281681,1329.3975599999999,1498.0
9.39546513557434,158,88.564,1887.6911495226609,1480,1490.9766022602673,1328.9923200000001,1498.0
9.419726133346558,158,89.564,1887.6911495226609,1480,1490.7498884053941,1322.0072400000001,1498.0
9.443972110748291,157,88.564,1879.3385338168086,1480,1490.7361662510204,1320.2879600000001,1497.0
9.468168020248413,158,88.5405,1863.3293537139245,1480,1490.9833141836025,1317.59428,1498.0
9.492509126663208,158,87.517,1854.9767380080721,1480,1491.0143381847956,1321.8322000000001,1498.0
9.516870975494385,158,87.517,1838.967557905188,1480,1490.7573460979888,1322.13968,1498.0
9.54112696647644,158,86.4935,1831.3109935081563,1480,1490.0576653787718,1329.3091999999999,1498.0
9.56548810005188,158,86.517,1823.6544291111247,1480,1489.3788661988194,1332.35652,1498.0
9.589715003967285,159,86.517,1815.9978647140931,1480,1488.9058993344754,1335.30232,1499.0
9.613912105560303,159,86.5405,1799.988684611209,1480,1488.4162272387198,1333.92832,1499.0
9.638130187988281,159,86.564,1785.2880809689086,1480.0,1488.2013979627652,1333.84852,1499.0
9.662467956542969,159,86.5875,1762.2348616207557,1481.0,1487.7167791995116,1329.50908,1499.0
9.686840057373047,160,87.611,1754.5782972237241,1486.0,1487.2805638442735,1323.9215999999999,1500.0
9.71114706993103,161,87.611,1747.5342579784551,1491.0,1486.6149021355957,1319.59428,1501.0
9.735574960708618,161,88.611,1739.8776935814235,1494.0,1486.4267594668213,1314.0847199999998,1501.0
9.759896039962769,161,88.611,1739.8776935814235,1497.0,1486.674832153285,1309.84096,1501.0
9.784219980239868,163,88.611,1739.8776935814235,1506.0,1488.0764010687271,1307.0549599999999,1503.0
9.808549165725708,163,88.6345,1732.8336543361547,1511.0,1489.4646475621184,1307.0407599999999,1503.0
9.832894086837769,163,89.658,1732.8336543361547,1515.0,1491.0775376549186,1304.3527199999999,1503.0
9.857187032699585,163,90.658,1732.8336543361547,1519.0,1492.669546208454,1303.0209199999999,1503.0
9.88146710395813,163,90.658,1739.8776935814235,1520,1494.0635560066823,1302.85716,1503.0
9.905733108520508,164,90.6815,1746.9217328266925,1520,1494.9772904018241,1302.5994000000001,1504.0
9.92997407913208,164,89.658,1754.5782972237241,1520,1496.3164235148649,1303.7457200000001,1504.0
9.954187154769897,165,89.6345,1769.2789008660245,1520,1497.9169517364203,1306.59168,1505.0
9.978402137756348,165,88.5875,1776.9354652630561,1520,1499.485781781372,1313.6135200000001,1505.0
10.002660989761353,165,88.564,1784.5920296600877,1520,1500.8616664035187,1319.441,1505.0
10.026918172836304,165,87.5405,1792.2485940571194,1520,1502.04460560286,1328.00812,1505.0
10.051107168197632,165,87.4935,1806.94919769942,1520,1503.0295460468942,1332.5733600000001,1505.0
10.075461149215698,165,87.4935,1822.9583778023039,1520,1503.6186142695494,1335.62444,1505.0
10.099680185317993,166,86.47,1830.6149421993355,1520,1503.9403987896173,1337.0859600000001,1506.0
10.123885154724121,166,86.47,1846.6241223022196,1520,1504.5319727969845,1337.2534800000001,1506.0
10.148082971572876,166,85.4465,1854.2806866992512,1520,1505.0675842791222,1337.2252800000001,1506.0
10.172314167022705,166,85.423,1854.2806866992512,1520,1504.9164019348461,1337.2912799999999,1506.0
10.196593999862671,166,85.423,1862.6333024051037,1520,1504.5338521355181,1337.36104,1506.0
10.22081208229065,166,84.3995,1862.6333024051037,1520,1503.8840186336029,1338.6909599999999,1506.0
10.245153188705444,165,83.3525,1870.9859181109562,1520,1502.7914964992774,1341.58872,1505.0
10.269384145736694,165,82.329,1888.4866367327425,1520,1502.0354654548162,1344.4582800000001,1505.0
10.293612003326416,166,82.3055,1896.8392524385949,1520,1501.9298645276779,1346.1597999999999,1506.0
10.317763090133667,165,81.3055,1905.9873553545287,1520,1502.0814048411983,1350,1505.0
10.341845989227295,165,81.3055,1923.488073976315,1520,1503.0252504159596,1350,1505.0
10.366018056869507,165,81.2585,1932.6361768922484,1520,1504.1850707682581,1350,1505.0
10.390151023864746,165,81.2585,1950.1368955140347,1520,1505.0871532644901,1348.2462800000001,1505.0
10.414361953735352,165,81.2585,1967.637614135821,1520,1506.0131003770246,1345.5141599999999,1505.0
10.43890118598938,165,81.2585,1976.785717051755,1520,1506.8775961025804,1339.9820400000001,1505.0
10.46315312385559,164,82.2585,2004.349348881068,1520,1507.6018275458184,1333.2018800000001,1504.0
10.48741102218628,164,82.235,2023.5603650045286,1520,1508.5664949983036,1328.9760799999999,1504.0
10.511727094650269,163,82.2115,2033.6232782120558,1520,1509.2668618252394,1326.17608,1503.0
10.536075115203857,163,82.1645,2052.8342943355165,1520,1509.7852609528691,1323.5039199999999,1503.0
10.560306072235107,163,82.141,2062.8972075430438,1520,1510.2899379261248,1322.1974,1503.0
10.584501028060913,162,82.094,2072.9601207505707,1520,1509.9677059445012,1323.78676,1502.0
10.608695030212402,163,82.0705,2083.023033958098,1520,1509.0691434791738,1325.37988,1503.0
10.632933139801025,162,82.047,2093.0859471656249,1520,1508.3937151762741,1326.9410399999999,1502.0
10.657186031341553,162,82.0235,2103.1488603731523,1520,1507.3925348608461,1328.40444,1502.0
10.681465148925781,162,82.0,2103.1488603731523,1520,1506.0167397310108,1329.8358800000001,1502.0
