time,x,y,roll,pitch,thrust,yaw
0.00061798095703125,179,67,1501.9000000000001,1500,1383.25,1519.0
0.023852825164794922,176,67,1501.5999999999999,1500,1383.25,1516.0
0.046247005462646484,178,67,1501.8,1500,1383.25,1518.0
0.06856679916381836,179,67,1501.9000000000001,1500,1383.25,1519.0
0.0911409854888916,176,67,1501.5999999999999,1500,1383.25,1516.0
0.11353397369384766,177,68,1501.7,1500,1383.0,1517.0
0.1357879638671875,176,67,1501.5999999999999,1500,1383.25,1516.0
0.15813088417053223,176,67,1501.5999999999999,1500,1383.25,1516.0
0.1805419921875,177,67,1501.7,1500,1383.25,1517.0
0.20322084426879883,177,67,1501.7,1500,1383.25,1517.0
0.22597885131835938,177,67,1501.7,1500,1383.25,1517.0
0.2489299774169922,177,67,1501.7,1500,1383.25,1517.0
0.271914005279541,176,67,1501.5999999999999,1500,1383.25,1516.0
0.2948899269104004,176,67,1501.5999999999999,1500,1383.25,1516.0
0.3178379535675049,177,67,1501.7,1500,1383.25,1517.0
0.34066200256347656,176,67,1501.5999999999999,1500,1383.25,1516.0
0.36384081840515137,175,67,1501.5,1500,1383.25,1515.0
0.3868889808654785,174,67,1501.4000000000001,1500,1383.25,1514.0
0.40995287895202637,171,65,1501.0999999999999,1500,1383.75,1511.0
0.43297791481018066,170,64,1501.0,1500,1384.0,1510.0
0.45598888397216797,168,64,1500.8,1500,1384.0,1508.0
0.4789009094238281,167,65,1500.7,1500,1383.75,1507.0
0.5018298625946045,165,67,1500.5,1500,1383.25,1505.0
0.5246767997741699,162,67,1500.2,1500,1383.25,1502.0
0.5477287769317627,160,68,1500.0,1500,1383.0,1500.0
0.5705969333648682,158,68,1499.8,1500,1383.0,1498.0
0.5937759876251221,157,68,1499.7,1500,1383.0,1497.0
0.6167268753051758,155,68,1499.5,1500,1383.0,1495.0
0.6396467685699463,153,69,1499.3,1500,1382.75,1493.0
0.662651777267456,152,68,1499.2,1500,1383.0,1492.0
0.6856060028076172,153,69,1499.3,1500,1382.75,1493.0
0.7085177898406982,153,70,1499.3,1500,1382.5,1493.0
0.7316069602966309,152,70,1499.2,1500,1382.5,1492.0
0.7545998096466064,153,71,1499.3,1500,1382.25,1493.0
0.7777400016784668,153,70,1499.3,1500,1382.5,1493.0
0.8008317947387695,154,69,1499.4000000000001,1500,1382.75,1494.0
0.8239779472351074,154,69,1499.4000000000001,1500,1382.75,1494.0
0.8468379974365234,154,69,1499.4000000000001,1500,1382.75,1494.0
0.8698198795318604,155,71,1499.5,1500,1382.25,1495.0
0.8926968574523926,157,71,1499.7,1500,1382.25,1497.0
0.9156038761138916,157,72,1499.7,1500,1382.0,1497.0
0.9385218620300293,156,71,1499.5999999999999,1500,1382.25,1496.0
0.9615538120269775,158,71,1499.8,1500,1382.25,1498.0
0.9845709800720215,157,71,1499.7,1500,1382.25,1497.0
1.0075798034667969,159,71,1499.9000000000001,1500,1382.25,1499.0
1.030578851699829,159,71,1499.9000000000001,1500,1382.25,1499.0
1.0537848472595215,160,71,1500.0,1500,1382.25,1500.0
1.0768649578094482,161,71,1500.0999999999999,1500,1382.25,1501.0
1.0998427867889404,162,70,1500.2,1500,1382.5,1502.0
1.1227078437805176,162,71,1500.2,1500,1382.25,1502.0
1.1457219123840332,163,72,1500.3,1500,1382.0,1503.0
1.1687159538269043,162,71,1500.2,1500,1382.25,1502.0
1.1917247772216797,161,71,1500.0999999999999,1500,1382.25,1501.0
1.2145819664001465,161,70,1500.0999999999999,1500,1382.5,1501.0
1.237562894821167,162,70,1500.2,1500,1382.5,1502.0
1.2604608535766602,161,70,1500.0999999999999,1500,1382.5,1501.0
1.2834949493408203,161,69,1500.0999999999999,1500,1382.75,1501.0
1.3063879013061523,161,68,1500.0999999999999,1500,1383.0,1501.0
1.329300880432129,160,68,1500.0,1500,1383.0,1500.0
1.3521878719329834,160,68,1500.0,1500,1383.0,1500.0
1.3750278949737549,160,67,1500.0,1500,1383.25,1500.0
1.3979098796844482,161,66,1500.0999999999999,1500,1383.5,1501.0
1.4207658767700195,159,66,1499.9000000000001,1500,1383.5,1499.0
1.4439518451690674,161,65,1500.0999999999999,1500,1383.75,1501.0
1.4668638706207275,161,66,1500.0999999999999,1500,1383.5,1501.0
1.4898347854614258,161,66,1500.0999999999999,1500,1383.5,1501.0
1.5128757953643799,161,65,1500.0999999999999,1500,1383.75,1501.0
1.5358798503875732,161,66,1500.0999999999999,1500,1383.5,1501.0
1.5588719844818115,161,65,1500.0999999999999,1500,1383.75,1501.0
1.5822598934173584,159,65,1499.9000000000001,1500,1383.75,1499.0
1.605313777923584,160,66,1500.0,1500,1383.5,1500.0
1.6281859874725342,160,67,1500.0,1500,1383.25,1500.0
1.6511929035186768,158,67,1499.8,1500,1383.25,1498.0
1.6742238998413086,158,67,1499.8,1500,1383.25,1498.0
1.6970529556274414,159,67,1499.9000000000001,1500,1383.25,1499.0
1.71999192237854,159,66,1499.9000000000001,1500,1383.5,1499.0
1.7430567741394043,159,66,1499.9000000000001,1500,1383.5,1499.0
1.7659847736358643,160,65,1500.0,1500,1383.75,1500.0
1.7888247966766357,161,66,1500.0999999999999,1500,1383.5,1501.0
1.811966896057129,160,67,1500.0,1500,1383.25,1500.0
1.8348379135131836,160,68,1500.0,1500,1383.0,1500.0
1.8577678203582764,160,67,1500.0,1500,1383.25,1500.0
1.8806099891662598,161,67,1500.0999999999999,1500,1383.25,1501.0
1.903761863708496,160,67,1500.0,1500,1383.25,1500.0
1.9266297817230225,160,67,1500.0,1500,1383.25,1500.0
1.9495518207550049,160,66,1500.0,1500,1383.5,1500.0
1.9725439548492432,160,67,1500.0,1500,1383.25,1500.0
1.995581865310669,160,67,1500.0,1500,1383.25,1500.0
2.01857590675354,160,67,1500.0,1500,1383.25,1500.0
2.0416598320007324,159,67,1499.9000000000001,1500,1383.25,1499.0
2.064797878265381,160,67,1500.0,1500,1383.25,1500.0
2.0878639221191406,162,67,1500.2,1500,1383.25,1502.0
2.110715866088867,162,66,1500.2,1500,1383.5,1502.0
2.1338768005371094,161,66,1500.0999999999999,1500,1383.5,1501.0
2.156810998916626,161,66,1500.0999999999999,1500,1383.5,1501.0
2.1798818111419678,161,66,1500.0999999999999,1500,1383.5,1501.0
2.202788829803467,160,67,1500.0,1500,1383.25,1500.0
2.2258667945861816,161,67,1500.0999999999999,1500,1383.25,1501.0
2.2488458156585693,160,67,1500.0,1500,1383.25,1500.0
2.2717819213867188,160,67,1500.0,1500,1383.25,1500.0
2.2946817874908447,160,67,1500.0,1500,1383.25,1500.0
2.317605972290039,159,67,1499.9000000000001,1500,1383.25,1499.0
2.3406028747558594,160,67,1500.0,1500,1383.25,1500.0
2.363694906234741,160,67,1500.0,1500,1383.25,1500.0
2.3867199420928955,158,66,1499.8,1500,1383.5,1498.0
2.409775972366333,159,65,1499.9000000000001,1500,1383.75,1499.0
2.43263578414917,159,65,1499.9000000000001,1500,1383.75,1499.0
2.455591917037964,157,65,1499.7,1500,1383.75,1497.0
2.4786479473114014,158,65,1499.8,1500,1383.75,1498.0
2.5016868114471436,158,65,1499.8,1500,1383.75,1498.0
2.524742841720581,158,65,1499.8,1500,1383.75,1498.0
2.547794818878174,158,64,1499.8,1500,1384.0,1498.0
2.570645809173584,158,63,1499.8,1500,1384.25,1498.0
2.5938069820404053,159,64,1499.9000000000001,1500,1384.0,1499.0
2.616719961166382,159,64,1499.9000000000001,1500,1384.0,1499.0
2.6396238803863525,159,64,1499.9000000000001,1500,1384.0,1499.0
2.6624889373779297,158,64,1499.8,1500,1384.0,1498.0
2.6854658126831055,159,64,1499.9000000000001,1500,1384.0,1499.0
2.708606004714966,158,64,1499.8,1500,1384.0,1498.0
2.7316319942474365,159,64,1499.9000000000001,1500,1384.0,1499.0
2.7548627853393555,159,64,1499.9000000000001,1500,1384.0,1499.0
2.7778539657592773,158,63,1499.8,1500,1384.25,1498.0
2.800693988800049,157,63,1499.7,1500,1384.25,1497.0
2.8238439559936523,157,64,1499.7,1500,1384.0,1497.0
2.8468058109283447,156,64,1499.5999999999999,1500,1384.0,1496.0
2.869821786880493,158,64,1499.8,1500,1384.0,1498.0
2.892771005630493,158,64,1499.8,1500,1384.0,1498.0
2.9158380031585693,158,65,1499.8,1500,1383.75,1498.0
2.9388067722320557,155,64,1499.5,1500,1384.0,1495.0
2.961817979812622,156,65,1499.5999999999999,1500,1383.75,1496.0
2.9846808910369873,155,65,1499.5,1500,1383.75,1495.0
3.0077297687530518,156,65,1499.5999999999999,1500,1383.75,1496.0
3.030627965927124,158,65,1499.8,1500,1383.75,1498.0
3.053931951522827,157,64,1499.7,1500,1384.0,1497.0
3.0769989490509033,157,64,1499.7,1500,1384.0,1497.0
3.0999698638916016,157,64,1499.7,1500,1384.0,1497.0
3.122943878173828,158,64,1499.8,1500,1384.0,1498.0
3.1462509632110596,158,64,1499.8,1500,1384.0,1498.0
3.16912579536438,158,64,1499.8,1500,1384.0,1498.0
3.1921567916870117,159,64,1499.9000000000001,1500,1384.0,1499.0
3.2150468826293945,158,64,1499.8,1500,1384.0,1498.0
3.23834490776062,158,64,1499.8,1500,1384.0,1498.0
3.2613258361816406,158,63,1499.8,1500,1384.25,1498.0
3.2844088077545166,159,62,1499.9000000000001,1500,1384.5,1499.0
3.3072919845581055,158,62,1499.8,1500,1384.5,1498.0
3.330371856689453,159,62,1499.9000000000001,1500,1384.5,1499.0
3.3536229133605957,159,62,1499.9000000000001,1500,1384.5,1499.0
3.3766238689422607,160,62,1500.0,1500,1384.5,1500.0
3.399488925933838,159,62,1499.9000000000001,1500,1384.5,1499.0
3.4224178791046143,159,61,1499.9000000000001,1500,1384.75,1499.0
3.4453699588775635,158,61,1499.8,1500,1384.75,1498.0
3.4683048725128174,161,61,1500.0999999999999,1500,1384.75,1501.0
3.491309881210327,160,61,1500.0,1500,1384.75,1500.0
3.5143368244171143,160,61,1500.0,1500,1384.75,1500.0
3.537268877029419,161,60,1500.0999999999999,1500,1385.0,1501.0
3.560208797454834,161,59,1500.0999999999999,1500,1385.25,1501.0
3.5833609104156494,161,58,1500.0999999999999,1500,1385.5,1501.0
3.606336832046509,161,58,1500.0999999999999,1500,1385.5,1501.0
3.629157781600952,161,59,1500.0999999999999,1500,1385.25,1501.0
3.652113914489746,161,59,1500.0999999999999,1500,1385.25,1501.0
3.6752138137817383,161,59,1500.0999999999999,1500,1385.25,1501.0
3.698164939880371,159,58,1499.9000000000001,1500,1385.5,1499.0
3.7211837768554688,160,58,1500.0,1500,1385.5,1500.0
3.74422287940979,160,57,1500.0,1500,1385.75,1500.0
3.7670278549194336,158,56,1499.8,1500,1386.0,1498.0
3.790057897567749,159,56,1499.9000000000001,1500,1386.0,1499.0
3.8130199909210205,159,57,1499.9000000000001,1500,1385.75,1499.0
3.836277961730957,159,57,1499.9000000000001,1500,1385.75,1499.0
3.8593668937683105,159,58,1499.9000000000001,1500,1385.5,1499.0
3.8823869228363037,159,58,1499.9000000000001,1500,1385.5,1499.0
3.905282974243164,158,59,1499.8,1500,1385.25,1498.0
3.928299903869629,156,59,1499.5999999999999,1500,1385.25,1496.0
3.9512438774108887,157,59,1499.7,1500,1385.25,1497.0
3.9744157791137695,157,59,1499.7,1500,1385.25,1497.0
3.997255802154541,157,59,1499.7,1500,1385.25,1497.0
4.020245790481567,157,59,1499.7,1500,1385.25,1497.0
4.04343581199646,157,60,1499.7,1500,1385.0,1497.0
4.0664918422698975,157,60,1499.7,1500,1385.0,1497.0
4.089399814605713,155,59,1499.5,1500,1385.25,1495.0
4.112432956695557,155,59,1499.5,1500,1385.25,1495.0
4.1352598667144775,156,58,1499.5999999999999,1500,1385.5,1496.0
4.15822696685791,156,58,1499.5999999999999,1500,1385.5,1496.0
4.1812779903411865,157,58,1499.7,1500,1385.5,1497.0
4.204450845718384,156,58,1499.5999999999999,1500,1385.5,1496.0
4.227311849594116,157,58,1499.7,1500,1385.5,1497.0
4.250365972518921,158,58,1499.8,1500,1385.5,1498.0
4.273551940917969,158,58,1499.8,1500,1385.5,1498.0
4.296464920043945,158,58,1499.8,1500,1385.5,1498.0
4.319276809692383,158,58,1499.8,1500,1385.5,1498.0
4.342314004898071,156,57,1499.5999999999999,1500,1385.75,1496.0
4.365303993225098,156,56,1499.5999999999999,1500,1386.0,1496.0
4.388260841369629,157,56,1499.7,1500,1386.0,1497.0
4.411309003829956,158,56,1499.8,1500,1386.0,1498.0
4.434436798095703,158,56,1499.8,1500,1386.0,1498.0
4.457354784011841,157,56,1499.7,1500,1386.0,1497.0
4.480343818664551,157,56,1499.7,1500,1386.0,1497.0
4.503344774246216,158,55,1499.8,1500,1386.25,1498.0
4.52642297744751,158,54,1499.8,1500,1386.5,1498.0
4.549278974533081,158,54,1499.8,1500,1386.5,1498.0
4.572259902954102,158,54,1499.8,1500,1386.5,1498.0
4.59527587890625,159,54,1499.9000000000001,1500,1386.5,1499.0
4.6181957721710205,159,54,1499.9000000000001,1500,1386.5,1499.0
4.641153812408447,157,53,1499.7,1500,1386.75,1497.0
4.664235830307007,158,53,1499.8,1500,1386.75,1498.0
4.687159776687622,158,52,1499.8,1500,1387.0,1498.0
4.710131883621216,158,51,1499.8,1500,1387.25,1498.0
4.733059883117676,158,51,1499.8,1500,1387.25,1498.0
4.756158828735352,158,50,1499.8,1500,1387.5,1498.0
4.779042959213257,158,51,1499.8,1500,1387.25,1498.0
4.802082777023315,158,51,1499.8,1500,1387.25,1498.0
4.825032949447632,157,52,1499.7,1500,1387.0,1497.0
4.84804892539978,157,52,1499.7,1500,1387.0,1497.0
4.871181964874268,157,51,1499.7,1500,1387.25,1497.0
4.894551992416382,157,51,1499.7,1500,1387.25,1497.0
4.9173948764801025,156,51,1499.5999999999999,1500,1387.25,1496.0
4.940457820892334,155,51,1499.5,1500,1387.25,1495.0
4.96363091468811,156,52,1499.5999999999999,1500,1387.0,1496.0
4.986499786376953,156,52,1499.5999999999999,1500,1387.0,1496.0
5.009346961975098,155,52,1499.5,1500,1387.0,1495.0
5.032232999801636,156,52,1499.5999999999999,1500,1387.0,1496.0
5.055423974990845,155,50,1499.5,1500,1387.5,1495.0
5.078480005264282,155,51,1499.5,1500,1387.25,1495.0
5.101411819458008,155,51,1499.5,1500,1387.25,1495.0
5.124569892883301,155,51,1499.5,1500,1387.25,1495.0
5.147388935089111,155,51,1499.5,1500,1387.25,1495.0
5.170289993286133,155,51,1499.5,1500,1387.25,1495.0
5.193286895751953,155,52,1499.5,1500,1387.0,1495.0
5.216416835784912,155,51,1499.5,1500,1387.25,1495.0
5.239287853240967,155,50,1499.5,1500,1387.5,1495.0
5.262312889099121,153,50,1499.3,1500,1387.5,1493.0
5.285364866256714,155,49,1499.5,1500,1387.75,1495.0
5.308297872543335,154,49,1499.4000000000001,1500,1387.75,1494.0
5.331281900405884,154,50,1499.4000000000001,1500,1387.5,1494.0
5.3544158935546875,153,50,1499.3,1500,1387.5,1493.0
5.377267837524414,155,50,1499.5,1500,1387.5,1495.0
5.4002227783203125,154,50,1499.4000000000001,1500,1387.5,1494.0
5.423077821731567,154,49,1499.4000000000001,1500,1387.75,1494.0
5.446184873580933,154,48,1499.4000000000001,1500,1388.0,1494.0
5.469064950942993,154,47,1499.4000000000001,1500,1388.25,1494.0
5.492017984390259,155,47,1499.5,1500,1388.25,1495.0
5.51500391960144,155,46,1499.5,1500,1388.5,1495.0
5.538057804107666,155,46,1499.5,1500,1388.5,1495.0
5.561040878295898,154,46,1499.4000000000001,1500,1388.5,1494.0
5.584059000015259,153,46,1499.3,1500,1388.5,1493.0
5.606985807418823,154,45,1499.4000000000001,1500,1388.75,1494.0
5.6298627853393555,153,44,1499.3,1500,1389.0,1493.0
5.652771949768066,153,44,1499.3,1500,1389.0,1493.0
5.6757588386535645,153,44,1499.3,1500,1389.0,1493.0
5.698811769485474,154,44,1499.4000000000001,1500,1389.0,1494.0
5.72180700302124,154,43,1499.4000000000001,1500,1389.25,1494.0
5.744748830795288,152,42,1499.2,1500,1389.5,1492.0
5.767657995223999,152,42,1499.2,1500,1389.5,1492.0
5.790601968765259,154,41,1499.4000000000001,1500,1389.75,1494.0
5.813699960708618,153,41,1499.3,1500,1389.75,1493.0
5.836688995361328,153,42,1499.3,1500,1389.5,1493.0
5.859602928161621,154,42,1499.4000000000001,1500,1389.5,1494.0
5.882569789886475,152,41,1499.2,1500,1389.75,1492.0
5.905375957489014,152,41,1499.2,1500,1389.75,1492.0
5.928297996520996,154,41,1499.4000000000001,1500,1389.75,1494.0
5.951402902603149,154,40,1499.4000000000001,1500,1390.0,1494.0
5.9745259284973145,153,40,1499.3,1500,1390.0,1493.0
5.997370004653931,153,40,1499.3,1500,1390.0,1493.0
6.020273923873901,151,40,1499.0999999999999,1500,1390.0,1491.0
6.0434558391571045,152,40,1499.2,1500,1390.0,1492.0
6.06646990776062,150,39,1499.0,1500,1390,1490.0
6.089212894439697,151,38,1499.0999999999999,1500,1390,1491.0
6.112080812454224,150,37,1499.0,1500,1390,1490.0
6.134795904159546,150,37,1499.0,1500,1390,1490.0
