time,x,y,size_inv,roll,pitch,thrust,yaw
0.010576009750366211,144,74.423,1006.2913207527047,1496.3199999999999,1492.7378109433871,1331.7154800000001,1500.0
0.04361081123352051,144,71.423,1014.0320232200331,1495.8399999999999,1492.7726441044902,1336.45856,1500.0
0.06776094436645508,143,70.2585,1021.7727256873616,1495.1300000000001,1492.8074772655932,1339.0456200000001,1500.0
0.09165596961975098,144,68.2115,1029.51342815469,1494.8499999999999,1492.842310426696,1342.7735600000001,1500.0
0.11552000045776367,144,68.188,1040.1059683731396,1494.3699999999999,1492.8899768576791,1344.0742399999999,1500.0
0.13919496536254883,145,68.235,1050.698508591589,1494.1199999999999,1492.9376432886622,1345.28844,1500.0
0.16310381889343262,145,69.2585,1061.2910488100385,1493.6700000000001,1492.9853097196451,1345.2899,1500.0
0.18740582466125488,144,70.329,1074.8895801715616,1492.99,1493.0465031107719,1345.1921400000001,1500.0
0.21141982078552246,145,71.376,1088.4881115330847,1492.74,1493.1076965018988,1345.0807,1500.0
0.23540687561035156,144,72.423,1102.0866428946078,1492.0599999999999,1493.1688898930258,1344.9273800000001,1500.0
0.2597179412841797,145,74.517,1118.8581649071527,1498.8900000000001,1501.929088570771,1326.18832,1500.0
0.2843039035797119,143,75.517,1127.8889844523694,1491.8599999999999,1502.5498945602944,1313.0323599999999,1500.0
0.3089139461517334,145,75.517,1136.9198039975859,1492.3199999999999,1502.8579343285026,1305.65752,1500.0
0.3336210250854492,143,75.517,1149.3049279453114,1485.29,1502.9689313772824,1303.9982000000002,1500.0
0.35831499099731445,142,75.4935,1155.483909739407,1480.6300000000001,1502.7392345650558,1305.36448,1500.0
0.38294100761413574,142,75.47,1161.6628915335025,1480,1502.0063920924526,1312.5638799999999,1500.0
0.4075348377227783,141,75.47,1167.841873327598,1480,1501.234846107513,1321.1431200000002,1500.0
0.43209290504455566,141,75.47,1174.3691683811289,1480,1500.5267931519795,1328.26648,1500.0
0.4569089412689209,141,76.47,1180.8964634346601,1480,1499.679407552034,1331.32592,1500.0
0.4814319610595703,142,77.4935,1187.4237584881912,1480,1499.0650578368945,1331.3936000000001,1500.0
0.5059449672698975,142,78.517,1190.7780628907003,1480,1498.6694655486313,1327.0737999999999,1500.0
0.5304520130157471,143,79.5405,1194.1323672932092,1482.46,1498.2746880711541,1319.9201600000001,1500.0
0.5550389289855957,143,80.5405,1197.4866716957181,1495.5999999999999,1497.8598266088966,1311.35472,1500.0
0.579643964767456,143,82.564,1194.1323672932092,1504.4000000000001,1497.2940632901614,1301.44724,1500.0
0.6042129993438721,143,81.5405,1190.9593766421872,1506.6300000000001,1496.4276579143882,1299.5677600000001,1500.0
0.6287930011749268,145,82.5405,1190.9593766421872,1513.72,1495.5596421862167,1296.71784,1500.0
0.6534438133239746,146,81.5405,1187.7863859911654,1516.27,1494.5662694702576,1300.5737200000001,1500.0
0.6781208515167236,144,81.564,1181.2590909376343,1513.76,1493.3565441203364,1305.96756,1500.0
0.7027878761291504,144,82.5875,1174.7317958841031,1511.6500000000001,1492.3480770345659,1312.9933599999999,1500.0
0.7274379730224609,144,83.6345,1168.204500830572,1511.71,1491.5299893878566,1314.22552,1500.0
0.7520298957824707,144,84.658,1161.6772057770409,1502.97,1490.6167120216169,1315.4200799999999,1500.0
0.7767558097839355,144,85.6815,1161.6772057770409,1492.0,1490.0238160542544,1310.94884,1500.0
0.8013248443603516,145,86.705,1161.6772057770409,1492.26,1489.9231869221792,1303.70956,1500.0
0.825922966003418,145,89.7285,1176.3522875380179,1492.3199999999999,1490.6198566819942,1289.8302799999999,1500.0
0.8505158424377441,145,90.7285,1194.2003599500169,1492.3800000000001,1492.16269505578,1281.2627600000001,1500.0
0.8750448226928711,146,90.7285,1204.8731466852728,1499.21,1494.38506594929,1275.40104,1500.0
0.8995988368988037,147,91.705,1214.9520581649899,1510.4400000000001,1496.8119420290109,1271.1871599999999,1500.0
0.9242038726806641,148,90.6815,1221.4793532185211,1515.1600000000001,1499.2228358348138,1273.6809600000001,1500.0
0.9488208293914795,149,91.658,1221.4793532185211,1520,1500.5280330556116,1279.44244,1500.0
0.9736850261688232,150,92.6815,1221.4793532185211,1520,1500.5665270800835,1285.0497600000001,1500.0
0.9982709884643555,151,93.6815,1221.4793532185211,1520,1499.7688350488338,1287.8533199999999,1500.0
1.0228350162506104,151,94.7285,1214.9520581649899,1520,1498.1412166494545,1290.4350400000001,1500.0
1.0474250316619873,152,95.752,1208.424763111459,1520,1495.9261416952575,1287.3133600000001,1500.0
1.0719690322875977,153,97.7755,1190.57669069946,1520,1493.5649335234164,1278.7000800000001,1500.0
1.096601963043213,153,98.752,1175.9016089384829,1520,1491.3131935290357,1271.4428399999999,1500.0
1.1210880279541016,153,98.752,1165.2288222032271,1520,1489.0794638622708,1268.1574000000001,1500.0
1.145570993423462,154,98.705,1158.322901374532,1520,1487.3495125148279,1266.5996,1500.0
1.1700518131256104,154,97.658,1151.7956063210008,1520,1486.0129026865852,1272.0072399999999,1500.0
1.1946008205413818,155,97.658,1154.9685969720229,1520,1485.8860182082635,1280.4962399999999,1500.0
1.2192068099975586,155,96.658,1154.9685969720229,1520,1486.6253601776709,1292.96748,1500.0
1.243746042251587,155,96.611,1154.9685969720229,1520,1488.0050693511935,1303.0028,1500.0
1.268340826034546,156,97.611,1158.1415876230449,1519.4000000000001,1489.7127831002922,1308.7862,1500.0
1.293097972869873,156,97.6345,1161.3145782740669,1519.52,1491.7115054205276,1311.384,1500.0
1.3177409172058105,158,97.658,1161.3145782740669,1520,1492.970127671412,1311.1959999999999,1500.0
1.3422458171844482,158,98.658,1161.3145782740669,1520,1493.7884974694673,1304.2681600000001,1500.0
1.3667998313903809,159,98.6815,1161.3145782740669,1520,1494.2866836654646,1298.3466800000001,1500.0
1.390988826751709,160,98.705,1158.1415876230449,1520,1494.2778446200796,1295.2552800000001,1500.0
1.4151508808135986,160,99.705,1161.3145782740669,1520,1494.0065539194172,1291.0418,1500.0
1.4393699169158936,160,99.705,1161.3145782740669,1520,1493.816174480356,1288.09412,1500.0
1.4636118412017822,160,99.705,1161.3145782740669,1520,1493.6257950412946,1289.3064400000001,1500.0
1.4878499507904053,161,100.7285,1158.3085871309934,1520,1493.3317089077973,1287.9464399999999,1500.0
1.5120158195495605,161,100.7285,1155.1355964799714,1520,1493.2272507155753,1286.52044,1500.0
1.5363190174102783,161,101.7285,1148.9566146858758,1517.74,1492.8287063898563,1285.2224800000001,1500.0
1.5606160163879395,161,101.752,1143.0987857916814,1515.6300000000001,1492.2558723853608,1285.03052,1500.0
1.5849049091339111,161,102.752,1136.9198039975859,1513.52,1491.496223738993,1280.8667600000001,1500.0
1.609194040298462,162,102.752,1130.7408222034906,1511.6099999999999,1490.7315651073868,1280.73684,1500.0
1.6335499286651611,162,102.7285,1130.7408222034906,1511.6700000000001,1490.0899016133844,1280.6369999999999,1500.0
1.6579680442810059,163,102.7285,1127.5678315524685,1514.1600000000001,1489.8046985690985,1281.9489599999999,1500.0
1.682286024093628,163,102.7285,1124.3948409014465,1516.45,1489.7757755389332,1283.32672,1500.0
1.706732988357544,163,103.7285,1121.388849758373,1518.74,1490.0281631799076,1284.86448,1500.0
1.7310259342193604,164,103.7285,1121.388849758373,1520,1490.574636954379,1286.21028,1500.0
1.7552108764648438,164,103.7285,1121.388849758373,1520,1491.02592100932,1287.49028,1500.0
1.7793879508972168,164,103.7285,1124.3948409014465,1520,1491.5859217439354,1287.4102800000001,1500.0
1.803617000579834,164,102.705,1130.2526697956412,1519.3,1492.349135187492,1290.00036,1500.0
1.8279509544372559,163,102.705,1133.2586609387147,1514.76,1493.1846851102225,1292.80224,1500.0
1.8522329330444336,162,102.705,1136.2646520817882,1505.76,1493.9250453134223,1295.60412,1500.0
1.8766248226165771,163,103.705,1139.4376427328102,1499.3900000000001,1494.7613467339386,1295.7979600000001,1500.0
1.9008049964904785,162,103.705,1142.610633383832,1492.5599999999999,1495.4172886858705,1297.1918000000001,1500.0
1.9249818325042725,161,103.705,1145.783624034854,1483.5,1495.7217609041506,1295.71984,1500.0
1.949225902557373,161,103.7285,1151.9626058289496,1480,1495.9545903335209,1292.82584,1500.0
1.9737939834594727,160,103.7285,1158.1415876230451,1480,1496.1924297481296,1289.9600399999999,1500.0
1.9981029033660889,159,103.7285,1161.3145782740671,1480,1496.3215524830637,1289.8942400000001,1500.0
2.022303819656372,159,103.7285,1167.841873327598,1480,1496.561388734646,1289.82844,1500.0
2.0466458797454834,159,103.7285,1174.3691683811292,1480,1496.9823992655988,1291.1546000000001,1500.0
2.070894956588745,159,104.752,1177.5421590321512,1480,1497.2029459729174,1289.8445200000001,1500.0
2.095085859298706,159,104.752,1180.7151496831732,1480,1497.2381232264131,1289.7626399999999,1500.0
2.1192848682403564,159,104.752,1180.7151496831732,1482.1400000000001,1497.1638323024486,1288.3207600000001,1500.0
2.1436209678649902,159,104.752,1180.7151496831732,1488.6500000000001,1496.7930933948028,1286.87888,1500.0
2.1679530143737793,159,103.7285,1184.0694540856821,1492.99,1496.2416300053624,1288.13904,1500.0
2.1922028064727783,159,103.705,1187.423758488191,1497.3299999999999,1495.7857857627589,1291.0668800000001,1500.0
2.2167859077453613,160,102.705,1190.7780628906999,1501.9300000000001,1495.4255606669922,1296.60652,1500.0
2.2411179542541504,160,102.705,1190.7780628906999,1504.1600000000001,1495.1454309209448,1300.94616,1500.0
2.2655539512634277,160,101.611,1187.423758488191,1506.3900000000001,1494.9453965246169,1308.1739600000001,1500.0
2.290030002593994,159,101.611,1184.0694540856821,1506.1900000000001,1494.6392935836689,1311.22316,1500.0
2.3144969940185547,159,101.611,1184.0694540856821,1506.1900000000001,1494.2422164679124,1312.8145999999999,1500.0
2.338986873626709,160,101.611,1184.0694540856821,1504.22,1493.7390708075361,1311.6060399999999,1500.0
2.364060878753662,160,101.6345,1184.0694540856821,1502.05,1493.2359251471598,1310.3354400000001,1500.0
2.3892879486083984,161,101.6345,1184.0694540856821,1502.3099999999999,1492.9340377509341,1306.0298399999999,1500.0
2.414793014526367,162,101.611,1180.7151496831732,1509.2,1492.8183142490475,1303.17824,1500.0
2.439849853515625,163,100.5875,1177.3608452806643,1518.3199999999999,1492.7025907471609,1303.03244,1500.0
2.4648640155792236,163,99.517,1174.0065408781552,1520,1492.5868672452743,1305.84456,1500.0
2.4897758960723877,166,98.47,1174.0065408781552,1520,1492.4862381131991,1310.2019600000001,1500.0
2.514673948287964,165,97.423,1174.0065408781552,1520,1492.2849798490486,1317.5548799999999,1500.0
2.539583921432495,166,96.3995,1174.0065408781552,1520,1492.1843507169731,1326.28764,1500.0
2.5644829273223877,163,95.3525,1170.8335502271334,1520,1492.1755116715883,1333.69048,1500.0
2.589388847351074,164,95.3525,1170.8335502271334,1520,1492.3822093482834,1336.83952,1500.0
2.614466905593872,164,95.3525,1170.8335502271334,1517.3099999999999,1492.5889070249784,1337.0249999999999,1500.0
2.6399569511413574,164,95.3525,1170.8335502271334,1506.4000000000001,1492.7956047016737,1334.2788799999998,1500.0
2.6650028228759766,164,95.3525,1170.8335502271334,1493.26,1492.9016732462935,1328.69892,1500.0
2.6900060176849365,163,95.3525,1170.8335502271334,1493.0599999999999,1493.0974920978995,1321.5793200000001,1500.0
2.7150139808654785,165,95.3525,1170.8335502271334,1493.52,1493.1926818174302,1315.9156,1500.0
2.7400388717651367,165,95.3525,1170.8335502271334,1500.0899999999999,1493.2878715369609,1311.6758,1500.0
2.7650399208068848,166,95.3525,1170.8335502271334,1506.9200000000001,1493.3830612564914,1308.8599199999999,1500.0
2.7900240421295166,167,95.3525,1170.8335502271334,1518.1500000000001,1493.4782509760221,1307.4359999999999,1500.0
2.815006971359253,166,95.3525,1174.0065408781552,1520,1493.5877191534823,1307.4359999999999,1500.0
2.8399088382720947,168,94.3525,1177.3608452806643,1520,1493.7986323748996,1310.076,1500.0
2.864802837371826,168,94.329,1180.7151496831732,1520,1494.1101747283922,1311.5780400000001,1500.0
2.889685869216919,168,94.329,1184.0694540856821,1520,1494.5223462139597,1313.05188,1500.0
2.9144909381866455,168,94.329,1184.0694540856821,1520,1494.9194233297162,1314.5257200000001,1500.0
2.9393599033355713,168,94.329,1184.0694540856821,1520,1495.1261210064115,1315.99956,1500.0
2.9645259380340576,169,94.3055,1184.0694540856821,1520,1495.131560418956,1314.7354400000002,1500.0
2.989522933959961,166,93.282,1187.423758488191,1512.22,1495.0514650692367,1316.0793600000002,1500.0
3.014535903930664,168,94.282,1187.423758488191,1508.28,1494.7550170855554,1313.5550800000001,1500.0
3.039569854736328,169,93.2585,1187.423758488191,1508.54,1494.4585691018742,1314.9328399999999,1500.0
3.0646238327026367,168,93.2585,1187.423758488191,1504.0,1494.2573108377237,1315.0824,1500.0
3.089629888534546,169,93.2585,1184.0694540856821,1502.03,1494.0409582037619,1316.5261599999999,1500.0
3.1146228313446045,169,93.282,1180.7151496831732,1513.0599999999999,1493.6233473056495,1315.07404,1500.0
3.1396608352661133,167,93.282,1177.3608452806643,1510.4300000000001,1493.2057364075372,1316.45012,1500.0
3.1647188663482666,169,93.2585,1177.3608452806643,1508.6600000000001,1492.8032198792362,1315.02244,1500.0
3.189807891845703,168,93.2585,1177.3608452806643,1508.46,1492.4007033509351,1313.56656,1500.0
3.2148079872131348,168,93.2585,1177.3608452806643,1506.23,1492.1994450867846,1312.14264,1500.0
3.2398178577423096,167,92.2585,1177.3608452806643,1495.0599999999999,1492.3000742188599,1314.81648,1500.0
3.264770984649658,168,92.2585,1180.7151496831732,1499.6600000000001,1492.7176851169722,1314.9303199999999,1500.0
3.2897279262542725,168,92.235,1180.7151496831732,1497.4300000000001,1493.1202016452733,1316.43236,1500.0
3.3147189617156982,168,92.235,1180.7151496831732,1497.4300000000001,1493.5227181735743,1317.9061999999999,1500.0
3.3397269248962402,168,92.2115,1180.7151496831732,1499.5999999999999,1493.8246055698,1319.44208,1500.0
3.3647148609161377,168,91.2115,1184.0694540856821,1506.1700000000001,1494.1415873358371,1320.7578000000001,1500.0
3.3897299766540527,168,91.2115,1180.8964634346601,1504.0,1494.0321191583769,1320.8735199999999,1500.0
3.4147379398345947,169,91.2115,1180.8964634346601,1508.5999999999999,1493.9369294388462,1320.9554000000001,1500.0
3.43977689743042,168,91.2115,1180.8964634346601,1508.4000000000001,1493.8417397193155,1321.03728,1500.0
3.4647738933563232,169,91.188,1180.8964634346601,1510.8299999999999,1493.746549999785,1321.1153999999999,1500.0
3.4897828102111816,168,91.1645,1177.5421590321512,1508.46,1493.3343785142172,1319.78736,1500.0
3.514781951904297,168,90.1645,1174.1878546296423,1508.46,1493.1125864677108,1321.0711200000001,1500.0
3.5398008823394775,168,90.141,1174.1878546296423,1504.0599999999999,1492.9058887910157,1321.2488799999999,1500.0
3.5648298263549805,168,90.141,1174.1878546296423,1504.0599999999999,1492.6991911143205,1321.3984399999999,1500.0
3.589840888977051,169,90.1645,1174.1878546296423,1502.0899999999999,1492.4924934376254,1321.4521199999999,1500.0
3.6147878170013428,168,90.1645,1170.8335502271334,1501.8900000000001,1492.4719596552695,1322.8281999999999,1500.0
3.6398308277130127,170,90.188,1174.0065408781552,1506.75,1492.682056964805,1321.3422399999999,1500.0
3.664914846420288,170,91.2115,1174.0065408781552,1513.3800000000001,1492.8778758164108,1317.11664,1500.0
3.689884901046753,170,91.2115,1174.0065408781552,1517.8399999999999,1493.0736946680167,1314.11924,1500.0
3.7148849964141846,169,91.235,1174.0065408781552,1517.6400000000001,1493.2695135196227,1311.1575600000001,1500.0
3.739895820617676,170,91.2585,1177.3608452806643,1520,1493.6816850051905,1308.194,1500.0
3.764819860458374,168,92.2585,1177.3608452806643,1513.0999999999999,1493.7877535498103,1304.0444400000001,1500.0
3.789829969406128,167,92.282,1177.3608452806643,1501.8699999999999,1493.8938220944303,1303.9306000000001,1500.0
3.8148038387298584,166,92.282,1177.3608452806643,1488.4100000000001,1493.9998906390501,1303.8449600000001,1500.0
3.8397908210754395,166,92.282,1177.3608452806643,1481.72,1494.1059591836699,1303.7931599999999,1500.0
3.864856004714966,164,92.2585,1177.3608452806643,1480,1493.910140332064,1303.8692000000001,1500.0
3.8897860050201416,164,92.2585,1177.3608452806643,1480,1493.8095111999887,1306.68508,1500.0
3.914667844772339,164,92.2585,1177.3608452806643,1480,1493.7088820679135,1308.1748,1500.0
3.940032958984375,163,92.2585,1177.3608452806643,1480,1493.6082529358382,1309.66452,1500.0
3.9650869369506836,162,92.2585,1177.3608452806643,1480,1493.507623803763,1311.12228,1500.0
3.9900169372558594,163,92.2585,1174.0065408781552,1480,1493.3919003018764,1312.4822799999999,1500.0
4.014978885650635,163,92.282,1174.0065408781552,1480,1493.2912711698011,1312.4202399999999,1500.0
4.039909839630127,162,93.282,1174.0065408781552,1480,1493.1906420377259,1309.71444,1500.0
4.064860820770264,163,92.2585,1174.0065408781552,1484.02,1493.0900129056506,1310.91068,1500.0
4.089884042739868,162,92.2585,1174.0065408781552,1492.5,1492.9893837735754,1310.8787199999999,1500.0
4.114886999130249,162,91.235,1174.0065408781552,1492.4400000000001,1493.0900129056506,1313.5807600000001,1500.0
4.140033006668091,161,91.2115,1174.0065408781552,1489.95,1493.1906420377259,1315.18244,1500.0
4.165380001068115,161,91.2115,1174.0065408781552,1492.0599999999999,1493.2912711698011,1319.55592,1500.0
4.190675973892212,161,91.235,1174.0065408781552,1487.5999999999999,1493.3919003018764,1321.0015599999999,1500.0
4.21577787399292,161,91.235,1177.3608452806643,1485.3699999999999,1493.6082529358382,1322.4754,1500.0
4.240778923034668,162,92.2585,1177.3608452806643,1487.74,1493.7088820679135,1318.3814,1500.0
4.265780925750732,162,92.2585,1177.3608452806643,1494.3099999999999,1493.8095111999887,1315.4178400000001,1500.0
4.29076886177063,161,91.2585,1180.7151496831732,1496.28,1494.0258638339506,1313.7342799999999,1500.0
4.315784931182861,161,91.235,1184.0694540856821,1500.6199999999999,1494.3428455999876,1312.3705199999999,1500.0
4.3408520221710205,161,91.2115,1184.0694540856821,1502.79,1494.4434747320629,1311.0406,1500.0
4.365870952606201,161,90.188,1187.423758488191,1500.5599999999999,1494.6598273660247,1316.64228,1500.0
4.390859842300415,160,90.188,1190.7780628906999,1493.73,1494.9768091320618,1321.04772,1500.0
4.415879964828491,160,90.1645,1194.132367293209,1491.5,1495.1931617660236,1322.7151999999999,1500.0
4.440928936004639,161,90.1645,1197.4866716957179,1491.7,1495.3088852679102,1324.2567199999999,1500.0
4.465970993041992,161,90.188,1197.4866716957179,1491.7,1495.5101435320607,1325.6704,1500.0
4.49095892906189,162,90.188,1200.8409760982267,1496.3,1495.6258670339473,1322.8545199999999,1500.0
4.51597785949707,162,90.188,1204.1952805007356,1505.0999999999999,1495.6409614037586,1320.03864,1500.0
4.541008949279785,162,91.188,1200.8409760982267,1511.73,1495.4246087697968,1315.8769600000001,1500.0
4.566025972366333,162,90.188,1200.8409760982267,1513.96,1495.122721373571,1315.5872400000001,1500.0
4.591017961502075,162,90.1645,1204.1952805007356,1516.1900000000001,1494.9365574792319,1314.2573199999999,1500.0
4.6160149574279785,161,90.1645,1204.1952805007356,1511.5899999999999,1494.6346700830061,1314.29116,1500.0
4.641010999679565,162,90.1645,1204.1952805007356,1507.45,1494.2321535547048,1314.325,1500.0
4.666021823883057,161,90.1645,1204.1952805007356,1500.6800000000001,1494.1315244226296,1317.1908000000001,1500.0
4.691035985946655,161,90.1645,1204.1952805007356,1496.28,1494.1315244226296,1317.2565999999999,1500.0
4.716037034988403,161,90.1645,1204.1952805007356,1491.8800000000001,1493.9302661584791,1317.2246399999999,1500.0
4.741017818450928,160,90.141,1204.1952805007356,1491.6199999999999,1493.8296370264038,1317.2547199999999,1500.0
4.766006946563721,161,90.141,1204.1952805007356,1489.5899999999999,1493.8296370264038,1317.2565999999999,1500.0
4.791332006454468,161,90.141,1204.1952805007356,1491.76,1493.7290078943286,1315.8984800000001,1500.0
4.81634783744812,161,90.141,1204.1952805007356,1493.9300000000001,1493.6283787622533,1315.9003600000001,1500.0
4.841320037841797,161,90.141,1204.1952805007356,1496.0999999999999,1493.6283787622533,1315.9341999999999,1500.0
4.866307973861694,161,90.1645,1204.1952805007356,1500.5,1493.6283787622533,1315.8402000000001,1500.0
4.891317844390869,161,91.1645,1200.8409760982267,1502.6700000000001,1493.5126552603667,1313.1343999999999,1500.0
4.916424036026001,161,91.1645,1197.4866716957179,1502.6700000000001,1493.2963026264049,1311.6286,1500.0
4.941170930862427,160,91.1645,1194.132367293209,1500.24,1492.9793208603678,1310.1228000000001,1500.0
4.966691017150879,160,90.1645,1194.132367293209,1498.01,1492.677433464142,1311.2570000000001,1500.0
4.992336988449097,160,90.1645,1194.132367293209,1493.6099999999999,1492.3755460679163,1311.2889600000001,1500.0
5.018110990524292,160,90.1645,1194.132367293209,1491.3800000000001,1492.274916935841,1314.1209200000001,1500.0
5.043673038482666,159,90.1645,1197.4866716957179,1486.72,1492.4912695698029,1316.9528800000001,1500.0
5.069223880767822,159,91.188,1194.132367293209,1486.6600000000001,1492.7780625962173,1317.0827999999999,1500.0
5.094683885574341,159,91.2115,1194.132367293209,1486.5999999999999,1493.0799499924431,1315.57888,1500.0
5.120153903961182,160,92.2115,1190.7780628906999,1488.97,1493.2661138867823,1311.4312,1500.0
5.145903825759888,158,92.235,1194.132367293209,1486.28,1493.4824665207441,1307.0614800000001,1500.0
5.171334981918335,159,93.2585,1194.132367293209,1490.8199999999999,1493.3818373886688,1300.01792,1500.0
5.196784019470215,160,93.2585,1194.132367293209,1495.4200000000001,1493.3818373886688,1297.06836,1500.0
5.222251892089844,159,93.2585,1190.7780628906999,1497.3900000000001,1493.2661138867823,1295.5445999999999,1500.0
5.247902870178223,159,93.2585,1187.423758488191,1495.1600000000001,1493.2510195169712,1296.8208400000001,1500.0
5.273428916931152,158,93.2585,1187.423758488191,1499.3,1493.0497612528204,1298.1628800000001,1500.0
5.298921823501587,157,93.282,1187.423758488191,1494.6400000000001,1492.9491321207452,1302.3086800000001,1500.0
5.324393033981323,159,94.282,1187.423758488191,1490.6400000000001,1492.7478738565947,1302.45072,1500.0
5.349870920181274,158,94.3055,1184.0694540856821,1488.21,1492.6321503547081,1303.69876,1500.0
5.375288009643555,159,94.3055,1184.0694540856821,1490.5799999999999,1492.6321503547081,1303.615,1500.0
5.400722980499268,160,94.282,1180.7151496831732,1495.24,1492.6170559848968,1303.56132,1500.0
5.426201820373535,159,93.2585,1180.7151496831732,1503.8399999999999,1492.617055984897,1304.8553200000001,1500.0
5.451666831970215,159,92.235,1184.0694540856821,1506.01,1492.7327794867833,1310.4231600000001,1500.0
5.477257013320923,160,92.188,1184.0694540856821,1512.8399999999999,1492.9340377509341,1314.9526799999999,1500.0
5.502758026123047,159,91.1645,1187.423758488191,1512.6400000000001,1493.1503903848957,1322.1278399999999,1500.0
5.52830696105957,159,91.1645,1184.0694540856821,1506.0699999999999,1493.4371834113103,1328.009,1500.0
5.553838014602661,158,91.141,1180.7151496831732,1499.3,1493.6233473056495,1331.0544399999999,1500.0
5.579351902008057,158,91.1645,1180.7151496831732,1497.0699999999999,1493.6233473056495,1329.7838400000001,1500.0
5.604828834533691,158,91.188,1180.7151496831732,1488.27,1493.5227181735743,1328.31584,1500.0
5.6303019523620605,158,91.2115,1177.5421590321512,1486.04,1493.1113625998883,1323.9482,1500.0
5.655727863311768,158,92.235,1174.3691683811292,1485.98,1492.7054464387468,1316.93868,1500.0
5.681164979934692,160,93.2585,1174.3691683811292,1493.01,1492.5150669996854,1309.7814800000001,1500.0
5.70661187171936,160,93.282,1167.841873327598,1499.6400000000001,1492.2001250133526,1305.2482,1500.0
5.732120037078857,160,93.2585,1164.6688826765762,1508.4400000000001,1491.8050876773004,1300.93488,1500.0
5.757810831069946,160,92.235,1158.1415876230451,1515.0699999999999,1491.4901456909674,1300.75316,1500.0
5.783298969268799,162,92.2115,1158.1415876230451,1520,1491.2943268393615,1302.27108,1500.0
5.808740854263306,162,91.188,1154.9685969720231,1520,1490.88841067822,1309.3606,1500.0
5.834187030792236,162,91.1645,1154.9685969720231,1520,1490.88841067822,1315.3178,1500.0
5.859529972076416,162,91.141,1154.9685969720231,1520,1491.0787901172814,1321.21108,1500.0
5.8848748207092285,161,91.141,1158.1415876230451,1520,1491.6750857174841,1324.1784,1500.0
5.91023588180542,161,91.141,1161.3145782740671,1513.7,1492.271381317687,1325.68796,1500.0
5.935688018798828,162,91.1645,1161.3145782740671,1509.5599999999999,1493.0437778990215,1322.87772,1500.0
5.961424827575684,162,91.1645,1164.4875689250889,1505.22,1493.7298238062103,1319.99792,1500.0
5.987058877944946,162,91.188,1167.6605595761109,1500.8800000000001,1494.4158697133992,1317.02224,1500.0
6.012606859207153,162,91.188,1174.1878546296421,1500.9400000000001,1494.9266305513379,1315.4667199999999,1500.0
6.038410902023315,162,91.188,1177.5421590321512,1505.3399999999999,1495.3333626243611,1313.94316,1500.0
6.063956022262573,164,91.1645,1180.7151496831732,1510.2,1495.7392787855024,1313.9394,1500.0
6.089529991149902,162,91.141,1180.7151496831732,1509.8,1495.9405370496531,1314.00144,1500.0
6.114975929260254,165,90.1175,1177.5421590321512,1517.0899999999999,1495.841947697282,1316.8350800000001,1500.0
6.140444993972778,165,90.1175,1177.5421590321512,1520,1495.4611888191594,1318.4405199999999,1500.0
6.165851831436157,165,90.141,1177.5421590321512,1520,1494.974361396417,1319.9839199999999,1500.0
6.191260814666748,166,91.141,1177.5421590321512,1520,1494.2971545346131,1318.8177599999999,1500.0
6.216899871826172,166,91.1645,1177.5421590321512,1520,1493.7151373923398,1318.7237600000001,1500.0
6.2432029247283936,168,91.1645,1174.3691683811292,1520,1493.3092212311983,1315.7601999999999,1500.0
6.269831895828247,168,91.1645,1167.841873327598,1520,1492.8882107002455,1312.79664,1500.0
6.29517388343811,169,91.1645,1164.4875689250889,1520,1492.4814786272225,1309.89888,1500.0
6.320520877838135,168,91.1645,1164.4875689250889,1520,1492.1850306435413,1309.8330800000001,1500.0
6.345865964889526,168,91.141,1164.4875689250889,1520,1491.88858265986,1309.9270799999999,1500.0
6.371243000030518,166,91.141,1167.6605595761109,1520,1491.7967925731698,1311.3848399999999,1500.0
6.396659851074219,166,90.1175,1171.0148639786198,1512.0999999999999,1492.1980852336483,1315.5446400000001,1500.0
6.422132968902588,166,90.1175,1171.0148639786198,1496.73,1492.7855417884662,1318.4442799999999,1500.0
6.447777986526489,165,90.094,1171.0148639786198,1485.5,1493.3729983432838,1320.0459599999999,1500.0
6.47333288192749,166,89.0705,1174.3691683811289,1480,1494.0761783999883,1324.22372,1500.0
6.4988110065460205,166,89.047,1177.5421590321507,1481.24,1494.5881631057496,1327.23532,1500.0
6.52429986000061,166,88.047,1184.0694540856819,1485.5799999999999,1494.9139839171717,1329.9929200000001,1500.0
6.549778938293457,166,89.047,1184.0694540856819,1492.0899999999999,1495.1098027687776,1328.9105200000001,1500.0
6.5752480030059814,166,89.0705,1184.0694540856819,1500.8299999999999,1495.3056216203836,1328.9002800000001,1500.0
6.600726842880249,166,90.094,1184.0694540856819,1505.1700000000001,1495.300182207839,1323.3823600000001,1500.0
6.626217842102051,165,91.141,1184.0694540856819,1502.74,1495.1995530757636,1316.2627600000001,1500.0
6.651665925979614,163,92.1645,1180.7151496831727,1495.6500000000001,1494.6921918706653,1306.2894799999999,1500.0
6.677278995513916,165,92.1645,1180.7151496831727,1493.8199999999999,1494.1999250353781,1300.3444,1500.0
6.702852964401245,165,91.1175,1180.7151496831727,1489.4200000000001,1493.7076582000909,1297.26116,1500.0
6.728405952453613,163,90.0705,1180.7151496831727,1482.3299999999999,1493.316020496879,1299.94336,1500.0
6.753904819488525,165,89.0235,1184.0694540856816,1484.9000000000001,1493.1352960150846,1307.0968,1500.0
6.7795820236206055,165,87.953,1184.0694540856816,1495.8699999999999,1493.3365542792351,1320.04576,1500.0
6.8054358959198,165,86.9295,1184.0694540856816,1498.04,1493.5378125433856,1333.05216,1500.0
6.8308868408203125,165,85.906,1187.4237584881907,1500.21,1493.8547943094227,1344.5688399999999,1500.0
6.856343030929565,165,85.8825,1190.7780628906996,1511.1800000000001,1494.272405207535,1350,1500.0
6.881742000579834,164,85.8825,1190.7780628906996,1508.75,1494.4736634716855,1350,1500.0
6.907245874404907,165,84.859,1194.1323672932085,1504.6099999999999,1494.6900161056474,1350,1500.0
6.932768821716309,164,83.8355,1197.4866716957174,1502.1800000000001,1495.0069978716845,1350,1500.0
6.958295822143555,161,83.7885,1197.4866716957174,1492.6600000000001,1495.1076270037597,1346.7768800000001,1500.0
6.984205961227417,164,82.718,1194.1323672932085,1486.6900000000001,1494.8912743697979,1346.9226800000001,1500.0
7.009907007217407,163,80.6475,1194.1323672932085,1486.4300000000001,1494.7906452377226,1350,1500.0
7.035343885421753,161,77.6005,1194.1323672932085,1480,1494.4887578414969,1350,1500.0
7.060678005218506,161,76.5065,1201.0382881219034,1480,1494.2238664497104,1350,1500.0
7.085978031158447,161,75.4595,1204.5899045480896,1481.27,1494.1510583129736,1350,1500.0
7.111361980438232,160,74.4125,1208.1415209742756,1480,1494.4866860652483,1350,1500.0
7.136677980422974,160,73.4125,1215.0474418029705,1480,1495.044585812195,1350,1500.0
7.161952972412109,160,74.436,1218.5990582291565,1480,1495.7945688141913,1350,1500.0
7.187347888946533,160,74.5065,1222.1506746553428,1480.53,1496.3373741913267,1350,1500.0
7.212791919708252,158,75.53,1229.0565954840376,1480,1496.8893545775632,1350,1500.0
7.238180875778198,161,76.577,1235.9625163127325,1484.95,1497.334786471014,1350,1500.0
7.2636330127716064,161,77.624,1239.5141327389188,1493.6900000000001,1497.4573172377175,1334.8138000000001,1500.0
7.289176940917969,161,77.6475,1243.0657491651048,1498.0899999999999,1497.4732995116351,1325.8573200000001,1500.0
7.314637899398804,161,77.671,1239.5141327389188,1502.49,1497.3448493842216,1318.55224,1500.0
7.340138912200928,161,78.718,1235.9625163127325,1515.6900000000001,1496.8020440070861,1312.8009999999999,1500.0
7.365645885467529,161,79.765,1232.4108998865465,1513.52,1495.8448833802288,1309.8976,1500.0
7.3910980224609375,161,81.8355,1228.8592834603605,1511.3499999999999,1494.7752548998758,1307.07608,1500.0
7.416855812072754,159,82.9295,1225.3076670341745,1504.3199999999999,1493.4925294339516,1302.52484,1500.0
7.442384958267212,159,85.0,1221.7560506079885,1497.6900000000001,1492.4229009535986,1293.7901999999999,1500.0
7.468017816543579,159,87.1175,1214.8501297792934,1486.72,1491.5512750890055,1283.4895999999999,1500.0
7.493501901626587,159,87.1645,1211.2985133531074,1482.26,1491.00846971187,1277.1135999999999,1500.0
7.519328832626343,158,88.2585,1207.7468969269214,1480,1490.6787613203057,1272.2793200000001,1500.0
7.544713973999023,159,90.3055,1200.8409760982263,1480,1490.446426412426,1266.385,1500.0
7.570137023925781,159,91.329,1200.8409760982263,1484.25,1490.3517166410611,1266.0104799999999,1500.0
7.5955798625946045,161,92.423,1197.4866716957174,1493.45,1490.4490901247457,1268.48108,1500.0
7.621057987213135,161,93.4935,1194.1323672932085,1502.25,1490.5523829691406,1268.1460400000001,1500.0
7.64652681350708,161,94.564,1190.7780628906996,1515.45,1490.661595174246,1266.5168000000001,1500.0
7.6722869873046875,162,96.6345,1187.4237584881907,1520,1490.9779850042121,1264.9498000000001,1500.0
7.697799921035767,162,96.658,1184.0694540856816,1520,1491.0871972093173,1265.85528,1500.0
7.723228931427002,162,96.6815,1184.0694540856816,1520,1491.2055844235235,1266.91032,1500.0
7.748734951019287,162,95.6815,1184.0694540856816,1520,1491.4186814090947,1273.5670399999999,1500.0
7.774195909500122,163,93.658,1184.0694540856816,1520,1491.7264881660308,1285.87536,1500.0
7.799544811248779,163,92.6345,1187.4237584881907,1518.6800000000001,1492.1440990641431,1301.471,1500.0
7.825048923492432,163,91.6345,1187.4237584881907,1514.4000000000001,1492.7478738565947,1317.15228,1500.0
7.850560903549194,163,90.6345,1190.7780628906996,1514.46,1493.3667430188575,1332.8515199999999,1500.0
7.87605881690979,163,88.6345,1197.6839837193945,1514.52,1494.108142947824,1348.3748800000001,1500.0
7.901508808135986,162,86.6345,1201.0382881219036,1507.75,1494.8335606028725,1350,1500.0
7.926998853683472,162,85.611,1204.3925925244125,1503.3499999999999,1495.3577199937704,1350,1500.0
7.952384948730469,162,83.5875,1207.7468969269216,1498.95,1495.8818793846683,1350,1500.0
7.977902889251709,162,79.4935,1211.1012013294305,1494.55,1496.305409643491,1350,1500.0
8.003655910491943,161,76.3995,1214.6528177556165,1487.72,1496.4220210494841,1350,1500.0
8.02913784980774,161,72.188,1214.6528177556165,1487.6600000000001,1496.3213919174088,1350,1500.0
8.054811954498291,162,68.0705,1214.6528177556165,1490.03,1496.1201336532583,1350,1500.0
8.08027195930481,162,60.953,1214.6528177556165,1492.2,1495.7176171249573,1350,1500.0
8.105644941329956,162,58.859,1211.2985133531074,1494.3699999999999,1495.0987479626942,1350,1500.0
8.13112497329712,162,56.8355,1201.2196018733903,1500.9400000000001,1494.1413313634821,1350,1500.0
8.156977891921997,162,55.8355,1188.8344779256647,1505.3399999999999,1492.9026122218074,1350,1500.0
8.182426929473877,159,56.906,1166.3684391367672,1498.05,1491.0451769317558,1350,1500.0
8.207960844039917,157,59.047,1139.5340039166949,1486.5,1488.463679933237,1350,1500.0
8.233422040939331,158,62.1645,1106.829535992232,1480,1485.1765211460404,1350,1500.0
8.258836030960083,202,64.235,1065.3940110200617,1520,1481.3182900345325,1350,1500.0
8.284168004989624,151,66.3055,1024.3828930422155,1520,1476.9747426520273,1344.7186400000001,1500.0
8.309370994567871,143,71.3525,975.26223196140563,1505.9400000000001,1472.4690448204683,1302.6755600000001,1500.0
8.33483600616455,139,72.376,923.79290539175906,1480,1468.0187643103245,1279.6614400000001,1500.0
8.360018014907837,135,73.3525,874.56037303235257,1480,1463.963212346737,1266.8744000000002,1500.0
8.384644031524658,129,73.3055,828.5008313239681,1480,1460.7239167437663,1263.9326000000001,1500.0
8.409052848815918,121,71.2585,790.57138923405842,1480,1458.4724366866203,1273.4958799999999,1500.0
8.433560848236084,116,70.2115,762.72286198532083,1480,1457.7041234299795,1296.0425599999999,1500.0
8.458089828491211,113,68.188,741.67171021785043,1480,1458.6179903475565,1322.6289200000001,1500.0
8.482441902160645,111,65.1645,726.49059115477087,1480,1461.0756567442418,1350,1500.0
8.506878852844238,109,62.141,716.48891271321259,1480,1464.7770870238148,1350,1500.0
8.531519889831543,107,57.141,712.21692125718687,1480,1469.4215741372013,1350,1500.0
8.55581784248352,105,53.1645,717.42668834151527,1480,1474.4623139790492,1350,1500.0
8.580261945724487,105,50.1645,726.40815914604764,1480,1479.5084599207328,1350,1500.0
8.604804039001465,105,47.141,739.51741332458789,1480,1484.4003496859582,1350,1500.0
8.629117965698242,106,43.1175,754.22034154051926,1480,1488.9588132860717,1350,1500.0
8.653470039367676,106,39.0,770.0334908666332,1480,1493.1151035856287,1350,1500.0
8.677878856658936,108,30.906,789.51700367269621,1480,1496.7243740625056,1350,1500.0
8.70216703414917,108,26.812,808.52640493429158,1480,1499.7313702739841,1350,1500.0
8.726569890975952,108,21.6005,831.71211404881308,1484.6099999999999,1502.2107423216316,1350,1500.0
8.75105881690979,108,18.483,867.21257708862993,1495.5799999999999,1504.628318606935,1350,1500.0
8.775461912155151,189,92.3655,923.81646388096965,1520,1507.7620281996471,1350,1500.0
8.799751043319702,187,87.2715,971.27897430363737,1520,1511.2657591555421,1286.31484,1500.0
8.824116945266724,186,84.201,1029.348115035245,1520,1515.6881742182156,1250,1500.0
8.84838581085205,184,84.1775,1072.3773140448063,1520,1520.3359205919116,1250,1500.0
8.87273097038269,181,84.1775,1113.8128390169766,1520,1524.5306212456935,1250,1500.0
8.89706802368164,182,85.201,1135.9291317807724,1520,1526.3800354096945,1250,1500.0
8.921312808990479,181,82.295,1174.0786673450916,1520,1527.1828399920494,1250,1500.0
8.945595979690552,180,84.3655,1202.9548530710385,1520,1525.8963336658614,1250,1500.0
8.969849824905396,179,85.436,1221.1274358905284,1520,1523.220657944041,1250,1500.0
8.994150876998901,178,86.53,1226.9852647847231,1480,1519.2441830892469,1333.6348800000001,1500.0
9.018635034561157,178,88.577,1200.5701176149646,1480,1514.7011644650147,1316.57332,1500.0
9.043234825134277,178,88.6945,1184.633377241053,1480,1508.8620996389673,1300.4489999999998,1500.0
9.067762851715088,178,90.765,1156.666968326834,1480,1502.1394121154533,1288.9728399999999,1500.0
9.092164039611816,179,91.8355,1138.0209820893574,1483.22,1495.0998079079779,1280.18452,1500.0
9.11675500869751,179,91.906,1122.0842417154458,1491.96,1488.4858891111846,1275.5578800000001,1500.0
9.141238927841187,180,94.0235,1119.3749958518806,1505.3,1484.0986142768802,1269.7652800000001,1500.0
9.166117906570435,181,94.094,1099.6713895714081,1518.7,1481.1444471216498,1270.6087199999999,1500.0
9.190654039382935,183,96.1645,1087.2862656236825,1520,1480.3959295251168,1269.05216,1500.0
9.215031862258911,184,97.2115,1078.7191908659231,1520,1481.0715175660389,1268.75764,1500.0
9.239385843276978,186,97.235,1072.8613619717285,1520,1482.7155016357817,1268.3670400000001,1500.0
9.263811826705933,188,97.2115,1072.8613619717285,1520,1483.7559462722697,1271.2117599999999,1500.0
9.288249015808105,188,96.1645,1070.1521161081635,1520,1485.4070360920757,1276.82996,1500.0
9.31264591217041,191,94.094,1070.1521161081635,1520,1486.9744326877046,1289.6394,1500.0
9.33709192276001,192,94.047,1070.1521161081635,1520,1488.496474181675,1301.56404,1500.0
9.361435890197754,192,93.0,1070.1521161081635,1520,1489.8918831980795,1316.1662799999999,1500.0
9.385778903961182,193,91.953,1072.8613619717285,1520,1491.2994838208701,1329.3306,1500.0
9.410192012786865,194,91.8825,1072.8613619717285,1520,1492.2663394006743,1338.39716,1500.0
9.43461298942566,194,90.8355,1072.8613619717285,1520,1492.861641262047,1341.5299199999999,1500.0
9.458997964859009,192,90.8355,1072.8613619717285,1520,1493.1999308806867,1341.85076,1500.0
9.483405828475952,191,90.859,1075.7131997228496,1520,1493.4608740349142,1339.146,1500.0
9.507858991622925,189,91.8825,1075.7131997228496,1520,1493.546429167448,1330.8677600000001,1500.0
9.53222393989563,187,91.906,1078.4224455864146,1495.05,1493.6441759063675,1324.9821999999999,1500.0
9.556964874267578,186,91.9295,1078.4224455864146,1480,1493.7297310389013,1318.9470799999999,1500.0
9.581357955932617,179,92.953,1083.9835292011007,1480,1494.0071435561415,1310.30204,1500.0
9.605738878250122,177,91.953,1093.0143487463172,1480,1494.3999842063583,1307.0149199999998,1500.0
9.630127906799316,174,93.0,1093.0143487463172,1480,1494.8334635445287,1304.0534399999999,1500.0
9.654484033584595,171,93.0705,1093.0143487463172,1480,1495.1043881308854,1302.32392,1500.0
9.678846836090088,168,95.188,1098.8721776405116,1480,1495.5774078140914,1296.57852,1500.0
9.703289031982422,164,100.3055,1101.5814235040766,1480,1495.7838712326857,1282.72972,1500.0
9.727757930755615,161,102.47,1101.5814235040766,1480,1495.5218490047143,1266.47568,1500.0
9.752120018005371,159,102.564,1113.3214889128583,1480,1495.6648590333461,1254.11052,1500.0
9.776636838912964,156,105.6345,1116.1733266639794,1480,1495.934704545959,1250,1500.0
9.800900936126709,154,105.7285,1116.1733266639794,1480,1495.8402470550402,1250,1500.0
9.825147867202759,151,106.7285,1116.1733266639794,1480,1495.7500673207478,1250,1500.0
9.849435806274414,145,104.7285,1113.0003360129574,1480,1495.821343995352,1250,1500.0
9.873766899108887,141,103.6345,1118.8581649071518,1480,1495.4045903002084,1250,1500.0
9.89813494682312,139,101.5405,1124.7159938013465,1480,1494.9924612068235,1274.3326,1500.0
9.922500848770142,135,99.4465,1121.710002658273,1480,1494.6260000558043,1300.2265600000001,1500.0
9.94711184501648,131,97.329,1124.5618404093941,1480,1494.4527316432498,1325.0381199999999,1500.0
9.971508979797363,126,94.3055,1124.5618404093941,1480,1494.4570093998764,1346.7470000000001,1500.0
9.99591588973999,127,93.329,1115.5310208641774,1480,1494.150456110805,1350,1500.0
10.020254850387573,124,92.3995,1118.537012007251,1480,1493.7223336030049,1350,1500.0
10.044556856155396,124,94.517,1118.537012007251,1480,1493.4610436036453,1350,1500.0
10.068908929824829,123,95.5875,1118.537012007251,1480,1493.0286433392187,1350,1500.0
10.0933518409729,123,95.611,1121.710002658273,1480,1492.6105215327216,1341.2955999999999,1500.0
10.117847919464111,127,95.5875,1115.8521737640785,1480,1492.6936102109839,1324.0560799999998,1500.0
10.142230033874512,127,96.564,1107.2850990063191,1480,1492.502870438369,1304.4556399999999,1500.0
10.166762828826904,129,94.5405,1099.1469278628761,1480,1491.9797358634228,1300.14588,1500.0
10.191143989562988,132,92.5405,1108.6802140594807,1515.0599999999999,1491.9076765649388,1304.56512,1500.0
10.215601921081543,134,95.4935,1098.0876738410311,1520,1491.2368954019721,1302.9662000000001,1500.0
10.240514039993286,138,91.47,1098.0876738410311,1520,1490.6943258172837,1316.7951600000001,1500.0
10.265201807022095,142,89.47,1098.0876738410311,1520,1490.7559604523531,1335.0742399999999,1500.0
10.289841890335083,142,92.4935,1092.8013404487094,1520,1491.1235068539938,1334.4256800000001,1500.0
10.314473867416382,144,91.5405,1089.9495026975883,1520,1490.84445618169,1332.86536,1500.0
10.339140892028809,145,93.564,1068.6039292270764,1520,1490.5725586271712,1333.05584,1500.0
10.363874912261963,145,92.611,1063.3175958347545,1520,1490.038602784409,1326.9566,1500.0
10.388595819473267,145,92.658,1060.7405083059975,1520,1489.1825136794373,1312.66164,1500.0
10.413336992263794,145,92.705,1068.8786794494404,1520,1488.6918232420296,1309.51676,1500.0
10.438102006912231,145,93.7755,1051.2072221093929,1520,1488.0119546072103,1303.6537599999999,1500.0
10.462855815887451,145,96.799,1046.6331706514261,1520,1488.2167609567987,1292.7430400000001,1500.0
10.487655878067017,147,94.799,1043.9239247878611,1512.55,1488.6658615591941,1293.5440799999999,1500.0
10.512248039245605,148,94.7755,1030.325393426338,1512.9300000000001,1488.8126296877285,1294.8587600000001,1500.0
10.536890029907227,149,95.7285,1023.2969728933647,1515.54,1488.1312304286259,1289.64896,1500.0
10.561574935913086,150,91.6345,1020.5877270297997,1520,1488.362722387498,1300.6843999999999,1500.0
10.585974931716919,151,92.5405,1014.4565516712485,1520,1488.0289562862486,1310.12904,1500.0
10.610363006591797,155,84.47,1028.7737046087868,1520,1488.2206870005023,1337.66308,1500.0
10.634704828262329,155,89.47,1011.9437452373129,1520,1488.5059561840496,1342.1828,1500.0
10.659057855606079,155,88.47,996.77715356089664,1520,1489.0095631382139,1350,1500.0
10.683434963226318,154,90.564,979.94719418942282,1520,1488.6331971882187,1350,1500.0
10.707892894744873,155,87.6345,986.97561472239613,1520,1488.8056955415568,1350,1500.0
10.732259035110474,153,93.705,967.56856782216551,1520,1487.3367163322794,1324.222,1500.0
10.756950855255127,152,92.752,960.85995901714739,1516.0699999999999,1486.3254634517227,1313.4240400000001,1500.0
10.78142786026001,151,94.752,951.05842017864711,1493.9300000000001,1485.7053891054559,1292.1064000000001,1500.0
10.805879831314087,151,91.6815,946.02696357488344,1480,1485.8843566175142,1292.7259200000001,1500.0
10.830323934555054,150,90.5875,952.15813893343477,1480,1485.6918507414243,1283.1142399999999,1500.0
10.854796886444092,149,86.47,935.38661692088976,1480,1486.4870744689283,1311.03324,1500.0
10.879189014434814,151,82.329,957.50290968468539,1480,1488.0183998929965,1335.4750799999999,1500.0
10.903591871261597,152,84.2585,953.32660183175926,1480,1489.4392139587192,1350,1500.0
10.928011894226074,155,82.141,958.9518328173333,1485.5699999999999,1490.869880493864,1350,1500.0
10.952713966369629,155,78.9765,951.92341228435998,1507.5699999999999,1491.8757350756621,1350,1500.0
10.977473974227905,157,71.812,971.33045918459061,1520,1494.0068405816626,1350,1500.0
11.00193190574646,157,68.765,991.63759935113171,1520,1495.222974882379,1350,1500.0
11.026262998580933,159,74.7415,991.63759935113171,1520,1496.3042593583668,1350,1500.0
11.050575971603394,156,71.7885,989.29738697728828,1520,1496.8163489502099,1350,1500.0
11.074877977371216,157,70.8355,1004.4639786537045,1520,1498.4678574033062,1350,1500.0
11.099179029464722,159,76.9765,990.08838835723725,1520,1497.8875898542406,1350,1500.0
11.123623847961426,157,77.0705,987.37914249367225,1520,1496.7236038521373,1350,1500.0
11.148133993148804,157,78.141,1001.1609584083287,1505.0699999999999,1495.9219928698878,1338.4544799999999,1500.0
11.172775983810425,157,83.1645,995.53572742275469,1505.1300000000001,1495.1734629190182,1301.9654399999999,1500.0
11.197444915771484,156,81.1645,993.40117007570348,1498.3599999999999,1493.255756162536,1278.41992,1500.0
11.22208285331726,158,83.141,975.79107196253119,1492.1900000000001,1492.1848533540062,1274.19496,1500.0
11.246939897537231,158,77.141,964.64690967601473,1494.4200000000001,1491.580491344911,1292.5889199999999,1500.0
11.271654844284058,156,77.141,981.47686904748866,1496.1300000000001,1490.7800027095416,1298.6522399999999,1500.0
11.29612684249878,158,77.1175,986.27145049633873,1496.5899999999999,1490.3364998049049,1322.8594799999998,1500.0
11.320711851119995,157,82.141,959.57824914584603,1500.79,1489.533577028272,1329.4725599999999,1500.0
11.345366954803467,157,80.141,967.24523063729521,1500.73,1489.7406226970677,1344.57628,1500.0
11.369899034500122,158,83.1645,946.11311290148842,1498.76,1489.7714812485503,1332.37012,1500.0
11.394376993179321,158,83.1645,926.7060660012578,1505.3900000000001,1488.6315481269376,1322.33628,1500.0
11.418879985809326,156,77.188,957.8531783102701,1498.3599999999999,1488.1970902745386,1321.18264,1500.0
11.443681955337524,158,81.188,957.8531783102701,1498.8199999999999,1489.1600257773671,1319.0830000000001,1500.0
11.468531847000122,156,81.188,965.85776836171203,1498.3599999999999,1489.4107978040881,1313.49532,1500.0
11.493139028549194,159,83.188,949.02780899023821,1501.1900000000001,1489.9785177728147,1319.25344,1500.0
11.517732858657837,156,82.141,932.19784961876428,1491.79,1491.7106605555553,1330.1756399999999,1500.0
11.542220830917358,158,79.141,927.40326816991421,1500.99,1491.6281358004069,1331.0591999999999,1500.0
11.567116022109985,156,81.1645,932.79870248543943,1493.96,1490.9525331051491,1327.3687600000001,1500.0
11.591619968414307,157,83.188,925.13172099399014,1498.5599999999999,1489.7378741356733,1323.4844800000001,1500.0
11.616111040115356,154,79.2115,943.68675120104001,1484.6400000000001,1489.5736991552667,1334.0144,1500.0
11.640578031539917,155,82.188,947.35711468098907,1486.95,1489.8802402342681,1328.98296,1500.0
11.66504192352295,157,78.1645,933.0399617434507,1480.78,1490.8984111574657,1337.8733999999999,1500.0
11.689504861831665,157,80.1645,933.0399617434507,1487.3499999999999,1491.6572832099512,1336.8814400000001,1500.0
11.714135885238647,158,79.1645,937.61401320141738,1487.6099999999999,1493.2741166287665,1346.59528,1500.0
11.738785028457642,157,81.188,947.41555203991777,1504.95,1493.590319312382,1335.9128800000001,1500.0
11.763437032699585,157,82.188,951.08591551986683,1511.5799999999999,1493.2639220213414,1334.7767999999999,1500.0
11.788116931915283,156,79.1645,951.08591551986683,1511.3199999999999,1493.6361998274276,1335.63696,1500.0
11.812772989273071,155,77.1645,969.53184480371351,1504.49,1494.8067252232727,1340.9969599999999,1500.0
11.837469816207886,157,82.1645,973.20220828366257,1500.49,1495.5164189451768,1325.2049999999999,1500.0
11.861981868743896,157,80.188,968.40762683481239,1493.98,1496.0127415473376,1331.7048400000001,1500.0
11.886637926101685,157,79.188,981.56722272633726,1489.6400000000001,1496.8745349198773,1337.2248400000001,1500.0
11.911057949066162,155,79.188,984.14431025509418,1489.1800000000001,1497.3365050425209,1338.5509999999999,1500.0
11.935508012771606,157,81.188,984.14431025509418,1498.3800000000001,1496.6801225142544,1326.2771599999999,1500.0
11.959980964660645,157,79.188,986.59867933010082,1500.55,1496.0254154540178,1337.04332,1500.0
11.984496831893921,155,77.188,1004.7712621495906,1495.6900000000001,1496.5683388923019,1342.4033200000001,1500.0
12.009012937545776,157,84.188,999.37582783406538,1496.0899999999999,1496.1638783749199,1322.7233200000001,1500.0
12.033674001693726,157,80.188,999.37582783406538,1502.72,1495.6290720602321,1326.11528,1500.0
12.058390855789185,155,83.188,977.25953507026975,1493.52,1494.884631523709,1325.10724,1500.0
12.08304500579834,155,80.1645,987.96476188678787,1489.0599999999999,1494.5718933896908,1323.28124,1500.0
12.107769012451172,155,84.1645,974.20431312858818,1493.4000000000001,1492.5020538402055,1304.3550799999998,1500.0
12.132380962371826,154,79.188,974.20431312858818,1486.51,1491.2126502458093,1324.3268799999998,1500.0
12.15750503540039,157,83.188,954.79726622835756,1482.77,1489.3310161592178,1316.5668799999999,1500.0
12.181998014450073,155,80.188,959.16566265953202,1486.71,1489.0144010263807,1327.20688,1500.0
12.206653833389282,157,83.188,942.3357032880582,1495.9100000000001,1487.5288119745467,1320.5810799999999,1500.0
12.231444835662842,155,83.188,914.3615816300678,1495.51,1486.5246549527601,1331.4752800000001,1500.0
12.255959033966064,155,79.188,932.91661183711767,1504.25,1486.124666991112,1329.4752799999999,1500.0
12.28045392036438,157,77.188,952.02834622350622,1504.6500000000001,1487.4649590438764,1344.59528,1500.0
12.304901838302612,157,83.188,953.82529501056456,1509.1099999999999,1487.8556504562714,1328.9952800000001,1500.0
12.32935380935669,157,76.188,973.95112142561868,1504.77,1490.2635509772279,1350,1500.0
12.353806972503662,155,79.1645,992.50615163266843,1504.3699999999999,1494.4866676581933,1350,1500.0
12.378338813781738,155,83.1645,977.47314104825307,1502.2,1496.9943460256416,1341.95508,1500.0
12.402968883514404,157,79.1645,994.303100419727,1502.5999999999999,1498.4213910688452,1335.74892,1500.0
12.427665948867798,157,83.1645,982.26772249710325,1498.26,1499.3807157222586,1335.06276,1500.0
12.452107906341553,155,82.1645,985.93808597705231,1493.4000000000001,1498.8083787503347,1318.1366,1500.0
12.476786851882935,155,81.1645,995.73962481555259,1493.4000000000001,1496.6051527705163,1310.9846399999999,1500.0
12.501263856887817,155,78.1645,1003.8777959589955,1493.4000000000001,1496.0972183116501,1327.1926799999999,1500.0
12.52570390701294,157,79.1645,989.56064302145717,1493.8,1494.6222747755965,1328.6807200000001,1500.0
12.550177812576294,157,83.1645,987.7636942343986,1493.8,1493.9257948335774,1323.8487600000001,1500.0
12.574654817581177,154,80.1645,967.63786781934448,1495.3099999999999,1492.9266131334355,1338.4567999999999,1500.0
12.599198818206787,156,78.1645,975.77603896278742,1497.9400000000001,1492.2673231325114,1347.8968,1500.0
12.623849868774414,157,78.1645,998.94722069064574,1502.5999999999999,1491.431536544914,1341.0968,1500.0
12.648494958877563,157,80.1645,996.4928516156391,1502.5999999999999,1491.77073186385,1337.2567999999999,1500.0
12.673135042190552,155,81.1645,1004.1598331070884,1497.74,1492.1322382946234,1338.9367999999999,1500.0
12.697804927825928,155,80.1645,1012.5248475497631,1502.1400000000001,1494.0654967962591,1337.4168,1500.0
12.722290992736816,155,79.1645,1019.5532680827364,1497.74,1496.0093491378391,1333.0968,1500.0
12.746878862380981,157,83.1645,994.58513756781963,1493.8,1495.9140473148875,1321.0968,1500.0
12.77134084701538,155,83.1645,977.7551781963457,1488.9400000000001,1495.0682160373117,1318.1368,1500.0
12.795761823654175,157,83.1645,977.7551781963457,1498.1400000000001,1493.7841922238088,1312.5368000000001,1500.0
12.820205926895142,155,81.1645,973.18112673837891,1495.5699999999999,1491.2366879759938,1313.4967999999999,1500.0
12.844682931900024,155,84.1645,946.48792538788621,1497.74,1487.6112914154726,1304.0568000000001,1500.0
12.869132041931152,155,84.1645,919.79472403739351,1493.28,1485.3783220971675,1309.4168,1500.0
12.893746852874756,157,79.1645,922.24909311240003,1502.48,1484.2863144080654,1325.2567999999999,1500.0
12.91838788986206,156,83.1645,914.58211162095085,1495.71,1483.1487606414144,1323.1768,1500.0
12.94303584098816,155,79.1645,919.37669306980092,1495.51,1482.7365148722183,1332.2167999999999,1500.0
12.967763900756836,154,83.1645,902.5467336983271,1493.0799999999999,1483.5345045852055,1335.6568,1500.0
12.992272853851318,155,83.1645,902.5467336983271,1497.6199999999999,1485.2607772809461,1338.4567999999999,1500.0
13.01693081855774,157,81.1645,910.21371518977628,1493.6800000000001,1486.5993999124973,1332.5368000000001,1500.0
13.041432857513428,157,81.1645,920.01525402827667,1498.0799999999999,1488.7016931067521,1335.4168,1500.0
13.065903902053833,157,81.1645,917.88069668122557,1502.54,1490.2613407170904,1329.8168000000001,1500.0
13.090337038040161,156,77.1645,947.57988917479179,1508.97,1493.0642174982922,1341.8968,1500.0
13.114787817001343,155,78.1645,974.27309052528449,1508.77,1495.8535673193503,1346.5368000000001,1500.0
13.139235973358154,155,84.1645,955.71806031823473,1504.3099999999999,1497.496261374951,1337.7367999999999,1500.0
13.163851976394653,156,84.1645,953.99298948265857,1500.1099999999999,1498.3448363476025,1330.6967999999999,1500.0
13.188788890838623,155,80.1645,951.53862040765193,1491.1099999999999,1499.3884092902151,1339.6568,1500.0
13.21343183517456,157,84.1645,949.81354957207589,1489.4000000000001,1498.0966616190797,1316.6168,1500.0
13.238083839416504,155,83.1645,949.81354957207589,1489.0,1495.2110846856747,1303.8168000000001,1500.0
