time,x,y,size_inv,roll,pitch,thrust,yaw
0.0004391670227050781,173,58,0.005050505050505051,1520,1500.0,1342.0,1513.0
0.0222320556640625,173,58,0.005050505050505051,1520,1500.0,1342.0,1513.0
0.0438380241394043,173,58,0.005050505050505051,1520,1500.0,1342.0,1513.0
0.06528806686401367,173,58,0.005050505050505051,1520,1500.0,1342.0,1513.0
0.08674311637878418,173,58,0.005050505050505051,1520,1500.0,1342.0,1513.0
0.10819721221923828,173,58,0.005050505050505051,1520,1500.0,1342.0,1513.0
0.1296541690826416,173,58,0.005050505050505051,1520,1500.0,1342.0,1513.0
0.15111207962036133,173,58,0.005050505050505051,1520,1500.0,1342.0,1513.0
0.17261219024658203,173,58,0.005050505050505051,1520,1500.0,1342.0,1513.0
0.19410419464111328,173,58,0.005050505050505051,1520,1500.0,1342.0,1513.0
0.21570801734924316,173,58,0.005050505050505051,1520,1500.0,1342.0,1513.0
0.2374742031097412,173,58,0.005050505050505051,1520,1500.0,1342.0,1513.0
0.25925612449645996,173,58,0.005050505050505051,1520,1500.0,1342.0,1513.0
0.28102707862854004,175,58,0.006060606060606061,1520,1500.0,1342.0,1515.0
0.3028571605682373,172,58,0.005050505050505051,1520,1500.0,1342.0,1512.0
0.32477402687072754,171,58,0.005555555555555556,1520,1500.0,1342.0,1511.0
0.3466200828552246,169,57,0.005555555555555556,1520,1500.0,1343.3,1509.0
0.3684401512145996,169,57,0.007142857142857143,1520,1500.0,1343.5999999999999,1509.0
0.39025211334228516,166,57,0.005555555555555556,1520,1500.0,1343.9000000000001,1506.0
0.412067174911499,166,58,0.006060606060606061,1520,1500.0,1342.9000000000001,1506.0
0.4344520568847656,164,59,0.006060606060606061,1520,1500.0,1341.5999999999999,1504.0
0.4577651023864746,161,60,0.005050505050505051,1520,1500.0,1339.4000000000001,1501.0
0.48099803924560547,161,62,0.006060606060606061,1520,1500.0,1335.5999999999999,1501.0
0.5042321681976318,159,63,0.006493506493506494,1520,1500.0,1332.5,1499.0
0.5274510383605957,156,64,0.005050505050505051,1520,1500.0,1329.7,1496.0
0.5506851673126221,156,64,0.004629629629629629,1519.0,1500.0,1328.5,1496.0
0.574005126953125,154,65,0.005050505050505051,1500.0,1500.0,1326.9000000000001,1494.0
0.5973351001739502,154,65,0.0043859649122807015,1485.0,1500.0,1327.5,1494.0
0.620629072189331,153,66,0.005050505050505051,1480,1500.0,1327.4000000000001,1493.0
0.6438581943511963,152,67,0.005050505050505051,1480,1500.0,1327.3,1492.0
0.6671102046966553,152,68,0.004784688995215311,1480,1500.0,1326.5999999999999,1492.0
0.6903531551361084,151,69,0.005050505050505051,1480,1500.0,1325.9000000000001,1491.0
0.7136001586914062,152,70,0.004784688995215311,1480,1500.0,1324.3,1492.0
0.7368760108947754,152,71,0.004784688995215311,1480,1500.0,1322.7,1492.0
0.7601351737976074,152,72,0.005050505050505051,1480,1500.0,1321.0999999999999,1492.0
0.7833759784698486,153,72,0.005050505050505051,1480,1500.0,1321.0999999999999,1493.0
0.8066182136535645,153,72,0.004629629629629629,1480,1500.0,1321.4000000000001,1493.0
0.8298451900482178,153,73,0.005050505050505051,1480,1500.0,1321.0,1493.0
0.8531191349029541,153,73,0.005050505050505051,1480,1500.0,1321.9000000000001,1493.0
0.8764801025390625,153,73,0.005050505050505051,1480,1500.0,1323.0999999999999,1493.0
0.899724006652832,153,74,0.005050505050505051,1480,1500.0,1322.7,1493.0
0.9230461120605469,154,76,0.004784688995215311,1480,1500.0,1320.4000000000001,1494.0
0.9464631080627441,153,76,0.004629629629629629,1480,1500.0,1320.4000000000001,1493.0
0.9697329998016357,154,77,0.004784688995215311,1480,1500.0,1318.8,1494.0
0.9930830001831055,154,78,0.005050505050505051,1480,1500.0,1316.5999999999999,1494.0
1.0164270401000977,154,79,0.005050505050505051,1480,1500.0,1314.7,1494.0
1.0396711826324463,154,79,0.005050505050505051,1480,1500.0,1315.0,1494.0
1.0629630088806152,154,79,0.004629629629629629,1480,1500.0,1315.0,1494.0
1.0862371921539307,154,80,0.005050505050505051,1480,1500.0,1314.3,1494.0
1.109490156173706,155,80,0.0043859649122807015,1480,1500.0,1315.2,1495.0
1.132777214050293,155,80,0.0043859649122807015,1480,1500.0,1316.4000000000001,1495.0
1.1561272144317627,154,81,0.005050505050505051,1480,1500.0,1315.7,1494.0
1.1796751022338867,154,81,0.004629629629629629,1480,1500.0,1316.0,1494.0
1.202956199645996,155,82,0.005050505050505051,1480,1500.0,1315.3,1495.0
1.226269006729126,155,82,0.004629629629629629,1480,1500.0,1315.3,1495.0
1.2495410442352295,156,83,0.004166666666666667,1480,1500.0,1313.7,1496.0
1.272860050201416,156,84,0.0043859649122807015,1480,1500.0,1312.4000000000001,1496.0
1.296208143234253,155,84,0.004629629629629629,1480,1500.0,1312.0999999999999,1495.0
1.3194231986999512,155,85,0.004629629629629629,1480,1500.0,1310.8,1495.0
1.3426871299743652,155,85,0.004629629629629629,1480,1500.0,1310.5,1495.0
1.365997076034546,156,85,0.0043859649122807015,1480,1500.0,1310.8,1496.0
1.389228105545044,155,85,0.004629629629629629,1480,1500.0,1311.4000000000001,1495.0
1.4125151634216309,155,85,0.004629629629629629,1480,1500.0,1312.0,1495.0
1.4358041286468506,156,85,0.0043859649122807015,1480,1500.0,1312.9000000000001,1496.0
1.459083080291748,155,85,0.004629629629629629,1480,1500.0,1313.8,1495.0
1.482384204864502,155,85,0.004629629629629629,1480,1500.0,1314.4000000000001,1495.0
1.5057570934295654,156,85,0.0043859649122807015,1480,1500.0,1314.7,1496.0
1.5289959907531738,155,85,0.004629629629629629,1480,1500.0,1315.0,1495.0
1.5522091388702393,155,85,0.004629629629629629,1480,1500.0,1315.0,1495.0
1.5756030082702637,156,86,0.0043859649122807015,1480,1500.0,1313.7,1496.0
1.5988521575927734,155,86,0.004629629629629629,1480,1500.0,1313.4000000000001,1495.0
1.6220991611480713,156,86,0.004629629629629629,1480,1500.0,1313.0999999999999,1496.0
1.6455950736999512,157,87,0.004048582995951417,1480,1500.0,1311.5,1497.0
1.6688170433044434,156,87,0.004273504273504274,1480,1500.0,1310.9000000000001,1496.0
1.6920440196990967,157,86,0.0043859649122807015,1480,1500.0,1312.2,1497.0
1.7153780460357666,157,86,0.0043859649122807015,1480,1500.0,1312.5,1497.0
1.738631010055542,157,87,0.004048582995951417,1480,1500.0,1311.5,1497.0
1.7618811130523682,157,86,0.004629629629629629,1480,1500.0,1313.4000000000001,1497.0
1.7852561473846436,157,86,0.0043859649122807015,1480,1500.0,1314.3,1497.0
1.8085100650787354,157,86,0.004629629629629629,1480,1500.0,1314.3,1497.0
1.8317561149597168,157,86,0.004629629629629629,1480,1500.0,1314.3,1497.0
1.8551700115203857,158,86,0.004048582995951417,1480,1500.0,1314.9000000000001,1498.0
1.878420114517212,158,85,0.0043859649122807015,1480,1500.0,1315.9000000000001,1498.0
1.9016389846801758,158,85,0.004166666666666667,1480,1500.0,1315.9000000000001,1498.0
1.924988031387329,158,85,0.0043859649122807015,1480,1500.0,1316.2,1498.0
1.948275089263916,158,85,0.004273504273504274,1480,1500.0,1316.5,1498.0
1.9716160297393799,159,85,0.0038461538461538464,1480,1500.0,1316.5,1499.0
1.9951910972595215,159,85,0.004273504273504274,1480,1500.0,1316.2,1499.0
2.0184671878814697,160,85,0.004048582995951417,1482.0,1500.0,1315.9000000000001,1500.0
2.041788101196289,160,85,0.004048582995951417,1485.0,1500.0,1315.5999999999999,1500.0
2.065260171890259,160,84,0.0043859649122807015,1488.0,1500.0,1316.5999999999999,1500.0
2.088593006134033,160,84,0.0043859649122807015,1490.0,1500.0,1316.5999999999999,1500.0
2.111920118331909,160,83,0.0043859649122807015,1492.0,1500.0,1318.2,1500.0
2.13535213470459,161,82,0.0043859649122807015,1497.0,1500.0,1320.0999999999999,1501.0
2.1587271690368652,161,82,0.0038461538461538464,1500.0,1500.0,1321.0,1501.0
2.182025194168091,161,81,0.0043859649122807015,1503.0,1500.0,1322.5999999999999,1501.0
2.20548415184021,161,81,0.0038461538461538464,1505.0,1500.0,1323.2,1501.0
2.2288031578063965,161,81,0.004048582995951417,1507.0,1500.0,1323.2,1501.0
2.2521331310272217,161,80,0.004629629629629629,1508.0,1500.0,1323.9000000000001,1501.0
2.275590181350708,161,80,0.0043859649122807015,1509.0,1500.0,1323.5999999999999,1501.0
2.2989211082458496,162,80,0.0043859649122807015,1513.0,1500.0,1323.0,1502.0
2.322211980819702,161,79,0.004629629629629629,1512.0,1500.0,1323.7,1501.0
2.345792055130005,162,79,0.0043859649122807015,1516.0,1500.0,1323.7,1502.0
2.369124174118042,161,78,0.004629629629629629,1514.0,1500.0,1324.7,1501.0
2.3927810192108154,162,78,0.0043859649122807015,1517.0,1500.0,1324.7,1502.0
2.4161951541900635,161,77,0.004629629629629629,1515.0,1500.0,1326.3,1501.0
2.439552068710327,161,76,0.004629629629629629,1515.0,1500.0,1327.5999999999999,1501.0
2.4629671573638916,162,76,0.0043859649122807015,1518.0,1500.0,1327.9000000000001,1502.0
2.4863500595092773,163,75,0.005952380952380952,1520,1500.0,1329.2,1503.0
2.5096030235290527,162,75,0.005050505050505051,1520,1500.0,1329.5,1502.0
2.5328800678253174,164,74,0.005208333333333333,1520,1500.0,1330.5,1504.0
2.556185007095337,163,74,0.0043859649122807015,1520,1500.0,1330.2,1503.0
2.5794081687927246,162,74,0.005050505050505051,1520,1500.0,1329.9000000000001,1502.0
2.6026830673217773,162,73,0.0043859649122807015,1520,1500.0,1330.5999999999999,1502.0
2.626013994216919,162,73,0.004784688995215311,1520,1500.0,1330.3,1502.0
2.6492459774017334,161,72,0.004629629629629629,1520,1500.0,1331.0,1501.0
2.6725120544433594,161,72,0.005050505050505051,1520,1500.0,1331.0,1501.0
2.6958091259002686,161,72,0.005050505050505051,1520,1500.0,1331.0,1501.0
2.7189950942993164,162,71,0.004784688995215311,1520,1500.0,1332.0,1502.0
2.7422029972076416,162,71,0.004784688995215311,1520,1500.0,1332.0,1502.0
2.765564203262329,163,70,0.006493506493506494,1520,1500.0,1333.0,1503.0
2.7887871265411377,162,69,0.004629629629629629,1520,1500.0,1334.3,1502.0
2.812021017074585,162,69,0.005050505050505051,1520,1500.0,1334.5999999999999,1502.0
2.835395097732544,162,69,0.005050505050505051,1520,1500.0,1334.5999999999999,1502.0
2.8587210178375244,161,69,0.005050505050505051,1519.0,1500.0,1334.5999999999999,1501.0
2.882042169570923,161,69,0.005050505050505051,1519.0,1500.0,1334.3,1501.0
2.9054770469665527,161,69,0.005050505050505051,1519.0,1500.0,1333.4000000000001,1501.0
2.928812026977539,161,69,0.005050505050505051,1519.0,1500.0,1332.5,1501.0
2.952122211456299,161,69,0.005050505050505051,1518.0,1500.0,1331.9000000000001,1501.0
2.9755921363830566,161,69,0.005050505050505051,1517.0,1500.0,1331.3,1501.0
2.9989120960235596,161,68,0.004629629629629629,1515.0,1500.0,1332.3,1501.0
3.022231101989746,161,68,0.005050505050505051,1514.0,1500.0,1332.5999999999999,1501.0
3.0457921028137207,163,68,0.006493506493506494,1519.0,1500.0,1332.9000000000001,1503.0
3.0691170692443848,162,68,0.005050505050505051,1517.0,1500.0,1333.2,1502.0
3.0924880504608154,164,67,0.006060606060606061,1520,1500.0,1334.8,1504.0
3.1157991886138916,162,67,0.005050505050505051,1520,1500.0,1334.8,1502.0
3.1390631198883057,161,66,0.005050505050505051,1519.0,1500.0,1336.0999999999999,1501.0
3.162487030029297,161,64,0.005050505050505051,1519.0,1500.0,1339.0,1501.0
3.18585205078125,161,63,0.004629629629629629,1519.0,1500.0,1341.2,1501.0
3.209174156188965,161,63,0.004629629629629629,1519.0,1500.0,1341.8,1501.0
3.23252010345459,162,63,0.003968253968253968,1520,1500.0,1342.7,1502.0
3.255841016769409,160,63,0.004629629629629629,1517.0,1500.0,1343.0,1500.0
3.2791380882263184,160,63,0.004629629629629629,1514.0,1500.0,1342.0999999999999,1500.0
3.302504062652588,160,63,0.004629629629629629,1512.0,1500.0,1340.5999999999999,1500.0
3.325890064239502,160,63,0.0043859649122807015,1508.0,1500.0,1339.4000000000001,1500.0
3.3492321968078613,159,63,0.004629629629629629,1503.0,1500.0,1338.2,1499.0
3.3726181983947754,159,63,0.004629629629629629,1501.0,1500.0,1337.3,1499.0
3.3960111141204834,159,63,0.004629629629629629,1499.0,1500.0,1337.0,1499.0
3.4193060398101807,161,63,0.003968253968253968,1503.0,1500.0,1337.0,1501.0
3.442660093307495,160,63,0.0043859649122807015,1500.0,1500.0,1337.0,1500.0
3.4660511016845703,160,64,0.005050505050505051,1498.0,1500.0,1335.7,1500.0
3.489403009414673,160,64,0.005050505050505051,1498.0,1500.0,1335.4000000000001,1500.0
3.51282000541687,160,65,0.005050505050505051,1498.0,1500.0,1333.8,1500.0
3.5362260341644287,160,66,0.005050505050505051,1498.0,1500.0,1331.9000000000001,1500.0
3.55959415435791,160,66,0.004629629629629629,1498.0,1500.0,1331.0,1500.0
3.5829601287841797,159,67,0.005050505050505051,1496.0,1500.0,1329.4000000000001,1499.0
3.6067941188812256,161,67,0.004329004329004329,1502.0,1500.0,1328.8,1501.0
3.6302599906921387,159,66,0.004629629629629629,1498.0,1500.0,1330.0999999999999,1499.0
3.653625011444092,159,66,0.005050505050505051,1496.0,1500.0,1331.0,1499.0
3.6769521236419678,158,65,0.005050505050505051,1492.0,1500.0,1333.2,1498.0
3.700287103652954,160,65,0.004329004329004329,1496.0,1500.0,1334.7,1500.0
3.723628044128418,158,65,0.005050505050505051,1490.0,1500.0,1336.2,1498.0
3.746993064880371,158,65,0.005050505050505051,1488.0,1500.0,1336.8,1498.0
3.770362138748169,158,65,0.005050505050505051,1486.0,1500.0,1337.0999999999999,1498.0
3.793729066848755,158,66,0.005050505050505051,1484.0,1500.0,1335.5,1498.0
3.817016124725342,158,66,0.004784688995215311,1483.0,1500.0,1334.5999999999999,1498.0
3.8403611183166504,159,67,0.004329004329004329,1483.0,1500.0,1332.4000000000001,1499.0
3.8637351989746094,159,68,0.004329004329004329,1483.0,1500.0,1330.2,1499.0
3.8870291709899902,159,68,0.004329004329004329,1483.0,1500.0,1329.0,1499.0
3.9103140830993652,159,68,0.003968253968253968,1484.0,1500.0,1328.7,1499.0
3.9336400032043457,159,69,0.004329004329004329,1483.0,1500.0,1327.0999999999999,1499.0
3.9570109844207764,159,69,0.003968253968253968,1484.0,1500.0,1327.0999999999999,1499.0
3.980342149734497,159,69,0.003968253968253968,1485.0,1500.0,1327.7,1499.0
4.003636121749878,159,70,0.004329004329004329,1486.0,1500.0,1327.0,1499.0
4.026943206787109,157,70,0.004629629629629629,1481.0,1500.0,1327.0,1497.0
4.050262212753296,158,70,0.003968253968253968,1483.0,1500.0,1327.5999999999999,1498.0
4.073570013046265,158,70,0.003968253968253968,1482.0,1500.0,1327.9000000000001,1498.0
4.096899032592773,158,70,0.003968253968253968,1481.0,1500.0,1327.9000000000001,1498.0
4.12021017074585,158,71,0.003663003663003663,1480.0,1500.0,1327.2,1498.0
4.143532037734985,158,71,0.003968253968253968,1480,1500.0,1327.5,1498.0
4.166792154312134,158,71,0.003968253968253968,1480,1500.0,1327.5,1498.0
4.1900200843811035,158,71,0.003968253968253968,1480,1500.0,1327.5,1498.0
4.21325421333313,157,72,0.0034965034965034965,1480,1500.0,1326.2,1497.0
4.23647403717041,157,72,0.0034965034965034965,1480,1500.0,1326.2,1497.0
4.259718179702759,157,72,0.0034965034965034965,1480,1500.0,1326.2,1497.0
4.283013105392456,158,72,0.003663003663003663,1480,1500.0,1326.2,1498.0
4.306312084197998,158,72,0.003663003663003663,1480,1500.0,1326.2,1498.0
4.3295440673828125,158,72,0.003968253968253968,1480,1500.0,1326.8,1498.0
4.352880001068115,158,73,0.003663003663003663,1480,1500.0,1325.8,1498.0
4.376212120056152,158,73,0.0034965034965034965,1480,1500.0,1325.8,1498.0
4.399450063705444,158,73,0.0034965034965034965,1480,1500.0,1325.8,1498.0
4.422828197479248,158,73,0.0034965034965034965,1480,1500.0,1325.8,1498.0
4.446287155151367,158,73,0.0034965034965034965,1480,1500.0,1325.5,1498.0
4.469542980194092,159,73,0.003663003663003663,1480,1500.0,1325.8,1499.0
4.492884159088135,159,73,0.003968253968253968,1480.0,1500.0,1326.0999999999999,1499.0
4.516321182250977,159,74,0.003663003663003663,1481.0,1500.0,1325.0999999999999,1499.0
4.539647102355957,159,74,0.003787878787878788,1482.0,1500.0,1325.0999999999999,1499.0
4.563049077987671,159,75,0.0034965034965034965,1483.0,1500.0,1323.8,1499.0
4.58643102645874,159,75,0.0034965034965034965,1484.0,1500.0,1323.2,1499.0
4.609742164611816,159,75,0.0034965034965034965,1485.0,1500.0,1322.5999999999999,1499.0
4.633120059967041,159,75,0.0034965034965034965,1486.0,1500.0,1322.5999999999999,1499.0
4.656515121459961,159,75,0.0034965034965034965,1487.0,1500.0,1322.5999999999999,1499.0
4.67985200881958,159,75,0.0034965034965034965,1488.0,1500.0,1323.2,1499.0
4.703221082687378,160,75,0.003663003663003663,1491.0,1500.0,1323.8,1500.0
4.726617097854614,160,75,0.0034965034965034965,1492.0,1500.0,1324.4000000000001,1500.0
4.749967098236084,160,75,0.0034965034965034965,1493.0,1500.0,1324.7,1500.0
4.77326512336731,160,75,0.0034965034965034965,1494.0,1500.0,1325.0,1500.0
4.796576976776123,160,75,0.003246753246753247,1495.0,1500.0,1325.0,1500.0
4.8202149868011475,160,76,0.0034965034965034965,1496.0,1500.0,1323.7,1500.0
4.843609094619751,160,76,0.0034965034965034965,1497.0,1500.0,1323.4000000000001,1500.0
4.866981029510498,160,76,0.0034965034965034965,1498.0,1500.0,1323.0999999999999,1500.0
4.890279054641724,161,76,0.0034965034965034965,1502.0,1500.0,1322.8,1501.0
4.913602113723755,161,76,0.0034965034965034965,1504.0,1500.0,1322.5,1501.0
4.936928987503052,161,76,0.0034965034965034965,1505.0,1500.0,1322.8,1501.0
4.9602789878845215,162,76,0.003663003663003663,1509.0,1500.0,1323.0999999999999,1502.0
4.983602046966553,162,76,0.0034965034965034965,1511.0,1500.0,1323.4000000000001,1502.0
5.006893157958984,162,76,0.0034965034965034965,1513.0,1500.0,1323.7,1502.0
5.030217170715332,162,76,0.0034965034965034965,1515.0,1500.0,1324.0,1502.0
5.0535290241241455,162,76,0.0034965034965034965,1517.0,1500.0,1324.0,1502.0
5.076857089996338,162,76,0.0034965034965034965,1519.0,1500.0,1324.0,1502.0
5.100130081176758,162,76,0.0034965034965034965,1520,1500.0,1324.0,1502.0
5.123316049575806,162,76,0.0034965034965034965,1520,1500.0,1324.0,1502.0
5.146522045135498,162,76,0.0034965034965034965,1520,1500.0,1324.0,1502.0
5.169769048690796,162,76,0.0034965034965034965,1520,1500.0,1324.0,1502.0
5.193037986755371,162,75,0.0034965034965034965,1520,1500.0,1325.3,1502.0
5.21635103225708,162,75,0.0034965034965034965,1520,1500.0,1325.5999999999999,1502.0
5.239567041397095,162,74,0.0033444816053511705,1520,1500.0,1327.2,1502.0
5.262852191925049,162,73,0.003787878787878788,1520,1500.0,1329.0999999999999,1502.0
5.28614616394043,162,73,0.0034965034965034965,1520,1500.0,1330.0,1502.0
5.3093671798706055,162,72,0.003787878787878788,1520,1500.0,1331.5999999999999,1502.0
5.332705020904541,162,72,0.0034965034965034965,1520,1500.0,1332.2,1502.0
5.3560521602630615,162,71,0.003787878787878788,1520,1500.0,1333.5,1502.0
5.37927508354187,162,71,0.003787878787878788,1520,1500.0,1333.2,1502.0
5.4025490283966064,162,71,0.0034965034965034965,1520,1500.0,1332.9000000000001,1502.0
5.425878047943115,161,70,0.003787878787878788,1520,1500.0,1333.5999999999999,1501.0
5.449151039123535,161,70,0.0034965034965034965,1520.0,1500.0,1333.3,1501.0
5.472494125366211,162,69,0.0036231884057971015,1520,1500.0,1334.0,1502.0
5.495794057846069,162,69,0.0036231884057971015,1520,1500.0,1334.0,1502.0
5.519012212753296,162,69,0.0034965034965034965,1520,1500.0,1334.0,1502.0
5.542230129241943,162,68,0.003787878787878788,1520,1500.0,1335.0,1502.0
5.565604209899902,162,68,0.003787878787878788,1520,1500.0,1335.0,1502.0
5.5888001918792725,162,68,0.003787878787878788,1520,1500.0,1334.7,1502.0
5.612023115158081,162,68,0.003787878787878788,1520,1500.0,1334.4000000000001,1502.0
5.635387182235718,162,68,0.0034965034965034965,1520,1500.0,1334.0999999999999,1502.0
5.658661127090454,162,68,0.0034965034965034965,1520,1500.0,1333.5,1502.0
5.681869029998779,161,67,0.0034965034965034965,1520,1500.0,1334.2,1501.0
5.705226182937622,161,66,0.003787878787878788,1520.0,1500.0,1335.5,1501.0
5.7285401821136475,161,66,0.0034965034965034965,1519.0,1500.0,1335.8,1501.0
5.751887083053589,161,66,0.0034965034965034965,1518.0,1500.0,1336.0999999999999,1501.0
5.775377035140991,161,65,0.0034965034965034965,1517.0,1500.0,1338.0,1501.0
5.798676013946533,161,65,0.0034965034965034965,1516.0,1500.0,1338.3,1501.0
5.821986198425293,161,64,0.003246753246753247,1515.0,1500.0,1339.3,1501.0
5.845560073852539,161,64,0.0033444816053511705,1514.0,1500.0,1339.3,1501.0
5.868923187255859,161,64,0.003105590062111801,1513.0,1500.0,1339.3,1501.0
5.892228126525879,161,64,0.003105590062111801,1512.0,1500.0,1338.7,1501.0
5.915683031082153,160,64,0.003246753246753247,1509.0,1500.0,1338.4000000000001,1500.0
5.938990116119385,160,64,0.0034965034965034965,1508.0,1500.0,1337.8,1500.0
5.962409019470215,160,64,0.0034965034965034965,1507.0,1500.0,1337.2,1500.0
5.9858081340789795,160,63,0.0034965034965034965,1506.0,1500.0,1337.9000000000001,1500.0
6.009128093719482,159,63,0.0034965034965034965,1502.0,1500.0,1337.9000000000001,1499.0
6.032796144485474,159,62,0.0034965034965034965,1500.0,1500.0,1339.2,1499.0
6.056200981140137,159,61,0.0034965034965034965,1498.0,1500.0,1341.0999999999999,1499.0
6.079532146453857,159,60,0.0034965034965034965,1496.0,1500.0,1343.3,1499.0
6.102928161621094,159,60,0.0034965034965034965,1494.0,1500.0,1343.9000000000001,1499.0
6.126349210739136,159,60,0.0034965034965034965,1492.0,1500.0,1344.5,1499.0
6.1496741771698,159,60,0.0034965034965034965,1491.0,1500.0,1344.5,1499.0
6.173019170761108,159,60,0.0034965034965034965,1490.0,1500.0,1343.9000000000001,1499.0
6.196408987045288,159,60,0.0034965034965034965,1489.0,1500.0,1342.7,1499.0
6.219726085662842,158,60,0.0034965034965034965,1485.0,1500.0,1341.8,1498.0
6.243117094039917,158,60,0.0034965034965034965,1484.0,1500.0,1340.9000000000001,1498.0
6.266505002975464,158,59,0.0034965034965034965,1483.0,1500.0,1341.5999999999999,1498.0
6.289807081222534,158,59,0.0034965034965034965,1482.0,1500.0,1341.5999999999999,1498.0
6.313184022903442,158,58,0.003787878787878788,1481.0,1500.0,1343.2,1498.0
6.336558103561401,158,58,0.0034965034965034965,1480.0,1500.0,1343.8,1498.0
6.359920024871826,159,58,0.0033444816053511705,1482.0,1500.0,1344.4000000000001,1499.0
6.38324499130249,158,58,0.0034965034965034965,1480,1500.0,1344.4000000000001,1498.0
6.406470060348511,159,58,0.0034965034965034965,1481.0,1500.0,1344.4000000000001,1499.0
6.429795980453491,159,58,0.0034965034965034965,1481.0,1500.0,1343.8,1499.0
6.453207015991211,159,58,0.0034965034965034965,1482.0,1500.0,1343.2,1499.0
6.476584196090698,159,57,0.003246753246753247,1483.0,1500.0,1343.9000000000001,1499.0
6.4998931884765625,159,57,0.003246753246753247,1484.0,1500.0,1343.9000000000001,1499.0
6.523329019546509,159,57,0.003246753246753247,1485.0,1500.0,1343.9000000000001,1499.0
6.54668116569519,160,58,0.003105590062111801,1489.0,1500.0,1342.9000000000001,1500.0
6.570008039474487,159,58,0.003246753246753247,1488.0,1500.0,1342.9000000000001,1499.0
6.593325138092041,158,59,0.003246753246753247,1485.0,1500.0,1341.0,1498.0
6.616610050201416,158,60,0.003246753246753247,1485.0,1500.0,1338.8,1498.0
6.639924049377441,158,60,0.003246753246753247,1484.0,1500.0,1337.5999999999999,1498.0
6.663269996643066,160,60,0.002857142857142857,1489.0,1500.0,1337.0,1500.0
6.686557054519653,158,60,0.003246753246753247,1484.0,1500.0,1336.4000000000001,1498.0
6.7098400592803955,158,60,0.003246753246753247,1483.0,1500.0,1336.7,1498.0
6.733211994171143,160,60,0.002857142857142857,1488.0,1500.0,1337.5999999999999,1500.0
6.756627082824707,160,60,0.002857142857142857,1489.0,1500.0,1338.5,1500.0
6.779917001724243,160,61,0.0026666666666666666,1489.0,1500.0,1337.8,1500.0
6.8032591342926025,159,62,0.002564102564102564,1487.0,1500.0,1336.8,1499.0
6.826609134674072,159,62,0.0027472527472527475,1488.0,1500.0,1336.5,1499.0
6.849943161010742,159,63,0.002564102564102564,1489.0,1500.0,1334.5999999999999,1499.0
6.873281002044678,159,63,0.002857142857142857,1490.0,1500.0,1333.7,1499.0
6.896594047546387,159,64,0.0026666666666666666,1489.0,1500.0,1332.0999999999999,1499.0
6.9199090003967285,159,64,0.0026666666666666666,1490.0,1500.0,1332.0999999999999,1499.0
6.943274021148682,158,64,0.002564102564102564,1488.0,1500.0,1332.0999999999999,1498.0
6.966648101806641,158,64,0.002564102564102564,1486.0,1500.0,1332.7,1498.0
6.989967107772827,158,64,0.002403846153846154,1484.0,1500.0,1333.3,1498.0
7.013317108154297,158,64,0.002564102564102564,1482.0,1500.0,1334.2,1498.0
7.036645174026489,158,64,0.002403846153846154,1481.0,1500.0,1334.8,1498.0
7.059985160827637,158,65,0.002564102564102564,1480.0,1500.0,1334.0999999999999,1498.0
7.0833141803741455,158,65,0.002564102564102564,1480,1500.0,1334.0999999999999,1498.0
7.106568098068237,158,65,0.002403846153846154,1480,1500.0,1334.0999999999999,1498.0
7.129848003387451,159,65,0.0023148148148148147,1480.0,1500.0,1333.8,1499.0
7.153263092041016,159,65,0.0023148148148148147,1480.0,1500.0,1333.5,1499.0
7.176660060882568,159,65,0.002403846153846154,1481.0,1500.0,1333.8,1499.0
7.199997186660767,159,65,0.002403846153846154,1482.0,1500.0,1334.0999999999999,1499.0
7.223649024963379,159,65,0.002403846153846154,1483.0,1500.0,1334.4000000000001,1499.0
7.246999025344849,160,65,0.0023148148148148147,1487.0,1500.0,1334.7,1500.0
7.270353078842163,160,66,0.0022624434389140274,1489.0,1500.0,1333.7,1500.0
7.2936811447143555,160,66,0.0022624434389140274,1491.0,1500.0,1333.4000000000001,1500.0
7.317010164260864,160,67,0.0022624434389140274,1493.0,1500.0,1331.8,1500.0
7.340342044830322,161,67,0.0023148148148148147,1498.0,1500.0,1331.2,1501.0
7.363718032836914,161,68,0.002178649237472767,1500.0,1500.0,1329.3,1501.0
7.387063026428223,161,68,0.002178649237472767,1502.0,1500.0,1329.0,1501.0
7.410365104675293,161,69,0.002178649237472767,1504.0,1500.0,1327.4000000000001,1501.0
7.43369197845459,161,69,0.0022624434389140274,1506.0,1500.0,1327.4000000000001,1501.0
7.4570300579071045,161,69,0.0022624434389140274,1508.0,1500.0,1327.4000000000001,1501.0
7.480382204055786,161,69,0.0022624434389140274,1509.0,1500.0,1328.0,1501.0
7.503722190856934,162,69,0.0023148148148148147,1513.0,1500.0,1328.3,1502.0
7.527080059051514,162,70,0.002178649237472767,1515.0,1500.0,1327.9000000000001,1502.0
7.550417184829712,162,70,0.002178649237472767,1517.0,1500.0,1328.2,1502.0
7.573734998703003,162,70,0.002178649237472767,1518.0,1500.0,1328.5,1502.0
7.5970470905303955,162,70,0.00205761316872428,1519.0,1500.0,1328.5,1502.0
7.620342016220093,163,71,0.002178649237472767,1520,1500.0,1327.2,1503.0
7.643567085266113,162,71,0.001984126984126984,1520,1500.0,1327.2,1502.0
7.666783094406128,162,72,0.0021008403361344537,1520,1500.0,1325.9000000000001,1502.0
7.690008163452148,161,71,0.0022624434389140274,1520,1500.0,1326.9000000000001,1501.0
7.713242053985596,163,71,0.002028397565922921,1520,1500.0,1326.9000000000001,1503.0
7.736474990844727,163,71,0.0021008403361344537,1520,1500.0,1327.5,1503.0
7.75970721244812,162,71,0.002178649237472767,1520,1500.0,1327.8,1502.0
7.782987117767334,161,70,0.002403846153846154,1520,1500.0,1330.0,1501.0
7.80629301071167,162,70,0.0022624434389140274,1520,1500.0,1330.5999999999999,1502.0
7.829555034637451,164,70,0.002028397565922921,1520,1500.0,1331.2,1504.0
7.852849006652832,165,70,0.0022624434389140274,1520,1500.0,1331.5,1505.0
7.876140117645264,165,70,0.0022624434389140274,1520,1500.0,1331.8,1505.0
7.899367094039917,165,70,0.0022624434389140274,1520,1500.0,1331.2,1505.0
7.922667980194092,164,70,0.002028397565922921,1520,1500.0,1330.9000000000001,1504.0
7.946035146713257,163,70,0.00196078431372549,1520,1500.0,1330.5999999999999,1503.0
7.969280004501343,163,70,0.00196078431372549,1520,1500.0,1330.3,1503.0
7.992538213729858,163,70,0.00196078431372549,1520,1500.0,1330.0,1503.0
8.015819072723389,163,69,0.00196078431372549,1520,1500.0,1331.3,1503.0
8.039058208465576,163,69,0.00196078431372549,1520,1500.0,1331.5999999999999,1503.0
8.062358140945435,163,68,0.002028397565922921,1520,1500.0,1333.2,1503.0
8.085664987564087,164,68,0.0022624434389140274,1520,1500.0,1333.8,1504.0
8.108888149261475,164,67,0.002136752136752137,1520,1500.0,1335.7,1504.0
8.132138013839722,162,67,0.00196078431372549,1520,1500.0,1336.0,1502.0
8.155526161193848,162,66,0.001851851851851852,1520,1500.0,1337.5999999999999,1502.0
8.178786039352417,162,66,0.00196078431372549,1520,1500.0,1337.5999999999999,1502.0
8.202022075653076,162,65,0.001851851851851852,1520,1500.0,1338.9000000000001,1502.0
8.225364208221436,163,65,0.002136752136752137,1520,1500.0,1338.5999999999999,1503.0
8.248640060424805,161,65,0.00196078431372549,1520,1500.0,1338.5999999999999,1501.0
8.271865129470825,161,64,0.001851851851851852,1520,1500.0,1339.3,1501.0
8.295252084732056,161,64,0.001851851851851852,1520,1500.0,1339.3,1501.0
8.318486213684082,162,63,0.002136752136752137,1520,1500.0,1340.0,1502.0
8.341694116592407,160,63,0.001851851851851852,1516.0,1500.0,1340.0,1500.0
8.365188121795654,161,62,0.001697792869269949,1517.0,1500.0,1341.3,1501.0
8.388583183288574,160,61,0.0017921146953405018,1513.0,1500.0,1342.5999999999999,1500.0
8.41192102432251,159,61,0.0017543859649122807,1508.0,1500.0,1342.9000000000001,1499.0
8.435696125030518,160,60,0.001697792869269949,1508.0,1500.0,1344.2,1500.0
8.459042072296143,161,59,0.0016835016835016834,1508.0,1500.0,1345.8,1501.0
8.482464075088501,161,59,0.001594896331738437,1508.0,1500.0,1345.8,1501.0
8.505892992019653,161,59,0.001594896331738437,1508.0,1500.0,1345.5,1501.0
8.529242038726807,161,58,0.001594896331738437,1508.0,1500.0,1346.5,1501.0
8.552657127380371,160,58,0.0015479876160990713,1504.0,1500.0,1346.2,1500.0
8.576060056686401,160,58,0.0015479876160990713,1504.0,1500.0,1345.3,1500.0
8.599395036697388,160,58,0.001594896331738437,1503.0,1500.0,1344.7,1500.0
8.62280011177063,160,57,0.0015151515151515152,1503.0,1500.0,1345.7,1500.0
8.646260976791382,159,57,0.0015479876160990713,1501.0,1500.0,1345.0999999999999,1499.0
8.66960620880127,159,57,0.0015479876160990713,1500.0,1500.0,1344.8,1499.0
8.692988157272339,158,56,0.0015479876160990713,1495.0,1500.0,1346.0999999999999,1498.0
8.716402053833008,158,55,0.0014705882352941176,1492.0,1500.0,1347.7,1498.0
8.739736080169678,158,55,0.0015479876160990713,1489.0,1500.0,1347.7,1498.0
8.76314115524292,159,54,0.0017543859649122807,1489.0,1500.0,1349.3,1499.0
8.786534070968628,158,53,0.0014285714285714286,1485.0,1500.0,1350,1498.0
8.809746026992798,157,53,0.0014705882352941176,1480.0,1500.0,1350,1497.0
8.833038091659546,157,53,0.0015479876160990713,1480,1500.0,1350,1497.0
8.856321096420288,157,53,0.0014705882352941176,1480,1500.0,1350,1497.0
8.879489183425903,157,53,0.0014705882352941176,1480,1500.0,1350,1497.0
8.902690172195435,157,53,0.0014285714285714286,1480,1500.0,1349.4000000000001,1497.0
8.926010131835938,157,53,0.0014285714285714286,1480,1500.0,1348.5,1497.0
8.949254989624023,158,53,0.001287001287001287,1480,1500.0,1347.9000000000001,1498.0
8.972588062286377,157,53,0.0013605442176870747,1480,1500.0,1347.3,1497.0
8.995920181274414,157,52,0.0013605442176870747,1480,1500.0,1348.3,1497.0
9.01918911933899,158,52,0.0012531328320802004,1480,1500.0,1348.5999999999999,1498.0
9.042484998703003,158,51,0.0011961722488038277,1480,1500.0,1350,1498.0
9.065747022628784,158,50,0.0011961722488038277,1480,1500.0,1350,1498.0
9.088891983032227,158,50,0.0011655011655011655,1480,1500.0,1350,1498.0
9.112030982971191,158,50,0.0011655011655011655,1480,1500.0,1350,1498.0
9.1353280544281,158,50,0.0011655011655011655,1480,1500.0,1350,1498.0
9.1585111618042,158,50,0.0011148272017837235,1480,1500.0,1350,1498.0
9.181665182113647,158,50,0.0011148272017837235,1480,1500.0,1350,1498.0
9.204878091812134,158,50,0.0010683760683760685,1480,1500.0,1350,1498.0
9.228047132492065,157,50,0.0010683760683760685,1480,1500.0,1350,1497.0
9.25120210647583,157,50,0.0010683760683760685,1480,1500.0,1350,1497.0
