time,x,y,size_inv,roll,pitch,thrust,yaw
0.00040984153747558594,190,48,0.003787878787878788,1520,1494.0,1340,1520
0.022018909454345703,190,48,0.003787878787878788,1520,1494.0,1340,1520
0.04337191581726074,190,48,0.003787878787878788,1520,1494.0,1340,1520
0.06469988822937012,190,48,0.003787878787878788,1520,1494.0,1340,1520
0.08600592613220215,190,48,0.003787878787878788,1520,1494.0,1340,1520
0.10732793807983398,190,48,0.003787878787878788,1520,1494.0,1340,1520
0.12863492965698242,190,48,0.003787878787878788,1520,1494.0,1340,1520
0.1499338150024414,190,48,0.003787878787878788,1520,1494.0,1340,1520
0.1711747646331787,190,48,0.003787878787878788,1520,1494.0,1340,1520
0.19240880012512207,190,48,0.003787878787878788,1520,1494.0,1340,1520
0.21380186080932617,190,48,0.003787878787878788,1520,1494.0,1340,1520
0.23537087440490723,190,48,0.003787878787878788,1520,1494.0,1340,1520
0.2571089267730713,190,48,0.003787878787878788,1520,1494.0,1340,1520
0.2788088321685791,190,48,0.003787878787878788,1520,1494.0,1340,1520
0.3005228042602539,189,48,0.003787878787878788,1520,1494.0,1340,1520
0.32253479957580566,188,48,0.003787878787878788,1520,1494.0,1340,1520
0.34459590911865234,187,48,0.003787878787878788,1520,1494.0,1340,1520
0.3666539192199707,184,46,0.0043859649122807015,1520,1494.0,1340,1520
0.3887009620666504,180,46,0.003787878787878788,1520,1494.0,1340,1520.0
0.4107527732849121,178,47,0.004629629629629629,1520,1494.0,1340,1518.0
0.4328458309173584,175,48,0.0043859649122807015,1520,1494.0,1340,1515.0
0.45493078231811523,172,49,0.0043859649122807015,1520,1494.0,1340,1512.0
0.47698497772216797,168,50,0.0043859649122807015,1520,1494.0,1340,1508.0
0.4990518093109131,164,52,0.003663003663003663,1520,1494.0,1340,1504.0
0.5211129188537598,162,53,0.0043859649122807015,1520,1494.0,1340,1502.0
0.5431599617004395,159,54,0.004273504273504274,1520,1494.0,1340,1499.0
0.5652248859405518,157,55,0.0037593984962406013,1520,1494.0,1340,1497.0
0.5872659683227539,155,56,0.004273504273504274,1520,1494.0,1340,1495.0
0.609306812286377,153,57,0.004273504273504274,1520,1494.0,1340,1493.0
0.6313419342041016,152,57,0.004048582995951417,1501.0,1494.0,1340,1492.0
0.6534087657928467,150,58,0.004273504273504274,1480,1494.0,1340,1490.0
0.6754739284515381,147,61,0.003663003663003663,1480,1494.0,1340,1487.0
0.6975228786468506,145,63,0.003246753246753247,1480,1494.0,1340,1485.0
0.7195749282836914,146,65,0.004273504273504274,1480,1494.0,1340,1486.0
0.7416298389434814,145,66,0.003105590062111801,1480,1494.0,1340,1485.0
0.7636699676513672,145,67,0.0034965034965034965,1480,1494.0,1340,1485.0
0.7857058048248291,145,68,0.0034965034965034965,1480,1494.0,1340,1485.0
0.8077600002288818,146,68,0.0034965034965034965,1480,1494.0,1340,1486.0
0.8297948837280273,148,69,0.004273504273504274,1480,1494.0,1340,1488.0
0.8518238067626953,147,70,0.0034965034965034965,1480,1494.0,1340,1487.0
0.873877763748169,150,70,0.004048582995951417,1480,1494.0,1340,1490.0
0.8959288597106934,148,71,0.0034965034965034965,1480,1494.0,1340,1488.0
0.9179959297180176,149,72,0.003787878787878788,1480,1494.0,1340,1489.0
0.9400579929351807,149,74,0.0034965034965034965,1480,1494.0,1340,1489.0
0.962155818939209,149,75,0.0034965034965034965,1480,1494.0,1340,1489.0
0.9844338893890381,151,77,0.004273504273504274,1480,1494.0,1340,1491.0
1.006544828414917,150,78,0.0034965034965034965,1480,1494.0,1339.8,1490.0
1.0286438465118408,151,79,0.0034965034965034965,1480,1494.0,1337.3499999999999,1491.0
1.0507299900054932,151,80,0.0034965034965034965,1480,1494.0,1335.2,1491.0
1.0728437900543213,151,81,0.003787878787878788,1480,1494.0,1333.05,1491.0
1.094986915588379,151,82,0.003787878787878788,1480,1494.0,1331.3499999999999,1491.0
1.117081880569458,151,84,0.0034965034965034965,1480,1494.0,1327.5,1491.0
1.1391627788543701,152,85,0.0033444816053511705,1480,1494.0,1325.6500000000001,1492.0
1.1612639427185059,151,86,0.0034965034965034965,1480,1494.0,1323.6500000000001,1491.0
1.1833648681640625,151,87,0.0034965034965034965,1480,1494.0,1321.6500000000001,1491.0
1.2054479122161865,153,88,0.004273504273504274,1480,1494.0,1319.5,1493.0
1.2277419567108154,152,89,0.0034965034965034965,1480,1494.0,1317.6500000000001,1492.0
1.2498698234558105,152,90,0.0034965034965034965,1480,1494.0,1315.8,1492.0
1.2719647884368896,153,92,0.004273504273504274,1480,1494.0,1311.8,1493.0
1.2941498756408691,154,93,0.004048582995951417,1480,1494.0,1309.8,1494.0
1.3162429332733154,153,94,0.004273504273504274,1480,1494.0,1307.8,1493.0
1.3383469581604004,153,95,0.004273504273504274,1480,1494.0,1305.6500000000001,1493.0
1.360440969467163,151,95,0.003246753246753247,1480,1494.0,1305.6500000000001,1491.0
1.3825759887695312,151,96,0.003246753246753247,1480,1494.0,1303.95,1491.0
1.4049298763275146,151,97,0.0034965034965034965,1480,1494.0,1302.25,1491.0
1.427074909210205,151,97,0.003246753246753247,1480,1494.0,1302.7,1491.0
1.4491868019104004,151,98,0.003246753246753247,1480,1494.0,1301.1500000000001,1491.0
1.4712698459625244,151,99,0.0034965034965034965,1480,1494.0,1299.3,1491.0
1.493370771408081,151,100,0.0034965034965034965,1480,1494.0,1297.3,1491.0
1.5154809951782227,151,100,0.003246753246753247,1480,1494.0,1297.45,1491.0
1.5375678539276123,151,101,0.003246753246753247,1480,1494.0,1295.3,1491.0
1.5596988201141357,151,102,0.003246753246753247,1480,1494.0,1293.1500000000001,1491.0
1.5818438529968262,151,102,0.003246753246753247,1480,1494.0,1293.3,1491.0
1.6039729118347168,152,103,0.003246753246753247,1480,1494.0,1291.45,1492.0
1.626093864440918,152,103,0.003246753246753247,1480,1494.0,1291.45,1492.0
1.648176908493042,152,104,0.003246753246753247,1480,1494.0,1289.5999999999999,1492.0
1.6702649593353271,152,104,0.003246753246753247,1480,1494.0,1289.9000000000001,1492.0
1.6924018859863281,152,104,0.003246753246753247,1480,1494.0,1290.05,1492.0
1.7145309448242188,152,105,0.003246753246753247,1480,1494.0,1288.2,1492.0
1.7366058826446533,152,105,0.003246753246753247,1480,1494.0,1288.3499999999999,1492.0
1.7586889266967773,152,105,0.003246753246753247,1480,1494.0,1288.6500000000001,1492.0
1.7807848453521729,152,106,0.0034965034965034965,1480,1494.0,1286.6500000000001,1492.0
1.8028829097747803,153,106,0.003246753246753247,1480,1494.0,1286.6500000000001,1493.0
1.8249638080596924,153,106,0.003246753246753247,1480,1494.0,1286.8,1493.0
1.8470919132232666,154,107,0.003246753246753247,1480,1494.0,1284.8,1494.0
1.8691868782043457,154,107,0.003105590062111801,1480,1494.0,1284.6500000000001,1494.0
1.891286849975586,154,107,0.003246753246753247,1480,1494.0,1284.8,1494.0
1.9133729934692383,154,107,0.003246753246753247,1480,1494.0,1284.95,1494.0
1.9354629516601562,155,108,0.0030303030303030303,1480,1494.0,1282.8,1495.0
1.9575419425964355,155,107,0.003246753246753247,1480,1494.0,1285.0999999999999,1495.0
1.9796278476715088,155,107,0.003246753246753247,1480,1494.0,1285.4000000000001,1495.0
2.0017077922821045,156,107,0.003105590062111801,1480,1494.0,1285.55,1496.0
2.023793935775757,156,107,0.003246753246753247,1480,1494.0,1285.7,1496.0
2.0458669662475586,156,107,0.0030303030303030303,1480,1494.0,1286.1500000000001,1496.0
2.0679779052734375,156,107,0.0030303030303030303,1480,1494.0,1286.1500000000001,1496.0
2.090068817138672,157,106,0.003105590062111801,1480,1494.0,1288.3,1497.0
2.1121928691864014,157,106,0.003246753246753247,1480,1494.0,1288.45,1497.0
2.1343929767608643,157,105,0.003246753246753247,1480,1494.0,1290.75,1497.0
2.1565468311309814,157,105,0.003246753246753247,1480,1494.0,1290.9000000000001,1497.0
2.1786727905273438,158,104,0.003105590062111801,1480,1494.0,1293.3499999999999,1498.0
2.2007739543914795,158,104,0.003246753246753247,1480,1494.0,1293.5,1498.0
2.2228779792785645,158,104,0.003246753246753247,1480,1494.0,1293.6500000000001,1498.0
2.2449758052825928,158,103,0.003246753246753247,1480,1494.0,1295.6500000000001,1498.0
2.2670748233795166,159,102,0.003105590062111801,1480,1494.0,1297.8,1499.0
2.28918194770813,159,101,0.003246753246753247,1480,1494.0,1299.8,1499.0
2.3112897872924805,159,101,0.003246753246753247,1480,1494.0,1299.95,1499.0
2.333394765853882,159,100,0.003246753246753247,1480.0,1494.0,1302.25,1499.0
2.3558778762817383,159,99,0.003246753246753247,1482.0,1494.0,1304.55,1499.0
2.378222942352295,159,99,0.0034965034965034965,1484.0,1494.0,1304.55,1499.0
2.400467872619629,159,98,0.0034965034965034965,1485.0,1494.0,1306.55,1499.0
2.4233438968658447,160,96,0.003246753246753247,1489.0,1494.0,1310.8499999999999,1500.0
2.447349786758423,160,96,0.0034965034965034965,1491.0,1494.0,1310.8499999999999,1500.0
2.4711787700653076,160,95,0.0034965034965034965,1493.0,1494.0,1312.8499999999999,1500.0
2.4950149059295654,160,94,0.003246753246753247,1494.0,1494.0,1315.1500000000001,1500.0
2.518829822540283,160,93,0.003246753246753247,1495.0,1494.0,1317.45,1500.0
2.5427439212799072,160,92,0.003246753246753247,1496.0,1494.0,1319.3,1500.0
2.5667049884796143,161,90,0.003246753246753247,1500.0,1494.0,1323.5999999999999,1501.0
2.590557813644409,161,90,0.0034965034965034965,1502.0,1494.0,1323.75,1501.0
2.6143717765808105,161,89,0.0034965034965034965,1504.0,1494.0,1325.75,1501.0
2.638213872909546,161,88,0.0034965034965034965,1506.0,1494.0,1327.75,1501.0
2.6623218059539795,162,87,0.0033444816053511705,1510.0,1494.0,1329.9000000000001,1502.0
2.6862778663635254,161,86,0.0034965034965034965,1509.0,1494.0,1331.5999999999999,1501.0
2.710174798965454,162,85,0.003663003663003663,1513.0,1494.0,1333.5999999999999,1502.0
2.7340359687805176,162,82,0.003787878787878788,1515.0,1494.0,1339.9000000000001,1502.0
2.75787091255188,162,81,0.003663003663003663,1517.0,1494.0,1340,1502.0
2.7816147804260254,162,80,0.0034965034965034965,1519.0,1494.0,1340,1502.0
2.805459976196289,161,79,0.0034965034965034965,1517.0,1494.0,1340,1501.0
2.829204797744751,161,78,0.003787878787878788,1517.0,1494.0,1340,1501.0
2.853001832962036,161,77,0.003787878787878788,1517.0,1494.0,1340,1501.0
2.8768699169158936,161,76,0.003787878787878788,1517.0,1494.0,1340,1501.0
2.9006028175354004,161,75,0.003787878787878788,1516.0,1494.0,1340,1501.0
2.9243459701538086,161,74,0.003787878787878788,1516.0,1494.0,1340,1501.0
2.9480979442596436,161,74,0.0034965034965034965,1515.0,1494.0,1340,1501.0
2.9718198776245117,161,73,0.003787878787878788,1514.0,1494.0,1340,1501.0
2.9956939220428467,161,72,0.003787878787878788,1513.0,1494.0,1340,1501.0
3.019432783126831,163,70,0.004629629629629629,1518.0,1494.0,1340,1503.0
3.043243885040283,162,69,0.003968253968253968,1517.0,1494.0,1340,1502.0
3.0670599937438965,162,69,0.003663003663003663,1518.0,1494.0,1340,1502.0
3.090765953063965,163,68,0.004629629629629629,1520,1494.0,1340,1503.0
3.114396810531616,162,68,0.003663003663003663,1520,1494.0,1340,1502.0
3.1380419731140137,162,67,0.003968253968253968,1520,1494.0,1340,1502.0
3.1617088317871094,161,67,0.003787878787878788,1520.0,1494.0,1340,1501.0
3.1855759620666504,162,67,0.004273504273504274,1520,1494.0,1340,1502.0
3.2092208862304688,160,67,0.0034965034965034965,1518.0,1494.0,1340,1500.0
3.2330257892608643,161,66,0.004629629629629629,1520.0,1494.0,1340,1501.0
3.256847858428955,160,66,0.003663003663003663,1515.0,1494.0,1340,1500.0
3.2805957794189453,160,65,0.003663003663003663,1513.0,1494.0,1340,1500.0
3.3043248653411865,159,65,0.0034965034965034965,1508.0,1494.0,1340,1499.0
3.328077793121338,160,65,0.004273504273504274,1507.0,1494.0,1340,1500.0
3.3518269062042236,159,65,0.003663003663003663,1502.0,1494.0,1340,1499.0
3.3756978511810303,160,64,0.004273504273504274,1502.0,1494.0,1340,1500.0
3.399460792541504,158,64,0.0034965034965034965,1495.0,1494.0,1340,1498.0
3.4232358932495117,158,63,0.003787878787878788,1491.0,1494.0,1340,1498.0
3.4470927715301514,158,63,0.003787878787878788,1489.0,1494.0,1340,1498.0
3.470836877822876,158,63,0.0034965034965034965,1486.0,1494.0,1340,1498.0
3.4945738315582275,158,63,0.003787878787878788,1484.0,1494.0,1340,1498.0
3.5183048248291016,159,63,0.003968253968253968,1485.0,1494.0,1340,1499.0
3.5420219898223877,160,64,0.004273504273504274,1488.0,1494.0,1340,1500.0
3.5659048557281494,159,64,0.003968253968253968,1485.0,1494.0,1340,1499.0
3.589634895324707,160,64,0.004629629629629629,1488.0,1494.0,1340,1500.0
3.613393783569336,159,64,0.003968253968253968,1485.0,1494.0,1340,1499.0
3.637436866760254,160,64,0.004629629629629629,1489.0,1494.0,1340,1500.0
3.6611948013305664,159,64,0.003968253968253968,1488.0,1494.0,1340,1499.0
3.684940814971924,159,64,0.003968253968253968,1489.0,1494.0,1340,1499.0
3.708664894104004,158,64,0.003968253968253968,1487.0,1494.0,1340,1498.0
3.7324559688568115,158,64,0.003968253968253968,1487.0,1494.0,1340,1498.0
3.756272792816162,158,65,0.003968253968253968,1486.0,1494.0,1340,1498.0
3.7800087928771973,157,66,0.003968253968253968,1481.0,1494.0,1340,1497.0
3.803806781768799,157,66,0.003968253968253968,1480,1494.0,1340,1497.0
3.8274619579315186,157,66,0.003968253968253968,1480,1494.0,1340,1497.0
3.8511388301849365,157,66,0.004329004329004329,1480,1494.0,1340,1497.0
3.8748278617858887,157,65,0.003968253968253968,1480,1494.0,1340,1497.0
3.8985488414764404,157,65,0.003968253968253968,1480,1494.0,1340,1497.0
3.9222447872161865,157,65,0.003968253968253968,1480,1494.0,1340,1497.0
3.946070909500122,157,65,0.003968253968253968,1480,1494.0,1340,1497.0
3.969740867614746,157,66,0.003968253968253968,1480,1494.0,1340,1497.0
3.9934048652648926,157,67,0.003968253968253968,1480,1494.0,1340,1497.0
4.017040967941284,157,68,0.003968253968253968,1480,1494.0,1340,1497.0
4.0406858921051025,157,68,0.003968253968253968,1480,1494.0,1340,1497.0
4.064348936080933,157,69,0.003787878787878788,1480,1494.0,1340,1497.0
4.08797287940979,158,70,0.003968253968253968,1480,1494.0,1340,1498.0
4.11136794090271,158,70,0.003968253968253968,1480,1494.0,1340,1498.0
4.134715795516968,158,71,0.003968253968253968,1480,1494.0,1340,1498.0
4.158062934875488,158,71,0.003968253968253968,1480,1494.0,1340,1498.0
4.181201934814453,158,72,0.003968253968253968,1480,1494.0,1340,1498.0
4.204328775405884,158,73,0.003968253968253968,1480,1494.0,1340,1498.0
4.22742486000061,159,74,0.003663003663003663,1480,1494.0,1340,1499.0
4.2505128383636475,159,74,0.003968253968253968,1480,1494.0,1340,1499.0
4.273637771606445,159,76,0.003663003663003663,1480.0,1494.0,1340,1499.0
4.296807765960693,159,76,0.003787878787878788,1482.0,1494.0,1340,1499.0
4.319981813430786,159,76,0.003968253968253968,1483.0,1494.0,1340,1499.0
4.343242883682251,159,76,0.004166666666666667,1484.0,1494.0,1340,1499.0
4.366485834121704,160,77,0.004273504273504274,1488.0,1494.0,1340,1500.0
4.389695882797241,159,77,0.003968253968253968,1487.0,1494.0,1340,1499.0
4.412959814071655,159,78,0.003663003663003663,1488.0,1494.0,1340,1499.0
4.4362499713897705,158,79,0.004048582995951417,1486.0,1494.0,1340,1498.0
4.45946478843689,159,80,0.003663003663003663,1488.0,1494.0,1338.05,1499.0
4.48290491104126,160,80,0.004629629629629629,1491.0,1494.0,1338.05,1500.0
4.506387948989868,161,81,0.0043859649122807015,1495.0,1494.0,1335.5999999999999,1501.0
4.529698848724365,159,82,0.0034965034965034965,1491.0,1494.0,1333.3,1499.0
4.553062915802002,161,82,0.004629629629629629,1497.0,1494.0,1333.3,1501.0
4.576438903808594,160,82,0.003968253968253968,1496.0,1494.0,1333.5999999999999,1500.0
4.599726915359497,160,83,0.003968253968253968,1496.0,1494.0,1331.5999999999999,1500.0
4.623175859451294,158,84,0.004629629629629629,1491.0,1494.0,1329.75,1498.0
4.646605968475342,158,85,0.004629629629629629,1490.0,1494.0,1327.9000000000001,1498.0
4.669877767562866,160,85,0.003968253968253968,1496.0,1494.0,1327.9000000000001,1500.0
4.693323850631714,160,86,0.003968253968253968,1497.0,1494.0,1325.5999999999999,1500.0
4.716806888580322,158,87,0.004629629629629629,1491.0,1494.0,1323.45,1498.0
4.7400689125061035,158,87,0.004629629629629629,1488.0,1494.0,1323.45,1498.0
4.763370990753174,161,88,0.004629629629629629,1496.0,1494.0,1321.45,1501.0
4.786649942398071,159,89,0.004629629629629629,1490.0,1494.0,1319.3,1499.0
4.80994176864624,159,90,0.004629629629629629,1489.0,1494.0,1317.3,1499.0
4.833390951156616,161,91,0.003663003663003663,1494.0,1494.0,1315.3,1501.0
4.856832981109619,161,91,0.003968253968253968,1497.0,1494.0,1315.1500000000001,1501.0
4.880096912384033,160,92,0.0038461538461538464,1497.0,1494.0,1313.0,1500.0
4.903641939163208,160,92,0.0043859649122807015,1497.0,1494.0,1313.1500000000001,1500.0
4.926968812942505,159,93,0.004273504273504274,1494.0,1494.0,1311.3,1499.0
4.950234889984131,160,93,0.004629629629629629,1498.0,1494.0,1311.5999999999999,1500.0
4.9735047817230225,160,94,0.004629629629629629,1500.0,1494.0,1309.75,1500.0
4.996762990951538,160,94,0.004629629629629629,1499.0,1494.0,1310.05,1500.0
5.020020961761475,160,95,0.004629629629629629,1500.0,1494.0,1308.05,1500.0
5.043442964553833,160,95,0.004629629629629629,1501.0,1494.0,1308.2,1500.0
5.066865921020508,162,96,0.005208333333333333,1506.0,1494.0,1306.05,1502.0
5.090135812759399,160,96,0.004629629629629629,1501.0,1494.0,1306.2,1500.0
5.113472938537598,160,96,0.004629629629629629,1501.0,1494.0,1306.2,1500.0
5.136792898178101,162,97,0.003663003663003663,1507.0,1494.0,1304.3499999999999,1502.0
5.160085916519165,160,97,0.004629629629629629,1504.0,1494.0,1304.3499999999999,1500.0
5.183452844619751,160,97,0.004629629629629629,1504.0,1494.0,1304.6500000000001,1500.0
5.206790924072266,160,97,0.004629629629629629,1504.0,1494.0,1304.8,1500.0
5.230262994766235,161,97,0.005952380952380952,1507.0,1494.0,1304.95,1501.0
5.253699779510498,160,98,0.004629629629629629,1505.0,1494.0,1303.0999999999999,1500.0
5.277021884918213,160,98,0.004629629629629629,1505.0,1494.0,1303.25,1500.0
5.300285816192627,160,98,0.004629629629629629,1503.0,1494.0,1303.25,1500.0
5.323563814163208,160,98,0.004629629629629629,1503.0,1494.0,1303.25,1500.0
5.3468828201293945,160,98,0.004629629629629629,1503.0,1494.0,1303.25,1500.0
5.370170831680298,160,98,0.004629629629629629,1501.0,1494.0,1303.4000000000001,1500.0
5.3934619426727295,161,98,0.005952380952380952,1504.0,1494.0,1303.55,1501.0
5.4167609214782715,161,98,0.005952380952380952,1505.0,1494.0,1303.7,1501.0
5.440081834793091,160,98,0.004629629629629629,1503.0,1494.0,1303.8499999999999,1500.0
5.46344780921936,160,98,0.005050505050505051,1502.0,1494.0,1304.0,1500.0
5.486754894256592,160,97,0.004629629629629629,1502.0,1494.0,1306.1500000000001,1500.0
5.510032892227173,160,97,0.004629629629629629,1502.0,1494.0,1306.3,1500.0
5.533474922180176,160,97,0.004629629629629629,1502.0,1494.0,1306.45,1500.0
5.5568249225616455,161,97,0.006493506493506494,1505.0,1494.0,1306.5999999999999,1501.0
5.580122947692871,161,96,0.005952380952380952,1506.0,1494.0,1308.9000000000001,1501.0
5.603465795516968,160,96,0.004629629629629629,1504.0,1494.0,1308.9000000000001,1500.0
5.62680196762085,161,96,0.005952380952380952,1506.0,1494.0,1308.9000000000001,1501.0
5.650070905685425,162,96,0.005555555555555556,1509.0,1494.0,1308.9000000000001,1502.0
5.673444986343384,161,95,0.005952380952380952,1508.0,1494.0,1311.05,1501.0
5.696789979934692,160,95,0.004629629629629629,1506.0,1494.0,1310.9000000000001,1500.0
5.7201128005981445,160,95,0.004784688995215311,1506.0,1494.0,1310.9000000000001,1500.0
5.743448972702026,159,94,0.004629629629629629,1503.0,1494.0,1313.05,1499.0
5.766749858856201,159,93,0.004629629629629629,1502.0,1494.0,1315.3499999999999,1499.0
5.790034770965576,160,93,0.006493506493506494,1503.0,1494.0,1315.3499999999999,1500.0
5.813470840454102,161,92,0.005555555555555556,1505.0,1494.0,1317.6500000000001,1501.0
5.836859941482544,159,91,0.004629629629629629,1500.0,1494.0,1320.0999999999999,1499.0
5.860144853591919,159,91,0.004629629629629629,1498.0,1494.0,1320.25,1499.0
5.883458852767944,159,90,0.004629629629629629,1495.0,1494.0,1322.25,1499.0
5.906757831573486,159,90,0.004629629629629629,1493.0,1494.0,1322.4000000000001,1499.0
5.9300689697265625,159,90,0.005050505050505051,1492.0,1494.0,1322.25,1499.0
5.95344090461731,159,89,0.004629629629629629,1491.0,1494.0,1323.95,1499.0
5.976772785186768,159,88,0.004629629629629629,1491.0,1494.0,1325.95,1499.0
6.000067949295044,159,87,0.004629629629629629,1491.0,1494.0,1327.95,1499.0
6.023441791534424,160,87,0.006493506493506494,1493.0,1494.0,1327.95,1500.0
6.046761989593506,159,86,0.004629629629629629,1489.0,1494.0,1330.25,1499.0
6.070034980773926,160,86,0.006493506493506494,1492.0,1494.0,1330.4000000000001,1500.0
6.093596935272217,159,85,0.004629629629629629,1490.0,1494.0,1332.4000000000001,1499.0
6.116898775100708,159,85,0.005050505050505051,1490.0,1494.0,1332.25,1499.0
6.140187978744507,160,84,0.005952380952380952,1493.0,1494.0,1334.25,1500.0
6.163456916809082,159,84,0.005050505050505051,1491.0,1494.0,1333.95,1499.0
6.186759948730469,160,83,0.005555555555555556,1494.0,1494.0,1335.95,1500.0
6.210035800933838,158,83,0.005050505050505051,1489.0,1494.0,1335.8,1498.0
6.233473777770996,158,83,0.005050505050505051,1488.0,1494.0,1335.8,1498.0
6.256811857223511,158,82,0.004629629629629629,1486.0,1494.0,1337.6500000000001,1498.0
6.28010892868042,158,82,0.005050505050505051,1485.0,1494.0,1337.6500000000001,1498.0
6.303462982177734,158,81,0.004629629629629629,1483.0,1494.0,1339.5,1498.0
6.326805830001831,158,81,0.005050505050505051,1482.0,1494.0,1339.5,1498.0
6.350122928619385,159,80,0.005050505050505051,1484.0,1494.0,1340,1499.0
6.373354911804199,159,79,0.005050505050505051,1483.0,1494.0,1340,1499.0
6.396576881408691,159,78,0.004629629629629629,1483.0,1494.0,1340,1499.0
6.419778823852539,161,78,0.006493506493506494,1488.0,1494.0,1340,1501.0
6.4431798458099365,161,78,0.006493506493506494,1491.0,1494.0,1340,1501.0
6.466576814651489,160,77,0.004629629629629629,1491.0,1494.0,1340,1500.0
6.489795923233032,160,77,0.005050505050505051,1493.0,1494.0,1340,1500.0
6.513146877288818,160,76,0.005050505050505051,1495.0,1494.0,1340,1500.0
6.5365519523620605,160,75,0.004629629629629629,1497.0,1494.0,1340,1500.0
6.559755802154541,161,75,0.005050505050505051,1502.0,1494.0,1340,1501.0
6.583136796951294,161,75,0.004784688995215311,1504.0,1494.0,1340,1501.0
6.606810808181763,160,74,0.005050505050505051,1503.0,1494.0,1340,1500.0
6.630259990692139,160,74,0.005050505050505051,1504.0,1494.0,1340,1500.0
6.65371298789978,160,73,0.005050505050505051,1503.0,1494.0,1340,1500.0
6.677204847335815,160,72,0.004629629629629629,1502.0,1494.0,1340,1500.0
6.700647830963135,160,71,0.005050505050505051,1502.0,1494.0,1340,1500.0
6.724174976348877,160,71,0.005050505050505051,1502.0,1494.0,1340,1500.0
6.747638940811157,160,70,0.0043859649122807015,1502.0,1494.0,1340,1500.0
6.771094799041748,160,70,0.004629629629629629,1502.0,1494.0,1340,1500.0
6.794541835784912,160,70,0.004629629629629629,1501.0,1494.0,1340,1500.0
6.817999839782715,160,70,0.0043859649122807015,1500.0,1494.0,1340,1500.0
6.841464996337891,159,70,0.004629629629629629,1497.0,1494.0,1340,1499.0
6.865001916885376,159,71,0.005050505050505051,1496.0,1494.0,1340,1499.0
6.888454914093018,160,70,0.0043859649122807015,1498.0,1494.0,1340,1500.0
6.911911964416504,159,70,0.004629629629629629,1495.0,1494.0,1340,1499.0
6.935588836669922,159,70,0.004629629629629629,1494.0,1494.0,1340,1499.0
6.9590559005737305,159,70,0.004629629629629629,1493.0,1494.0,1340,1499.0
6.982591867446899,160,71,0.006493506493506494,1495.0,1494.0,1340,1500.0
7.006119966506958,159,71,0.005050505050505051,1492.0,1494.0,1340,1499.0
7.029597997665405,159,72,0.005050505050505051,1491.0,1494.0,1340,1499.0
7.053112983703613,158,73,0.005050505050505051,1487.0,1494.0,1340,1498.0
7.07662296295166,158,73,0.004629629629629629,1486.0,1494.0,1340,1498.0
7.100074768066406,158,74,0.005050505050505051,1485.0,1494.0,1340,1498.0
7.123514890670776,158,74,0.005050505050505051,1483.0,1494.0,1340,1498.0
7.1469810009002686,159,74,0.004784688995215311,1485.0,1494.0,1340,1499.0
7.170435905456543,158,74,0.005050505050505051,1482.0,1494.0,1340,1498.0
7.193893909454346,158,73,0.005050505050505051,1481.0,1494.0,1340,1498.0
7.2173497676849365,159,73,0.005050505050505051,1482.0,1494.0,1340,1499.0
7.240822792053223,159,73,0.005050505050505051,1482.0,1494.0,1340,1499.0
7.2642738819122314,159,73,0.005050505050505051,1482.0,1494.0,1340,1499.0
7.287819862365723,159,73,0.005050505050505051,1483.0,1494.0,1340,1499.0
7.31148099899292,161,73,0.006060606060606061,1490.0,1494.0,1340,1501.0
7.335068941116333,161,74,0.006493506493506494,1493.0,1494.0,1340,1501.0
7.358566999435425,160,74,0.005050505050505051,1493.0,1494.0,1340,1500.0
7.382537841796875,160,74,0.005050505050505051,1494.0,1494.0,1340,1500.0
7.406374931335449,160,74,0.005050505050505051,1496.0,1494.0,1340,1500.0
7.430152893066406,159,74,0.004629629629629629,1495.0,1494.0,1340,1499.0
7.453725814819336,160,75,0.004784688995215311,1498.0,1494.0,1340,1500.0
7.477209806442261,159,75,0.005050505050505051,1496.0,1494.0,1340,1499.0
7.500686883926392,160,75,0.006493506493506494,1499.0,1494.0,1340,1500.0
7.524252891540527,158,75,0.005050505050505051,1494.0,1494.0,1340,1498.0
7.547754764556885,158,75,0.005050505050505051,1491.0,1494.0,1340,1498.0
7.57123589515686,159,75,0.005050505050505051,1491.0,1494.0,1340,1499.0
7.594762802124023,159,75,0.004784688995215311,1490.0,1494.0,1340,1499.0
7.6182169914245605,159,75,0.0043859649122807015,1489.0,1494.0,1340,1499.0
7.641703844070435,159,76,0.005050505050505051,1488.0,1494.0,1340,1499.0
7.665385961532593,159,76,0.005050505050505051,1488.0,1494.0,1340,1499.0
7.688881874084473,159,76,0.005050505050505051,1487.0,1494.0,1340,1499.0
7.712331771850586,159,76,0.005050505050505051,1487.0,1494.0,1340,1499.0
7.735897779464722,160,76,0.005050505050505051,1489.0,1494.0,1340,1500.0
7.759342908859253,160,76,0.005050505050505051,1491.0,1494.0,1340,1500.0
7.7828309535980225,160,76,0.005050505050505051,1493.0,1494.0,1340,1500.0
7.806355953216553,161,76,0.005050505050505051,1497.0,1494.0,1340,1501.0
7.829782962799072,161,76,0.005050505050505051,1499.0,1494.0,1340,1501.0
7.853325843811035,162,76,0.005952380952380952,1504.0,1494.0,1340,1502.0
7.876766920089722,161,77,0.005050505050505051,1504.0,1494.0,1340,1501.0
7.8999669551849365,161,77,0.004784688995215311,1506.0,1494.0,1340,1501.0
7.923553943634033,160,77,0.004629629629629629,1505.0,1494.0,1340,1500.0
7.947016000747681,160,78,0.005050505050505051,1506.0,1494.0,1340,1500.0
7.970477819442749,161,78,0.006493506493506494,1509.0,1494.0,1340,1501.0
7.993934869766235,159,79,0.005050505050505051,1504.0,1494.0,1340,1499.0
8.017404794692993,160,79,0.0043859649122807015,1506.0,1494.0,1340,1500.0
8.040885925292969,159,80,0.005050505050505051,1502.0,1494.0,1338.3499999999999,1499.0
8.064505815505981,159,80,0.004629629629629629,1500.0,1494.0,1338.3499999999999,1499.0
8.088059902191162,160,81,0.006493506493506494,1500.0,1494.0,1336.2,1500.0
8.111597776412964,159,82,0.005050505050505051,1496.0,1494.0,1334.05,1499.0
8.135390996932983,160,82,0.006493506493506494,1497.0,1494.0,1333.9000000000001,1500.0
8.158951997756958,158,83,0.005050505050505051,1491.0,1494.0,1331.9000000000001,1498.0
8.182539939880371,160,83,0.006493506493506494,1495.0,1494.0,1331.75,1500.0
8.206101894378662,158,84,0.005050505050505051,1488.0,1494.0,1329.75,1498.0
8.22964096069336,158,84,0.005050505050505051,1487.0,1494.0,1329.9000000000001,1498.0
8.253229856491089,158,84,0.005050505050505051,1485.0,1494.0,1330.05,1498.0
8.276825904846191,158,85,0.005050505050505051,1484.0,1494.0,1328.2,1498.0
8.300366878509521,158,85,0.005050505050505051,1483.0,1494.0,1328.3499999999999,1498.0
8.32393479347229,158,86,0.005050505050505051,1481.0,1494.0,1326.5,1498.0
8.347474813461304,158,86,0.004629629629629629,1480.0,1494.0,1326.5,1498.0
8.371018886566162,159,87,0.005050505050505051,1481.0,1494.0,1324.3499999999999,1499.0
8.394656896591187,160,87,0.005555555555555556,1485.0,1494.0,1324.3499999999999,1500.0
8.418211936950684,159,88,0.004784688995215311,1482.0,1494.0,1322.2,1499.0
8.441776990890503,160,88,0.006493506493506494,1486.0,1494.0,1322.2,1500.0
8.465543985366821,159,88,0.004629629629629629,1485.0,1494.0,1322.2,1499.0
8.489090919494629,159,88,0.004629629629629629,1486.0,1494.0,1322.5,1499.0
8.512695789337158,159,88,0.0043859649122807015,1487.0,1494.0,1322.6500000000001,1499.0
8.536349773406982,160,88,0.005555555555555556,1491.0,1494.0,1323.0999999999999,1500.0
8.559915781021118,159,88,0.004629629629629629,1490.0,1494.0,1323.4000000000001,1499.0
8.583455801010132,159,89,0.004784688995215311,1491.0,1494.0,1321.55,1499.0
8.607023000717163,158,89,0.005050505050505051,1488.0,1494.0,1321.55,1498.0
8.630591869354248,158,89,0.005050505050505051,1486.0,1494.0,1321.55,1498.0
8.65451192855835,158,89,0.005050505050505051,1485.0,1494.0,1321.4000000000001,1498.0
8.678086996078491,158,89,0.005050505050505051,1483.0,1494.0,1321.25,1498.0
8.701615810394287,158,89,0.005050505050505051,1482.0,1494.0,1321.4000000000001,1498.0
8.725472927093506,158,89,0.005050505050505051,1481.0,1494.0,1321.55,1498.0
8.749035835266113,158,89,0.005050505050505051,1480.0,1494.0,1321.7,1498.0
8.772642850875854,159,89,0.0043859649122807015,1481.0,1494.0,1321.8499999999999,1499.0
8.796276807785034,159,89,0.004629629629629629,1481.0,1494.0,1322.0,1499.0
8.81979489326477,160,89,0.005952380952380952,1484.0,1494.0,1322.0,1500.0
8.843373775482178,159,89,0.004629629629629629,1483.0,1494.0,1322.0,1499.0
8.866954803466797,160,89,0.0043859649122807015,1487.0,1494.0,1322.0,1500.0
8.890488862991333,159,89,0.004629629629629629,1486.0,1494.0,1322.0,1499.0
8.914000988006592,160,89,0.0043859649122807015,1490.0,1494.0,1322.0,1500.0
8.93730878829956,161,89,0.005952380952380952,1495.0,1494.0,1322.0,1501.0
8.960595846176147,159,89,0.004629629629629629,1492.0,1494.0,1322.0,1499.0
8.983858823776245,161,90,0.006493506493506494,1499.0,1494.0,1319.8499999999999,1501.0
9.007177829742432,160,89,0.004629629629629629,1498.0,1494.0,1321.8499999999999,1500.0
9.030478954315186,160,89,0.004629629629629629,1499.0,1494.0,1321.8499999999999,1500.0
9.053753852844238,161,89,0.005952380952380952,1502.0,1494.0,1321.8499999999999,1501.0
9.077057838439941,160,89,0.004629629629629629,1501.0,1494.0,1321.8499999999999,1500.0
9.100358963012695,160,89,0.004629629629629629,1501.0,1494.0,1322.1500000000001,1500.0
9.123629808425903,161,89,0.006493506493506494,1505.0,1494.0,1322.1500000000001,1501.0
9.146939992904663,160,89,0.005050505050505051,1503.0,1494.0,1322.1500000000001,1500.0
9.170214891433716,160,89,0.005050505050505051,1502.0,1494.0,1322.1500000000001,1500.0
9.193513870239258,160,89,0.005050505050505051,1503.0,1494.0,1322.1500000000001,1500.0
9.216784000396729,161,89,0.0043859649122807015,1505.0,1494.0,1322.0,1501.0
9.240047931671143,162,89,0.005208333333333333,1509.0,1494.0,1322.0,1502.0
9.263356924057007,160,89,0.005050505050505051,1505.0,1494.0,1322.0,1500.0
9.286661863327026,160,89,0.005050505050505051,1504.0,1494.0,1322.0,1500.0
9.30992078781128,160,88,0.004629629629629629,1504.0,1494.0,1324.1500000000001,1500.0
9.333268880844116,160,88,0.005050505050505051,1504.0,1494.0,1324.3,1500.0
9.35664176940918,160,88,0.005050505050505051,1503.0,1494.0,1324.45,1500.0
9.379922866821289,161,88,0.006493506493506494,1506.0,1494.0,1324.5999999999999,1501.0
9.40335988998413,160,87,0.005050505050505051,1504.0,1494.0,1326.9000000000001,1500.0
9.42678189277649,160,87,0.005050505050505051,1504.0,1494.0,1326.9000000000001,1500.0
9.450058937072754,160,87,0.005050505050505051,1503.0,1494.0,1326.9000000000001,1500.0
9.473350763320923,160,86,0.005050505050505051,1501.0,1494.0,1329.05,1500.0
9.496624946594238,160,86,0.005050505050505051,1501.0,1494.0,1329.2,1500.0
9.519887924194336,160,86,0.005050505050505051,1501.0,1494.0,1329.05,1500.0
9.543221950531006,160,86,0.005050505050505051,1501.0,1494.0,1329.05,1500.0
9.566586971282959,160,86,0.005050505050505051,1501.0,1494.0,1329.05,1500.0
9.589858770370483,160,85,0.005050505050505051,1501.0,1494.0,1330.9000000000001,1500.0
9.613208770751953,160,85,0.005050505050505051,1500.0,1494.0,1330.75,1500.0
9.636553764343262,162,85,0.006060606060606061,1506.0,1494.0,1330.75,1502.0
9.659825801849365,162,85,0.006060606060606061,1508.0,1494.0,1330.75,1502.0
9.683151960372925,162,84,0.005952380952380952,1510.0,1494.0,1332.9000000000001,1502.0
9.70650577545166,160,84,0.005050505050505051,1506.0,1494.0,1332.9000000000001,1500.0
9.729792833328247,160,84,0.005050505050505051,1506.0,1494.0,1332.9000000000001,1500.0
9.7531099319458,160,83,0.004629629629629629,1506.0,1494.0,1335.05,1500.0
9.776448965072632,160,83,0.005050505050505051,1506.0,1494.0,1335.2,1500.0
9.79971694946289,160,83,0.005050505050505051,1506.0,1494.0,1335.05,1500.0
9.823051929473877,160,82,0.005050505050505051,1506.0,1494.0,1337.2,1500.0
9.846759796142578,160,82,0.005050505050505051,1506.0,1494.0,1337.3499999999999,1500.0
9.870275974273682,160,81,0.004629629629629629,1504.0,1494.0,1339.3499999999999,1500.0
9.893616914749146,160,81,0.005050505050505051,1502.0,1494.0,1339.3499999999999,1500.0
9.916985988616943,160,81,0.005050505050505051,1500.0,1494.0,1339.5,1500.0
9.940311908721924,160,80,0.004629629629629629,1500.0,1494.0,1340,1500.0
9.9635329246521,160,80,0.005050505050505051,1500.0,1494.0,1340,1500.0
9.986718893051147,161,79,0.0043859649122807015,1503.0,1494.0,1340,1501.0
10.009930849075317,160,79,0.005050505050505051,1501.0,1494.0,1340,1500.0
10.033174991607666,160,79,0.005050505050505051,1501.0,1494.0,1340,1500.0
10.056426763534546,160,78,0.005050505050505051,1501.0,1494.0,1340,1500.0
10.079606771469116,160,78,0.005050505050505051,1501.0,1494.0,1340,1500.0
10.102946996688843,160,78,0.005050505050505051,1501.0,1494.0,1340,1500.0
10.126285791397095,160,78,0.005050505050505051,1501.0,1494.0,1340,1500.0
10.149476766586304,161,77,0.0043859649122807015,1504.0,1494.0,1340,1501.0
10.172731876373291,160,77,0.005050505050505051,1502.0,1494.0,1340,1500.0
10.195987939834595,162,77,0.006493506493506494,1508.0,1494.0,1340,1502.0
10.219186782836914,162,77,0.006493506493506494,1509.0,1494.0,1340,1502.0
10.242430925369263,161,76,0.005050505050505051,1508.0,1494.0,1340,1501.0
10.265684843063354,161,76,0.005050505050505051,1509.0,1494.0,1340,1501.0
10.28887391090393,161,75,0.005050505050505051,1510.0,1494.0,1340,1501.0
10.3120698928833,161,74,0.004629629629629629,1511.0,1494.0,1340,1501.0
10.335534811019897,161,74,0.005050505050505051,1512.0,1494.0,1340,1501.0
10.358741998672485,160,74,0.005050505050505051,1510.0,1494.0,1340,1500.0
10.381950855255127,161,74,0.006493506493506494,1512.0,1494.0,1340,1501.0
10.405346870422363,160,74,0.005050505050505051,1510.0,1494.0,1340,1500.0
10.428575992584229,159,74,0.005050505050505051,1505.0,1494.0,1340,1499.0
10.451765775680542,159,74,0.005050505050505051,1502.0,1494.0,1340,1499.0
10.475082874298096,160,74,0.006493506493506494,1503.0,1494.0,1340,1500.0
10.49828577041626,159,74,0.005050505050505051,1499.0,1494.0,1340,1499.0
10.521472930908203,158,74,0.005050505050505051,1494.0,1494.0,1340,1498.0
10.544694900512695,158,74,0.005050505050505051,1491.0,1494.0,1340,1498.0
10.567904949188232,158,74,0.005050505050505051,1488.0,1494.0,1340,1498.0
10.591088771820068,159,73,0.0043859649122807015,1489.0,1494.0,1340,1499.0
10.61428189277649,159,73,0.0043859649122807015,1487.0,1494.0,1340,1499.0
10.637471914291382,158,73,0.004629629629629629,1483.0,1494.0,1340,1498.0
10.660642862319946,158,73,0.005050505050505051,1482.0,1494.0,1340,1498.0
10.683849811553955,158,73,0.005050505050505051,1481.0,1494.0,1340,1498.0
10.707035779953003,158,73,0.005050505050505051,1480,1494.0,1340,1498.0
10.730156898498535,158,73,0.005050505050505051,1480,1494.0,1340,1498.0
10.753357887268066,159,73,0.004629629629629629,1481.0,1494.0,1340,1499.0
10.776612997055054,159,73,0.004901960784313725,1482.0,1494.0,1340,1499.0
10.79980182647705,160,74,0.006493506493506494,1486.0,1494.0,1340,1500.0
10.823036909103394,160,74,0.006493506493506494,1487.0,1494.0,1340,1500.0
10.84633493423462,159,74,0.005050505050505051,1485.0,1494.0,1340,1499.0
10.869533777236938,159,74,0.005050505050505051,1486.0,1494.0,1340,1499.0
10.892786979675293,160,75,0.006493506493506494,1490.0,1494.0,1340,1500.0
10.91604995727539,159,75,0.005050505050505051,1489.0,1494.0,1340,1499.0
10.939262866973877,159,75,0.004784688995215311,1490.0,1494.0,1340,1499.0
10.962507963180542,158,75,0.005050505050505051,1488.0,1494.0,1340,1498.0
10.985760927200317,158,75,0.005050505050505051,1487.0,1494.0,1340,1498.0
11.008944988250732,158,75,0.005050505050505051,1486.0,1494.0,1340,1498.0
11.032156944274902,158,75,0.005050505050505051,1484.0,1494.0,1340,1498.0
11.055494785308838,158,75,0.005050505050505051,1482.0,1494.0,1340,1498.0
11.07870078086853,160,75,0.006060606060606061,1487.0,1494.0,1340,1500.0
11.101882934570312,158,75,0.004629629629629629,1482.0,1494.0,1340,1498.0
11.125678777694702,158,76,0.005050505050505051,1480.0,1494.0,1340,1498.0
11.14892578125,158,76,0.005050505050505051,1480,1494.0,1340,1498.0
11.172034978866577,158,76,0.005050505050505051,1480,1494.0,1340,1498.0
11.195295810699463,158,76,0.004629629629629629,1480,1494.0,1340,1498.0
11.218456983566284,160,77,0.006060606060606061,1484.0,1494.0,1340,1500.0
11.241694927215576,160,77,0.006493506493506494,1486.0,1494.0,1340,1500.0
11.26489782333374,159,76,0.004629629629629629,1485.0,1494.0,1340,1499.0
11.288081884384155,159,76,0.004629629629629629,1486.0,1494.0,1340,1499.0
11.311275959014893,160,77,0.006493506493506494,1488.0,1494.0,1340,1500.0
11.334479808807373,158,77,0.005050505050505051,1484.0,1494.0,1340,1498.0
11.357696771621704,158,77,0.004629629629629629,1484.0,1494.0,1340,1498.0
11.380900859832764,158,78,0.005050505050505051,1484.0,1494.0,1340,1498.0
11.404159784317017,158,78,0.004629629629629629,1484.0,1494.0,1340,1498.0
11.427416801452637,158,79,0.0043859649122807015,1484.0,1494.0,1340,1498.0
11.450629949569702,158,80,0.004784688995215311,1482.0,1494.0,1338.6500000000001,1498.0
11.473907947540283,157,80,0.004629629629629629,1480,1494.0,1338.2,1497.0
11.497111797332764,157,80,0.004629629629629629,1480,1494.0,1338.2,1497.0
11.520314931869507,158,81,0.004784688995215311,1480,1494.0,1336.05,1498.0
11.54354190826416,158,81,0.0043859649122807015,1480,1494.0,1336.05,1498.0
11.566768884658813,158,81,0.004629629629629629,1480,1494.0,1336.3499999999999,1498.0
11.589993953704834,158,82,0.004629629629629629,1480,1494.0,1334.5,1498.0
11.613239765167236,158,82,0.004629629629629629,1480,1494.0,1334.5,1498.0
11.636513948440552,158,82,0.004629629629629629,1480,1494.0,1334.8,1498.0
11.659708976745605,158,82,0.004629629629629629,1480,1494.0,1334.95,1498.0
11.682965993881226,158,82,0.004629629629629629,1480,1494.0,1334.95,1498.0
11.706226825714111,159,82,0.0043859649122807015,1480,1494.0,1335.25,1499.0
11.729455947875977,159,82,0.0043859649122807015,1480.0,1494.0,1335.55,1499.0
11.752814769744873,159,82,0.0043859649122807015,1481.0,1494.0,1335.7,1499.0
11.776169776916504,159,82,0.004629629629629629,1482.0,1494.0,1335.8499999999999,1499.0
11.79945182800293,159,82,0.004629629629629629,1483.0,1494.0,1336.0,1499.0
11.822789907455444,159,83,0.004629629629629629,1484.0,1494.0,1333.8499999999999,1499.0
11.846153974533081,160,83,0.0043859649122807015,1488.0,1494.0,1333.7,1500.0
11.869417905807495,159,83,0.004629629629629629,1487.0,1494.0,1333.55,1499.0
11.892745971679688,160,84,0.004048582995951417,1491.0,1494.0,1331.25,1500.0
11.91611099243164,160,84,0.0043859649122807015,1493.0,1494.0,1330.95,1500.0
11.939426898956299,160,84,0.0043859649122807015,1494.0,1494.0,1330.95,1500.0
11.96274995803833,159,84,0.004629629629629629,1492.0,1494.0,1330.95,1499.0
11.986087799072266,159,84,0.004629629629629629,1492.0,1494.0,1330.95,1499.0
12.009361982345581,159,84,0.004629629629629629,1492.0,1494.0,1331.25,1499.0
12.0327308177948,159,84,0.004629629629629629,1492.0,1494.0,1331.55,1499.0
12.056088924407959,159,84,0.004629629629629629,1492.0,1494.0,1331.7,1499.0
12.079349994659424,159,85,0.004629629629629629,1491.0,1494.0,1329.7,1499.0
12.102723836898804,161,85,0.005555555555555556,1497.0,1494.0,1329.7,1501.0
12.126153945922852,160,85,0.004629629629629629,1495.0,1494.0,1329.55,1500.0
12.149442911148071,160,85,0.004629629629629629,1495.0,1494.0,1329.4000000000001,1500.0
12.172760963439941,160,85,0.004629629629629629,1495.0,1494.0,1329.25,1500.0
12.196102857589722,161,86,0.004273504273504274,1499.0,1494.0,1327.25,1501.0
12.219359874725342,161,86,0.0043859649122807015,1501.0,1494.0,1327.25,1501.0
12.242697954177856,161,86,0.0043859649122807015,1503.0,1494.0,1327.25,1501.0
12.266049861907959,163,86,0.005555555555555556,1511.0,1494.0,1327.25,1503.0
12.289315938949585,161,86,0.004629629629629629,1509.0,1494.0,1327.25,1501.0
12.312691926956177,161,86,0.004629629629629629,1511.0,1494.0,1327.4000000000001,1501.0
12.336119890213013,161,86,0.004629629629629629,1511.0,1494.0,1327.55,1501.0
12.359718799591064,161,86,0.004629629629629629,1512.0,1494.0,1327.7,1501.0
12.383088827133179,162,86,0.005952380952380952,1516.0,1494.0,1327.8499999999999,1502.0
12.406497955322266,162,86,0.005952380952380952,1518.0,1494.0,1328.0,1502.0
12.429817914962769,162,86,0.006493506493506494,1519.0,1494.0,1328.0,1502.0
12.453135967254639,161,86,0.004629629629629629,1517.0,1494.0,1328.0,1501.0
12.47649097442627,160,86,0.004629629629629629,1514.0,1494.0,1328.0,1500.0
12.499751806259155,160,86,0.004629629629629629,1511.0,1494.0,1328.0,1500.0
12.523075819015503,160,87,0.005050505050505051,1510.0,1494.0,1325.8499999999999,1500.0
12.5464448928833,160,87,0.004629629629629629,1509.0,1494.0,1325.7,1500.0
12.569727897644043,160,87,0.005050505050505051,1508.0,1494.0,1325.55,1500.0
12.593068838119507,161,86,0.0043859649122807015,1510.0,1494.0,1327.55,1501.0
12.616453886032104,160,86,0.004629629629629629,1506.0,1494.0,1327.55,1500.0
12.63976788520813,161,86,0.004629629629629629,1507.0,1494.0,1327.8499999999999,1501.0
12.663098812103271,161,86,0.004629629629629629,1506.0,1494.0,1328.1500000000001,1501.0
12.686463832855225,161,86,0.004629629629629629,1506.0,1494.0,1328.45,1501.0
12.709755897521973,161,86,0.004629629629629629,1507.0,1494.0,1328.45,1501.0
12.733104944229126,161,86,0.004629629629629629,1508.0,1494.0,1328.45,1501.0
12.756465911865234,162,86,0.005952380952380952,1512.0,1494.0,1328.3,1502.0
12.779761791229248,161,86,0.004629629629629629,1511.0,1494.0,1328.1500000000001,1501.0
12.803169965744019,161,86,0.004629629629629629,1512.0,1494.0,1328.0,1501.0
12.826594829559326,160,86,0.004629629629629629,1509.0,1494.0,1328.0,1500.0
12.849862813949585,160,86,0.004629629629629629,1509.0,1494.0,1328.0,1500.0
12.873172998428345,160,86,0.004629629629629629,1508.0,1494.0,1328.0,1500.0
12.896490812301636,160,86,0.004273504273504274,1507.0,1494.0,1328.0,1500.0
12.919750928878784,160,86,0.004273504273504274,1506.0,1494.0,1328.0,1500.0
12.943102836608887,162,86,0.005128205128205128,1511.0,1494.0,1328.0,1502.0
12.96645998954773,160,86,0.004273504273504274,1506.0,1494.0,1328.0,1500.0
12.989720821380615,160,85,0.004629629629629629,1504.0,1494.0,1330.1500000000001,1500.0
13.013078927993774,159,85,0.004629629629629629,1500.0,1494.0,1330.3,1499.0
13.036447763442993,160,85,0.004048582995951417,1501.0,1494.0,1330.45,1500.0
13.059722900390625,159,84,0.004629629629629629,1498.0,1494.0,1332.75,1499.0
13.083054780960083,159,84,0.004629629629629629,1497.0,1494.0,1333.05,1499.0
13.106414794921875,159,84,0.004629629629629629,1496.0,1494.0,1333.05,1499.0
13.129737854003906,161,84,0.004807692307692308,1501.0,1494.0,1333.05,1501.0
13.153087854385376,158,84,0.004273504273504274,1493.0,1494.0,1333.05,1498.0
13.176467895507812,158,83,0.004629629629629629,1489.0,1494.0,1334.9000000000001,1498.0
13.19976282119751,158,83,0.004629629629629629,1487.0,1494.0,1334.75,1498.0
13.223104000091553,158,83,0.004629629629629629,1485.0,1494.0,1334.75,1498.0
13.246472835540771,158,83,0.004629629629629629,1484.0,1494.0,1334.75,1498.0
13.269768953323364,158,83,0.004629629629629629,1482.0,1494.0,1334.75,1498.0
13.293100833892822,158,83,0.004273504273504274,1481.0,1494.0,1334.5999999999999,1498.0
13.316481828689575,158,82,0.004629629629629629,1480.0,1494.0,1336.5999999999999,1498.0
13.339886903762817,158,82,0.004629629629629629,1480,1494.0,1336.5999999999999,1498.0
13.363343954086304,158,82,0.004629629629629629,1480,1494.0,1336.5999999999999,1498.0
13.386648893356323,158,82,0.004273504273504274,1480,1494.0,1336.5999999999999,1498.0
13.409904956817627,158,81,0.004629629629629629,1480,1494.0,1338.9000000000001,1498.0
13.433230876922607,159,81,0.004629629629629629,1480,1494.0,1338.9000000000001,1499.0
13.456511974334717,160,80,0.005952380952380952,1483.0,1494.0,1340,1500.0
13.479697942733765,160,80,0.005952380952380952,1485.0,1494.0,1340,1500.0
13.503029823303223,159,79,0.004629629629629629,1484.0,1494.0,1340,1499.0
13.52636194229126,160,79,0.005952380952380952,1488.0,1494.0,1340,1500.0
13.549568891525269,160,79,0.005555555555555556,1490.0,1494.0,1340,1500.0
13.573161840438843,159,79,0.0043859649122807015,1489.0,1494.0,1340,1499.0
13.596446990966797,160,78,0.005952380952380952,1493.0,1494.0,1340,1500.0
13.61963677406311,160,78,0.005952380952380952,1495.0,1494.0,1340,1500.0
13.64295482635498,159,78,0.004629629629629629,1494.0,1494.0,1340,1499.0
13.666387796401978,158,77,0.004629629629629629,1491.0,1494.0,1340,1498.0
13.689641952514648,158,77,0.004629629629629629,1489.0,1494.0,1340,1498.0
13.712905883789062,160,77,0.003968253968253968,1493.0,1494.0,1340,1500.0
13.73617696762085,158,77,0.004629629629629629,1488.0,1494.0,1340,1498.0
13.759349822998047,159,77,0.004048582995951417,1489.0,1494.0,1340,1499.0
13.78258490562439,158,77,0.004273504273504274,1485.0,1494.0,1340,1498.0
13.805851936340332,159,77,0.004048582995951417,1487.0,1494.0,1340,1499.0
13.829062938690186,159,77,0.004273504273504274,1486.0,1494.0,1340,1499.0
13.852275848388672,159,77,0.004273504273504274,1485.0,1494.0,1340,1499.0
13.87564992904663,159,77,0.004273504273504274,1485.0,1494.0,1340,1499.0
13.8988938331604,161,77,0.003663003663003663,1492.0,1494.0,1340,1501.0
13.922080993652344,161,77,0.003663003663003663,1495.0,1494.0,1340,1501.0
13.945437908172607,160,77,0.004048582995951417,1493.0,1494.0,1340,1500.0
13.968642950057983,161,77,0.003663003663003663,1498.0,1494.0,1340,1501.0
13.991862773895264,162,76,0.004629629629629629,1503.0,1494.0,1340,1502.0
14.01518177986145,161,77,0.003663003663003663,1504.0,1494.0,1340,1501.0
14.038399934768677,161,77,0.003663003663003663,1506.0,1494.0,1340,1501.0
14.061607837677002,161,77,0.003663003663003663,1508.0,1494.0,1340,1501.0
14.084819793701172,160,77,0.005494505494505495,1507.0,1494.0,1340,1500.0
14.108006000518799,159,76,0.0043859649122807015,1505.0,1494.0,1340,1499.0
14.13119888305664,159,76,0.0043859649122807015,1503.0,1494.0,1340,1499.0
14.15438985824585,160,76,0.003968253968253968,1504.0,1494.0,1340,1500.0
14.177595853805542,160,76,0.003968253968253968,1504.0,1494.0,1340,1500.0
14.200780868530273,160,76,0.005128205128205128,1503.0,1494.0,1340,1500.0
14.224004983901978,159,76,0.004166666666666667,1498.0,1494.0,1340,1499.0
14.247217893600464,159,76,0.003968253968253968,1496.0,1494.0,1340,1499.0
14.270405769348145,159,76,0.003968253968253968,1494.0,1494.0,1340,1499.0
14.293597936630249,159,77,0.003663003663003663,1492.0,1494.0,1340,1499.0
14.316792964935303,158,77,0.004273504273504274,1488.0,1494.0,1340,1498.0
14.339996814727783,160,77,0.003663003663003663,1493.0,1494.0,1340,1500.0
14.363249778747559,158,77,0.004273504273504274,1488.0,1494.0,1340,1498.0
14.386539936065674,160,77,0.003968253968253968,1492.0,1494.0,1340,1500.0
14.409836769104004,160,77,0.003663003663003663,1492.0,1494.0,1340,1500.0
14.433183908462524,160,77,0.003663003663003663,1492.0,1494.0,1340,1500.0
14.456439971923828,160,77,0.003968253968253968,1493.0,1494.0,1340,1500.0
14.479627847671509,160,77,0.003968253968253968,1494.0,1494.0,1340,1500.0
14.502909898757935,160,78,0.003663003663003663,1495.0,1494.0,1340,1500.0
14.526274919509888,159,78,0.0034965034965034965,1493.0,1494.0,1340,1499.0
14.54952883720398,159,78,0.003663003663003663,1494.0,1494.0,1340,1499.0
14.572815895080566,159,78,0.003663003663003663,1493.0,1494.0,1340,1499.0
14.596084833145142,159,78,0.003663003663003663,1494.0,1494.0,1340,1499.0
14.61925482749939,159,78,0.003663003663003663,1493.0,1494.0,1340,1499.0
14.642501831054688,159,78,0.003663003663003663,1492.0,1494.0,1340,1499.0
14.666035890579224,159,78,0.003663003663003663,1491.0,1494.0,1340,1499.0
14.68970799446106,159,78,0.003663003663003663,1490.0,1494.0,1340,1499.0
14.713044881820679,159,78,0.003663003663003663,1489.0,1494.0,1340,1499.0
14.736389875411987,158,78,0.0034965034965034965,1485.0,1494.0,1340,1498.0
14.759590864181519,158,78,0.0034965034965034965,1484.0,1494.0,1340,1498.0
14.782838821411133,158,78,0.0034965034965034965,1483.0,1494.0,1340,1498.0
14.806103944778442,158,78,0.0034965034965034965,1482.0,1494.0,1340,1498.0
14.829306840896606,158,78,0.0034965034965034965,1481.0,1494.0,1340,1498.0
14.852563858032227,159,78,0.003663003663003663,1483.0,1494.0,1340,1499.0
14.876162767410278,159,78,0.003663003663003663,1483.0,1494.0,1340,1499.0
14.899387836456299,159,78,0.003663003663003663,1483.0,1494.0,1340,1499.0
14.92264199256897,159,78,0.0034965034965034965,1483.0,1494.0,1340,1499.0
14.945939779281616,159,78,0.003663003663003663,1483.0,1494.0,1340,1499.0
14.969119787216187,159,78,0.003663003663003663,1484.0,1494.0,1340,1499.0
14.992287874221802,160,78,0.004273504273504274,1488.0,1494.0,1340,1500.0
15.015589952468872,159,78,0.003663003663003663,1487.0,1494.0,1340,1499.0
15.038774967193604,159,78,0.003663003663003663,1488.0,1494.0,1340,1499.0
15.06198787689209,160,78,0.004048582995951417,1492.0,1494.0,1340,1500.0
15.085331916809082,158,78,0.0034965034965034965,1487.0,1494.0,1340,1498.0
15.108539819717407,158,78,0.0034965034965034965,1486.0,1494.0,1340,1498.0
15.131732940673828,158,78,0.0034965034965034965,1485.0,1494.0,1340,1498.0
15.154915809631348,158,78,0.0034965034965034965,1484.0,1494.0,1340,1498.0
15.178120851516724,158,78,0.0034965034965034965,1483.0,1494.0,1340,1498.0
15.2013258934021,158,78,0.0034965034965034965,1482.0,1494.0,1340,1498.0
15.224520921707153,158,78,0.0034965034965034965,1480.0,1494.0,1340,1498.0
15.247724771499634,158,78,0.0034965034965034965,1480,1494.0,1340,1498.0
15.27083683013916,158,78,0.003246753246753247,1480,1494.0,1340,1498.0
15.29393982887268,159,79,0.003663003663003663,1480,1494.0,1340,1499.0
15.317063808441162,159,79,0.0034965034965034965,1480.0,1494.0,1340,1499.0
15.340267896652222,159,79,0.003246753246753247,1481.0,1494.0,1340,1499.0
15.36346697807312,159,79,0.003246753246753247,1482.0,1494.0,1340,1499.0
15.386685848236084,159,79,0.003246753246753247,1483.0,1494.0,1340,1499.0
15.409940958023071,159,79,0.003246753246753247,1484.0,1494.0,1340,1499.0
15.433239936828613,160,79,0.003401360544217687,1488.0,1494.0,1340,1500.0
15.456503868103027,160,79,0.003246753246753247,1490.0,1494.0,1340,1500.0
15.479686975479126,160,79,0.003246753246753247,1492.0,1494.0,1340,1500.0
15.502981901168823,161,79,0.003246753246753247,1497.0,1494.0,1340,1501.0
15.526304960250854,160,79,0.003246753246753247,1496.0,1494.0,1340,1500.0
15.549497842788696,160,79,0.003246753246753247,1497.0,1494.0,1340,1500.0
15.572763919830322,161,79,0.003246753246753247,1501.0,1494.0,1340,1501.0
15.596064805984497,161,80,0.003246753246753247,1503.0,1494.0,1339.8499999999999,1501.0
15.619369983673096,161,80,0.003246753246753247,1505.0,1494.0,1339.7,1501.0
15.642738819122314,162,81,0.003246753246753247,1510.0,1494.0,1337.4000000000001,1502.0
15.666109800338745,164,81,0.0037593984962406013,1518.0,1494.0,1337.0999999999999,1504.0
15.689414978027344,162,81,0.003246753246753247,1516.0,1494.0,1336.8,1502.0
15.712766885757446,162,81,0.003246753246753247,1518.0,1494.0,1336.8,1502.0
15.73612380027771,163,81,0.003968253968253968,1520,1494.0,1336.8,1503.0
15.759333848953247,162,81,0.003246753246753247,1520,1494.0,1337.0999999999999,1502.0
15.782599925994873,161,81,0.003246753246753247,1520,1494.0,1337.4000000000001,1501.0
15.805896997451782,161,81,0.003246753246753247,1520,1494.0,1337.7,1501.0
15.829093933105469,161,81,0.003246753246753247,1520,1494.0,1337.8499999999999,1501.0
15.852298974990845,162,81,0.003968253968253968,1520,1494.0,1338.0,1502.0
15.875608921051025,161,82,0.003246753246753247,1520,1494.0,1335.8499999999999,1501.0
15.898825883865356,160,82,0.003246753246753247,1515.0,1494.0,1335.7,1500.0
15.92212176322937,160,82,0.003246753246753247,1513.0,1494.0,1335.55,1500.0
15.945578813552856,160,82,0.003246753246753247,1511.0,1494.0,1335.4000000000001,1500.0
15.968881845474243,160,83,0.0030303030303030303,1508.0,1494.0,1333.0999999999999,1500.0
15.992189884185791,161,83,0.003703703703703704,1509.0,1494.0,1333.0999999999999,1501.0
16.015625953674316,161,83,0.003968253968253968,1509.0,1494.0,1333.0999999999999,1501.0
16.038923978805542,160,83,0.003246753246753247,1506.0,1494.0,1333.0999999999999,1500.0
16.062219858169556,160,84,0.0030303030303030303,1505.0,1494.0,1330.95,1500.0
16.085638999938965,160,84,0.0030303030303030303,1503.0,1494.0,1331.0999999999999,1500.0
16.109227895736694,160,84,0.0030303030303030303,1502.0,1494.0,1331.0999999999999,1500.0
16.13261580467224,160,84,0.0030303030303030303,1502.0,1494.0,1331.0999999999999,1500.0
16.15599799156189,159,84,0.0030303030303030303,1499.0,1494.0,1331.0999999999999,1499.0
16.179303884506226,159,84,0.0030303030303030303,1498.0,1494.0,1331.4000000000001,1499.0
16.202682971954346,159,84,0.0030303030303030303,1497.0,1494.0,1331.55,1499.0
16.226120948791504,160,84,0.002898550724637681,1498.0,1494.0,1331.7,1500.0
16.249409914016724,159,85,0.0030303030303030303,1494.0,1494.0,1329.7,1499.0
16.272745847702026,159,85,0.0030303030303030303,1493.0,1494.0,1329.7,1499.0
16.29610776901245,159,85,0.0030303030303030303,1492.0,1494.0,1329.55,1499.0
16.319402933120728,159,85,0.0030303030303030303,1491.0,1494.0,1329.4000000000001,1499.0
16.342779874801636,159,85,0.002898550724637681,1490.0,1494.0,1329.25,1499.0
16.36622190475464,158,85,0.0030303030303030303,1486.0,1494.0,1329.4000000000001,1498.0
16.38954186439514,158,85,0.0030303030303030303,1485.0,1494.0,1329.55,1498.0
16.41289186477661,158,85,0.0030303030303030303,1484.0,1494.0,1329.7,1498.0
16.436283826828003,158,85,0.0030303030303030303,1483.0,1494.0,1329.8499999999999,1498.0
16.459598779678345,159,85,0.002898550724637681,1484.0,1494.0,1330.0,1499.0
16.48294496536255,158,86,0.0030303030303030303,1481.0,1494.0,1327.8499999999999,1498.0
16.506335973739624,159,86,0.003703703703703704,1483.0,1494.0,1327.7,1499.0
16.529639959335327,158,86,0.0030303030303030303,1480.0,1494.0,1327.55,1498.0
16.55297088623047,159,86,0.003703703703703704,1482.0,1494.0,1327.4000000000001,1499.0
16.57634687423706,159,85,0.003703703703703704,1482.0,1494.0,1329.4000000000001,1499.0
16.599618911743164,157,85,0.0030303030303030303,1480,1494.0,1329.7,1497.0
16.622901916503906,157,85,0.0030303030303030303,1480,1494.0,1330.0,1497.0
16.646204948425293,157,84,0.0030303030303030303,1480,1494.0,1332.45,1497.0
16.669413805007935,157,84,0.0030303030303030303,1480,1494.0,1332.9000000000001,1497.0
16.692681789398193,157,84,0.0030303030303030303,1480,1494.0,1333.05,1497.0
16.71598482131958,157,84,0.0030303030303030303,1480,1494.0,1333.05,1497.0
16.739205837249756,157,83,0.002840909090909091,1480,1494.0,1335.2,1497.0
16.762470960617065,158,83,0.002717391304347826,1480,1494.0,1335.05,1498.0
16.785756826400757,157,83,0.0030303030303030303,1480,1494.0,1334.9000000000001,1497.0
16.80896782875061,158,83,0.002898550724637681,1480,1494.0,1334.9000000000001,1498.0
16.832180976867676,157,83,0.0030303030303030303,1480,1494.0,1334.9000000000001,1497.0
16.855544805526733,157,83,0.0030303030303030303,1480,1494.0,1334.5999999999999,1497.0
16.878764867782593,158,83,0.0026041666666666665,1480,1494.0,1334.45,1498.0
16.901956796646118,158,83,0.002717391304347826,1480,1494.0,1334.3,1498.0
16.925426959991455,157,83,0.002840909090909091,1480,1494.0,1334.1500000000001,1497.0
16.948651790618896,158,83,0.002717391304347826,1480,1494.0,1334.0,1498.0
16.971853971481323,159,83,0.002717391304347826,1480,1494.0,1334.0,1499.0
16.995184898376465,159,83,0.002717391304347826,1480,1494.0,1334.0,1499.0
17.018385887145996,158,83,0.002840909090909091,1480,1494.0,1334.0,1498.0
17.04158592224121,158,83,0.002840909090909091,1480,1494.0,1334.0,1498.0
17.064766883850098,159,83,0.002717391304347826,1480,1494.0,1334.0,1499.0
17.087958812713623,159,83,0.002717391304347826,1481.0,1494.0,1334.0,1499.0
17.111220836639404,160,83,0.002403846153846154,1485.0,1494.0,1334.0,1500.0
17.13449478149414,160,82,0.002403846153846154,1487.0,1494.0,1336.1500000000001,1500.0
17.157782793045044,161,82,0.0025,1493.0,1494.0,1336.3,1501.0
17.181079864501953,161,82,0.0022624434389140274,1496.0,1494.0,1336.45,1501.0
17.204378843307495,161,82,0.0022624434389140274,1498.0,1494.0,1336.5999999999999,1501.0
17.22766089439392,161,81,0.002403846153846154,1500.0,1494.0,1338.9000000000001,1501.0
17.250935792922974,161,82,0.0022624434389140274,1503.0,1494.0,1336.75,1501.0
17.274208784103394,161,82,0.0022624434389140274,1506.0,1494.0,1336.5999999999999,1501.0
17.29779887199402,161,82,0.002403846153846154,1508.0,1494.0,1336.45,1501.0
17.32110285758972,161,82,0.0025,1510.0,1494.0,1336.3,1501.0
17.344401836395264,161,82,0.0025,1511.0,1494.0,1335.8499999999999,1501.0
17.367692947387695,160,82,0.0022624434389140274,1509.0,1494.0,1335.8499999999999,1500.0
17.39102292060852,160,81,0.002403846153846154,1508.0,1494.0,1338.0,1500.0
17.414308786392212,160,81,0.002403846153846154,1507.0,1494.0,1338.1500000000001,1500.0
17.437755823135376,161,81,0.0025,1509.0,1494.0,1338.3,1501.0
17.46127200126648,161,81,0.002403846153846154,1509.0,1494.0,1338.5999999999999,1501.0
17.48458480834961,161,81,0.002403846153846154,1509.0,1494.0,1338.75,1501.0
17.50787878036499,161,81,0.0022624434389140274,1509.0,1494.0,1338.5999999999999,1501.0
17.5311758518219,161,80,0.002403846153846154,1509.0,1494.0,1340,1501.0
17.554393768310547,161,80,0.002403846153846154,1509.0,1494.0,1340,1501.0
17.577597856521606,161,80,0.002403846153846154,1509.0,1494.0,1340,1501.0
17.600775957107544,161,81,0.0022624434389140274,1510.0,1494.0,1338.45,1501.0
17.624056816101074,163,80,0.002840909090909091,1517.0,1494.0,1340,1503.0
17.647259950637817,162,80,0.002403846153846154,1517.0,1494.0,1340,1502.0
17.670453786849976,162,80,0.0022624434389140274,1518.0,1494.0,1340,1502.0
17.693663835525513,162,80,0.0022624434389140274,1519.0,1494.0,1340,1502.0
17.716855764389038,163,79,0.00267379679144385,1520,1494.0,1340,1503.0
17.73996591567993,163,79,0.00267379679144385,1520,1494.0,1340,1503.0
17.763104915618896,161,79,0.0022624434389140274,1520,1494.0,1340,1501.0
17.78626585006714,161,79,0.0022624434389140274,1520,1494.0,1340,1501.0
17.809346914291382,162,79,0.00267379679144385,1520,1494.0,1340,1502.0
17.832491874694824,161,79,0.002178649237472767,1520,1494.0,1340,1501.0
17.85566997528076,160,79,0.0022624434389140274,1517.0,1494.0,1340,1500.0
17.878857851028442,159,79,0.0022624434389140274,1512.0,1494.0,1340,1499.0
17.902079820632935,159,79,0.0022624434389140274,1509.0,1494.0,1340,1499.0
17.925554990768433,158,78,0.002136752136752137,1503.0,1494.0,1340,1498.0
17.94875192642212,159,78,0.00205761316872428,1501.0,1494.0,1340,1499.0
17.971922874450684,158,77,0.002136752136752137,1494.0,1494.0,1340,1498.0
17.99527096748352,158,77,0.002136752136752137,1491.0,1494.0,1340,1498.0
18.01845693588257,159,77,0.00205761316872428,1491.0,1494.0,1340,1499.0
18.041648864746094,159,77,0.00205761316872428,1488.0,1494.0,1340,1499.0
18.06484580039978,158,77,0.002136752136752137,1483.0,1494.0,1340,1498.0
