time,frame,x,y,size_inv,roll,pitch,thrust,yaw
0.0002951622009277344,1,158,81,0.006666666666666667,1499.8,1490.0,1409.5,1500
0.022225141525268555,2,158,81,0.006666666666666667,1499.8,1490.0,1409.5,1500
0.0440061092376709,3,158,81,0.006666666666666667,1499.8,1490.0,1409.5,1500
0.06569314002990723,4,158,81,0.006666666666666667,1499.8,1490.0,1409.5,1500
0.08733701705932617,5,158,81,0.006666666666666667,1499.8,1490.0,1409.5,1500
0.10903310775756836,6,158,81,0.006666666666666667,1499.8,1490.0,1409.5,1500
0.13063812255859375,7,158,81,0.006666666666666667,1499.8,1490.0,1409.5,1500
0.15228819847106934,8,158,81,0.006666666666666667,1499.8,1490.0,1409.5,1500
0.17390704154968262,9,158,81,0.006666666666666667,1499.8,1490.0,1409.5,1500
0.19558310508728027,10,158,81,0.006666666666666667,1499.8,1490.0,1409.5,1500
0.2173612117767334,11,158,81,0.006666666666666667,1499.8,1490.0,1409.5,1500
0.2393171787261963,12,158,81,0.00625,1499.8,1481.6666666666667,1409.5,1500
0.26122617721557617,13,158,81,0.006666666666666667,1499.8,1490.0,1409.5,1500
0.28324198722839355,14,157,81,0.007142857142857143,1499.7,1499.5238095238094,1409.5,1500
0.3051900863647461,15,158,81,0.006666666666666667,1499.8,1490.0,1409.5,1500
0.32706308364868164,16,158,81,0.006666666666666667,1499.8,1490.0,1409.5,1500
0.34937405586242676,17,158,81,0.006666666666666667,1499.8,1490.0,1409.5,1500
0.37285399436950684,18,158,81,0.006666666666666667,1499.8,1490.0,1409.5,1500
0.39595913887023926,19,157,81,0.007142857142857143,1499.7,1499.5238095238094,1409.5,1500
0.419025182723999,20,158,81,0.006666666666666667,1499.8,1490.0,1409.5,1500
0.44281721115112305,21,158,81,0.006666666666666667,1499.8,1490.0,1409.5,1500
0.4663970470428467,22,158,81,0.006666666666666667,1499.8,1490.0,1409.5,1500
0.48993611335754395,23,157,81,0.007142857142857143,1499.7,1499.5238095238094,1409.5,1500
0.5133111476898193,24,158,81,0.006666666666666667,1499.8,1490.0,1409.5,1500
0.5365359783172607,25,158,81,0.006666666666666667,1499.8,1490.0,1409.5,1500
0.5596740245819092,26,158,81,0.006666666666666667,1499.8,1490.0,1409.5,1500
0.5830202102661133,27,158,81,0.006666666666666667,1499.8,1490.0,1409.5,1500
0.6067290306091309,28,157,81,0.007142857142857143,1499.7,1499.5238095238094,1409.5,1500
0.6301391124725342,29,157,81,0.007142857142857143,1499.7,1499.5238095238094,1409.5,1500
0.6534991264343262,30,158,81,0.006666666666666667,1499.8,1490.0,1409.5,1500
0.6769430637359619,31,158,81,0.006666666666666667,1499.8,1490.0,1409.5,1500
0.7004091739654541,32,158,81,0.006666666666666667,1499.8,1490.0,1409.5,1500
0.7240290641784668,33,157,81,0.007142857142857143,1499.7,1499.5238095238094,1409.5,1500
0.7474231719970703,34,158,81,0.006666666666666667,1499.8,1490.0,1409.5,1500
0.7708950042724609,35,158,81,0.006666666666666667,1499.8,1490.0,1409.5,1500
0.7943301200866699,36,157,81,0.007142857142857143,1499.7,1499.5238095238094,1409.5,1500
0.8177571296691895,37,158,81,0.006666666666666667,1499.8,1490.0,1409.5,1500
0.8411531448364258,38,158,81,0.006666666666666667,1499.8,1490.0,1409.5,1500
0.8647952079772949,39,158,81,0.006666666666666667,1499.8,1490.0,1409.5,1500
0.8881371021270752,40,158,81,0.006666666666666667,1499.8,1490.0,1409.5,1500
0.9115200042724609,41,157,81,0.007142857142857143,1499.7,1499.5238095238094,1409.5,1500
0.9350590705871582,42,158,81,0.006666666666666667,1499.8,1490.0,1409.5,1500
0.958564043045044,43,157,81,0.007142857142857143,1499.7,1499.5238095238094,1409.5,1500
0.9820461273193359,44,157,81,0.007142857142857143,1499.7,1499.5238095238094,1409.5,1500
1.0055930614471436,45,158,81,0.006666666666666667,1499.8,1490.0,1409.5,1500
1.0289812088012695,46,158,81,0.006666666666666667,1499.8,1490.0,1409.5,1500
1.0525610446929932,47,158,81,0.006666666666666667,1499.8,1490.0,1409.5,1500
1.0760769844055176,48,158,81,0.006666666666666667,1499.8,1490.0,1409.5,1500
1.099457025527954,49,157,81,0.007142857142857143,1499.7,1499.5238095238094,1409.5,1500
1.1228702068328857,50,157,81,0.007142857142857143,1499.7,1499.5238095238094,1409.5,1500
1.1464171409606934,51,157,81,0.007142857142857143,1499.7,1499.5238095238094,1409.5,1500
1.1701650619506836,52,157,81,0.007142857142857143,1499.7,1499.5238095238094,1409.5,1500
1.1936120986938477,53,158,81,0.006666666666666667,1499.8,1490.0,1409.5,1500
1.2169921398162842,54,158,81,0.006666666666666667,1499.8,1490.0,1409.5,1500
1.2404801845550537,55,158,81,0.006666666666666667,1499.8,1490.0,1409.5,1500
1.263836145401001,56,158,81,0.006666666666666667,1499.8,1490.0,1409.5,1500
1.2872791290283203,57,158,81,0.006666666666666667,1499.8,1490.0,1409.5,1500
1.3107130527496338,58,157,81,0.007142857142857143,1499.7,1499.5238095238094,1409.5,1500
1.3342339992523193,59,158,81,0.006666666666666667,1499.8,1490.0,1409.5,1500
1.3576459884643555,60,158,81,0.006666666666666667,1499.8,1490.0,1409.5,1500
1.3810701370239258,61,157,81,0.007142857142857143,1499.7,1499.5238095238094,1409.5,1500
1.40460205078125,62,158,81,0.006666666666666667,1499.8,1490.0,1409.5,1500
1.4280290603637695,63,157,81,0.007142857142857143,1499.7,1499.5238095238094,1409.5,1500
1.451416015625,64,158,81,0.006666666666666667,1499.8,1490.0,1409.5,1500
1.4750301837921143,65,158,81,0.006666666666666667,1499.8,1490.0,1409.5,1500
1.4985690116882324,66,158,81,0.006666666666666667,1499.8,1490.0,1409.5,1500
1.5220770835876465,67,158,81,0.006666666666666667,1499.8,1490.0,1409.5,1500
1.5455560684204102,68,158,81,0.006666666666666667,1499.8,1490.0,1409.5,1500
1.5690112113952637,69,158,81,0.006666666666666667,1499.8,1490.0,1409.5,1500
1.592588186264038,70,157,81,0.007142857142857143,1499.7,1499.5238095238094,1409.5,1500
1.6162080764770508,71,158,81,0.006666666666666667,1499.8,1490.0,1409.5,1500
1.639618158340454,72,158,81,0.006666666666666667,1499.8,1490.0,1409.5,1500
1.6630949974060059,73,157,81,0.007142857142857143,1499.7,1499.5238095238094,1409.5,1500
1.686521053314209,74,157,81,0.007142857142857143,1499.7,1499.5238095238094,1409.5,1500
1.7099411487579346,75,157,81,0.007142857142857143,1499.7,1499.5238095238094,1409.5,1500
1.7332701683044434,76,157,82,0.007936507936507936,1499.7,1510,1409.0,1500
1.7566649913787842,77,158,82,0.007407407407407408,1499.8,1504.8148148148148,1409.0,1500
1.7800590991973877,78,157,82,0.007936507936507936,1499.7,1510,1409.0,1500
1.8033640384674072,79,158,81,0.006666666666666667,1499.8,1490.0,1409.5,1500
1.8268330097198486,80,157,82,0.007936507936507936,1499.7,1510,1409.0,1500
1.8501241207122803,81,157,81,0.007142857142857143,1499.7,1499.5238095238094,1409.5,1500
1.8735761642456055,82,157,81,0.007142857142857143,1499.7,1499.5238095238094,1409.5,1500
1.897068977355957,83,157,81,0.007142857142857143,1499.7,1499.5238095238094,1409.5,1500
1.9205520153045654,84,157,81,0.007142857142857143,1499.7,1499.5238095238094,1409.5,1500
1.9439201354980469,85,157,81,0.007142857142857143,1499.7,1499.5238095238094,1409.5,1500
1.9673511981964111,86,157,81,0.007142857142857143,1499.7,1499.5238095238094,1409.5,1500
1.9909241199493408,87,158,81,0.006666666666666667,1499.8,1490.0,1409.5,1500
2.014756202697754,88,158,81,0.006666666666666667,1499.8,1490.0,1409.5,1500
2.0381360054016113,89,157,81,0.007936507936507936,1499.7,1510,1409.5,1500
2.0614471435546875,90,157,81,0.007936507936507936,1499.7,1510,1409.5,1500
2.084897994995117,91,158,81,0.006666666666666667,1499.8,1490.0,1409.5,1500
2.1083171367645264,92,158,81,0.006666666666666667,1499.8,1490.0,1409.5,1500
2.1317131519317627,93,158,81,0.006666666666666667,1499.8,1490.0,1409.5,1500
2.155471086502075,94,157,81,0.007142857142857143,1499.7,1499.5238095238094,1409.5,1500
2.1789112091064453,95,158,81,0.006666666666666667,1499.8,1490.0,1409.5,1500
2.2023839950561523,96,158,81,0.006666666666666667,1499.8,1490.0,1409.5,1500
2.225889205932617,97,157,81,0.007142857142857143,1499.7,1499.5238095238094,1409.5,1500
2.2493391036987305,98,157,81,0.007142857142857143,1499.7,1499.5238095238094,1409.5,1500
2.272845983505249,99,158,81,0.006666666666666667,1499.8,1490.0,1409.5,1500
2.296265125274658,100,157,81,0.006666666666666667,1499.7,1490.0,1409.5,1500
2.3197081089019775,101,157,81,0.007142857142857143,1499.7,1499.5238095238094,1409.5,1500
2.343139171600342,102,157,81,0.007142857142857143,1499.7,1499.5238095238094,1409.5,1500
2.3668580055236816,103,158,81,0.006666666666666667,1499.8,1490.0,1409.5,1500
2.3902950286865234,104,157,81,0.007142857142857143,1499.7,1499.5238095238094,1409.5,1500
2.413638114929199,105,157,81,0.007142857142857143,1499.7,1499.5238095238094,1409.5,1500
2.4370570182800293,106,157,81,0.007142857142857143,1499.7,1499.5238095238094,1409.5,1500
2.460480213165283,107,157,81,0.007142857142857143,1499.7,1499.5238095238094,1409.5,1500
2.484044075012207,108,157,81,0.007142857142857143,1499.7,1499.5238095238094,1409.5,1500
2.5074331760406494,109,157,81,0.007142857142857143,1499.7,1499.5238095238094,1409.5,1500
2.530870199203491,110,157,81,0.007142857142857143,1499.7,1499.5238095238094,1409.5,1500
2.554216146469116,111,158,81,0.006666666666666667,1499.8,1490.0,1409.5,1500
2.577681064605713,112,158,81,0.006666666666666667,1499.8,1490.0,1409.5,1500
2.601339101791382,113,157,81,0.007142857142857143,1499.7,1499.5238095238094,1409.5,1500
2.6250600814819336,114,157,81,0.007142857142857143,1499.7,1499.5238095238094,1409.5,1500
2.6486051082611084,115,157,81,0.007142857142857143,1499.7,1499.5238095238094,1409.5,1500
2.6721341609954834,116,157,81,0.007142857142857143,1499.7,1499.5238095238094,1409.5,1500
2.6955361366271973,117,157,81,0.007142857142857143,1499.7,1499.5238095238094,1409.5,1500
2.7189550399780273,118,158,81,0.006666666666666667,1499.8,1490.0,1409.5,1500
2.7424399852752686,119,157,81,0.007142857142857143,1499.7,1499.5238095238094,1409.5,1500
2.765993118286133,120,157,81,0.007142857142857143,1499.7,1499.5238095238094,1409.5,1500
2.789363145828247,121,157,81,0.007142857142857143,1499.7,1499.5238095238094,1409.5,1500
2.812857151031494,122,157,81,0.007142857142857143,1499.7,1499.5238095238094,1409.5,1500
2.8362040519714355,123,157,81,0.007142857142857143,1499.7,1499.5238095238094,1409.5,1500
2.85969614982605,124,157,81,0.007142857142857143,1499.7,1499.5238095238094,1409.5,1500
2.8830761909484863,125,157,81,0.007142857142857143,1499.7,1499.5238095238094,1409.5,1500
2.906499147415161,126,157,81,0.007142857142857143,1499.7,1499.5238095238094,1409.5,1500
2.929840087890625,127,158,81,0.006666666666666667,1499.8,1490.0,1409.5,1500
2.9532880783081055,128,157,81,0.007142857142857143,1499.7,1499.5238095238094,1409.5,1500
2.9767720699310303,129,157,81,0.007142857142857143,1499.7,1499.5238095238094,1409.5,1500
3.0001790523529053,130,157,81,0.007142857142857143,1499.7,1499.5238095238094,1409.5,1500
3.023524045944214,131,157,81,0.007142857142857143,1499.7,1499.5238095238094,1409.5,1500
3.0469391345977783,132,157,81,0.007142857142857143,1499.7,1499.5238095238094,1409.5,1500
3.070281982421875,133,157,81,0.007142857142857143,1499.7,1499.5238095238094,1409.5,1500
3.0937371253967285,134,157,81,0.007142857142857143,1499.7,1499.5238095238094,1409.5,1500
3.117152214050293,135,157,81,0.007142857142857143,1499.7,1499.5238095238094,1409.5,1500
3.140599012374878,136,157,81,0.007142857142857143,1499.7,1499.5238095238094,1409.5,1500
3.1639931201934814,137,157,81,0.007142857142857143,1499.7,1499.5238095238094,1409.5,1500
3.1874001026153564,138,157,81,0.007142857142857143,1499.7,1499.5238095238094,1409.5,1500
3.2108330726623535,139,157,82,0.007936507936507936,1499.7,1510,1409.0,1500
3.234182119369507,140,157,81,0.007142857142857143,1499.7,1499.5238095238094,1409.5,1500
3.257526159286499,141,157,82,0.007936507936507936,1499.7,1510,1409.0,1500
3.2809300422668457,142,157,81,0.007142857142857143,1499.7,1499.5238095238094,1409.5,1500
3.304352045059204,143,157,82,0.007936507936507936,1499.7,1510,1409.0,1500
3.3277289867401123,144,157,81,0.007142857142857143,1499.7,1499.5238095238094,1409.5,1500
3.3511500358581543,145,157,82,0.007936507936507936,1499.7,1510,1409.0,1500
3.3746540546417236,146,157,82,0.007936507936507936,1499.7,1510,1409.0,1500
3.3979101181030273,147,157,82,0.007936507936507936,1499.7,1510,1409.0,1500
3.421272039413452,148,157,81,0.007142857142857143,1499.7,1499.5238095238094,1409.5,1500
3.445101022720337,149,157,81,0.007142857142857143,1499.7,1499.5238095238094,1409.5,1500
3.4689149856567383,150,157,81,0.007142857142857143,1499.7,1499.5238095238094,1409.5,1500
3.492518186569214,151,157,81,0.007142857142857143,1499.7,1499.5238095238094,1409.5,1500
3.5161020755767822,152,157,81,0.007142857142857143,1499.7,1499.5238095238094,1409.5,1500
3.5394890308380127,153,157,81,0.007142857142857143,1499.7,1499.5238095238094,1409.5,1500
3.5629360675811768,154,158,81,0.006666666666666667,1499.8,1490.0,1409.5,1500
3.586308002471924,155,157,81,0.007142857142857143,1499.7,1499.5238095238094,1409.5,1500
3.609795093536377,156,157,81,0.007142857142857143,1499.7,1499.5238095238094,1409.5,1500
3.6332950592041016,157,157,81,0.007142857142857143,1499.7,1499.5238095238094,1409.5,1500
3.6568520069122314,158,157,81,0.007142857142857143,1499.7,1499.5238095238094,1409.5,1500
3.6802291870117188,159,157,81,0.007142857142857143,1499.7,1499.5238095238094,1409.5,1500
3.703634023666382,160,157,81,0.007142857142857143,1499.7,1499.5238095238094,1409.5,1500
3.7270259857177734,161,157,81,0.007142857142857143,1499.7,1499.5238095238094,1409.5,1500
3.7504000663757324,162,157,81,0.007142857142857143,1499.7,1499.5238095238094,1409.5,1500
3.7739272117614746,163,157,81,0.007142857142857143,1499.7,1499.5238095238094,1409.5,1500
3.797366142272949,164,157,81,0.007142857142857143,1499.7,1499.5238095238094,1409.5,1500
3.820871114730835,165,157,81,0.007142857142857143,1499.7,1499.5238095238094,1409.5,1500
3.8442511558532715,166,157,81,0.007142857142857143,1499.7,1499.5238095238094,1409.5,1500
3.8676869869232178,167,157,81,0.007142857142857143,1499.7,1499.5238095238094,1409.5,1500
3.891066074371338,168,157,81,0.007142857142857143,1499.7,1499.5238095238094,1409.5,1500
3.9145400524139404,169,157,81,0.007142857142857143,1499.7,1499.5238095238094,1409.5,1500
3.9380171298980713,170,157,81,0.007142857142857143,1499.7,1499.5238095238094,1409.5,1500
3.9615039825439453,171,157,81,0.007142857142857143,1499.7,1499.5238095238094,1409.5,1500
3.985257148742676,172,157,81,0.007142857142857143,1499.7,1499.5238095238094,1409.5,1500
4.008990049362183,173,157,82,0.007936507936507936,1499.7,1510,1409.0,1500
4.032426118850708,174,157,82,0.007936507936507936,1499.7,1510,1409.0,1500
4.055911064147949,175,157,82,0.007936507936507936,1499.7,1510,1409.0,1500
4.079219102859497,176,158,82,0.007407407407407408,1499.8,1504.8148148148148,1409.0,1500
4.1027610301971436,177,157,82,0.007936507936507936,1499.7,1510,1409.0,1500
4.126214027404785,178,157,82,0.007936507936507936,1499.7,1510,1409.0,1500
4.149537086486816,179,157,82,0.007936507936507936,1499.7,1510,1409.0,1500
4.172866106033325,180,157,82,0.007936507936507936,1499.7,1510,1409.0,1500
4.196130037307739,181,157,82,0.007936507936507936,1499.7,1510,1409.0,1500
4.219348192214966,182,157,82,0.007936507936507936,1499.7,1510,1409.0,1500
4.242786169052124,183,157,82,0.007936507936507936,1499.7,1510,1409.0,1500
4.266200065612793,184,157,82,0.007936507936507936,1499.7,1510,1409.0,1500
4.289523124694824,185,157,82,0.007936507936507936,1499.7,1510,1409.0,1500
4.3128821849823,186,157,82,0.007936507936507936,1499.7,1510,1409.0,1500
4.3362531661987305,187,157,82,0.007936507936507936,1499.7,1510,1409.0,1500
4.359568119049072,188,157,82,0.007936507936507936,1499.7,1510,1409.0,1500
4.3824779987335205,189,157,82,0.007936507936507936,1499.7,1510,1409.0,1500
4.405323028564453,190,157,82,0.007936507936507936,1499.7,1510,1409.0,1500
4.428006172180176,191,157,82,0.007936507936507936,1499.7,1510,1409.0,1500
4.45077919960022,192,157,82,0.007936507936507936,1499.7,1510,1409.0,1500
4.473559141159058,193,157,82,0.007936507936507936,1499.7,1510,1409.0,1500
4.4963061809539795,194,157,82,0.007936507936507936,1499.7,1510,1409.0,1500
4.519107103347778,195,157,81,0.007142857142857143,1499.7,1499.5238095238094,1409.5,1500
4.541857004165649,196,157,82,0.007936507936507936,1499.7,1510,1409.0,1500
4.564836025238037,197,157,82,0.007936507936507936,1499.7,1510,1409.0,1500
4.587522029876709,198,157,82,0.007936507936507936,1499.7,1510,1409.0,1500
4.6102800369262695,199,157,81,0.007142857142857143,1499.7,1499.5238095238094,1409.5,1500
4.633406162261963,200,157,82,0.007936507936507936,1499.7,1510,1409.0,1500
4.656124114990234,201,157,82,0.007936507936507936,1499.7,1510,1409.0,1500
4.678884983062744,202,157,82,0.007936507936507936,1499.7,1510,1409.0,1500
4.701702117919922,203,157,82,0.007936507936507936,1499.7,1510,1409.0,1500
4.724614143371582,204,157,82,0.007936507936507936,1499.7,1510,1409.0,1500
4.747326135635376,205,157,82,0.007936507936507936,1499.7,1510,1409.0,1500
4.769973993301392,206,157,82,0.007936507936507936,1499.7,1510,1409.0,1500
4.792817115783691,207,157,82,0.007936507936507936,1499.7,1510,1409.0,1500
4.8154871463775635,208,157,82,0.007936507936507936,1499.7,1510,1409.0,1500
4.838182210922241,209,157,82,0.007936507936507936,1499.7,1510,1409.0,1500
4.8609161376953125,210,157,82,0.007936507936507936,1499.7,1510,1409.0,1500
4.883683204650879,211,157,82,0.007936507936507936,1499.7,1510,1409.0,1500
4.906409978866577,212,157,82,0.007936507936507936,1499.7,1510,1409.0,1500
4.929141044616699,213,157,82,0.007936507936507936,1499.7,1510,1409.0,1500
4.9517741203308105,214,157,82,0.007936507936507936,1499.7,1510,1409.0,1500
4.974805116653442,215,157,82,0.007936507936507936,1499.7,1510,1409.0,1500
4.9974751472473145,216,157,82,0.007936507936507936,1499.7,1510,1409.0,1500
5.020148038864136,217,157,82,0.007936507936507936,1499.7,1510,1409.0,1500
5.0429041385650635,218,157,82,0.007936507936507936,1499.7,1510,1409.0,1500
5.065632104873657,219,157,82,0.007936507936507936,1499.7,1510,1409.0,1500
5.088280200958252,220,157,82,0.007936507936507936,1499.7,1510,1409.0,1500
5.111063003540039,221,157,82,0.007936507936507936,1499.7,1510,1409.0,1500
5.133817195892334,222,157,82,0.007936507936507936,1499.7,1510,1409.0,1500
5.156668186187744,223,157,82,0.007936507936507936,1499.7,1510,1409.0,1500
5.179333209991455,224,157,82,0.007936507936507936,1499.7,1510,1409.0,1500
5.2020721435546875,225,157,82,0.007936507936507936,1499.7,1510,1409.0,1500
5.224961996078491,226,158,81,0.006666666666666667,1499.8,1490.0,1409.5,1500
5.247776031494141,227,157,82,0.007936507936507936,1499.7,1510,1409.0,1500
5.27056097984314,228,157,81,0.006666666666666667,1499.7,1490.0,1409.5,1500
5.293390989303589,229,157,82,0.007407407407407408,1499.7,1504.8148148148148,1409.0,1500
5.3161461353302,230,157,81,0.007142857142857143,1499.7,1499.5238095238094,1409.5,1500
5.339114189147949,231,157,81,0.007142857142857143,1499.7,1499.5238095238094,1409.5,1500
5.362112998962402,232,157,82,0.007936507936507936,1499.7,1510,1409.0,1500
5.385155200958252,233,157,82,0.007936507936507936,1499.7,1510,1409.0,1500
5.407823085784912,234,157,82,0.007936507936507936,1499.7,1510,1409.0,1500
5.430633068084717,235,157,82,0.007936507936507936,1499.7,1510,1409.0,1500
5.4533209800720215,236,157,82,0.007936507936507936,1499.7,1510,1409.0,1500
5.476032018661499,237,157,82,0.007936507936507936,1499.7,1510,1409.0,1500
5.498858213424683,238,157,82,0.007936507936507936,1499.7,1510,1409.0,1500
5.521602153778076,239,157,82,0.007936507936507936,1499.7,1510,1409.0,1500
5.5445191860198975,240,158,82,0.007407407407407408,1499.8,1504.8148148148148,1409.0,1500
5.5674450397491455,241,158,82,0.007407407407407408,1499.8,1504.8148148148148,1409.0,1500
5.590274095535278,242,157,82,0.007936507936507936,1499.7,1510,1409.0,1500
5.613049030303955,243,157,82,0.007936507936507936,1499.7,1510,1409.0,1500
5.635719060897827,244,157,81,0.007142857142857143,1499.7,1499.5238095238094,1409.5,1500
5.658598184585571,245,157,81,0.007142857142857143,1499.7,1499.5238095238094,1409.5,1500
5.681620121002197,246,157,82,0.007936507936507936,1499.7,1510,1409.0,1500
5.704974174499512,247,157,82,0.007936507936507936,1499.7,1510,1409.0,1500
5.727887153625488,248,157,82,0.007936507936507936,1499.7,1510,1409.0,1500
5.750922203063965,249,157,82,0.007936507936507936,1499.7,1510,1409.0,1500
5.7736921310424805,250,157,82,0.007936507936507936,1499.7,1510,1409.0,1500
5.796963214874268,251,157,81,0.007142857142857143,1499.7,1499.5238095238094,1409.5,1500
5.820317029953003,252,157,81,0.007142857142857143,1499.7,1499.5238095238094,1409.5,1500
5.843437194824219,253,157,81,0.006666666666666667,1499.7,1490.0,1409.5,1500
5.8664491176605225,254,157,81,0.007142857142857143,1499.7,1499.5238095238094,1409.5,1500
5.889514207839966,255,157,81,0.006666666666666667,1499.7,1490.0,1409.5,1500
5.912718057632446,256,157,81,0.007142857142857143,1499.7,1499.5238095238094,1409.5,1500
5.936066150665283,257,157,81,0.00625,1499.7,1481.6666666666667,1409.5,1500
5.959195137023926,258,157,81,0.007142857142857143,1499.7,1499.5238095238094,1409.5,1500
5.982364177703857,259,157,81,0.007142857142857143,1499.7,1499.5238095238094,1409.5,1500
6.005788087844849,260,157,81,0.007142857142857143,1499.7,1499.5238095238094,1409.5,1500
6.0289411544799805,261,157,81,0.007142857142857143,1499.7,1499.5238095238094,1409.5,1500
6.052201986312866,262,157,81,0.007142857142857143,1499.7,1499.5238095238094,1409.5,1500
6.075462102890015,263,157,81,0.007142857142857143,1499.7,1499.5238095238094,1409.5,1500
6.098520994186401,264,157,82,0.007936507936507936,1499.7,1510,1409.0,1500
6.121528148651123,265,157,81,0.007142857142857143,1499.7,1499.5238095238094,1409.5,1500
6.1450700759887695,266,157,82,0.007936507936507936,1499.7,1510,1409.0,1500
6.1680591106414795,267,157,81,0.007142857142857143,1499.7,1499.5238095238094,1409.5,1500
6.191212177276611,268,157,81,0.007142857142857143,1499.7,1499.5238095238094,1409.5,1500
6.214184045791626,269,157,82,0.007936507936507936,1499.7,1510,1409.0,1500
6.237166166305542,270,157,82,0.007936507936507936,1499.7,1510,1409.0,1500
6.260048151016235,271,157,82,0.007936507936507936,1499.7,1510,1409.0,1500
6.283193111419678,272,157,81,0.007142857142857143,1499.7,1499.5238095238094,1409.5,1500
6.3062050342559814,273,157,81,0.007142857142857143,1499.7,1499.5238095238094,1409.5,1500
6.329331159591675,274,157,81,0.007142857142857143,1499.7,1499.5238095238094,1409.5,1500
6.352428197860718,275,158,81,0.006666666666666667,1499.8,1490.0,1409.5,1500
6.375630140304565,276,157,81,0.007142857142857143,1499.7,1499.5238095238094,1409.5,1500
6.3986639976501465,277,158,81,0.006666666666666667,1499.8,1490.0,1409.5,1500
6.421752214431763,278,157,81,0.007142857142857143,1499.7,1499.5238095238094,1409.5,1500
6.445082187652588,279,157,81,0.007142857142857143,1499.7,1499.5238095238094,1409.5,1500
6.468168020248413,280,157,81,0.007142857142857143,1499.7,1499.5238095238094,1409.5,1500
6.491276979446411,281,157,81,0.007142857142857143,1499.7,1499.5238095238094,1409.5,1500
6.5146520137786865,282,157,81,0.007142857142857143,1499.7,1499.5238095238094,1409.5,1500
6.537689208984375,283,157,81,0.007142857142857143,1499.7,1499.5238095238094,1409.5,1500
6.5608251094818115,284,157,81,0.007142857142857143,1499.7,1499.5238095238094,1409.5,1500
6.583842039108276,285,157,81,0.007142857142857143,1499.7,1499.5238095238094,1409.5,1500
6.607035160064697,286,157,81,0.007142857142857143,1499.7,1499.5238095238094,1409.5,1500
6.630063056945801,287,157,81,0.007142857142857143,1499.7,1499.5238095238094,1409.5,1500
6.65322208404541,288,157,81,0.007142857142857143,1499.7,1499.5238095238094,1409.5,1500
6.676231145858765,289,157,81,0.007142857142857143,1499.7,1499.5238095238094,1409.5,1500
6.699339151382446,290,157,81,0.007142857142857143,1499.7,1499.5238095238094,1409.5,1500
6.722511053085327,291,157,81,0.007142857142857143,1499.7,1499.5238095238094,1409.5,1500
6.74576997756958,292,157,81,0.007142857142857143,1499.7,1499.5238095238094,1409.5,1500
6.76885199546814,293,157,81,0.007142857142857143,1499.7,1499.5238095238094,1409.5,1500
6.792083024978638,294,157,81,0.007142857142857143,1499.7,1499.5238095238094,1409.5,1500
6.815208196640015,295,157,81,0.007142857142857143,1499.7,1499.5238095238094,1409.5,1500
6.838288068771362,296,157,81,0.007142857142857143,1499.7,1499.5238095238094,1409.5,1500
6.8613691329956055,297,158,81,0.006666666666666667,1499.8,1490.0,1409.5,1500
6.8847081661224365,298,157,82,0.007936507936507936,1499.7,1510,1409.0,1500
6.907625198364258,299,157,82,0.007936507936507936,1499.7,1510,1409.0,1500
6.930855989456177,300,157,81,0.007142857142857143,1499.7,1499.5238095238094,1409.5,1500
6.953919172286987,301,157,82,0.007936507936507936,1499.7,1510,1409.0,1500
6.976975202560425,302,157,82,0.007936507936507936,1499.7,1510,1409.0,1500
6.999910116195679,303,157,81,0.007142857142857143,1499.7,1499.5238095238094,1409.5,1500
7.023162126541138,304,157,82,0.007936507936507936,1499.7,1510,1409.0,1500
7.046077013015747,305,157,82,0.007407407407407408,1499.7,1504.8148148148148,1409.0,1500
7.069225072860718,306,157,82,0.007407407407407408,1499.7,1504.8148148148148,1409.0,1500
7.0924060344696045,307,157,82,0.007936507936507936,1499.7,1510,1409.0,1500
7.115595102310181,308,157,82,0.007407407407407408,1499.7,1504.8148148148148,1409.0,1500
7.138638019561768,309,157,81,0.006666666666666667,1499.7,1490.0,1409.5,1500
7.161692142486572,310,157,81,0.007142857142857143,1499.7,1499.5238095238094,1409.5,1500
7.1850550174713135,311,157,81,0.006666666666666667,1499.7,1490.0,1409.5,1500
7.2081170082092285,312,157,82,0.007407407407407408,1499.7,1504.8148148148148,1409.0,1500
7.231209993362427,313,157,82,0.007936507936507936,1499.7,1510,1409.0,1500
7.2542572021484375,314,157,82,0.007936507936507936,1499.7,1510,1409.0,1500
7.277257204055786,315,157,82,0.007407407407407408,1499.7,1504.8148148148148,1409.0,1500
7.3003010749816895,316,157,82,0.007407407407407408,1499.7,1504.8148148148148,1409.0,1500
7.323409080505371,317,157,82,0.007407407407407408,1499.7,1504.8148148148148,1409.0,1500
7.346532106399536,318,157,82,0.007407407407407408,1499.7,1504.8148148148148,1409.0,1500
7.369656085968018,319,157,82,0.007936507936507936,1499.7,1510,1409.0,1500
7.392765045166016,320,157,82,0.007407407407407408,1499.7,1504.8148148148148,1409.0,1500
7.415986061096191,321,157,81,0.006666666666666667,1499.7,1490.0,1409.5,1500
7.4390740394592285,322,157,82,0.007936507936507936,1499.7,1510,1409.0,1500
7.462213039398193,323,157,82,0.007407407407407408,1499.7,1504.8148148148148,1409.0,1500
7.4854631423950195,324,157,81,0.006666666666666667,1499.7,1490.0,1409.5,1500
7.5085461139678955,325,157,81,0.006666666666666667,1499.7,1490.0,1409.5,1500
7.531548023223877,326,157,81,0.006666666666666667,1499.7,1490.0,1409.5,1500
7.554838180541992,327,157,81,0.006666666666666667,1499.7,1490.0,1409.5,1500
7.577906131744385,328,157,82,0.007407407407407408,1499.7,1504.8148148148148,1409.0,1500
7.6011340618133545,329,157,82,0.007407407407407408,1499.7,1504.8148148148148,1409.0,1500
7.624185085296631,330,157,81,0.006666666666666667,1499.7,1490.0,1409.5,1500
7.647317171096802,331,157,82,0.007407407407407408,1499.7,1504.8148148148148,1409.0,1500
7.670297145843506,332,157,81,0.006666666666666667,1499.7,1490.0,1409.5,1500
7.693456172943115,333,157,82,0.007936507936507936,1499.7,1510,1409.0,1500
7.7163310050964355,334,157,82,0.007407407407407408,1499.7,1504.8148148148148,1409.0,1500
7.739454984664917,335,157,82,0.007936507936507936,1499.7,1510,1409.0,1500
7.762463092803955,336,157,82,0.007407407407407408,1499.7,1504.8148148148148,1409.0,1500
7.785731077194214,337,157,82,0.007936507936507936,1499.7,1510,1409.0,1500
7.80870509147644,338,157,82,0.007936507936507936,1499.7,1510,1409.0,1500
7.831575155258179,339,157,82,0.007936507936507936,1499.7,1510,1409.0,1500
7.854743003845215,340,157,82,0.007936507936507936,1499.7,1510,1409.0,1500
7.87788200378418,341,157,82,0.007936507936507936,1499.7,1510,1409.0,1500
7.900777101516724,342,157,82,0.007936507936507936,1499.7,1510,1409.0,1500
7.923882007598877,343,157,82,0.007936507936507936,1499.7,1510,1409.0,1500
7.947020053863525,344,157,82,0.007936507936507936,1499.7,1510,1409.0,1500
7.970165014266968,345,157,82,0.007936507936507936,1499.7,1510,1409.0,1500
7.993610143661499,346,157,82,0.007936507936507936,1499.7,1510,1409.0,1500
8.016751050949097,347,157,82,0.007936507936507936,1499.7,1510,1409.0,1500
8.03967809677124,348,157,82,0.007936507936507936,1499.7,1510,1409.0,1500
8.062625169754028,349,157,82,0.007936507936507936,1499.7,1510,1409.0,1500
8.08583116531372,350,158,82,0.007407407407407408,1499.8,1504.8148148148148,1409.0,1500
8.109172105789185,351,157,82,0.007936507936507936,1499.7,1510,1409.0,1500
8.132333040237427,352,157,82,0.007936507936507936,1499.7,1510,1409.0,1500
8.155510187149048,353,157,82,0.007936507936507936,1499.7,1510,1409.0,1500
8.178482055664062,354,157,82,0.007936507936507936,1499.7,1510,1409.0,1500
8.201436996459961,355,157,82,0.007936507936507936,1499.7,1510,1409.0,1500
8.22460412979126,356,157,82,0.007936507936507936,1499.7,1510,1409.0,1500
8.247512102127075,357,157,82,0.007936507936507936,1499.7,1510,1409.0,1500
8.270423173904419,358,157,82,0.007936507936507936,1499.7,1510,1409.0,1500
8.2934091091156,359,157,82,0.007936507936507936,1499.7,1510,1409.0,1500
8.316399097442627,360,157,82,0.007936507936507936,1499.7,1510,1409.0,1500
8.339462995529175,361,157,82,0.007407407407407408,1499.7,1504.8148148148148,1409.0,1500
8.362720012664795,362,157,82,0.007407407407407408,1499.7,1504.8148148148148,1409.0,1500
8.38571310043335,363,157,82,0.007407407407407408,1499.7,1504.8148148148148,1409.0,1500
8.408476114273071,364,157,82,0.007407407407407408,1499.7,1504.8148148148148,1409.0,1500
8.431389093399048,365,157,81,0.006666666666666667,1499.7,1490.0,1409.5,1500
8.454438209533691,366,157,82,0.007407407407407408,1499.7,1504.8148148148148,1409.0,1500
8.47737717628479,367,157,82,0.007407407407407408,1499.7,1504.8148148148148,1409.0,1500
8.500200033187866,368,157,81,0.00625,1499.7,1481.6666666666667,1409.5,1500
8.523192167282104,369,157,81,0.006666666666666667,1499.7,1490.0,1409.5,1500
8.546011209487915,370,157,81,0.006666666666666667,1499.7,1490.0,1409.5,1500
8.568886995315552,371,157,81,0.007142857142857143,1499.7,1499.5238095238094,1409.5,1500
8.591768026351929,372,157,81,0.007142857142857143,1499.7,1499.5238095238094,1409.5,1500
8.614814043045044,373,157,81,0.007936507936507936,1499.7,1510,1409.5,1500
8.63758111000061,374,157,81,0.007142857142857143,1499.7,1499.5238095238094,1409.5,1500
8.660449028015137,375,158,81,0.007407407407407408,1499.8,1504.8148148148148,1409.5,1500
8.683446168899536,376,158,81,0.007407407407407408,1499.8,1504.8148148148148,1409.5,1500
8.70634913444519,377,157,81,0.007936507936507936,1499.7,1510,1409.5,1500
8.729165077209473,378,157,81,0.007936507936507936,1499.7,1510,1409.5,1500
8.751893997192383,379,157,81,0.007936507936507936,1499.7,1510,1409.5,1500
8.774768114089966,380,157,81,0.007936507936507936,1499.7,1510,1409.5,1500
8.79752516746521,381,157,81,0.007936507936507936,1499.7,1510,1409.5,1500
8.820166110992432,382,157,81,0.007936507936507936,1499.7,1510,1409.5,1500
8.842995166778564,383,157,81,0.007936507936507936,1499.7,1510,1409.5,1500
8.86576509475708,384,157,81,0.007936507936507936,1499.7,1510,1409.5,1500
8.888475179672241,385,157,81,0.007936507936507936,1499.7,1510,1409.5,1500
8.911217212677002,386,157,81,0.007936507936507936,1499.7,1510,1409.5,1500
8.933990001678467,387,157,80,0.007142857142857143,1499.7,1499.5238095238094,1410.0,1500
8.956842184066772,388,157,81,0.007936507936507936,1499.7,1510,1409.5,1500
8.97958517074585,389,157,81,0.007936507936507936,1499.7,1510,1409.5,1500
9.002397060394287,390,157,81,0.007936507936507936,1499.7,1510,1409.5,1500
9.02532410621643,391,157,81,0.007936507936507936,1499.7,1510,1409.5,1500
9.048072099685669,392,157,81,0.007407407407407408,1499.7,1504.8148148148148,1409.5,1500
9.070874214172363,393,157,81,0.007936507936507936,1499.7,1510,1409.5,1500
9.093636989593506,394,157,80,0.007142857142857143,1499.7,1499.5238095238094,1410.0,1500
9.116389989852905,395,157,81,0.007407407407407408,1499.7,1504.8148148148148,1409.5,1500
9.139339208602905,396,157,80,0.006666666666666667,1499.7,1490.0,1410.0,1500
9.16226315498352,397,156,80,0.007142857142857143,1499.5999999999999,1499.5238095238094,1410.0,1500
9.185374021530151,398,157,80,0.006666666666666667,1499.7,1490.0,1410.0,1500
9.208149194717407,399,156,80,0.007142857142857143,1499.5999999999999,1499.5238095238094,1410.0,1500
9.231039047241211,400,157,80,0.00625,1499.7,1481.6666666666667,1410.0,1500
9.253820180892944,401,157,80,0.006666666666666667,1499.7,1490.0,1410.0,1500
9.276915073394775,402,157,80,0.006666666666666667,1499.7,1490.0,1410.0,1500
9.299710988998413,403,156,79,0.007142857142857143,1499.5999999999999,1499.5238095238094,1410.5,1500
9.32258915901184,404,156,79,0.007142857142857143,1499.5999999999999,1499.5238095238094,1410.5,1500
9.345574140548706,405,156,79,0.007142857142857143,1499.5999999999999,1499.5238095238094,1410.5,1500
9.36844515800476,406,156,79,0.00625,1499.5999999999999,1481.6666666666667,1410.5,1500
9.39134407043457,407,156,79,0.006666666666666667,1499.5999999999999,1490.0,1410.5,1500
9.414275169372559,408,156,79,0.00625,1499.5999999999999,1481.6666666666667,1410.5,1500
9.437247037887573,409,156,79,0.007407407407407408,1499.5999999999999,1504.8148148148148,1410.5,1500
9.460308074951172,410,156,79,0.007407407407407408,1499.5999999999999,1504.8148148148148,1410.5,1500
9.483219146728516,411,156,78,0.006666666666666667,1499.5999999999999,1490.0,1411.0,1500
9.506079196929932,412,155,78,0.007142857142857143,1499.5,1499.5238095238094,1411.0,1500
9.528872013092041,413,155,78,0.007142857142857143,1499.5,1499.5238095238094,1411.0,1500
9.551752090454102,414,156,78,0.00625,1499.5999999999999,1481.6666666666667,1411.0,1500
9.574619054794312,415,156,78,0.006666666666666667,1499.5999999999999,1490.0,1411.0,1500
9.597604036331177,416,156,78,0.005681818181818182,1499.5999999999999,1470.3030303030303,1411.0,1500
9.620402097702026,417,155,77,0.007142857142857143,1499.5,1499.5238095238094,1411.5,1500
9.64338207244873,418,155,77,0.007142857142857143,1499.5,1499.5238095238094,1411.5,1500
9.666177034378052,419,155,77,0.007142857142857143,1499.5,1499.5238095238094,1411.5,1500
9.689006090164185,420,155,77,0.007142857142857143,1499.5,1499.5238095238094,1411.5,1500
9.711793184280396,421,155,77,0.007142857142857143,1499.5,1499.5238095238094,1411.5,1500
9.734811067581177,422,155,77,0.007142857142857143,1499.5,1499.5238095238094,1411.5,1500
9.757654190063477,423,156,77,0.00625,1499.5999999999999,1481.6666666666667,1411.5,1500
9.780553102493286,424,155,77,0.007142857142857143,1499.5,1499.5238095238094,1411.5,1500
9.803436040878296,425,156,77,0.00625,1499.5999999999999,1481.6666666666667,1411.5,1500
9.826267004013062,426,156,77,0.00625,1499.5999999999999,1481.6666666666667,1411.5,1500
9.849132061004639,427,156,77,0.006666666666666667,1499.5999999999999,1490.0,1411.5,1500
9.872088193893433,428,156,77,0.006666666666666667,1499.5999999999999,1490.0,1411.5,1500
9.89499020576477,429,156,77,0.006666666666666667,1499.5999999999999,1490.0,1411.5,1500
9.917872190475464,430,156,77,0.00625,1499.5999999999999,1481.6666666666667,1411.5,1500
9.940831184387207,431,156,77,0.006666666666666667,1499.5999999999999,1490.0,1411.5,1500
9.96376919746399,432,156,77,0.006666666666666667,1499.5999999999999,1490.0,1411.5,1500
9.98664116859436,433,157,77,0.005555555555555556,1499.7,1470,1411.5,1500
10.009721994400024,434,156,77,0.006666666666666667,1499.5999999999999,1490.0,1411.5,1500
10.032670021057129,435,157,77,0.005050505050505051,1499.7,1470,1411.5,1500
10.055644035339355,436,158,77,0.0053475935828877,1499.8,1470,1411.5,1500
10.078329086303711,437,158,77,0.0053475935828877,1499.8,1470,1411.5,1500
10.101119041442871,438,156,77,0.006493506493506494,1499.5999999999999,1486.5367965367966,1411.5,1500
10.123942136764526,439,157,76,0.006666666666666667,1499.7,1490.0,1412.0,1500
10.146740198135376,440,156,76,0.007142857142857143,1499.5999999999999,1499.5238095238094,1412.0,1500
10.169697046279907,441,156,76,0.007142857142857143,1499.5999999999999,1499.5238095238094,1412.0,1500
10.192646980285645,442,158,76,0.005050505050505051,1499.8,1470,1412.0,1500
10.21549916267395,443,156,76,0.006493506493506494,1499.5999999999999,1486.5367965367966,1412.0,1500
10.238327980041504,444,158,76,0.005050505050505051,1499.8,1470,1412.0,1500
10.26109504699707,445,158,76,0.005050505050505051,1499.8,1470,1412.0,1500
10.283868074417114,446,158,76,0.005050505050505051,1499.8,1470,1412.0,1500
10.306529998779297,447,158,75,0.005555555555555556,1499.8,1470,1412.5,1500
10.329390048980713,448,158,75,0.005555555555555556,1499.8,1470,1412.5,1500
10.352490186691284,449,158,75,0.005050505050505051,1499.8,1470,1412.5,1500
10.375530004501343,450,158,75,0.005050505050505051,1499.8,1470,1412.5,1500
10.398277997970581,451,158,75,0.005050505050505051,1499.8,1470,1412.5,1500
10.421020030975342,452,158,75,0.005050505050505051,1499.8,1470,1412.5,1500
10.44374704360962,453,158,75,0.005050505050505051,1499.8,1470,1412.5,1500
10.466480016708374,454,158,75,0.005050505050505051,1499.8,1470,1412.5,1500
10.48930811882019,455,158,75,0.005050505050505051,1499.8,1470,1412.5,1500
10.512185096740723,456,158,75,0.005050505050505051,1499.8,1470,1412.5,1500
10.534987211227417,457,158,75,0.005050505050505051,1499.8,1470,1412.5,1500
10.557777166366577,458,158,75,0.005050505050505051,1499.8,1470,1412.5,1500
10.580649137496948,459,158,75,0.005050505050505051,1499.8,1470,1412.5,1500
10.603517055511475,460,158,75,0.005050505050505051,1499.8,1470,1412.5,1500
10.626278162002563,461,158,75,0.004784688995215311,1499.8,1470,1412.5,1500
10.64897108078003,462,158,75,0.004784688995215311,1499.8,1470,1412.5,1500
10.671766996383667,463,157,75,0.005050505050505051,1499.7,1470,1412.5,1500
10.694617986679077,464,157,74,0.004629629629629629,1499.7,1470,1413.0,1500
10.71744704246521,465,157,74,0.005050505050505051,1499.7,1470,1413.0,1500
10.740145206451416,466,157,74,0.005050505050505051,1499.7,1470,1413.0,1500
10.76289701461792,467,157,74,0.005050505050505051,1499.7,1470,1413.0,1500
10.785686016082764,468,157,74,0.005050505050505051,1499.7,1470,1413.0,1500
10.808504104614258,469,157,74,0.004784688995215311,1499.7,1470,1413.0,1500
10.831289052963257,470,157,73,0.0043859649122807015,1499.7,1470,1413.5,1500
10.854076147079468,471,157,73,0.004784688995215311,1499.7,1470,1413.5,1500
10.876749038696289,472,157,73,0.004784688995215311,1499.7,1470,1413.5,1500
10.899569034576416,473,156,73,0.005050505050505051,1499.5999999999999,1470,1413.5,1500
10.922381162643433,474,156,73,0.005050505050505051,1499.5999999999999,1470,1413.5,1500
10.945274114608765,475,156,73,0.005050505050505051,1499.5999999999999,1470,1413.5,1500
10.968024015426636,476,156,72,0.004629629629629629,1499.5999999999999,1470,1414.0,1500
10.990783214569092,477,156,72,0.004629629629629629,1499.5999999999999,1470,1414.0,1500
11.013648986816406,478,156,72,0.005050505050505051,1499.5999999999999,1470,1414.0,1500
11.036413192749023,479,156,72,0.005050505050505051,1499.5999999999999,1470,1414.0,1500
11.059157133102417,480,156,71,0.0043859649122807015,1499.5999999999999,1470,1414.5,1500
11.081907033920288,481,156,71,0.0043859649122807015,1499.5999999999999,1470,1414.5,1500
11.104932069778442,482,156,71,0.004629629629629629,1499.5999999999999,1470,1414.5,1500
11.127758979797363,483,157,71,0.0043859649122807015,1499.7,1470,1414.5,1500
11.150448083877563,484,156,71,0.0043859649122807015,1499.5999999999999,1470,1414.5,1500
11.173418998718262,485,156,71,0.004784688995215311,1499.5999999999999,1470,1414.5,1500
11.196394205093384,486,156,71,0.004784688995215311,1499.5999999999999,1470,1414.5,1500
11.219310998916626,487,156,71,0.004629629629629629,1499.5999999999999,1470,1414.5,1500
11.242250204086304,488,156,71,0.0043859649122807015,1499.5999999999999,1470,1414.5,1500
11.26521611213684,489,156,71,0.004166666666666667,1499.5999999999999,1470,1414.5,1500
11.287938117980957,490,156,71,0.0043859649122807015,1499.5999999999999,1470,1414.5,1500
11.310646057128906,491,156,71,0.0043859649122807015,1499.5999999999999,1470,1414.5,1500
11.333478212356567,492,156,71,0.004048582995951417,1499.5999999999999,1470,1414.5,1500
11.356332063674927,493,156,71,0.0043859649122807015,1499.5999999999999,1470,1414.5,1500
11.379255056381226,494,156,71,0.004048582995951417,1499.5999999999999,1470,1414.5,1500
11.402233123779297,495,156,71,0.004048582995951417,1499.5999999999999,1470,1414.5,1500
11.425252199172974,496,156,70,0.0043859649122807015,1499.5999999999999,1470,1415.0,1500
11.448010206222534,497,156,70,0.0043859649122807015,1499.5999999999999,1470,1415.0,1500
11.4706871509552,498,156,70,0.004629629629629629,1499.5999999999999,1470,1415.0,1500
11.493848085403442,499,156,70,0.004048582995951417,1499.5999999999999,1470,1415.0,1500
11.516601085662842,500,156,70,0.004273504273504274,1499.5999999999999,1470,1415.0,1500
11.539539098739624,501,157,70,0.004048582995951417,1499.7,1470,1415.0,1500
11.562572002410889,502,157,70,0.004048582995951417,1499.7,1470,1415.0,1500
11.58581805229187,503,156,69,0.004273504273504274,1499.5999999999999,1470,1415,1500
11.608766078948975,504,156,69,0.004273504273504274,1499.5999999999999,1470,1415,1500
11.631786108016968,505,157,69,0.004048582995951417,1499.7,1470,1415,1500
11.654972076416016,506,157,68,0.0035714285714285713,1499.7,1470,1415,1500
11.677955150604248,507,157,68,0.004048582995951417,1499.7,1470,1415,1500
11.700814008712769,508,157,68,0.004048582995951417,1499.7,1470,1415,1500
11.723718166351318,509,158,68,0.003663003663003663,1499.8,1470,1415,1500
11.746567010879517,510,157,68,0.004048582995951417,1499.7,1470,1415,1500
11.769748210906982,511,158,67,0.003401360544217687,1499.8,1470,1415,1500
11.792770147323608,512,157,67,0.004273504273504274,1499.7,1470,1415,1500
11.815919160842896,513,159,67,0.003663003663003663,1499.9000000000001,1470,1415,1500
11.838743209838867,514,159,67,0.003663003663003663,1499.9000000000001,1470,1415,1500
11.861716032028198,515,159,66,0.003401360544217687,1499.9000000000001,1470,1415,1500
11.884895086288452,516,159,66,0.003663003663003663,1499.9000000000001,1470,1415,1500
11.9079430103302,517,159,66,0.003663003663003663,1499.9000000000001,1470,1415,1500
11.930828094482422,518,159,66,0.003663003663003663,1499.9000000000001,1470,1415,1500
11.953782081604004,519,159,66,0.003663003663003663,1499.9000000000001,1470,1415,1500
11.976953029632568,520,159,66,0.003663003663003663,1499.9000000000001,1470,1415,1500
11.999781131744385,521,159,66,0.003663003663003663,1499.9000000000001,1470,1415,1500
12.022515058517456,522,159,66,0.003663003663003663,1499.9000000000001,1470,1415,1500
12.045206069946289,523,159,66,0.003663003663003663,1499.9000000000001,1470,1415,1500
12.067869186401367,524,159,66,0.003663003663003663,1499.9000000000001,1470,1415,1500
12.090466022491455,525,159,66,0.0034965034965034965,1499.9000000000001,1470,1415,1500
12.113118171691895,526,158,66,0.0034965034965034965,1499.8,1470,1415,1500
12.135733127593994,527,158,66,0.0034965034965034965,1499.8,1470,1415,1500
12.15839409828186,528,158,65,0.003246753246753247,1499.8,1470,1415,1500
12.180994033813477,529,158,65,0.003246753246753247,1499.8,1470,1415,1500
12.203639030456543,530,158,65,0.003246753246753247,1499.8,1470,1415,1500
12.226729154586792,531,158,65,0.003246753246753247,1499.8,1470,1415,1500
12.249906063079834,532,158,65,0.003246753246753247,1499.8,1470,1415,1500
12.272989988327026,533,158,65,0.003246753246753247,1499.8,1470,1415,1500
12.29613208770752,534,158,65,0.003246753246753247,1499.8,1470,1415,1500
12.319210052490234,535,159,65,0.003105590062111801,1499.9000000000001,1470,1415,1500
12.342417001724243,536,158,65,0.0030303030303030303,1499.8,1470,1415,1500
12.365646123886108,537,157,64,0.003246753246753247,1499.7,1470,1415,1500
12.388796091079712,538,157,64,0.003246753246753247,1499.7,1470,1415,1500
12.411895990371704,539,157,64,0.003246753246753247,1499.7,1470,1415,1500
12.435211181640625,540,158,64,0.003105590062111801,1499.8,1470,1415,1500
12.458315134048462,541,158,64,0.002898550724637681,1499.8,1470,1415,1500
12.481450080871582,542,157,64,0.0030303030303030303,1499.7,1470,1415,1500
12.504690170288086,543,157,64,0.002898550724637681,1499.7,1470,1415,1500
12.52785611152649,544,157,64,0.002898550724637681,1499.7,1470,1415,1500
12.55093502998352,545,157,64,0.002898550724637681,1499.7,1470,1415,1500
12.574088096618652,546,156,63,0.003246753246753247,1499.5999999999999,1470,1415,1500
12.597210168838501,547,157,63,0.003105590062111801,1499.7,1470,1415,1500
12.620347023010254,548,157,63,0.002898550724637681,1499.7,1470,1415,1500
12.643410205841064,549,156,63,0.0030303030303030303,1499.5999999999999,1470,1415,1500
12.66657018661499,550,157,62,0.003105590062111801,1499.7,1470,1415,1500
12.689916133880615,551,156,62,0.003246753246753247,1499.5999999999999,1470,1415,1500
12.713078022003174,552,156,62,0.0030303030303030303,1499.5999999999999,1470,1415,1500
12.736186981201172,553,157,62,0.002898550724637681,1499.7,1470,1415,1500
12.75875210762024,554,156,62,0.0030303030303030303,1499.5999999999999,1470,1415,1500
12.782353162765503,555,155,61,0.003246753246753247,1499.5,1470,1415,1500
12.805997133255005,556,157,61,0.003968253968253968,1499.7,1470,1415,1500
12.829503059387207,557,156,61,0.002976190476190476,1499.5999999999999,1470,1415,1500
12.853279113769531,558,155,61,0.003246753246753247,1499.5,1470,1415,1500
12.87647819519043,559,155,61,0.0030303030303030303,1499.5,1470,1415,1500
12.899574995040894,560,155,61,0.0030303030303030303,1499.5,1470,1415,1500
12.922751188278198,561,155,61,0.0030303030303030303,1499.5,1470,1415,1500
12.945856094360352,562,155,61,0.0030303030303030303,1499.5,1470,1415,1500
12.969022989273071,563,156,61,0.002898550724637681,1499.5999999999999,1470,1415,1500
12.992179155349731,564,156,61,0.002898550724637681,1499.5999999999999,1470,1415,1500
13.015383005142212,565,156,61,0.0026666666666666666,1499.5999999999999,1470,1415,1500
13.038469076156616,566,155,60,0.0026041666666666665,1499.5,1470,1415,1500
13.061612129211426,567,155,60,0.002717391304347826,1499.5,1470,1415,1500
13.084848165512085,568,154,60,0.002840909090909091,1499.4000000000001,1470,1415,1500
13.108029127120972,569,156,60,0.002403846153846154,1499.5999999999999,1470,1415,1500
13.131127119064331,570,156,60,0.002403846153846154,1499.5999999999999,1470,1415,1500
13.154284000396729,571,156,60,0.002403846153846154,1499.5999999999999,1470,1415,1500
13.17737603187561,572,156,60,0.002564102564102564,1499.5999999999999,1470,1415,1500
13.200508117675781,573,156,60,0.002564102564102564,1499.5999999999999,1470,1415,1500
13.223568201065063,574,156,59,0.002403846153846154,1499.5999999999999,1470,1415,1500
13.246694087982178,575,156,59,0.002403846153846154,1499.5999999999999,1470,1415,1500
13.269812107086182,576,156,59,0.002403846153846154,1499.5999999999999,1470,1415,1500
13.29295015335083,577,156,59,0.002403846153846154,1499.5999999999999,1470,1415,1500
13.316054105758667,578,156,59,0.0022624434389140274,1499.5999999999999,1470,1415,1500
13.339203119277954,579,156,59,0.0022624434389140274,1499.5999999999999,1470,1415,1500
13.362428188323975,580,157,58,0.0023148148148148147,1499.7,1470,1415,1500
13.38571310043335,581,156,58,0.002403846153846154,1499.5999999999999,1470,1415,1500
13.409037113189697,582,157,58,0.0023148148148148147,1499.7,1470,1415,1500
13.432335138320923,583,157,58,0.002178649237472767,1499.7,1470,1415,1500
13.455629110336304,584,156,58,0.0022624434389140274,1499.5999999999999,1470,1415,1500
13.478816032409668,585,157,58,0.002178649237472767,1499.7,1470,1415,1500
13.502018213272095,586,157,57,0.002178649237472767,1499.7,1470,1415,1500
13.525229215621948,587,156,57,0.0022624434389140274,1499.5999999999999,1470,1415,1500
13.548321008682251,588,157,57,0.002178649237472767,1499.7,1470,1415,1500
13.571514129638672,589,156,57,0.0022624434389140274,1499.5999999999999,1470,1415,1500
13.594947099685669,590,157,56,0.0023148148148148147,1499.7,1470,1415,1500
13.618137121200562,591,156,56,0.0022624434389140274,1499.5999999999999,1470,1415,1500
13.641242027282715,592,156,56,0.0022624434389140274,1499.5999999999999,1470,1415,1500
13.664538145065308,593,156,56,0.0022624434389140274,1499.5999999999999,1470,1415,1500
13.687631130218506,594,157,56,0.002178649237472767,1499.7,1470,1415,1500
13.710776090621948,595,156,55,0.002403846153846154,1499.5999999999999,1470,1415,1500
13.73386001586914,596,157,55,0.0023148148148148147,1499.7,1470,1415,1500
13.757018089294434,597,156,55,0.0022624434389140274,1499.5999999999999,1470,1415,1500
13.780112981796265,598,157,55,0.002178649237472767,1499.7,1470,1415,1500
13.803232192993164,599,156,55,0.0022624434389140274,1499.5999999999999,1470,1415,1500
13.826335191726685,600,156,55,0.0022624434389140274,1499.5999999999999,1470,1415,1500
13.849744081497192,601,155,55,0.0022624434389140274,1499.5,1470,1415,1500
13.872950077056885,602,156,55,0.0021008403361344537,1499.5999999999999,1470,1415,1500
13.896160125732422,603,155,55,0.0022624434389140274,1499.5,1470,1415,1500
13.919291019439697,604,156,54,0.00205761316872428,1499.5999999999999,1470,1415,1500
13.942456007003784,605,156,54,0.002178649237472767,1499.5999999999999,1470,1415,1500
13.965676069259644,606,155,54,0.0022624434389140274,1499.5,1470,1415,1500
13.988824129104614,607,154,54,0.0022624434389140274,1499.4000000000001,1470,1415,1500
14.012274980545044,608,154,54,0.0022624434389140274,1499.4000000000001,1470,1415,1500
14.035498142242432,609,155,53,0.00205761316872428,1499.5,1470,1415,1500
14.058677196502686,610,156,53,0.002028397565922921,1499.5999999999999,1470,1415,1500
14.0817711353302,611,156,53,0.002028397565922921,1499.5999999999999,1470,1415,1500
14.105040073394775,612,156,53,0.002028397565922921,1499.5999999999999,1470,1415,1500
14.12819218635559,613,156,52,0.0019157088122605363,1499.5999999999999,1470,1415,1500
14.151381015777588,614,155,52,0.001851851851851852,1499.5,1470,1415,1500
14.174636125564575,615,155,52,0.001851851851851852,1499.5,1470,1415,1500
14.197792053222656,616,155,52,0.001851851851851852,1499.5,1470,1415,1500
14.220890045166016,617,155,51,0.001851851851851852,1499.5,1470,1415,1500
14.244032144546509,618,155,51,0.001851851851851852,1499.5,1470,1415,1500
14.267115116119385,619,155,51,0.001851851851851852,1499.5,1470,1415,1500
14.290276050567627,620,155,51,0.001851851851851852,1499.5,1470,1415,1500
14.313364028930664,621,155,51,0.001697792869269949,1499.5,1470,1415,1500
14.33650803565979,622,155,50,0.0017921146953405018,1499.5,1470,1415,1500
14.359646081924438,623,155,50,0.0017921146953405018,1499.5,1470,1415,1500
14.382797002792358,624,155,50,0.0017921146953405018,1499.5,1470,1415,1500
14.40591311454773,625,155,49,0.0017921146953405018,1499.5,1470,1415,1500
14.429052114486694,626,155,49,0.0017921146953405018,1499.5,1470,1415,1500
14.452224016189575,627,155,49,0.001697792869269949,1499.5,1470,1415,1500
14.475526094436646,628,155,49,0.001697792869269949,1499.5,1470,1415,1500
14.4986891746521,629,155,49,0.001697792869269949,1499.5,1470,1415,1500
14.521833181381226,630,155,49,0.001697792869269949,1499.5,1470,1415,1500
14.545050144195557,631,155,49,0.001697792869269949,1499.5,1470,1415,1500
14.568220138549805,632,155,48,0.001697792869269949,1499.5,1470,1415,1500
14.591312170028687,633,154,48,0.0017543859649122807,1499.4000000000001,1470,1415,1500
14.61461615562439,634,154,48,0.0017543859649122807,1499.4000000000001,1470,1415,1500
14.637726068496704,635,154,48,0.0017543859649122807,1499.4000000000001,1470,1415,1500
14.660892009735107,636,155,47,0.0016129032258064516,1499.5,1470,1415,1500
14.683979034423828,637,155,47,0.0016129032258064516,1499.5,1470,1415,1500
14.707170009613037,638,155,47,0.0016129032258064516,1499.5,1470,1415,1500
14.730273008346558,639,155,47,0.0016129032258064516,1499.5,1470,1415,1500
14.753427982330322,640,155,47,0.001697792869269949,1499.5,1470,1415,1500
14.776538133621216,641,155,46,0.0016129032258064516,1499.5,1470,1415,1500
14.799673080444336,642,155,46,0.0016129032258064516,1499.5,1470,1415,1500
14.822753190994263,643,155,46,0.0016129032258064516,1499.5,1470,1415,1500
14.845888137817383,644,155,46,0.0016129032258064516,1499.5,1470,1415,1500
14.868979215621948,645,155,46,0.0016129032258064516,1499.5,1470,1415,1500
14.892193078994751,646,155,46,0.0016129032258064516,1499.5,1470,1415,1500
14.915385007858276,647,155,46,0.001488095238095238,1499.5,1470,1415,1500
14.938552141189575,648,155,45,0.0016129032258064516,1499.5,1470,1415,1500
14.961652040481567,649,155,45,0.0016129032258064516,1499.5,1470,1415,1500
14.984941005706787,650,156,45,0.0014005602240896359,1499.5999999999999,1470,1415,1500
15.008111000061035,651,156,45,0.0014005602240896359,1499.5999999999999,1470,1415,1500
15.031260013580322,652,156,45,0.0014005602240896359,1499.5999999999999,1470,1415,1500
15.054883003234863,653,156,45,0.0014005602240896359,1499.5999999999999,1470,1415,1500
15.078111171722412,654,157,44,0.0014285714285714286,1499.7,1470,1415,1500
15.10122299194336,655,157,44,0.0014285714285714286,1499.7,1470,1415,1500
15.124487161636353,656,157,44,0.0013605442176870747,1499.7,1470,1415,1500
15.147600173950195,657,157,44,0.0014005602240896359,1499.7,1470,1415,1500
15.17075514793396,658,157,44,0.0013605442176870747,1499.7,1470,1415,1500
15.19383716583252,659,157,44,0.0013605442176870747,1499.7,1470,1415,1500
15.216984987258911,660,157,43,0.001336898395721925,1499.7,1470,1415,1500
15.240089178085327,661,158,43,0.0013605442176870747,1499.8,1470,1415,1500
15.263253211975098,662,158,43,0.0013605442176870747,1499.8,1470,1415,1500
15.28638505935669,663,158,43,0.0013605442176870747,1499.8,1470,1415,1500
15.309553146362305,664,158,42,0.0013605442176870747,1499.8,1470,1415,1500
15.332786083221436,665,158,42,0.0013605442176870747,1499.8,1470,1415,1500
15.356106042861938,666,158,42,0.0013605442176870747,1499.8,1470,1415,1500
15.379208087921143,667,158,41,0.0012987012987012987,1499.8,1470,1415,1500
15.402405023574829,668,158,41,0.0012987012987012987,1499.8,1470,1415,1500
15.42558217048645,669,158,41,0.0013605442176870747,1499.8,1470,1415,1500
15.44876503944397,670,158,41,0.0013227513227513227,1499.8,1470,1415,1500
15.471883058547974,671,158,41,0.0013605442176870747,1499.8,1470,1415,1500
15.49521017074585,672,158,40,0.0012987012987012987,1499.8,1470,1415,1500
15.518343210220337,673,158,40,0.0012987012987012987,1499.8,1470,1415,1500
15.541483163833618,674,158,40,0.0012987012987012987,1499.8,1470,1415,1500
15.564738988876343,675,158,40,0.0012987012987012987,1499.8,1470,1415,1500
15.587902069091797,676,158,40,0.0012987012987012987,1499.8,1470,1415,1500
15.6110360622406,677,158,40,0.0012422360248447205,1499.8,1470,1415,1500
15.634226083755493,678,157,40,0.0012787723785166241,1499.7,1470,1415,1500
15.65732216835022,679,158,39,0.0012987012987012987,1499.8,1470,1415,1500
15.680521011352539,680,157,39,0.0012987012987012987,1499.7,1470,1415,1500
15.703603982925415,681,157,39,0.0012626262626262627,1499.7,1470,1415,1500
15.726754188537598,682,157,39,0.0012422360248447205,1499.7,1470,1415,1500
15.74990200996399,683,158,39,0.0011750881316098707,1499.8,1470,1415,1500
15.773114204406738,684,158,39,0.0011750881316098707,1499.8,1470,1415,1500
15.796229124069214,685,158,38,0.0012285012285012285,1499.8,1470,1415,1500
15.818819999694824,686,158,38,0.0011961722488038277,1499.8,1470,1415,1500
15.842473983764648,687,159,38,0.0011750881316098707,1499.9000000000001,1470,1415,1500
15.866234064102173,688,158,37,0.0011961722488038277,1499.8,1470,1415,1500
15.88986611366272,689,158,37,0.0011148272017837235,1499.8,1470,1415,1500
15.913413047790527,690,157,37,0.0011441647597254005,1499.7,1470,1415,1500
15.936964988708496,691,158,36,0.0011655011655011655,1499.8,1470,1415,1500
15.960510015487671,692,157,36,0.0011961722488038277,1499.7,1470,1415,1500
15.98438310623169,693,157,36,0.0011961722488038277,1499.7,1470,1415,1500
16.008411169052124,694,158,36,0.0011148272017837235,1499.8,1470,1415,1500
16.032114028930664,695,157,36,0.0011148272017837235,1499.7,1470,1415,1500
16.05581307411194,696,157,36,0.0011148272017837235,1499.7,1470,1415,1500
16.07936120033264,697,157,35,0.0011655011655011655,1499.7,1470,1415,1500
16.10289216041565,698,157,35,0.0010869565217391304,1499.7,1470,1415,1500
16.12642812728882,699,157,35,0.0011148272017837235,1499.7,1470,1415,1500
16.15021014213562,700,157,35,0.0011148272017837235,1499.7,1470,1415,1500
16.173768043518066,701,156,34,0.0011441647597254005,1499.5999999999999,1470,1415,1500
16.197334051132202,702,156,34,0.0011441647597254005,1499.5999999999999,1470,1415,1500
16.22089719772339,703,157,34,0.0011148272017837235,1499.7,1470,1415,1500
16.244819164276123,704,157,34,0.0011148272017837235,1499.7,1470,1415,1500
16.268383026123047,705,156,33,0.0011148272017837235,1499.5999999999999,1470,1415,1500
16.292009115219116,706,156,33,0.0011148272017837235,1499.5999999999999,1470,1415,1500
16.315895080566406,707,156,32,0.0010683760683760685,1499.5999999999999,1470,1415,1500
16.33951210975647,708,156,32,0.0011441647597254005,1499.5999999999999,1470,1415,1500
16.363129138946533,709,156,31,0.0011148272017837235,1499.5999999999999,1470,1415,1500
16.38671612739563,710,157,31,0.0010604453870625664,1499.7,1470,1415,1500
16.41028904914856,711,155,31,0.0011441647597254005,1499.5,1470,1415,1500
16.43385100364685,712,157,30,0.0010162601626016261,1499.7,1470,1415,1500
16.457431077957153,713,157,30,0.0010162601626016261,1499.7,1470,1415,1500
16.480985164642334,714,157,30,0.0010604453870625664,1499.7,1470,1415,1500
16.50501298904419,715,156,30,0.0010351966873706005,1499.5999999999999,1470,1415,1500
16.528573989868164,716,156,29,0.000992063492063492,1499.5999999999999,1470,1415,1500
16.552170038223267,717,157,29,0.0010162601626016261,1499.7,1470,1415,1500
16.57578206062317,718,156,29,0.000992063492063492,1499.5999999999999,1470,1415,1500
16.59942102432251,719,156,29,0.000992063492063492,1499.5999999999999,1470,1415,1500
16.623395204544067,720,156,29,0.0009523809523809524,1499.5999999999999,1470,1415,1500
16.647014141082764,721,157,28,0.000992063492063492,1499.7,1470,1415,1500
16.670592069625854,722,157,28,0.0009523809523809524,1499.7,1470,1415,1500
16.69435405731201,723,157,28,0.0009523809523809524,1499.7,1470,1415,1500
16.717879056930542,724,157,28,0.0009523809523809524,1499.7,1470,1415,1500
16.741401195526123,725,157,28,0.0009523809523809524,1499.7,1470,1415,1500
16.76534605026245,726,157,27,0.0009157509157509158,1499.7,1470,1415,1500
16.78890109062195,727,157,27,0.0009302325581395349,1499.7,1470,1415,1500
16.812509059906006,728,157,27,0.0009523809523809524,1499.7,1470,1415,1500
16.83610510826111,729,158,26,0.0008944543828264759,1499.8,1470,1415,1500
16.859674215316772,730,158,26,0.0009302325581395349,1499.8,1470,1415,1500
16.88321304321289,731,158,25,0.0008944543828264759,1499.8,1470,1415,1500
16.906745195388794,732,158,25,0.0008944543828264759,1499.8,1470,1415,1500
16.930299997329712,733,158,25,0.0008944543828264759,1499.8,1470,1415,1500
16.954097986221313,734,158,24,0.0008944543828264759,1499.8,1470,1415,1500
16.977715015411377,735,158,24,0.0008741258741258741,1499.8,1470,1415,1500
17.001761198043823,736,158,24,0.0008741258741258741,1499.8,1470,1415,1500
17.02546715736389,737,159,24,0.0008547008547008547,1499.9000000000001,1470,1415,1500
17.049029111862183,738,159,24,0.0008417508417508417,1499.9000000000001,1470,1415,1500
17.072686195373535,739,159,23,0.0008361204013377926,1499.9000000000001,1470,1415,1500
