time,frame,x,y,size_inv,roll,pitch,thrust,yaw
0.00030994415283203125,1,132,105,6.50702758979698e-05,1497.2,1480,1240.0,1500
0.022774934768676758,2,132,107,6.412722842118764e-05,1497.2,1480,1236.0,1500
0.04450392723083496,3,132,105,6.653802648213454e-05,1497.2,1480,1240.0,1500
0.06612205505371094,4,131,102,6.983727913960472e-05,1497.1,1480,1246.0,1500
0.08774590492248535,5,132,105,6.624271330153684e-05,1497.2,1480,1240.0,1500
0.10929489135742188,6,131,104,6.83526999316473e-05,1497.1,1480,1242.0,1500
0.13093805313110352,7,133,106,6.696578048617156e-05,1497.3,1480,1238.0,1500
0.15246295928955078,8,132,104,6.858710562414266e-05,1497.2,1480,1242.0,1500
0.1739819049835205,9,133,103,6.901311249137337e-05,1497.3,1480,1244.0,1500
0.19552087783813477,10,134,99,7.256894049346879e-05,1497.4,1480,1252.0,1500
0.2170569896697998,11,135,101,7.229612492770387e-05,1497.5,1480,1248.0,1500
0.23872709274291992,12,136,97,7.512019230769231e-05,1497.6,1480,1256.0,1500
0.26035594940185547,13,138,95,7.829627309740057e-05,1497.8,1480,1260.0,1500
0.2820160388946533,14,139,94,8.049585446349512e-05,1497.9,1480,1262.0,1500
0.3036520481109619,15,140,93,8.19672131147541e-05,1498.0,1480,1264.0,1500
0.3252561092376709,16,143,97,8.138020833333333e-05,1498.3,1480,1256.0,1500
0.34684205055236816,17,144,96,8.468834688346883e-05,1498.4,1480,1258.0,1500
0.3684730529785156,18,146,90,9.074410163339382e-05,1498.6,1480,1270.0,1500
0.3900771141052246,19,147,91,9.074410163339382e-05,1498.7,1480,1268.0,1500
0.4116799831390381,20,148,89,9.775171065493646e-05,1498.8,1480,1272.0,1500
0.43327999114990234,21,149,94,9.081827263645445e-05,1498.9,1480,1262.0,1500
0.4548959732055664,22,149,90,9.856100926473487e-05,1498.9,1480,1270.0,1500
0.4765510559082031,23,149,89,0.00010237510237510238,1498.9,1480,1272.0,1500
0.4981420040130615,24,149,90,0.00010290183165260341,1498.9,1480,1270.0,1500
0.5197858810424805,25,149,84,0.00011671335200746966,1498.9,1480,1282.0,1500
0.5414679050445557,26,149,85,0.00011366219595362583,1498.9,1480,1280.0,1500
0.5630741119384766,27,149,88,0.00010829542993285683,1498.9,1480,1274.0,1500
0.5846710205078125,28,149,83,0.00011986096128490951,1498.9,1480,1284.0,1500
0.6062819957733154,29,149,85,0.00012055455093429777,1498.9,1480,1280.0,1500
0.6278719902038574,30,149,85,0.00011507479861910241,1498.9,1480,1280.0,1500
0.6494638919830322,31,148,87,0.00011761938367442955,1498.8,1480,1276.0,1500
0.6712369918823242,32,148,85,0.00011914690813773382,1498.8,1480,1280.0,1500
0.692828893661499,33,148,83,0.00012094823415578132,1498.8,1480,1284.0,1500
0.7144169807434082,34,148,83,0.00012413108242303873,1498.8,1480,1284.0,1500
0.7360138893127441,35,148,83,0.00011655011655011655,1498.8,1480,1284.0,1500
0.7576100826263428,36,149,76,0.00013528138528138528,1498.9,1480,1298.0,1500
0.7792110443115234,37,149,80,0.00012094823415578132,1498.9,1480,1290.0,1500
0.8009450435638428,38,149,83,0.00011061946902654867,1498.9,1480,1284.0,1500
0.8225760459899902,39,149,74,0.00013297872340425532,1498.9,1480,1300,1500
0.8441250324249268,40,150,83,0.00010925379656943078,1499.0,1480,1284.0,1500
0.8657429218292236,41,150,78,0.00011125945705384957,1499.0,1480,1294.0,1500
0.8873369693756104,42,151,75,0.00011098779134295228,1499.1,1480,1300.0,1500
0.9089460372924805,43,149,82,9.938382031405287e-05,1498.9,1480,1286.0,1500
0.9305319786071777,44,149,80,9.74089226573154e-05,1498.9,1480,1290.0,1500
0.952111005783081,45,148,76,9.686168151879117e-05,1498.8,1480,1298.0,1500
0.9738171100616455,46,146,78,9.03342366757001e-05,1498.6,1480,1294.0,1500
0.9954280853271484,47,144,74,8.909479686386316e-05,1498.4,1480,1300,1500
1.0169739723205566,48,142,74,8.983111749910169e-05,1498.2,1480,1300,1500
1.0385260581970215,49,140,74,8.557980316645271e-05,1498.0,1480,1300,1500
1.0600619316101074,50,136,74,8.012820512820513e-05,1497.6,1480,1300,1500
1.0816240310668945,51,135,75,7.751337105650724e-05,1497.5,1480,1300.0,1500
1.1032240390777588,52,133,77,7.538067239559776e-05,1497.3,1480,1296.0,1500
1.1248068809509277,53,131,74,7.8125e-05,1497.1,1480,1300,1500
1.1463019847869873,54,128,68,6.901311249137337e-05,1496.8,1480,1300,1500
1.168200969696045,55,125,78,6.366588145412873e-05,1496.5,1480,1294.0,1500
1.1898748874664307,56,123,94,7.24427702115329e-05,1496.3,1480,1262.0,1500
1.2115249633789062,57,122,82,5.896921806816842e-05,1496.2,1480,1286.0,1500
1.2331089973449707,58,122,65,6.012506012506013e-05,1496.2,1480,1300,1500
1.2546520233154297,59,122,69,5.450185306300414e-05,1496.2,1480,1300,1500
1.2762279510498047,60,123,75,4.833953690723643e-05,1496.3,1480,1300.0,1500
1.2978079319000244,61,124,80,4.347070074769605e-05,1496.4,1480,1290.0,1500
1.3194050788879395,62,124,80,4.1967433271781096e-05,1496.4,1480,1290.0,1500
1.3411319255828857,63,127,76,4.2165626581210996e-05,1496.7,1480,1298.0,1500
1.3627541065216064,64,131,85,3.633720930232558e-05,1497.1,1480,1280.0,1500
1.3843441009521484,65,133,78,3.8370040672243114e-05,1497.3,1480,1294.0,1500
1.405940055847168,66,136,80,3.547608911593586e-05,1497.6,1480,1290.0,1500
1.4275379180908203,67,138,82,3.462124359506994e-05,1497.8,1480,1286.0,1500
1.4491240978240967,68,140,85,3.248862897985705e-05,1498.0,1480,1280.0,1500
1.470879077911377,69,141,80,3.4127363319909904e-05,1498.1,1480,1290.0,1500
1.492501974105835,70,143,83,3.200204813108039e-05,1498.3,1480,1284.0,1500
1.5140860080718994,71,144,78,3.3845529005618355e-05,1498.4,1480,1294.0,1500
1.5356919765472412,72,144,78,3.402749421532598e-05,1498.4,1480,1294.0,1500
1.557276964187622,73,144,85,3.21316110789795e-05,1498.4,1480,1280.0,1500
1.5788829326629639,74,143,85,3.30392837083292e-05,1498.3,1480,1280.0,1500
1.6004750728607178,75,142,86,3.3413525795241913e-05,1498.2,1480,1278.0,1500
1.622087001800537,76,141,82,3.607243344636029e-05,1498.1,1480,1286.0,1500
1.643686056137085,77,139,85,3.701236212895107e-05,1497.9,1480,1280.0,1500
1.665343999862671,78,139,86,3.8280442521915554e-05,1497.9,1480,1278.0,1500
1.6869549751281738,79,136,88,3.9013732833957553e-05,1497.6,1480,1274.0,1500
1.70853590965271,80,135,84,4.167013917826485e-05,1497.5,1480,1282.0,1500
1.7301158905029297,81,134,75,4.8732943469785574e-05,1497.4,1480,1300.0,1500
1.751723051071167,82,133,86,4.44642063139173e-05,1497.3,1480,1278.0,1500
1.7733509540557861,83,134,80,4.852484472049689e-05,1497.4,1480,1290.0,1500
1.7949578762054443,84,134,72,5.52364118426867e-05,1497.4,1480,1300,1500
1.8165130615234375,85,133,72,6.77690431011114e-05,1497.3,1480,1300,1500
1.8380529880523682,86,133,80,6.038647342995169e-05,1497.3,1480,1290.0,1500
1.8597099781036377,87,133,82,5.835667600373483e-05,1497.3,1480,1286.0,1500
1.8814079761505127,88,132,71,7.582075972401244e-05,1497.2,1480,1300,1500
1.902980089187622,89,130,83,7.054673721340387e-05,1497.0,1480,1284.0,1500
1.9245669841766357,90,126,73,9.174311926605505e-05,1496.6,1480,1300,1500
1.9461219310760498,91,125,81,8.663259118080222e-05,1496.5,1480,1288.0,1500
1.9677479267120361,92,122,84,9.015506671474937e-05,1496.2,1480,1282.0,1500
1.9893560409545898,93,120,87,9.45179584120983e-05,1496.0,1480,1276.0,1500
2.0110599994659424,94,118,93,9.770395701025892e-05,1495.8,1480,1264.0,1500
2.0326719284057617,95,117,92,0.00011022927689594356,1495.7,1480,1266.0,1500
2.0542850494384766,96,116,93,0.00014190435646374344,1495.6,1480,1264.0,1500
2.0758719444274902,97,114,92,0.00014184397163120567,1495.4,1480,1266.0,1500
2.097440004348755,98,112,101,0.00031969309462915604,1495.2,1480,1248.0,1500
2.11899995803833,99,111,101,0.00017605633802816902,1495.1,1480,1248.0,1500
2.1405510902404785,100,111,127,0.000641025641025641,1495.1,1481.4102564102564,1200,1500
2.1621649265289307,101,105,86,0.0008071025020177562,1494.5,1483.0710250201776,1278.0,1500
2.1838250160217285,102,112,74,0.002840909090909091,1495.2,1503.409090909091,1300,1500
2.2054059505462646,103,99,112,0.004201680672268907,1493.9,1517.0168067226891,1226.0,1500
2.2270500659942627,104,107,114,0.003289473684210526,1494.7,1507.8947368421052,1222.0,1500
2.248718023300171,105,104,82,0.0026666666666666666,1494.4,1501.6666666666667,1286.0,1500
2.270358085632324,106,105,118,0.0033444816053511705,1494.5,1508.4448160535117,1214.0,1500
2.2920069694519043,107,92,79,0.002857142857142857,1493.2,1503.5714285714287,1292.0,1500
2.3236379623413086,108,107,125,0.014285714285714285,1494.7,1520,1200.0,1500
2.3453400135040283,109,94,94,0.020833333333333332,1493.4,1520,1262.0,1500
2.3669309616088867,110,106,132,0.03571428571428571,1494.6,1520,1200,1500
2.3884360790252686,111,92,72,0.010526315789473684,1493.2,1520,1300,1500
2.4099230766296387,112,94,82,0.01282051282051282,1493.4,1520,1286.0,1500
2.4314680099487305,113,75,95,0.013888888888888888,1491.5,1520,1260.0,1500
2.4530301094055176,114,98,123,0.05555555555555555,1493.8,1520,1204.0,1500
2.4745919704437256,115,73,83,0.017857142857142856,1491.3,1520,1284.0,1500
2.4961628913879395,116,86,82,0.041666666666666664,1492.6,1520,1286.0,1500
2.517720937728882,117,69,113,0.016666666666666666,1490.9,1520,1224.0,1500
2.5392770767211914,118,88,86,0.015384615384615385,1492.8,1520,1278.0,1500
2.561099052429199,119,79,125,0.008771929824561403,1491.9,1520,1200.0,1500
2.5826730728149414,120,87,118,0.00909090909090909,1492.7,1520,1214.0,1500
2.604279041290283,121,76,88,0.003703703703703704,1491.6,1512.037037037037,1274.0,1500
2.625933885574341,122,89,93,0.005952380952380952,1492.9,1520,1264.0,1500
2.647502899169922,123,82,91,0.0037593984962406013,1492.2,1512.593984962406,1268.0,1500
2.66919207572937,124,79,84,0.004545454545454545,1491.9,1520,1282.0,1500
2.6908740997314453,125,90,110,0.005,1493.0,1520,1230.0,1500
2.712398052215576,126,83,84,0.001388888888888889,1492.3,1488.888888888889,1282.0,1500
2.7340409755706787,127,82,95,0.00267379679144385,1492.2,1501.7379679144385,1260.0,1500
2.7556838989257812,128,85,105,0.001081081081081081,1492.5,1485.8108108108108,1240.0,1500
2.777343988418579,129,84,92,0.000819000819000819,1492.4,1483.1900081900083,1266.0,1500
2.7990050315856934,130,89,92,0.002652519893899204,1492.9,1501.525198938992,1266.0,1500
2.8206799030303955,131,84,88,0.0013513513513513514,1492.4,1488.5135135135135,1274.0,1500
2.842355966567993,132,83,94,0.0023148148148148147,1492.3,1498.148148148148,1262.0,1500
2.864001989364624,133,84,89,0.0009398496240601503,1492.4,1484.3984962406016,1272.0,1500
2.8856608867645264,134,85,95,0.0015082956259426848,1492.5,1490.0829562594267,1260.0,1500
2.907349109649658,135,83,83,0.0020242914979757085,1492.3,1495.2429149797572,1284.0,1500
2.928997039794922,136,83,93,0.0007974481658692185,1492.3,1482.9744816586922,1264.0,1500
2.9506618976593018,137,82,95,0.001589825119236884,1492.2,1490.898251192369,1260.0,1500
2.9723451137542725,138,83,96,0.0010683760683760685,1492.3,1485.6837606837607,1258.0,1500
2.9939870834350586,139,82,88,0.0010869565217391304,1492.2,1485.8695652173913,1274.0,1500
3.0156290531158447,140,83,105,0.0007867820613690008,1492.3,1482.86782061369,1240.0,1500
3.037271022796631,141,84,98,0.0006459948320413437,1492.4,1481.4599483204133,1254.0,1500
3.058954954147339,142,83,82,0.002136752136752137,1492.3,1496.3675213675215,1286.0,1500
3.080599069595337,143,87,90,0.001287001287001287,1492.7,1487.870012870013,1270.0,1500
3.1022379398345947,144,95,104,0.0021929824561403508,1493.5,1496.9298245614036,1242.0,1500
3.1238670349121094,145,89,114,0.0018018018018018018,1492.9,1493.018018018018,1222.0,1500
3.1455090045928955,146,87,99,0.001937984496124031,1492.7,1494.3798449612402,1252.0,1500
3.1671650409698486,147,87,87,0.0010822510822510823,1492.7,1485.8225108225108,1276.0,1500
3.188810110092163,148,90,111,0.0011695906432748538,1493.0,1486.6959064327486,1228.0,1500
3.210437059402466,149,91,104,0.000966183574879227,1493.1,1484.6618357487923,1242.0,1500
3.2320799827575684,150,96,87,0.001098901098901099,1493.6,1485.989010989011,1276.0,1500
3.253726005554199,151,92,89,0.0012077294685990338,1493.2,1487.0772946859904,1272.0,1500
3.2753820419311523,152,94,76,0.0016260162601626016,1493.4,1491.260162601626,1298.0,1500
3.297013998031616,153,94,93,0.000992063492063492,1493.4,1484.920634920635,1264.0,1500
3.3186559677124023,154,101,74,0.0019047619047619048,1494.1,1494.047619047619,1300,1500
3.3402390480041504,155,101,107,0.0016366612111292963,1494.1,1491.3666121112929,1236.0,1500
3.362220048904419,156,104,71,0.0006313131313131314,1494.4,1481.3131313131314,1300,1500
3.383842945098877,157,101,82,0.00035714285714285714,1494.1,1480,1286.0,1500
3.405402898788452,158,105,82,0.0003026634382566586,1494.5,1480,1286.0,1500
3.426959991455078,159,106,83,0.0002886002886002886,1494.6,1480,1284.0,1500
3.4485108852386475,160,110,83,0.00017768301350390902,1495.0,1480,1284.0,1500
3.4700710773468018,161,114,89,0.00013808340237503452,1495.4,1480,1272.0,1500
3.4916350841522217,162,116,86,0.0001417233560090703,1495.6,1480,1278.0,1500
3.5131819248199463,163,118,87,0.00012993762993762994,1495.8,1480,1276.0,1500
3.5347509384155273,164,120,76,0.00014688601645123384,1496.0,1480,1298.0,1500
3.5562870502471924,165,123,87,0.00011644154634373545,1496.3,1480,1276.0,1500
3.57785701751709,166,126,86,0.00010912265386294194,1496.6,1480,1278.0,1500
3.5994069576263428,167,128,85,0.00010642826734780758,1496.8,1480,1280.0,1500
3.6210899353027344,168,129,79,0.00011291779584462511,1496.9,1480,1292.0,1500
3.6426620483398438,169,132,84,9.957184108334163e-05,1497.2,1480,1282.0,1500
3.6642959117889404,170,133,83,9.453582907922102e-05,1497.3,1480,1284.0,1500
3.6858670711517334,171,134,81,9.269558769002595e-05,1497.4,1480,1288.0,1500
3.7074320316314697,172,134,81,8.847208705653367e-05,1497.4,1480,1288.0,1500
3.7289879322052,173,133,74,9.49667616334283e-05,1497.3,1480,1300,1500
3.7504799365997314,174,132,71,9.712509712509713e-05,1497.2,1480,1300,1500
3.772005081176758,175,128,77,8.172605426610003e-05,1496.8,1480,1296.0,1500
3.793588876724243,176,124,75,8.200754469411185e-05,1496.4,1480,1300.0,1500
3.815195083618164,177,117,75,7.765180928715639e-05,1495.7,1480,1300.0,1500
3.836771011352539,178,111,78,9.134922809902256e-05,1495.1,1480,1294.0,1500
3.8583569526672363,179,100,81,9.057971014492754e-05,1494.0,1480,1288.0,1500
3.879941940307617,180,92,81,0.00010082677959265981,1493.2,1480,1288.0,1500
3.9015250205993652,181,86,89,0.001851851851851852,1492.6,1493.5185185185185,1272.0,1500
3.9231700897216797,182,70,110,0.007518796992481203,1491.0,1520,1230.0,1500
3.9447450637817383,183,66,103,0.05555555555555555,1490.6,1520,1244.0,1500
3.9662020206451416,184,,,,1500.0,1500.0,1250.0,1500
3.987478017807007,185,,,,1500.0,1500.0,1250.0,1500
4.008692026138306,186,,,,1500.0,1500.0,1250.0,1500
4.029896974563599,187,,,,1500.0,1500.0,1250.0,1500
4.051107883453369,188,,,,1500.0,1500.0,1250.0,1500
4.072321891784668,189,,,,1500.0,1500.0,1250.0,1500
4.093523025512695,190,,,,1500.0,1500.0,1250.0,1500
4.114732027053833,191,,,,1500.0,1500.0,1250.0,1500
4.135932922363281,192,,,,1500.0,1500.0,1250.0,1500
4.157166957855225,193,,,,1500.0,1500.0,1250.0,1500
4.178425073623657,194,,,,1500.0,1500.0,1250.0,1500
4.19971489906311,195,,,,1500.0,1500.0,1250.0,1500
4.221000909805298,196,,,,1500.0,1500.0,1250.0,1500
4.242218017578125,197,,,,1500.0,1500.0,1250.0,1500
4.263434886932373,198,,,,1500.0,1500.0,1250.0,1500
4.284650087356567,199,,,,1500.0,1500.0,1250.0,1500
4.305872917175293,200,,,,1500.0,1500.0,1250.0,1500
4.327095985412598,201,,,,1500.0,1500.0,1250.0,1500
4.348315000534058,202,,,,1500.0,1500.0,1250.0,1500
4.369539022445679,203,,,,1500.0,1500.0,1250.0,1500
4.3908751010894775,204,,,,1500.0,1500.0,1250.0,1500
4.412091016769409,205,,,,1500.0,1500.0,1250.0,1500
4.433304071426392,206,,,,1500.0,1500.0,1250.0,1500
4.4545300006866455,207,,,,1500.0,1500.0,1250.0,1500
4.475778102874756,208,,,,1500.0,1500.0,1250.0,1500
4.497003078460693,209,,,,1500.0,1500.0,1250.0,1500
4.518229961395264,210,,,,1500.0,1500.0,1250.0,1500
4.539454936981201,211,,,,1500.0,1500.0,1250.0,1500
4.560894012451172,212,,,,1500.0,1500.0,1250.0,1500
4.582118988037109,213,,,,1500.0,1500.0,1250.0,1500
4.6033289432525635,214,,,,1500.0,1500.0,1250.0,1500
4.62456202507019,215,,,,1500.0,1500.0,1250.0,1500
4.645787954330444,216,,,,1500.0,1500.0,1250.0,1500
4.667030096054077,217,,,,1500.0,1500.0,1250.0,1500
4.68825101852417,218,,,,1500.0,1500.0,1250.0,1500
4.7094690799713135,219,,,,1500.0,1500.0,1250.0,1500
4.730844020843506,220,,,,1500.0,1500.0,1250.0,1500
4.752374887466431,221,,,,1500.0,1500.0,1250.0,1500
4.773633003234863,222,,,,1500.0,1500.0,1250.0,1500
4.794862985610962,223,,,,1500.0,1500.0,1250.0,1500
4.816116094589233,224,,,,1500.0,1500.0,1250.0,1500
4.837347984313965,225,,,,1500.0,1500.0,1250.0,1500
4.858580112457275,226,,,,1500.0,1500.0,1250.0,1500
4.879817962646484,227,,,,1500.0,1500.0,1250.0,1500
4.901066064834595,228,,,,1500.0,1500.0,1250.0,1500
4.922291994094849,229,,,,1500.0,1500.0,1250.0,1500
4.943530082702637,230,,,,1500.0,1500.0,1250.0,1500
4.964814901351929,231,,,,1500.0,1500.0,1250.0,1500
4.986219882965088,232,112,133,0.012987012987012988,1495.2,1520,1200,1500
5.00777792930603,233,125,134,0.007142857142857143,1496.5,1520,1200,1500
5.029306888580322,234,130,121,0.0012903225806451613,1497.0,1487.9032258064517,1208.0,1500
5.051119089126587,235,139,118,0.000946969696969697,1497.9,1484.469696969697,1214.0,1500
5.072810888290405,236,130,106,0.0001550387596899225,1497.0,1480,1238.0,1500
5.094409942626953,237,136,100,0.0001263902932254803,1497.6,1480,1250.0,1500
5.116013050079346,238,145,98,0.00011439029970258523,1498.5,1480,1254.0,1500
5.137609958648682,239,151,88,9.112447603426281e-05,1499.1,1480,1274.0,1500
5.15921688079834,240,157,87,8.602150537634408e-05,1499.7,1480,1276.0,1500
5.180985927581787,241,165,87,8.721437292865864e-05,1500.5,1480,1276.0,1500
5.202604055404663,242,170,86,8.76577840112202e-05,1501.0,1480,1278.0,1500
5.224196910858154,243,175,87,8.837044892188053e-05,1501.5,1480,1276.0,1500
5.2458250522613525,244,180,90,8.652764558276369e-05,1502.0,1480,1270.0,1500
5.267435073852539,245,184,88,8.909479686386316e-05,1502.4,1480,1274.0,1500
5.28904390335083,246,188,88,9.007386056566384e-05,1502.8,1480,1274.0,1500
5.310625076293945,247,190,90,9.03342366757001e-05,1503.0,1480,1270.0,1500
5.332210063934326,248,192,90,9.182736455463728e-05,1503.2,1480,1270.0,1500
5.353822946548462,249,194,90,9.107468123861566e-05,1503.4,1480,1270.0,1500
5.3754661083221436,250,196,91,9.209799226376865e-05,1503.6,1480,1268.0,1500
5.397129058837891,251,197,92,9.314456035767511e-05,1503.7,1480,1266.0,1500
5.418751001358032,252,198,93,9.238728750923873e-05,1503.8,1480,1264.0,1500
5.440370082855225,253,200,94,9.134922809902256e-05,1504.0,1480,1262.0,1500
5.461970090866089,254,199,93,9.46969696969697e-05,1503.9,1480,1264.0,1500
5.483572006225586,255,200,94,9.549274255156608e-05,1504.0,1480,1262.0,1500
5.505162000656128,256,199,94,9.603380389897244e-05,1503.9,1480,1262.0,1500
5.526750087738037,257,196,93,9.63020030816641e-05,1503.6,1480,1264.0,1500
5.548352956771851,258,195,94,9.578544061302682e-05,1503.5,1480,1262.0,1500
5.569955110549927,259,193,95,9.603380389897244e-05,1503.3,1480,1260.0,1500
5.591556072235107,260,190,95,9.770395701025892e-05,1503.0,1480,1260.0,1500
5.613131046295166,261,187,95,9.686168151879117e-05,1502.7,1480,1260.0,1500
5.634737014770508,262,183,95,9.968102073365231e-05,1502.3,1480,1260.0,1500
5.6563720703125,263,180,95,0.00010237510237510238,1502.0,1480,1260.0,1500
5.677946090698242,264,175,95,0.00010667804565820355,1501.5,1480,1260.0,1500
5.699527978897095,265,172,96,0.00010822510822510823,1501.2,1480,1258.0,1500
5.721258878707886,266,170,96,0.00011259993244004054,1501.0,1480,1258.0,1500
5.742825031280518,267,166,98,0.00011326311020500623,1500.6,1480,1254.0,1500
5.76441502571106,268,163,98,0.00011870845204178538,1500.3,1480,1254.0,1500
5.7859930992126465,269,161,100,0.00011291779584462511,1500.1,1480,1250.0,1500
5.807598114013672,270,159,100,0.0001179245283018868,1499.9,1480,1250.0,1500
5.829206943511963,271,157,103,0.00011538017768547363,1499.7,1480,1244.0,1500
5.850934028625488,272,155,102,0.0001179245283018868,1499.5,1480,1246.0,1500
5.872534990310669,273,154,103,0.0001201923076923077,1499.4,1480,1244.0,1500
5.894120931625366,274,153,105,0.00012055455093429777,1499.3,1480,1240.0,1500
5.91572904586792,275,150,106,0.0001201923076923077,1499.0,1480,1238.0,1500
5.937299013137817,276,150,107,0.00012055455093429777,1499.0,1480,1236.0,1500
5.958882093429565,277,149,107,0.00012289541600098315,1498.9,1480,1236.0,1500
5.980839014053345,278,148,108,0.00012447099825740602,1498.8,1480,1234.0,1500
6.002471923828125,279,148,108,0.00012608750472828143,1498.8,1480,1234.0,1500
6.024060964584351,280,148,108,0.00012732365673542143,1498.8,1480,1234.0,1500
6.045648097991943,281,148,108,0.00012487512487512488,1498.8,1480,1234.0,1500
6.067260026931763,282,149,109,0.00012608750472828143,1498.9,1480,1232.0,1500
6.088857889175415,283,149,109,0.0001221001221001221,1498.9,1480,1232.0,1500
6.110450029373169,284,150,109,0.0001221001221001221,1499.0,1480,1232.0,1500
6.132045030593872,285,152,109,0.00011431184270690443,1499.2,1480,1232.0,1500
6.15365195274353,286,153,108,0.00011757789535567314,1499.3,1480,1234.0,1500
6.175255060195923,287,154,109,0.0001095290251916758,1499.4,1480,1232.0,1500
6.196916103363037,288,155,108,0.00011259993244004054,1499.5,1480,1234.0,1500
6.218738079071045,289,156,108,0.00010757314974182444,1499.6,1480,1234.0,1500
6.2404279708862305,290,157,108,0.0001050420168067227,1499.7,1480,1234.0,1500
6.262089014053345,291,158,105,0.00010843634786380394,1499.8,1480,1240.0,1500
6.283703088760376,292,159,106,9.881422924901186e-05,1499.9,1480,1238.0,1500
6.305337905883789,293,160,106,9.416195856873823e-05,1500.0,1480,1238.0,1500
6.327008008956909,294,162,105,8.671522719389525e-05,1500.2,1480,1240.0,1500
6.348629951477051,295,164,105,8.421052631578948e-05,1500.4,1480,1240.0,1500
6.370243072509766,296,165,103,8.054123711340206e-05,1500.5,1480,1244.0,1500
6.391829013824463,297,167,100,8.080808080808081e-05,1500.7,1480,1250.0,1500
6.413426876068115,298,169,101,7.411250277921885e-05,1500.9,1480,1248.0,1500
6.4350340366363525,299,170,102,6.690753378830456e-05,1501.0,1480,1246.0,1500
6.456614017486572,300,173,100,6.357279084551812e-05,1501.3,1480,1250.0,1500
6.478231906890869,301,176,95,6.321112515802781e-05,1501.6,1480,1260.0,1500
6.499887943267822,302,178,93,5.9101654846335695e-05,1501.8,1480,1264.0,1500
6.521562099456787,303,181,95,5.2631578947368424e-05,1502.1,1480,1260.0,1500
6.543174982070923,304,184,91,5.08440105755542e-05,1502.4,1480,1268.0,1500
6.564785003662109,305,189,83,5.571961887780688e-05,1502.9,1480,1284.0,1500
6.586379051208496,306,188,87,4.546281142025823e-05,1502.8,1480,1276.0,1500
6.607971906661987,307,191,81,4.5968557506665444e-05,1503.1,1480,1288.0,1500
6.629584074020386,308,193,84,4.360718646432932e-05,1503.3,1480,1282.0,1500
6.651303052902222,309,193,82,4.35691878703381e-05,1503.3,1480,1286.0,1500
6.6729230880737305,310,192,83,4.0332338468984434e-05,1503.2,1480,1284.0,1500
6.694530963897705,311,192,79,4.057618178129438e-05,1503.2,1480,1292.0,1500
6.71614408493042,312,194,83,3.789888577275828e-05,1503.4,1480,1284.0,1500
6.737746000289917,313,193,81,3.7408349543618135e-05,1503.3,1480,1288.0,1500
6.759367942810059,314,192,81,3.651767455448437e-05,1503.2,1480,1288.0,1500
6.781105995178223,315,191,80,3.609847664428561e-05,1503.1,1480,1290.0,1500
6.802712917327881,316,189,82,3.462124359506994e-05,1502.9,1480,1286.0,1500
6.824323892593384,317,189,74,3.8314176245210727e-05,1502.9,1480,1300,1500
6.845876932144165,318,188,76,3.7780044580452605e-05,1502.8,1480,1298.0,1500
6.8674890995025635,319,187,82,3.503240497460151e-05,1502.7,1480,1286.0,1500
6.889080047607422,320,184,85,3.341687552213868e-05,1502.4,1480,1280.0,1500
6.910737991333008,321,183,77,3.707823507601038e-05,1502.3,1480,1296.0,1500
6.932339906692505,322,181,84,3.380662609871535e-05,1502.1,1480,1282.0,1500
6.953918933868408,323,180,83,3.4406826314340766e-05,1502.0,1480,1284.0,1500
6.975538015365601,324,176,77,3.795066413662239e-05,1501.6,1480,1296.0,1500
6.997137069702148,325,173,85,3.460327346967023e-05,1501.3,1480,1280.0,1500
7.018722057342529,326,171,84,3.608024245922932e-05,1501.1,1480,1282.0,1500
7.040301084518433,327,168,88,3.444949703734326e-05,1500.8,1480,1274.0,1500
7.061907052993774,328,166,90,3.434065934065934e-05,1500.6,1480,1270.0,1500
7.083511114120483,329,164,82,4.1356492969396195e-05,1500.4,1480,1286.0,1500
7.105119943618774,330,161,94,3.8280442521915554e-05,1500.1,1480,1262.0,1500
7.126712083816528,331,158,94,4.14524954402255e-05,1499.8,1480,1262.0,1500
7.148593902587891,332,156,100,4.154549231408392e-05,1499.6,1480,1250.0,1500
7.170223951339722,333,150,104,4.734848484848485e-05,1499.0,1480,1242.0,1500
7.191807985305786,334,148,99,5.2284847851092756e-05,1498.8,1480,1252.0,1500
7.213411092758179,335,144,106,5.8072009291521487e-05,1498.4,1480,1238.0,1500
7.235007047653198,336,142,112,5.7165723432230034e-05,1498.2,1480,1226.0,1500
7.2565999031066895,337,139,103,7.374631268436578e-05,1497.9,1480,1244.0,1500
7.278204917907715,338,135,109,7.233796296296296e-05,1497.5,1480,1232.0,1500
7.299849033355713,339,133,112,8.169934640522875e-05,1497.3,1480,1226.0,1500
7.321515083312988,340,131,113,8.695652173913044e-05,1497.1,1480,1224.0,1500
7.343100070953369,341,129,120,8.557980316645271e-05,1496.9,1480,1210.0,1500
7.364707946777344,342,128,121,9.775171065493646e-05,1496.8,1480,1208.0,1500
7.386291980743408,343,125,112,0.00012626262626262626,1496.5,1480,1226.0,1500
7.4078710079193115,344,125,121,0.00011494252873563218,1496.5,1480,1208.0,1500
7.4294610023498535,345,123,127,0.00011474469305794607,1496.3,1480,1200,1500
7.451143026351929,346,121,122,0.00014088475626937165,1496.1,1480,1206.0,1500
7.472774982452393,347,121,125,0.00013785497656465398,1496.1,1480,1200.0,1500
7.49437403678894,348,120,124,0.0001532567049808429,1496.0,1480,1202.0,1500
7.515939950942993,349,119,119,0.00017806267806267807,1495.9,1480,1212.0,1500
7.537553071975708,350,118,121,0.00019047619047619048,1495.8,1480,1208.0,1500
7.559118986129761,351,118,126,0.00016233766233766234,1495.8,1480,1200,1500
7.580786943435669,352,117,123,0.0001838235294117647,1495.7,1480,1204.0,1500
7.6023969650268555,353,116,121,0.00019638648860958367,1495.6,1480,1208.0,1500
7.623991012573242,354,114,127,0.00017959770114942528,1495.4,1480,1200,1500
7.645560026168823,355,113,124,0.00018601190476190475,1495.3,1480,1202.0,1500
7.667176961898804,356,110,121,0.00022222222222222223,1495.0,1480,1208.0,1500
7.6887640953063965,357,110,121,0.00022301516503122213,1495.0,1480,1208.0,1500
7.710350036621094,358,108,123,0.0002239140170174653,1494.8,1480,1204.0,1500
7.7319300174713135,359,107,127,0.0002113718030014796,1494.7,1480,1200,1500
7.753465890884399,360,105,126,0.0002151462994836489,1494.5,1480,1200,1500
7.7750020027160645,361,104,123,0.0002450379808870375,1494.4,1480,1204.0,1500
7.796592950820923,362,104,123,0.0002388344877000239,1494.4,1480,1204.0,1500
7.818259000778198,363,102,120,0.00027085590465872155,1494.2,1480,1210.0,1500
7.840106010437012,364,102,125,0.0002420721374969741,1494.2,1480,1200.0,1500
7.862070083618164,365,102,120,0.00027085590465872155,1494.2,1480,1210.0,1500
7.883745908737183,366,102,116,0.00030637254901960784,1494.2,1480,1218.0,1500
7.905396938323975,367,101,119,0.0002787068004459309,1494.1,1480,1212.0,1500
7.926990985870361,368,102,116,0.00030165912518853697,1494.2,1480,1218.0,1500
7.94859504699707,369,102,118,0.000292654375182909,1494.2,1480,1214.0,1500
7.970211982727051,370,102,122,0.00024509803921568627,1494.2,1480,1206.0,1500
7.99180006980896,371,102,115,0.0002787068004459309,1494.2,1480,1220.0,1500
8.013406991958618,372,103,121,0.00024342745861733204,1494.3,1480,1208.0,1500
8.035008907318115,373,104,115,0.0002620545073375262,1494.4,1480,1220.0,1500
8.05659008026123,374,104,116,0.0002584647195657793,1494.4,1480,1218.0,1500
8.0781729221344,375,105,110,0.0002886002886002886,1494.5,1480,1230.0,1500
8.099792003631592,376,104,118,0.00022311468094600624,1494.4,1480,1214.0,1500
8.121442079544067,377,106,112,0.0002457002457002457,1494.6,1480,1226.0,1500
8.14303207397461,378,106,106,0.0002754820936639118,1494.6,1480,1238.0,1500
8.164602041244507,379,107,114,0.0002063983488132095,1494.7,1480,1222.0,1500
8.186182975769043,380,107,110,0.00021659085986571366,1494.7,1480,1230.0,1500
8.207763910293579,381,108,109,0.00019592476489028212,1494.8,1480,1232.0,1500
8.229346990585327,382,109,102,0.000217296827466319,1494.9,1480,1246.0,1500
8.251045942306519,383,109,104,0.00019712201852946975,1494.9,1480,1242.0,1500
8.272644996643066,384,110,98,0.00020177562550443906,1495.0,1480,1254.0,1500
8.294529914855957,385,111,97,0.00017921146953405018,1495.1,1480,1256.0,1500
8.316134929656982,386,112,92,0.00017921146953405018,1495.2,1480,1266.0,1500
8.337721109390259,387,112,90,0.0001670843776106934,1495.2,1480,1270.0,1500
8.359320878982544,388,114,86,0.00016542597187758478,1495.4,1480,1278.0,1500
8.381107091903687,389,113,80,0.000169061707523246,1495.3,1480,1290.0,1500
8.4027099609375,390,113,78,0.0002403846153846154,1495.3,1480,1294.0,1500
8.424314022064209,391,112,80,0.00027412280701754384,1495.2,1480,1290.0,1500
8.445903062820435,392,131,90,0.0012121212121212121,1497.1,1487.121212121212,1270.0,1500
8.467605113983154,393,130,87,0.0014367816091954023,1497.0,1489.367816091954,1276.0,1500
8.489298105239868,394,136,83,0.008333333333333333,1497.6,1520,1284.0,1500
8.51109504699707,395,136,77,0.007692307692307693,1497.6,1520,1296.0,1500
8.532733917236328,396,137,78,0.00909090909090909,1497.7,1520,1294.0,1500
8.554342031478882,397,136,75,0.005952380952380952,1497.6,1520,1300.0,1500
8.575953960418701,398,135,71,0.004524886877828055,1497.5,1520,1300,1500
8.597475051879883,399,132,66,0.0026455026455026454,1497.2,1501.4550264550264,1300,1500
8.61910605430603,400,132,62,0.0044444444444444444,1497.2,1519.4444444444443,1300,1500
8.640887022018433,401,128,62,0.0026455026455026454,1496.8,1501.4550264550264,1300,1500
8.662571907043457,402,129,58,0.008264462809917356,1496.9,1520,1300,1500
8.684102058410645,403,120,51,0.005,1496.0,1520,1300,1500
8.705584049224854,404,116,52,0.0026455026455026454,1495.6,1501.4550264550264,1300,1500
8.727215051651001,405,110,50,0.004761904761904762,1495.0,1520,1300,1500
8.748727083206177,406,108,55,0.0044444444444444444,1494.8,1519.4444444444443,1300,1500
8.770364999771118,407,104,64,0.007407407407407408,1494.4,1520,1300,1500
8.791898965835571,408,97,60,0.010416666666666666,1493.7,1520,1300,1500
8.813462018966675,409,88,65,0.02857142857142857,1492.8,1520,1300,1500
8.83486008644104,410,,,,1500.0,1500.0,1250.0,1500
8.856259107589722,411,58,71,0.05,1489.8,1520,1300,1500
8.87765097618103,412,,,,1500.0,1500.0,1250.0,1500
8.898880004882812,413,,,,1500.0,1500.0,1250.0,1500
8.920116901397705,414,,,,1500.0,1500.0,1250.0,1500
8.94133996963501,415,,,,1500.0,1500.0,1250.0,1500
8.962596893310547,416,,,,1500.0,1500.0,1250.0,1500
8.983810901641846,417,,,,1500.0,1500.0,1250.0,1500
9.00501799583435,418,,,,1500.0,1500.0,1250.0,1500
9.026225090026855,419,,,,1500.0,1500.0,1250.0,1500
9.047431945800781,420,,,,1500.0,1500.0,1250.0,1500
9.068628072738647,421,,,,1500.0,1500.0,1250.0,1500
9.089843034744263,422,,,,1500.0,1500.0,1250.0,1500
9.111046075820923,423,,,,1500.0,1500.0,1250.0,1500
9.132247924804688,424,,,,1500.0,1500.0,1250.0,1500
9.15344500541687,425,,,,1500.0,1500.0,1250.0,1500
9.174659967422485,426,,,,1500.0,1500.0,1250.0,1500
9.195870876312256,427,,,,1500.0,1500.0,1250.0,1500
9.217079877853394,428,,,,1500.0,1500.0,1250.0,1500
9.238286972045898,429,,,,1500.0,1500.0,1250.0,1500
9.259491920471191,430,,,,1500.0,1500.0,1250.0,1500
9.281047105789185,431,,,,1500.0,1500.0,1250.0,1500
9.302313089370728,432,,,,1500.0,1500.0,1250.0,1500
9.323530912399292,433,,,,1500.0,1500.0,1250.0,1500
9.344743013381958,434,,,,1500.0,1500.0,1250.0,1500
9.365957975387573,435,,,,1500.0,1500.0,1250.0,1500
9.387163877487183,436,,,,1500.0,1500.0,1250.0,1500
9.408368110656738,437,,,,1500.0,1500.0,1250.0,1500
9.429577112197876,438,,,,1500.0,1500.0,1250.0,1500
9.451104879379272,439,,,,1500.0,1500.0,1250.0,1500
9.472342014312744,440,,,,1500.0,1500.0,1250.0,1500
9.493558883666992,441,,,,1500.0,1500.0,1250.0,1500
9.514770030975342,442,,,,1500.0,1500.0,1250.0,1500
9.535978078842163,443,,,,1500.0,1500.0,1250.0,1500
9.557184934616089,444,,,,1500.0,1500.0,1250.0,1500
9.578407049179077,445,,,,1500.0,1500.0,1250.0,1500
9.599747896194458,446,,,,1500.0,1500.0,1250.0,1500
9.62111496925354,447,,,,1500.0,1500.0,1250.0,1500
9.642338991165161,448,,,,1500.0,1500.0,1250.0,1500
9.663579940795898,449,,,,1500.0,1500.0,1250.0,1500
9.684798955917358,450,,,,1500.0,1500.0,1250.0,1500
9.706305980682373,451,,,,1500.0,1500.0,1250.0,1500
9.727529048919678,452,,,,1500.0,1500.0,1250.0,1500
9.748763084411621,453,,,,1500.0,1500.0,1250.0,1500
9.769994974136353,454,,,,1500.0,1500.0,1250.0,1500
9.791215896606445,455,,,,1500.0,1500.0,1250.0,1500
9.812633991241455,456,66,54,0.013157894736842105,1490.6,1520,1300,1500
9.834196090698242,457,83,60,0.0022624434389140274,1492.3,1497.6244343891403,1300,1500
9.8558189868927,458,85,63,0.0005159958720330237,1492.5,1480.1599587203302,1300,1500
9.877464056015015,459,81,52,0.0001953125,1492.1,1480,1300,1500
9.898977041244507,460,91,47,0.00012768130745658836,1493.1,1480,1300,1500
9.920536994934082,461,100,44,0.0001221001221001221,1494.0,1480,1300,1500
9.942080020904541,462,106,48,0.00010972130787798991,1494.6,1480,1300,1500
9.963651895523071,463,116,53,9.746588693957115e-05,1495.6,1480,1300,1500
9.985202074050903,464,122,56,8.86053517632465e-05,1496.2,1480,1300,1500
10.006757020950317,465,134,58,8.6333419666753e-05,1497.4,1480,1300,1500
10.02831506729126,466,139,62,7.936507936507937e-05,1497.9,1480,1300,1500
10.049954891204834,467,144,64,7.599939200486396e-05,1498.4,1480,1300,1500
10.071562051773071,468,148,65,7.33998825601879e-05,1498.8,1480,1300,1500
10.093106985092163,469,152,64,7.382798080472499e-05,1499.2,1480,1300,1500
10.114660024642944,470,154,64,7.326007326007326e-05,1499.4,1480,1300,1500
10.13620901107788,471,155,64,7.313149041977475e-05,1499.5,1480,1300,1500
10.157752990722656,472,157,65,7.215007215007215e-05,1499.7,1480,1300,1500
10.179310083389282,473,157,67,7.054673721340387e-05,1499.7,1480,1300,1500
10.201227903366089,474,156,66,7.175660160734788e-05,1499.6,1480,1300,1500
10.222788095474243,475,156,65,7.284382284382284e-05,1499.6,1480,1300,1500
10.244348049163818,476,155,64,7.453786523553965e-05,1499.5,1480,1300,1500
10.265912055969238,477,155,67,7.191657677094571e-05,1499.5,1480,1300,1500
10.287483930587769,478,153,63,7.644675483525724e-05,1499.3,1480,1300,1500
10.309042930603027,479,151,66,7.245326764237067e-05,1499.1,1480,1300,1500
10.33060097694397,480,149,63,7.584951456310679e-05,1498.9,1480,1300,1500
10.352145910263062,481,146,63,7.584951456310679e-05,1498.6,1480,1300,1500
10.373730897903442,482,142,63,7.796055196070789e-05,1498.2,1480,1300,1500
10.395297050476074,483,136,61,8.049585446349512e-05,1497.6,1480,1300,1500
10.416862964630127,484,129,61,8.212203334154553e-05,1496.9,1480,1300,1500
10.438431024551392,485,111,56,9.414422895876483e-05,1495.1,1480,1300,1500
10.459994077682495,486,103,56,0.00010056315366049879,1494.3,1480,1300,1500
10.481534004211426,487,94,59,9.578544061302682e-05,1493.4,1480,1300,1500
10.503077030181885,488,81,54,0.00012727504136438844,1492.1,1480,1300,1500
10.524606943130493,489,70,72,0.0002016942315449778,1491.0,1480,1300,1500
10.546122074127197,490,74,71,0.0012787723785166241,1491.4,1487.7877237851662,1300,1500
10.567780017852783,491,67,81,0.005555555555555556,1490.7,1520,1288.0,1500
10.589368104934692,492,63,101,0.041666666666666664,1490.3,1520,1248.0,1500
10.611095905303955,493,40,90,0.03125,1488.0,1520,1270.0,1500
10.632667064666748,494,34,89,0.03333333333333333,1487.4,1520,1272.0,1500
10.654151916503906,495,,,,1500.0,1500.0,1250.0,1500
10.6754310131073,496,,,,1500.0,1500.0,1250.0,1500
10.69667100906372,497,,,,1500.0,1500.0,1250.0,1500
10.717891931533813,498,,,,1500.0,1500.0,1250.0,1500
10.739108085632324,499,,,,1500.0,1500.0,1250.0,1500
10.760329961776733,500,,,,1500.0,1500.0,1250.0,1500
10.78158187866211,501,,,,1500.0,1500.0,1250.0,1500
10.802808046340942,502,,,,1500.0,1500.0,1250.0,1500
10.824049949645996,503,,,,1500.0,1500.0,1250.0,1500
10.84526801109314,504,,,,1500.0,1500.0,1250.0,1500
10.86647891998291,505,,,,1500.0,1500.0,1250.0,1500
10.887692928314209,506,,,,1500.0,1500.0,1250.0,1500
10.908919095993042,507,,,,1500.0,1500.0,1250.0,1500
10.930135011672974,508,,,,1500.0,1500.0,1250.0,1500
10.951370000839233,509,,,,1500.0,1500.0,1250.0,1500
10.972625970840454,510,,,,1500.0,1500.0,1250.0,1500
10.993849992752075,511,,,,1500.0,1500.0,1250.0,1500
11.015359878540039,512,,,,1500.0,1500.0,1250.0,1500
11.036587953567505,513,,,,1500.0,1500.0,1250.0,1500
11.057811975479126,514,,,,1500.0,1500.0,1250.0,1500
11.079036951065063,515,,,,1500.0,1500.0,1250.0,1500
11.100262880325317,516,,,,1500.0,1500.0,1250.0,1500
11.121558904647827,517,,,,1500.0,1500.0,1250.0,1500
11.142817974090576,518,,,,1500.0,1500.0,1250.0,1500
11.164084911346436,519,,,,1500.0,1500.0,1250.0,1500
11.185322999954224,520,,,,1500.0,1500.0,1250.0,1500
11.20654010772705,521,,,,1500.0,1500.0,1250.0,1500
11.227745056152344,522,,,,1500.0,1500.0,1250.0,1500
11.248944997787476,523,,,,1500.0,1500.0,1250.0,1500
11.270149946212769,524,,,,1500.0,1500.0,1250.0,1500
11.291357040405273,525,,,,1500.0,1500.0,1250.0,1500
11.312575101852417,526,,,,1500.0,1500.0,1250.0,1500
11.333791017532349,527,,,,1500.0,1500.0,1250.0,1500
11.355014085769653,528,,,,1500.0,1500.0,1250.0,1500
11.376230955123901,529,,,,1500.0,1500.0,1250.0,1500
11.397433996200562,530,,,,1500.0,1500.0,1250.0,1500
11.418780088424683,531,2,126,0.041666666666666664,1484.2,1520,1200,1500
11.440378904342651,532,4,123,0.047619047619047616,1484.4,1520,1204.0,1500
11.461978912353516,533,13,115,0.041666666666666664,1485.3,1520,1220.0,1500
11.483422994613647,534,,,,1500.0,1500.0,1250.0,1500
11.504812955856323,535,17,141,0.041666666666666664,1485.7,1520,1200,1500
11.526348114013672,536,17,135,0.005847953216374269,1485.7,1520,1200,1500
11.547879934310913,537,27,145,0.00625,1486.7,1520,1200,1500
11.569374084472656,538,25,132,0.004166666666666667,1486.5,1516.6666666666667,1200,1500
11.591134071350098,539,29,139,0.005,1486.9,1520,1200,1500
11.612623929977417,540,33,129,0.0033333333333333335,1487.3,1508.3333333333333,1200,1500
11.63429594039917,541,40,144,0.0016891891891891893,1488.0,1491.8918918918919,1200,1500
11.65607500076294,542,48,130,0.0005865102639296188,1488.8,1480.865102639296,1200,1500
11.677746057510376,543,54,135,0.00046598322460391424,1489.4,1480,1200,1500
11.699304103851318,544,60,134,0.0002658160552897395,1490.0,1480,1200,1500
11.720952987670898,545,64,134,0.00027056277056277056,1490.4,1480,1200,1500
11.742489099502563,546,70,123,0.00015605493133583021,1491.0,1480,1204.0,1500
11.764067888259888,547,75,128,0.00015436863229391788,1491.5,1480,1200,1500
11.785614967346191,548,78,122,0.00011690437222352116,1491.8,1480,1206.0,1500
11.807204961776733,549,86,127,0.00013683634373289546,1492.6,1480,1200,1500
11.828756093978882,550,88,121,0.00010416666666666667,1492.8,1480,1208.0,1500
11.85033392906189,551,93,118,9.000900090009e-05,1493.3,1480,1214.0,1500
11.871932983398438,552,96,123,9.440196356084207e-05,1493.6,1480,1204.0,1500
11.893534898757935,553,101,117,8.653513326410523e-05,1494.1,1480,1216.0,1500
11.915152072906494,554,105,113,8.416799932665601e-05,1494.5,1480,1224.0,1500
11.936738967895508,555,106,117,8.609556607834697e-05,1494.6,1480,1216.0,1500
11.958338975906372,556,108,110,7.763975155279503e-05,1494.8,1480,1230.0,1500
11.97998595237732,557,111,108,8.118860112040269e-05,1495.1,1480,1234.0,1500
12.001580953598022,558,108,107,8.210180623973728e-05,1494.8,1480,1236.0,1500
12.023179054260254,559,107,103,8.203445447087777e-05,1494.7,1480,1244.0,1500
12.044782876968384,560,108,105,9.1000091000091e-05,1494.8,1480,1240.0,1500
12.066421031951904,561,104,105,9.712509712509713e-05,1494.4,1480,1240.0,1500
12.088093996047974,562,100,102,9.352787130564908e-05,1494.0,1480,1246.0,1500
12.10974407196045,563,95,100,9.612611746611554e-05,1493.5,1480,1250.0,1500
12.131448030471802,564,98,100,0.00012088974854932302,1493.8,1480,1250.0,1500
12.153073072433472,565,87,108,0.00015686274509803922,1492.7,1480,1234.0,1500
12.174701929092407,566,79,98,0.00012487512487512488,1491.9,1480,1254.0,1500
12.19632601737976,567,71,98,0.00013061650992685477,1491.1,1480,1254.0,1500
12.217916011810303,568,71,84,0.00025974025974025974,1491.1,1480,1282.0,1500
12.239542007446289,569,73,75,0.0005509641873278236,1491.3,1480.5096418732783,1300.0,1500
12.261482954025269,570,61,117,0.0014705882352941176,1490.1,1489.7058823529412,1216.0,1500
12.283480882644653,571,62,71,0.003367003367003367,1490.2,1508.6700336700337,1300,1500
12.305118083953857,572,52,80,0.003289473684210526,1489.2,1507.8947368421052,1290.0,1500
12.326780080795288,573,50,118,0.004132231404958678,1489.0,1516.3223140495868,1214.0,1500
12.348423957824707,574,50,114,0.004329004329004329,1489.0,1518.2900432900433,1222.0,1500
12.370083093643188,575,44,121,0.0125,1488.4,1520,1208.0,1500
12.391639947891235,576,40,96,0.015384615384615385,1488.0,1520,1258.0,1500
12.413189888000488,577,35,117,0.041666666666666664,1487.5,1520,1216.0,1500
12.434770107269287,578,41,107,0.03125,1488.1,1520,1236.0,1500
12.456188917160034,579,,,,1500.0,1500.0,1250.0,1500
12.477451086044312,580,,,,1500.0,1500.0,1250.0,1500
12.498831033706665,581,24,113,0.041666666666666664,1486.4,1520,1224.0,1500
12.520288944244385,582,,,,1500.0,1500.0,1250.0,1500
12.541526079177856,583,,,,1500.0,1500.0,1250.0,1500
12.562742948532104,584,,,,1500.0,1500.0,1250.0,1500
12.58395791053772,585,,,,1500.0,1500.0,1250.0,1500
12.605154991149902,586,,,,1500.0,1500.0,1250.0,1500
12.626317024230957,587,,,,1500.0,1500.0,1250.0,1500
12.647604942321777,588,,,,1500.0,1500.0,1250.0,1500
12.668857097625732,589,,,,1500.0,1500.0,1250.0,1500
12.69008207321167,590,,,,1500.0,1500.0,1250.0,1500
12.711291074752808,591,,,,1500.0,1500.0,1250.0,1500
12.73249101638794,592,,,,1500.0,1500.0,1250.0,1500
12.753695964813232,593,,,,1500.0,1500.0,1250.0,1500
12.774923086166382,594,,,,1500.0,1500.0,1250.0,1500
12.796142101287842,595,,,,1500.0,1500.0,1250.0,1500
12.817389011383057,596,,,,1500.0,1500.0,1250.0,1500
12.838624000549316,597,,,,1500.0,1500.0,1250.0,1500
12.860027074813843,598,,,,1500.0,1500.0,1250.0,1500
12.881370067596436,599,,,,1500.0,1500.0,1250.0,1500
12.902738094329834,600,,,,1500.0,1500.0,1250.0,1500
12.92396092414856,601,,,,1500.0,1500.0,1250.0,1500
12.945183038711548,602,,,,1500.0,1500.0,1250.0,1500
12.966428995132446,603,,,,1500.0,1500.0,1250.0,1500
12.98764705657959,604,,,,1500.0,1500.0,1250.0,1500
13.0088529586792,605,,,,1500.0,1500.0,1250.0,1500
13.030044078826904,606,,,,1500.0,1500.0,1250.0,1500
13.051246881484985,607,,,,1500.0,1500.0,1250.0,1500
13.072457075119019,608,,,,1500.0,1500.0,1250.0,1500
13.093655109405518,609,,,,1500.0,1500.0,1250.0,1500
13.114856958389282,610,,,,1500.0,1500.0,1250.0,1500
13.136065006256104,611,,,,1500.0,1500.0,1250.0,1500
13.15726900100708,612,,,,1500.0,1500.0,1250.0,1500
13.17847990989685,613,,,,1500.0,1500.0,1250.0,1500
13.19974398612976,614,,,,1500.0,1500.0,1250.0,1500
13.221018075942993,615,,,,1500.0,1500.0,1250.0,1500
13.242224931716919,616,,,,1500.0,1500.0,1250.0,1500
13.263431072235107,617,,,,1500.0,1500.0,1250.0,1500
13.2846360206604,618,,,,1500.0,1500.0,1250.0,1500
13.305835962295532,619,,,,1500.0,1500.0,1250.0,1500
13.327044010162354,620,,,,1500.0,1500.0,1250.0,1500
13.348251104354858,621,,,,1500.0,1500.0,1250.0,1500
13.369457960128784,622,,,,1500.0,1500.0,1250.0,1500
13.390785932540894,623,,,,1500.0,1500.0,1250.0,1500
13.412002086639404,624,,,,1500.0,1500.0,1250.0,1500
13.433183908462524,625,,,,1500.0,1500.0,1250.0,1500
13.45443606376648,626,,,,1500.0,1500.0,1250.0,1500
13.475661039352417,627,,,,1500.0,1500.0,1250.0,1500
13.496880054473877,628,,,,1500.0,1500.0,1250.0,1500
13.518081903457642,629,,,,1500.0,1500.0,1250.0,1500
13.539284944534302,630,,,,1500.0,1500.0,1250.0,1500
13.560734987258911,631,,,,1500.0,1500.0,1250.0,1500
13.581963062286377,632,,,,1500.0,1500.0,1250.0,1500
13.603184938430786,633,,,,1500.0,1500.0,1250.0,1500
13.624387979507446,634,,,,1500.0,1500.0,1250.0,1500
13.6455979347229,635,,,,1500.0,1500.0,1250.0,1500
13.666824102401733,636,,,,1500.0,1500.0,1250.0,1500
13.688039064407349,637,,,,1500.0,1500.0,1250.0,1500
