time,x,y,size_inv,roll,pitch,thrust,yaw
0.00040912628173828125,256,51,0.0053475935828877,1520,1502.0,1350,1500.0
0.022124052047729492,256,51,0.0053475935828877,1520,1502.0,1350,1500.0
0.04352116584777832,256,50,0.004901960784313725,1520,1502.0,1350,1500.0
0.06487607955932617,256,51,0.0053475935828877,1520,1502.0,1350,1500.0
0.0862431526184082,256,51,0.0053475935828877,1520,1502.0,1350,1500.0
0.10759806632995605,256,51,0.0053475935828877,1520,1502.0,1350,1500.0
0.12893915176391602,256,50,0.004901960784313725,1520,1502.0,1350,1500.0
0.15016913414001465,256,51,0.0053475935828877,1520,1502.0,1350,1500.0
0.17145419120788574,255,51,0.005681818181818182,1520,1502.0,1350,1500.0
0.1929311752319336,256,51,0.0053475935828877,1520,1502.0,1350,1500.0
0.21451616287231445,256,51,0.0053475935828877,1520,1502.0,1350,1500.0
0.23626303672790527,256,51,0.0053475935828877,1520,1502.0,1350,1500.0
0.2580380439758301,256,51,0.0053475935828877,1520,1502.0,1350,1500.0
0.2798001766204834,255,50,0.005555555555555556,1520,1502.0,1350,1500.0
0.3015270233154297,254,50,0.006060606060606061,1520,1502.0,1350,1500.0
0.3232591152191162,254,49,0.004629629629629629,1520,1502.0,1350,1500.0
0.34499096870422363,253,48,0.005050505050505051,1520,1502.0,1350,1500.0
0.36673402786254883,251,47,0.00625,1510.79,1502.0,1350,1500.0
0.38852500915527344,252,47,0.0053475935828877,1505.5450000000001,1502.0,1350,1500.0
0.4103209972381592,252,46,0.0053475935828877,1505.4849999999999,1502.0,1350,1500.0
0.4321110248565674,251,46,0.0053475935828877,1503.4100000000001,1502.0,1350,1500.0
0.45391011238098145,249,47,0.005555555555555556,1501.105,1502.0,1350,1500.0
0.47568702697753906,248,48,0.005681818181818182,1504.385,1502.0,1350,1500.0
0.4974710941314697,248,49,0.006666666666666667,1502.48,1502.0,1350,1500.0
0.5193190574645996,249,50,0.005555555555555556,1500.8050000000001,1502.0,1350,1500.0
0.5411009788513184,250,52,0.0053475935828877,1504.5450000000001,1502.0,1350,1500.0
0.5628750324249268,249,52,0.005555555555555556,1511.4849999999999,1502.0,1350,1500.0
0.5846490859985352,250,53,0.0058823529411764705,1520,1502.0,1346.0,1500.0
0.606417179107666,249,54,0.006060606060606061,1520,1502.0,1340.3199999999999,1500.0
0.6282119750976562,249,54,0.005555555555555556,1520,1502.0,1340.0,1500.0
0.6500160694122314,248,55,0.00625,1520,1502.0,1342.6400000000001,1500.0
0.6717910766601562,249,56,0.005555555555555556,1520,1502.0,1342.48,1500.0
0.6935710906982422,248,57,0.005050505050505051,1520,1502.0,1342.3199999999999,1500.0
0.7153401374816895,248,57,0.005263157894736842,1520,1502.0,1344.8,1500.0
0.7371020317077637,248,58,0.0053475935828877,1520,1502.0,1343.28,1500.0
0.7588710784912109,247,59,0.005050505050505051,1520,1502.0,1340.4000000000001,1500.0
0.7806520462036133,247,60,0.005050505050505051,1518.0450000000001,1502.0,1338.8800000000001,1500.0
0.8024721145629883,247,61,0.004784688995215311,1519.8,1502.0,1337.3599999999999,1500.0
0.8242921829223633,246,62,0.005555555555555556,1517.7550000000001,1502.0,1333.04,1500.0
0.8461120128631592,246,64,0.005050505050505051,1515.9100000000001,1502.0,1327.4400000000001,1500.0
0.8679640293121338,245,65,0.005050505050505051,1513.865,1502.0,1323.04,1500.0
0.8898169994354248,245,65,0.004629629629629629,1513.8050000000001,1502.0,1321.28,1500.0
0.9116320610046387,245,66,0.004629629629629629,1511.96,1502.0,1318.3199999999999,1500.0
0.9334440231323242,245,67,0.0043859649122807015,1513.7149999999999,1502.0,1316.72,1500.0
0.9552671909332275,244,68,0.004629629629629629,1513.4549999999999,1502.0,1317.9200000000001,1500.0
0.9770891666412354,244,69,0.0043859649122807015,1515.21,1502.0,1319.1199999999999,1500.0
0.9989080429077148,244,71,0.004784688995215311,1516.9649999999999,1502.0,1314.8800000000001,1500.0
1.0207171440124512,243,72,0.0043859649122807015,1516.7049999999999,1502.0,1311.8399999999999,1500.0
1.0425381660461426,243,73,0.0043859649122807015,1514.8599999999999,1502.0,1308.8,1500.0
1.0643620491027832,242,74,0.0043859649122807015,1514.5999999999999,1502.0,1304.4000000000001,1500.0
1.0861961841583252,241,75,0.0043859649122807015,1510.74,1502.0,1300.0,1500.0
1.1082911491394043,241,76,0.0043859649122807015,1507.0799999999999,1502.0,1299.76,1500.0
1.1301441192626953,240,77,0.0043859649122807015,1505.0050000000001,1502.0,1299.52,1500.0
1.1519720554351807,239,78,0.0043859649122807015,1501.115,1502.0,1299.28,1500.0
1.1738030910491943,237,80,0.0043859649122807015,1495.21,1502.0,1296.4000000000001,1500.0
1.1956660747528076,236,81,0.0043859649122807015,1491.29,1502.0,1294.72,1500.0
1.2174890041351318,235,81,0.004629629629629629,1485.5550000000001,1502.0,1294.3199999999999,1500.0
1.2394120693206787,235,83,0.0043859649122807015,1481.835,1502.0,1290.0799999999999,1500.0
1.2612440586090088,233,84,0.004166666666666667,1480,1502.0,1287.04,1500.0
1.2830140590667725,233,85,0.0043859649122807015,1480,1502.0,1286.8,1500.0
1.3047800064086914,231,86,0.004166666666666667,1480,1502.0,1286.5599999999999,1500.0
1.326570987701416,230,87,0.004629629629629629,1480.2349999999999,1502.0,1283.52,1500.0
1.3484079837799072,229,89,0.0043859649122807015,1480,1502.0,1280.6400000000001,1500.0
1.370192050933838,228,90,0.004629629629629629,1480,1502.0,1278.96,1500.0
1.3919670581817627,227,91,0.0043859649122807015,1480,1502.0,1275.9200000000001,1500.0
1.413741111755371,227,91,0.0043859649122807015,1480,1502.0,1275.52,1500.0
1.4355180263519287,225,93,0.0043859649122807015,1480,1502.0,1272.6400000000001,1500.0
1.4573280811309814,223,94,0.0043859649122807015,1480,1502.0,1272.4000000000001,1500.0
1.479114055633545,222,94,0.0043859649122807015,1480,1502.0,1274.8,1500.0
1.5008950233459473,221,95,0.004166666666666667,1480,1502.0,1276.0,1500.0
1.5226590633392334,219,96,0.0038461538461538464,1480,1502.0,1274.4000000000001,1500.0
1.5444400310516357,218,96,0.004048582995951417,1480,1502.0,1278.24,1500.0
1.5662050247192383,216,97,0.003663003663003663,1480,1502.0,1279.52,1500.0
1.588015079498291,215,98,0.004048582995951417,1480,1502.0,1278.0,1500.0
1.6098151206970215,214,99,0.003663003663003663,1480,1502.0,1276.48,1500.0
1.6315860748291016,213,99,0.003663003663003663,1480,1502.0,1278.96,1500.0
1.6533551216125488,212,99,0.003663003663003663,1480,1502.0,1278.72,1500.0
1.6751279830932617,210,100,0.0034965034965034965,1480,1502.0,1277.28,1500.0
1.6969120502471924,210,100,0.0034965034965034965,1480,1502.0,1279.8399999999999,1500.0
1.718677043914795,208,100,0.003663003663003663,1480,1502.0,1283.8399999999999,1500.0
1.74043607711792,207,99,0.003663003663003663,1480,1502.0,1289.1199999999999,1500.0
1.7622191905975342,206,99,0.003663003663003663,1480,1502.0,1293.2,1500.0
1.7839829921722412,204,98,0.003246753246753247,1480,1502.0,1301.3599999999999,1500.0
1.8057529926300049,204,98,0.003246753246753247,1480,1502.0,1306.96,1500.0
1.8275179862976074,202,96,0.003401360544217687,1480,1502.0,1316.48,1500.0
1.8493850231170654,201,96,0.003246753246753247,1480,1502.0,1320.8,1500.0
1.8711621761322021,199,96,0.0034965034965034965,1480,1502.0,1325.1199999999999,1500.0
1.8929359912872314,198,96,0.0034965034965034965,1480,1502.0,1325.28,1500.0
1.9147140979766846,196,95,0.0034965034965034965,1480,1502.0,1328.0799999999999,1500.0
1.9364759922027588,195,95,0.0034965034965034965,1480,1502.0,1324.0799999999999,1500.0
1.9582669734954834,194,94,0.003246753246753247,1480,1502.0,1324.0799999999999,1500.0
1.980058193206787,193,94,0.003246753246753247,1480,1502.0,1322.8800000000001,1500.0
2.001828193664551,193,94,0.003246753246753247,1480,1502.0,1323.04,1500.0
2.023576021194458,190,92,0.003246753246753247,1480,1502.0,1325.6800000000001,1500.0
2.045344114303589,189,91,0.003246753246753247,1480,1502.0,1331.28,1500.0
2.0671091079711914,188,91,0.0034965034965034965,1480,1502.0,1332.8800000000001,1500.0
2.0888710021972656,188,91,0.0034965034965034965,1480,1502.0,1334.48,1500.0
2.1106390953063965,186,88,0.003246753246753247,1480,1502.0,1344.0,1500.0
2.1323931217193604,185,87,0.003105590062111801,1480,1502.0,1348.3199999999999,1500.0
2.1541810035705566,184,86,0.003246753246753247,1480,1502.0,1350,1500.0
2.176393985748291,183,85,0.003246753246753247,1480,1502.0,1350,1500.0
2.199877977371216,183,85,0.003246753246753247,1480,1502.0,1350,1500.0
2.2230300903320312,180,84,0.003246753246753247,1480,1502.0,1350,1500.0
2.246159076690674,179,83,0.003105590062111801,1480,1502.0,1350,1500.0
2.2692761421203613,178,83,0.003246753246753247,1480,1502.0,1350,1500.0
2.292389154434204,178,83,0.003246753246753247,1480,1502.0,1350,1500.0
2.315486192703247,177,82,0.003105590062111801,1480,1502.0,1350,1500.0
2.3386340141296387,176,81,0.003105590062111801,1480,1502.0,1350,1500.0
2.3618080615997314,175,81,0.0033444816053511705,1480,1502.0,1347.6800000000001,1500.0
2.385038137435913,174,80,0.003105590062111801,1480,1502.0,1349.1199999999999,1500.0
2.40830397605896,172,79,0.003246753246753247,1480,1502.0,1350,1500.0
2.431485176086426,172,78,0.003105590062111801,1480,1502.0,1350,1500.0
2.4546101093292236,171,78,0.003105590062111801,1480,1502.0,1350,1500.0
2.477715015411377,171,78,0.003105590062111801,1480,1502.0,1350,1500.0
2.500936985015869,170,77,0.003105590062111801,1480,1502.0,1350,1500.0
2.5240230560302734,169,77,0.003105590062111801,1480,1502.0,1350,1500.0
2.547131061553955,168,77,0.002898550724637681,1480,1502.0,1350,1500.0
2.5702261924743652,168,76,0.003105590062111801,1480,1502.0,1350,1500.0
2.59334397315979,166,74,0.002976190476190476,1480,1502.0,1350,1500.0
2.6164259910583496,166,74,0.003246753246753247,1480,1502.0,1350,1500.0
2.6395251750946045,165,73,0.003105590062111801,1480,1502.0,1350,1500.0
2.662635087966919,165,73,0.003105590062111801,1480,1502.0,1350,1500.0
2.6857399940490723,164,73,0.003105590062111801,1480,1502.0,1350,1500.0
2.7089080810546875,164,73,0.003105590062111801,1480,1502.0,1350,1500.0
2.732012987136841,163,72,0.003105590062111801,1480,1502.0,1350,1500.0
2.755117177963257,162,72,0.002898550724637681,1480,1502.0,1350,1500.0
2.77829909324646,161,71,0.002976190476190476,1480,1502.0,1350,1500.0
2.8015031814575195,161,71,0.002976190476190476,1480,1502.0,1350,1500.0
2.824625015258789,161,71,0.002898550724637681,1480,1502.0,1350,1500.0
2.8477861881256104,161,71,0.002898550724637681,1480,1502.0,1350,1500.0
2.870957136154175,160,70,0.002976190476190476,1480,1502.0,1350,1500.0
2.8940651416778564,159,70,0.002777777777777778,1480,1502.0,1350,1500.0
2.917194128036499,159,70,0.002777777777777778,1480.165,1502.0,1350,1500.0
2.940556049346924,160,70,0.002898550724637681,1483.905,1502.0,1350,1500.0
2.9637820720672607,159,70,0.002898550724637681,1483.645,1502.0,1350,1500.0
2.9870080947875977,158,70,0.002777777777777778,1483.385,1502.0,1350,1500.0
3.010240077972412,158,70,0.002777777777777778,1485.1400000000001,1502.0,1350,1500.0
3.0334529876708984,158,70,0.002976190476190476,1486.895,1502.0,1350,1500.0
3.056671142578125,158,70,0.002898550724637681,1485.05,1502.0,1349.3599999999999,1500.0
3.079982042312622,158,70,0.002898550724637681,1486.8050000000001,1502.0,1348.0,1500.0
3.1032559871673584,157,70,0.002976190476190476,1488.3599999999999,1502.0,1348.0,1500.0
3.1265480518341064,157,71,0.002777777777777778,1488.3299999999999,1502.0,1345.3599999999999,1500.0
3.1498570442199707,157,71,0.002898550724637681,1488.3,1502.0,1343.9200000000001,1500.0
3.1731691360473633,157,71,0.002898550724637681,1490.0550000000001,1502.0,1342.48,1500.0
3.196510076522827,157,71,0.002976190476190476,1490.0250000000001,1502.0,1341.04,1500.0
3.2198190689086914,157,71,0.003105590062111801,1491.8099999999999,1502.0,1339.5999999999999,1500.0
3.243161201477051,157,71,0.003105590062111801,1493.595,1502.0,1340.96,1500.0
3.2664501667022705,157,71,0.002976190476190476,1495.3800000000001,1502.0,1342.3199999999999,1500.0
3.289776086807251,157,71,0.002976190476190476,1497.165,1502.0,1343.6800000000001,1500.0
3.31307315826416,158,72,0.002898550724637681,1500.9649999999999,1502.0,1342.4000000000001,1500.0
3.336372137069702,158,72,0.002898550724637681,1502.78,1502.0,1342.3199999999999,1500.0
3.3596720695495605,158,72,0.002898550724637681,1504.595,1502.0,1340.8800000000001,1500.0
3.3829450607299805,158,73,0.002898550724637681,1506.4100000000001,1502.0,1336.8,1500.0
3.4062561988830566,158,73,0.002898550724637681,1508.2249999999999,1502.0,1333.9200000000001,1500.0
3.4300789833068848,158,73,0.002898550724637681,1506.4400000000001,1502.0,1333.8399999999999,1500.0
3.453566074371338,158,73,0.002777777777777778,1504.655,1502.0,1333.76,1500.0
3.4768850803375244,158,74,0.002777777777777778,1502.8699999999999,1502.0,1331.04,1500.0
3.500218152999878,158,74,0.002777777777777778,1501.085,1502.0,1332.3199999999999,1500.0
3.523483991622925,158,75,0.002777777777777778,1499.3,1502.0,1330.96,1500.0
3.5467541217803955,159,75,0.002898550724637681,1501.3150000000001,1502.0,1329.4400000000001,1500.0
3.5700571537017822,158,76,0.002777777777777778,1501.115,1502.0,1325.28,1500.0
3.5933640003204346,158,76,0.002777777777777778,1501.115,1502.0,1325.1199999999999,1500.0
3.6166601181030273,159,76,0.002777777777777778,1503.1300000000001,1502.0,1323.5999999999999,1500.0
3.639967203140259,159,77,0.002898550724637681,1504.9449999999999,1502.0,1322.24,1500.0
3.6632721424102783,160,77,0.0026666666666666666,1505.175,1502.0,1322.0799999999999,1500.0
3.6865639686584473,161,77,0.0026666666666666666,1510.8199999999999,1502.0,1324.72,1500.0
3.709887981414795,160,78,0.002777777777777778,1514.25,1502.0,1323.3599999999999,1500.0
3.733159065246582,161,77,0.002717391304347826,1516.2950000000001,1502.0,1325.8399999999999,1500.0
3.7564480304718018,161,77,0.002717391304347826,1518.1400000000001,1502.0,1328.5599999999999,1500.0
3.779741048812866,161,78,0.002777777777777778,1518.1700000000001,1502.0,1328.6400000000001,1500.0
3.803040027618408,162,78,0.0026666666666666666,1514.8299999999999,1502.0,1328.5599999999999,1500.0
3.826352119445801,162,79,0.002777777777777778,1514.8900000000001,1502.0,1328.6400000000001,1500.0
3.8496410846710205,162,80,0.002777777777777778,1513.135,1502.0,1324.48,1500.0
3.8729140758514404,162,80,0.002898550724637681,1511.3800000000001,1502.0,1320.1600000000001,1500.0
3.896205186843872,163,80,0.0026666666666666666,1513.425,1502.0,1318.6400000000001,1500.0
3.9194860458374023,163,80,0.0026666666666666666,1513.4549999999999,1502.0,1317.1199999999999,1500.0
3.942803144454956,163,80,0.002564102564102564,1511.7,1502.0,1317.04,1500.0
3.966102123260498,164,80,0.0026666666666666666,1513.7449999999999,1502.0,1321.1199999999999,1500.0
3.989403009414673,164,80,0.0026666666666666666,1515.5899999999999,1502.0,1325.2,1500.0
4.012712001800537,165,80,0.0026666666666666666,1515.8499999999999,1502.0,1327.9200000000001,1500.0
4.035988092422485,165,80,0.0026666666666666666,1517.6949999999999,1502.0,1330.6400000000001,1500.0
4.059269189834595,165,81,0.002564102564102564,1519.54,1502.0,1329.3599999999999,1500.0
4.082564115524292,165,81,0.002564102564102564,1517.7850000000001,1502.0,1327.9200000000001,1500.0
4.105880975723267,165,81,0.002564102564102564,1516.03,1502.0,1326.48,1500.0
4.129150152206421,166,82,0.0026666666666666666,1514.4749999999999,1502.0,1322.4000000000001,1500.0
4.152456045150757,166,82,0.002564102564102564,1512.72,1502.0,1319.52,1500.0
4.175764083862305,166,82,0.002564102564102564,1510.9649999999999,1502.0,1319.4400000000001,1500.0
4.199100017547607,166,82,0.002564102564102564,1510.9949999999999,1502.0,1319.3599999999999,1500.0
4.222402095794678,167,82,0.0024691358024691358,1513.04,1502.0,1319.28,1500.0
4.245753049850464,167,82,0.0024691358024691358,1513.0699999999999,1502.0,1322.0,1500.0
4.269082069396973,167,82,0.002564102564102564,1513.0999999999999,1502.0,1324.72,1500.0
4.29236912727356,167,82,0.0024691358024691358,1513.1300000000001,1502.0,1326.0799999999999,1500.0
4.315688133239746,167,82,0.002564102564102564,1513.1600000000001,1502.0,1327.4400000000001,1500.0
4.338970184326172,167,81,0.002403846153846154,1509.5899999999999,1502.0,1331.4400000000001,1500.0
4.362262010574341,168,81,0.0023148148148148147,1509.8199999999999,1502.0,1332.8800000000001,1500.0
4.385569095611572,168,81,0.0024691358024691358,1509.8499999999999,1502.0,1334.3199999999999,1500.0
4.408884048461914,168,81,0.0024691358024691358,1509.8800000000001,1502.0,1335.76,1500.0
4.432149171829224,167,81,0.002403846153846154,1507.895,1502.0,1337.2,1500.0
4.455708980560303,167,81,0.002178649237472767,1507.895,1502.0,1335.8399999999999,1500.0
4.479036092758179,167,80,0.0023148148148148147,1504.2950000000001,1502.0,1337.1199999999999,1500.0
4.5023369789123535,167,80,0.0023148148148148147,1500.6949999999999,1502.0,1337.2,1500.0
4.525619983673096,167,80,0.0023148148148148147,1497.095,1502.0,1337.28,1500.0
4.548904180526733,167,81,0.002178649237472767,1497.095,1502.0,1334.72,1500.0
4.572180986404419,167,81,0.002178649237472767,1497.095,1502.0,1334.72,1500.0
4.595445156097412,166,81,0.0023148148148148147,1496.865,1502.0,1331.9200000000001,1500.0
4.618771076202393,165,82,0.002232142857142857,1494.8199999999999,1502.0,1326.48,1500.0
4.642086029052734,166,82,0.0023148148148148147,1494.99,1502.0,1322.24,1500.0
4.665372133255005,166,82,0.0023148148148148147,1493.175,1502.0,1320.8,1500.0
4.688704013824463,165,82,0.0023148148148148147,1489.345,1502.0,1319.3599999999999,1500.0
4.712100028991699,165,81,0.0023148148148148147,1489.3150000000001,1502.0,1321.9200000000001,1500.0
4.735408067703247,165,81,0.0023148148148148147,1492.885,1502.0,1326.0799999999999,1500.0
