time,frame,x,y,size_inv,roll,pitch,thrust,yaw
0.0003750324249267578,1,157,59,0.0034965034965034965,1499.7,1490.0,1415,1500
0.02259206771850586,2,157,59,0.0034965034965034965,1499.7,1490.0,1415,1500
0.044547080993652344,3,157,59,0.0034965034965034965,1499.7,1490.0,1415,1500
0.06630301475524902,4,157,59,0.0034965034965034965,1499.7,1490.0,1415,1500
0.08827519416809082,5,157,59,0.0034965034965034965,1499.7,1490.0,1415,1500
0.11016607284545898,6,157,59,0.0034965034965034965,1499.7,1490.0,1415,1500
0.13213014602661133,7,157,59,0.0034965034965034965,1499.7,1490.0,1415,1500
0.15419912338256836,8,157,59,0.0034965034965034965,1499.7,1490.0,1415,1500
0.1761641502380371,9,157,59,0.0034965034965034965,1499.7,1490.0,1415,1500
0.198073148727417,10,157,59,0.0034965034965034965,1499.7,1490.0,1415,1500
0.2199110984802246,11,157,59,0.0034965034965034965,1499.7,1490.0,1415,1500
0.24175715446472168,12,157,59,0.0034965034965034965,1499.7,1490.0,1415,1500
0.26365017890930176,13,159,59,0.004629629629629629,1499.9,1512.6625226625226,1415,1500
0.2855510711669922,14,159,59,0.004629629629629629,1499.9,1512.6625226625226,1415,1500
0.3074150085449219,15,157,59,0.003787878787878788,1499.7,1495.8275058275058,1415,1500
0.3295161724090576,16,157,60,0.0034965034965034965,1499.7,1490.0,1415,1500
0.35137510299682617,17,159,59,0.004629629629629629,1499.9,1512.6625226625226,1415,1500
0.3733232021331787,18,159,59,0.005050505050505051,1499.9,1521.0800310800312,1415,1500
0.39519619941711426,19,160,58,0.004784688995215311,1500.0,1515.7637099742362,1415,1500
0.4169590473175049,20,160,58,0.004629629629629629,1500.0,1512.6625226625226,1415,1500
0.438690185546875,21,161,59,0.005050505050505051,1500.1,1521.0800310800312,1415,1500
0.460590124130249,22,162,61,0.005050505050505051,1500.2,1521.0800310800312,1415,1500
0.4823441505432129,23,162,61,0.004629629629629629,1500.2,1512.6625226625226,1415,1500
0.50419020652771,24,163,60,0.004784688995215311,1500.3,1515.7637099742362,1415,1500
0.5260441303253174,25,162,58,0.004629629629629629,1500.2,1512.6625226625226,1415,1500
0.5481400489807129,26,162,58,0.004629629629629629,1500.2,1512.6625226625226,1415,1500
0.570281982421875,27,163,59,0.004784688995215311,1500.3,1515.7637099742362,1415,1500
0.5921521186828613,28,162,59,0.003968253968253968,1500.2,1499.4350094350095,1415,1500
0.6141200065612793,29,163,60,0.005050505050505051,1500.3,1521.0800310800312,1415,1500
0.6359210014343262,30,162,60,0.004132231404958678,1500.2,1502.7145581691036,1415,1500
0.6580309867858887,31,162,60,0.003787878787878788,1500.2,1495.8275058275058,1415,1500
0.6799981594085693,32,162,61,0.0034965034965034965,1500.2,1490.0,1415,1500
0.7018780708312988,33,164,62,0.004784688995215311,1500.4,1515.7637099742362,1415,1500
0.723703145980835,34,162,61,0.004545454545454545,1500.2,1510.979020979021,1415,1500
0.7456660270690918,35,164,62,0.005050505050505051,1500.4,1521.0800310800312,1415,1500
0.7676451206207275,36,163,63,0.004132231404958678,1500.3,1502.7145581691036,1415,1500
0.7899801731109619,37,164,65,0.004273504273504274,1500.4,1505.5400155400155,1415,1500
0.8118081092834473,38,162,65,0.003787878787878788,1500.2,1495.8275058275058,1415,1500
0.8337070941925049,39,163,65,0.004132231404958678,1500.3,1502.7145581691036,1415,1500
0.8556420803070068,40,165,64,0.0043859649122807015,1500.5,1507.789228315544,1415,1500
0.8778111934661865,41,164,66,0.0043859649122807015,1500.4,1507.789228315544,1415,1500
0.8998150825500488,42,162,68,0.003787878787878788,1500.2,1495.8275058275058,1415,1500
0.9217171669006348,43,162,70,0.004132231404958678,1500.2,1502.7145581691036,1415,1500
0.9435641765594482,44,161,71,0.004132231404958678,1500.1,1502.7145581691036,1415,1500
0.9654140472412109,45,163,71,0.0043859649122807015,1500.3,1507.789228315544,1415,1500
0.9874160289764404,46,161,71,0.004132231404958678,1500.1,1502.7145581691036,1415,1500
1.0094480514526367,47,163,71,0.0043859649122807015,1500.3,1507.789228315544,1415,1500
1.0313692092895508,48,160,72,0.003787878787878788,1500.0,1495.8275058275058,1415,1500
1.0531680583953857,49,161,73,0.004629629629629629,1500.1,1512.6625226625226,1415,1500
1.0754950046539307,50,161,74,0.004629629629629629,1500.1,1512.6625226625226,1415,1500
1.0973281860351562,51,161,75,0.0043859649122807015,1500.1,1507.789228315544,1415,1500
1.1193501949310303,52,161,76,0.0043859649122807015,1500.1,1507.789228315544,1415,1500
1.141077995300293,53,159,76,0.004132231404958678,1499.9,1502.7145581691036,1415,1500
1.1627941131591797,54,159,75,0.003787878787878788,1499.9,1495.8275058275058,1415,1500
1.184645175933838,55,160,76,0.004273504273504274,1500.0,1505.5400155400155,1415,1500
1.2065021991729736,56,159,76,0.004273504273504274,1499.9,1505.5400155400155,1415,1500
1.2283961772918701,57,157,77,0.0034965034965034965,1499.7,1490.0,1415,1500
1.2502059936523438,58,159,77,0.004629629629629629,1499.9,1512.6625226625226,1415,1500
1.2719440460205078,59,159,79,0.0038461538461538464,1499.9,1496.993006993007,1415,1500
1.2939121723175049,60,159,80,0.004048582995951417,1499.9,1501.0415899889583,1415,1500
1.3157801628112793,61,158,80,0.004629629629629629,1499.8,1512.6625226625226,1415,1500
1.3376100063323975,62,156,81,0.003787878787878788,1499.6,1495.8275058275058,1415,1500
1.3595850467681885,63,158,81,0.0043859649122807015,1499.8,1507.789228315544,1415,1500
1.3813810348510742,64,156,81,0.0034965034965034965,1499.6,1490.0,1415,1500
1.403245210647583,65,157,82,0.004273504273504274,1499.7,1505.5400155400155,1415,1500
1.4250221252441406,66,155,82,0.004132231404958678,1499.5,1502.7145581691036,1415,1500
1.4467461109161377,67,157,83,0.0038461538461538464,1499.7,1496.993006993007,1415,1500
1.4685170650482178,68,156,84,0.004273504273504274,1499.6,1505.5400155400155,1415,1500
1.49043607711792,69,154,84,0.0034965034965034965,1499.4,1490.0,1415,1500
1.5123021602630615,70,155,85,0.004273504273504274,1499.5,1505.5400155400155,1415,1500
1.5341920852661133,71,155,85,0.004629629629629629,1499.5,1512.6625226625226,1415,1500
1.5560791492462158,72,155,85,0.004629629629629629,1499.5,1512.6625226625226,1415,1500
1.5779750347137451,73,153,85,0.003787878787878788,1499.3,1495.8275058275058,1415,1500
1.5998351573944092,74,154,86,0.004048582995951417,1499.4,1501.0415899889583,1415,1500
1.6216390132904053,75,153,86,0.003968253968253968,1499.3,1499.4350094350095,1415,1500
1.6436071395874023,76,154,85,0.0043859649122807015,1499.4,1507.789228315544,1415,1500
1.665389060974121,77,152,85,0.0036231884057971015,1499.2,1492.533698185872,1415,1500
1.68711519241333,78,153,86,0.004048582995951417,1499.3,1501.0415899889583,1415,1500
1.7089731693267822,79,153,86,0.0037593984962406013,1499.3,1495.257899994742,1415,1500
1.7308580875396729,80,150,86,0.003246753246753247,1499.0,1485.004995004995,1415,1500
1.7526330947875977,81,149,87,0.0034965034965034965,1498.9,1490.0,1415,1500
1.7744841575622559,82,148,88,0.0034965034965034965,1498.8,1490.0,1415,1500
1.796316146850586,83,149,87,0.0036231884057971015,1498.9,1492.533698185872,1415,1500
1.8182930946350098,84,148,88,0.0034965034965034965,1498.8,1490.0,1415,1500
1.8400661945343018,85,147,88,0.003246753246753247,1498.7,1485.004995004995,1415,1500
1.8618321418762207,86,148,89,0.0037593984962406013,1498.8,1495.257899994742,1415,1500
1.883707046508789,87,146,89,0.0034965034965034965,1498.6,1490.0,1415,1500
1.9056251049041748,88,146,89,0.003787878787878788,1498.6,1495.8275058275058,1415,1500
1.9274401664733887,89,147,90,0.003968253968253968,1498.7,1499.4350094350095,1415,1500
1.9493601322174072,90,145,91,0.003246753246753247,1498.5,1485.004995004995,1415,1500
1.9710171222686768,91,144,91,0.003246753246753247,1498.4,1485.004995004995,1415,1500
1.9928240776062012,92,145,91,0.004273504273504274,1498.5,1505.5400155400155,1415,1500
2.0148110389709473,93,146,90,0.003076923076923077,1498.6,1481.6083916083917,1415,1500
2.0365140438079834,94,146,89,0.003076923076923077,1498.6,1481.6083916083917,1415,1500
2.0583770275115967,95,144,89,0.0034965034965034965,1498.4,1490.0,1415,1500
2.0801401138305664,96,144,89,0.003968253968253968,1498.4,1499.4350094350095,1415,1500
2.102018117904663,97,145,90,0.003246753246753247,1498.5,1485.004995004995,1415,1500
2.1241791248321533,98,144,91,0.003076923076923077,1498.4,1481.6083916083917,1415,1500
2.145979166030884,99,145,90,0.003246753246753247,1498.5,1485.004995004995,1415,1500
2.1679680347442627,100,144,90,0.0034965034965034965,1498.4,1490.0,1415,1500
2.1898720264434814,101,143,89,0.002857142857142857,1498.3,1477.2127872127871,1415,1500
2.2118191719055176,102,143,89,0.003246753246753247,1498.3,1485.004995004995,1415,1500
2.2336041927337646,103,143,90,0.003246753246753247,1498.3,1485.004995004995,1415,1500
2.2553021907806396,104,143,91,0.0034965034965034965,1498.3,1490.0,1415,1500
2.27708101272583,105,142,91,0.0034965034965034965,1498.2,1490.0,1415,1500
2.298828125,106,140,92,0.003703703703703704,1498.0,1494.1440041440042,1415,1500
2.320540189743042,107,140,91,0.002857142857142857,1498.0,1477.2127872127871,1415,1500
2.3424060344696045,108,139,91,0.0026666666666666666,1497.9,1473.4032634032635,1415,1500
2.364342212677002,109,139,90,0.003076923076923077,1497.9,1481.6083916083917,1415,1500
2.38604998588562,110,139,87,0.002857142857142857,1497.9,1477.2127872127871,1415,1500
2.4080071449279785,111,140,87,0.003246753246753247,1498.0,1485.004995004995,1415,1500
2.429922103881836,112,139,88,0.0030303030303030303,1497.9,1480.6759906759908,1415,1500
2.4517290592193604,113,138,89,0.003246753246753247,1497.8,1485.004995004995,1415,1500
2.473558187484741,114,138,90,0.003246753246753247,1497.8,1485.004995004995,1415,1500
2.4955251216888428,115,137,89,0.0034965034965034965,1497.7,1490.0,1415,1500
2.5174920558929443,116,136,88,0.002857142857142857,1497.6,1477.2127872127871,1415,1500
2.5393052101135254,117,137,88,0.002898550724637681,1497.7,1478.0409445626838,1415,1500
2.561070203781128,118,136,87,0.002898550724637681,1497.6,1478.0409445626838,1415,1500
2.582858085632324,119,135,87,0.0030303030303030303,1497.5,1480.6759906759908,1415,1500
2.604570150375366,120,135,87,0.002898550724637681,1497.5,1478.0409445626838,1415,1500
2.6264350414276123,121,133,85,0.0027472527472527475,1497.3,1475.014985014985,1415,1500
2.6483941078186035,122,133,84,0.0029585798816568047,1497.3,1479.2415277030661,1415,1500
2.6701231002807617,123,134,84,0.003246753246753247,1497.4,1485.004995004995,1415,1500
2.691915988922119,124,133,84,0.0030303030303030303,1497.3,1480.6759906759908,1415,1500
2.7137691974639893,125,133,84,0.002898550724637681,1497.3,1478.0409445626838,1415,1500
2.7355220317840576,126,131,84,0.0026666666666666666,1497.1,1473.4032634032635,1415,1500
2.7572951316833496,127,131,83,0.0030303030303030303,1497.1,1480.6759906759908,1415,1500
2.7793030738830566,128,131,81,0.003246753246753247,1497.1,1485.004995004995,1415,1500
2.801030158996582,129,130,81,0.003246753246753247,1497.0,1485.004995004995,1415,1500
2.8228161334991455,130,130,81,0.0034965034965034965,1497.0,1490.0,1415,1500
2.8445370197296143,131,129,79,0.002840909090909091,1496.9,1476.8881118881118,1415,1500
2.8662631511688232,132,129,78,0.003105590062111801,1496.9,1482.181731312166,1415,1500
2.888153076171875,133,128,76,0.0034965034965034965,1496.8,1490.0,1415,1500
2.9100191593170166,134,128,74,0.003105590062111801,1496.8,1482.181731312166,1415,1500
2.931756019592285,135,126,73,0.0029585798816568047,1496.6,1479.2415277030661,1415,1500
2.953559160232544,136,127,71,0.002857142857142857,1496.7,1477.2127872127871,1415,1500
2.9752941131591797,137,126,70,0.0027472527472527475,1496.6,1475.014985014985,1415,1500
2.997014045715332,138,127,70,0.002898550724637681,1496.7,1478.0409445626838,1415,1500
3.0188651084899902,139,126,69,0.0030303030303030303,1496.6,1480.6759906759908,1415,1500
3.0407321453094482,140,126,68,0.003105590062111801,1496.6,1482.181731312166,1415,1500
3.0624611377716064,141,124,67,0.0027472527472527475,1496.4,1475.014985014985,1415,1500
3.084212064743042,142,124,67,0.0029585798816568047,1496.4,1479.2415277030661,1415,1500
3.106015205383301,143,124,65,0.0027472527472527475,1496.4,1475.014985014985,1415,1500
3.1278750896453857,144,125,65,0.003246753246753247,1496.5,1485.004995004995,1415,1500
3.149775981903076,145,125,65,0.002898550724637681,1496.5,1478.0409445626838,1415,1500
3.171875,146,124,64,0.003246753246753247,1496.4,1485.004995004995,1415,1500
3.1938230991363525,147,123,63,0.003076923076923077,1496.3,1481.6083916083917,1415,1500
3.215597152709961,148,122,62,0.0029585798816568047,1496.2,1479.2415277030661,1415,1500
3.237281084060669,149,123,61,0.0034965034965034965,1496.3,1490.0,1415,1500
3.259254217147827,150,121,60,0.003076923076923077,1496.1,1481.6083916083917,1415,1500
3.280973196029663,151,122,60,0.0034965034965034965,1496.2,1490.0,1415,1500
3.3026421070098877,152,122,60,0.0034965034965034965,1496.2,1490.0,1415,1500
3.3243911266326904,153,121,60,0.002857142857142857,1496.1,1477.2127872127871,1415,1500
3.34615421295166,154,120,60,0.002857142857142857,1496.0,1477.2127872127871,1415,1500
3.3680830001831055,155,120,61,0.0030303030303030303,1496.0,1480.6759906759908,1415,1500
3.3900489807128906,156,119,60,0.0026666666666666666,1495.9,1473.4032634032635,1415,1500
3.4118289947509766,157,119,59,0.002857142857142857,1495.9,1477.2127872127871,1415,1500
3.433568000793457,158,118,60,0.0029585798816568047,1495.8,1479.2415277030661,1415,1500
3.4553401470184326,159,118,61,0.002857142857142857,1495.8,1477.2127872127871,1415,1500
3.47710919380188,160,118,63,0.003246753246753247,1495.8,1485.004995004995,1415,1500
3.498817205429077,161,116,65,0.003968253968253968,1495.6,1499.4350094350095,1415,1500
3.5206501483917236,162,117,66,0.0030303030303030303,1495.7,1480.6759906759908,1415,1500
3.5424580574035645,163,116,67,0.0030303030303030303,1495.6,1480.6759906759908,1415,1500
3.5642261505126953,164,115,66,0.003076923076923077,1495.5,1481.6083916083917,1415,1500
3.586088180541992,165,114,67,0.0026666666666666666,1495.4,1473.4032634032635,1415,1500
3.607985019683838,166,114,68,0.003246753246753247,1495.4,1485.004995004995,1415,1500
3.6298320293426514,167,114,70,0.0030303030303030303,1495.4,1480.6759906759908,1415,1500
3.651679039001465,168,113,70,0.0026666666666666666,1495.3,1473.4032634032635,1415,1500
3.6733620166778564,169,113,71,0.0035087719298245615,1495.3,1490.2453686664212,1415,1500
3.6951730251312256,170,112,71,0.002857142857142857,1495.2,1477.2127872127871,1415,1500
3.717116117477417,171,112,73,0.003076923076923077,1495.2,1481.6083916083917,1415,1500
3.7389321327209473,172,113,73,0.003246753246753247,1495.3,1485.004995004995,1415,1500
3.7608721256256104,173,109,74,0.003246753246753247,1494.9,1485.004995004995,1415,1500
3.782661199569702,174,109,74,0.003246753246753247,1494.9,1485.004995004995,1415,1500
3.80446720123291,175,111,74,0.003401360544217687,1495.1,1488.0971409542838,1415,1500
3.826367139816284,176,109,75,0.002898550724637681,1494.9,1478.0409445626838,1415,1500
3.848205089569092,177,109,75,0.003968253968253968,1494.9,1499.4350094350095,1415,1500
3.8701181411743164,178,109,75,0.002857142857142857,1494.9,1477.2127872127871,1415,1500
3.8919880390167236,179,109,76,0.004048582995951417,1494.9,1501.0415899889583,1415,1500
3.913832187652588,180,108,78,0.003968253968253968,1494.8,1499.4350094350095,1415,1500
3.935725212097168,181,108,78,0.0037593984962406013,1494.8,1495.257899994742,1415,1500
3.957552194595337,182,107,78,0.003968253968253968,1494.7,1499.4350094350095,1415,1500
3.9794561862945557,183,106,78,0.0034965034965034965,1494.6,1490.0,1415,1500
4.001384019851685,184,107,78,0.004273504273504274,1494.7,1505.5400155400155,1415,1500
4.0232250690460205,185,106,77,0.003246753246753247,1494.6,1485.004995004995,1415,1500
4.045093059539795,186,107,77,0.0037593984962406013,1494.7,1495.257899994742,1415,1500
4.066853046417236,187,106,78,0.003703703703703704,1494.6,1494.1440041440042,1415,1500
4.088571071624756,188,106,78,0.0037593984962406013,1494.6,1495.257899994742,1415,1500
4.1104371547698975,189,105,78,0.003968253968253968,1494.5,1499.4350094350095,1415,1500
4.132199048995972,190,104,78,0.0034965034965034965,1494.4,1490.0,1415,1500
4.153948068618774,191,105,77,0.0033444816053511705,1494.5,1486.9595621769536,1415,1500
4.175823211669922,192,104,77,0.003246753246753247,1494.4,1485.004995004995,1415,1500
4.198101997375488,193,104,78,0.003703703703703704,1494.4,1494.1440041440042,1415,1500
4.220041990280151,194,104,78,0.0037593984962406013,1494.4,1495.257899994742,1415,1500
4.241878986358643,195,102,79,0.0034965034965034965,1494.2,1490.0,1415,1500
4.26383900642395,196,102,79,0.0034965034965034965,1494.2,1490.0,1415,1500
4.2856481075286865,197,102,79,0.0034965034965034965,1494.2,1490.0,1415,1500
4.307438135147095,198,103,79,0.004048582995951417,1494.3,1501.0415899889583,1415,1500
4.329496145248413,199,102,79,0.003703703703703704,1494.2,1494.1440041440042,1415,1500
4.351212024688721,200,100,79,0.0034965034965034965,1494.0,1490.0,1415,1500
4.372919082641602,201,101,79,0.004273504273504274,1494.1,1505.5400155400155,1415,1500
4.39477014541626,202,100,78,0.0034965034965034965,1494.0,1490.0,1415,1500
4.416503190994263,203,102,78,0.004048582995951417,1494.2,1501.0415899889583,1415,1500
4.4382641315460205,204,100,78,0.0034965034965034965,1494.0,1490.0,1415,1500
4.46019721031189,205,101,78,0.004273504273504274,1494.1,1505.5400155400155,1415,1500
4.48200798034668,206,100,78,0.0037593984962406013,1494.0,1495.257899994742,1415,1500
4.503911018371582,207,99,78,0.003663003663003663,1493.9,1493.3300033300034,1415,1500
4.525797128677368,208,99,77,0.0034965034965034965,1493.9,1490.0,1415,1500
4.547506093978882,209,100,76,0.004273504273504274,1494.0,1505.5400155400155,1415,1500
4.5694591999053955,210,98,75,0.0034965034965034965,1493.8,1490.0,1415,1500
4.591349124908447,211,98,74,0.003246753246753247,1493.8,1485.004995004995,1415,1500
4.613211154937744,212,99,75,0.004048582995951417,1493.9,1501.0415899889583,1415,1500
4.634981155395508,213,99,74,0.004629629629629629,1493.9,1512.6625226625226,1415,1500
4.656731128692627,214,99,74,0.004273504273504274,1493.9,1505.5400155400155,1415,1500
4.6785101890563965,215,99,74,0.004273504273504274,1493.9,1505.5400155400155,1415,1500
4.700343132019043,216,100,74,0.004048582995951417,1494.0,1501.0415899889583,1415,1500
4.722228050231934,217,99,73,0.004048582995951417,1493.9,1501.0415899889583,1415,1500
4.744085073471069,218,97,72,0.0034965034965034965,1493.7,1490.0,1415,1500
4.765933036804199,219,98,70,0.004629629629629629,1493.8,1512.6625226625226,1415,1500
4.787654161453247,220,97,69,0.004132231404958678,1493.7,1502.7145581691036,1415,1500
4.809929132461548,221,97,68,0.003787878787878788,1493.7,1495.8275058275058,1415,1500
4.831664085388184,222,99,67,0.0043859649122807015,1493.9,1507.789228315544,1415,1500
4.85345721244812,223,98,67,0.004273504273504274,1493.8,1505.5400155400155,1415,1500
4.875227212905884,224,98,67,0.004048582995951417,1493.8,1501.0415899889583,1415,1500
4.897104024887085,225,97,65,0.003968253968253968,1493.7,1499.4350094350095,1415,1500
4.918951988220215,226,97,64,0.004329004329004329,1493.7,1506.6500166500166,1415,1500
4.940760135650635,227,97,63,0.004132231404958678,1493.7,1502.7145581691036,1415,1500
4.96266508102417,228,97,62,0.003663003663003663,1493.7,1493.3300033300034,1415,1500
4.984515190124512,229,97,62,0.003663003663003663,1493.7,1493.3300033300034,1415,1500
5.006291151046753,230,97,62,0.004273504273504274,1493.7,1505.5400155400155,1415,1500
5.028149127960205,231,96,61,0.004166666666666667,1493.6,1503.4032634032635,1415,1500
5.0499889850616455,232,96,61,0.003968253968253968,1493.6,1499.4350094350095,1415,1500
5.071713209152222,233,95,60,0.004629629629629629,1493.5,1512.6625226625226,1415,1500
5.093481063842773,234,98,59,0.004629629629629629,1493.8,1512.6625226625226,1415,1500
5.1153271198272705,235,97,59,0.003968253968253968,1493.7,1499.4350094350095,1415,1500
5.137065172195435,236,97,59,0.003663003663003663,1493.7,1493.3300033300034,1415,1500
5.158841133117676,237,97,58,0.004273504273504274,1493.7,1505.5400155400155,1415,1500
5.180677175521851,238,96,56,0.003968253968253968,1493.6,1499.4350094350095,1415,1500
5.2024312019348145,239,94,55,0.005050505050505051,1493.4,1521.0800310800312,1415,1500
5.224299192428589,240,96,54,0.004329004329004329,1493.6,1506.6500166500166,1415,1500
5.246180057525635,241,97,53,0.004329004329004329,1493.7,1506.6500166500166,1415,1500
5.268303155899048,242,97,52,0.003968253968253968,1493.7,1499.4350094350095,1415,1500
5.2902350425720215,243,97,52,0.003968253968253968,1493.7,1499.4350094350095,1415,1500
5.312214136123657,244,97,50,0.004273504273504274,1493.7,1505.5400155400155,1415,1500
5.334200143814087,245,97,49,0.004629629629629629,1493.7,1512.6625226625226,1415,1500
5.355955123901367,246,96,49,0.003968253968253968,1493.6,1499.4350094350095,1415,1500
5.377803087234497,247,96,48,0.003968253968253968,1493.6,1499.4350094350095,1415,1500
5.399708986282349,248,95,48,0.004545454545454545,1493.5,1510.979020979021,1415,1500
5.421442985534668,249,95,47,0.004166666666666667,1493.5,1503.4032634032635,1415,1500
5.443288087844849,250,95,46,0.004545454545454545,1493.5,1510.979020979021,1415,1500
5.465037107467651,251,96,44,0.004329004329004329,1493.6,1506.6500166500166,1415,1500
5.486826181411743,252,96,43,0.003968253968253968,1493.6,1499.4350094350095,1415,1500
5.508710145950317,253,95,43,0.0038461538461538464,1493.5,1496.993006993007,1415,1500
5.530611991882324,254,96,43,0.004629629629629629,1493.6,1512.6625226625226,1415,1500
5.552438020706177,255,95,43,0.0038461538461538464,1493.5,1496.993006993007,1415,1500
5.574295997619629,256,96,42,0.003968253968253968,1493.6,1499.4350094350095,1415,1500
5.596218109130859,257,94,41,0.004629629629629629,1493.4,1512.6625226625226,1415,1500
5.6182451248168945,258,95,41,0.004166666666666667,1493.5,1503.4032634032635,1415,1500
5.640230178833008,259,95,41,0.004545454545454545,1493.5,1510.979020979021,1415,1500
5.662111043930054,260,96,41,0.004629629629629629,1493.6,1512.6625226625226,1415,1500
5.6839070320129395,261,95,41,0.004166666666666667,1493.5,1503.4032634032635,1415,1500
5.705640077590942,262,96,40,0.003968253968253968,1493.6,1499.4350094350095,1415,1500
5.727491140365601,263,96,39,0.004329004329004329,1493.6,1506.6500166500166,1415,1500
5.7493321895599365,264,96,38,0.004329004329004329,1493.6,1506.6500166500166,1415,1500
5.771227121353149,265,94,37,0.004629629629629629,1493.4,1512.6625226625226,1415,1500
5.793081045150757,266,95,38,0.005555555555555556,1493.5,1530,1415,1500
5.814748048782349,267,94,40,0.004545454545454545,1493.4,1510.979020979021,1415,1500
5.836557149887085,268,95,41,0.004273504273504274,1493.5,1505.5400155400155,1415,1500
5.85850715637207,269,94,41,0.003663003663003663,1493.4,1493.3300033300034,1415,1500
5.880288124084473,270,96,38,0.005050505050505051,1493.6,1521.0800310800312,1415,1500
5.902130126953125,271,96,36,0.003968253968253968,1493.6,1499.4350094350095,1415,1500
5.923952102661133,272,96,35,0.003968253968253968,1493.6,1499.4350094350095,1415,1500
5.945650100708008,273,96,36,0.003968253968253968,1493.6,1499.4350094350095,1415,1500
5.967810153961182,274,95,38,0.004629629629629629,1493.5,1512.6625226625226,1415,1500
5.990053176879883,275,94,40,0.003968253968253968,1493.4,1499.4350094350095,1415,1500
6.01185417175293,276,95,41,0.004273504273504274,1493.5,1505.5400155400155,1415,1500
6.033575057983398,277,94,41,0.003663003663003663,1493.4,1493.3300033300034,1415,1500
6.055674076080322,278,94,40,0.003246753246753247,1493.4,1485.004995004995,1415,1500
6.077462196350098,279,94,41,0.003663003663003663,1493.4,1493.3300033300034,1415,1500
6.099442005157471,280,93,42,0.003787878787878788,1493.3,1495.8275058275058,1415,1500
6.12122917175293,281,93,42,0.003787878787878788,1493.3,1495.8275058275058,1415,1500
6.142916202545166,282,93,44,0.003968253968253968,1493.3,1499.4350094350095,1415,1500
6.164764165878296,283,92,45,0.003787878787878788,1493.2,1495.8275058275058,1415,1500
6.186666011810303,284,91,46,0.003246753246753247,1493.1,1485.004995004995,1415,1500
6.2084290981292725,285,91,46,0.0034965034965034965,1493.1,1490.0,1415,1500
6.230304002761841,286,93,46,0.004048582995951417,1493.3,1501.0415899889583,1415,1500
6.252146005630493,287,91,45,0.003401360544217687,1493.1,1488.0971409542838,1415,1500
6.273965120315552,288,91,46,0.003663003663003663,1493.1,1493.3300033300034,1415,1500
6.295830011367798,289,90,47,0.0034965034965034965,1493.0,1490.0,1415,1500
6.323221206665039,290,90,48,0.0034965034965034965,1493.0,1490.0,1415,1500
6.345084190368652,291,90,48,0.0034965034965034965,1493.0,1490.0,1415,1500
6.366847038269043,292,89,48,0.003246753246753247,1492.9,1485.004995004995,1415,1500
6.388736009597778,293,89,48,0.0034965034965034965,1492.9,1490.0,1415,1500
6.410545110702515,294,89,48,0.003246753246753247,1492.9,1485.004995004995,1415,1500
6.4323601722717285,295,89,49,0.003246753246753247,1492.9,1485.004995004995,1415,1500
6.454289197921753,296,90,50,0.004048582995951417,1493.0,1501.0415899889583,1415,1500
6.476210117340088,297,88,51,0.0034965034965034965,1492.8,1490.0,1415,1500
6.4982500076293945,298,89,51,0.003105590062111801,1492.9,1482.181731312166,1415,1500
6.5200700759887695,299,87,51,0.003246753246753247,1492.7,1485.004995004995,1415,1500
6.541969060897827,300,87,50,0.003246753246753247,1492.7,1485.004995004995,1415,1500
6.563765048980713,301,87,50,0.003246753246753247,1492.7,1485.004995004995,1415,1500
6.585469007492065,302,88,50,0.0037593984962406013,1492.8,1495.257899994742,1415,1500
6.607278108596802,303,87,52,0.002898550724637681,1492.7,1478.0409445626838,1415,1500
6.6292970180511475,304,86,53,0.0030303030303030303,1492.6,1480.6759906759908,1415,1500
6.651017189025879,305,86,53,0.0030303030303030303,1492.6,1480.6759906759908,1415,1500
6.672852993011475,306,86,52,0.003246753246753247,1492.6,1485.004995004995,1415,1500
6.694765090942383,307,86,52,0.002840909090909091,1492.6,1476.8881118881118,1415,1500
6.716533184051514,308,85,52,0.002840909090909091,1492.5,1476.8881118881118,1415,1500
6.738515138626099,309,86,53,0.0026666666666666666,1492.6,1473.4032634032635,1415,1500
6.760313987731934,310,85,54,0.002777777777777778,1492.5,1475.6254856254857,1415,1500
6.78226113319397,311,85,54,0.0025,1492.5,1470.06993006993,1415,1500
6.8040900230407715,312,85,54,0.0025,1492.5,1470.06993006993,1415,1500
6.82577919960022,313,85,54,0.0025,1492.5,1470.06993006993,1415,1500
6.847599029541016,314,85,54,0.0025,1492.5,1470.06993006993,1415,1500
6.869460105895996,315,84,55,0.0026041666666666665,1492.4,1472.1532634032635,1415,1500
6.891196012496948,316,84,55,0.002564102564102564,1492.4,1471.3519813519813,1415,1500
6.913119077682495,317,84,55,0.002403846153846154,1492.4,1468.1468531468531,1415,1500
6.93489408493042,318,84,56,0.002564102564102564,1492.4,1471.3519813519813,1415,1500
6.9567811489105225,319,83,56,0.002403846153846154,1492.3,1468.1468531468531,1415,1500
6.978653192520142,320,84,56,0.0024691358024691358,1492.4,1469.4526461193127,1415,1500
7.000474214553833,321,85,56,0.0026041666666666665,1492.5,1472.1532634032635,1415,1500
7.022464036941528,322,83,57,0.002403846153846154,1492.3,1468.1468531468531,1415,1500
7.044318199157715,323,83,57,0.002403846153846154,1492.3,1468.1468531468531,1415,1500
7.066087007522583,324,83,57,0.002403846153846154,1492.3,1468.1468531468531,1415,1500
7.0880961418151855,325,84,57,0.0023148148148148147,1492.4,1466.3662263662263,1415,1500
7.109906196594238,326,84,57,0.002136752136752137,1492.4,1462.8049728049727,1415,1500
7.131731033325195,327,82,58,0.0022624434389140274,1492.2,1465.3187988482107,1415,1500
7.153509140014648,328,83,57,0.002178649237472767,1492.3,1463.6429148193854,1415,1500
7.175226211547852,329,83,57,0.0024509803921568627,1492.3,1469.0895379130673,1415,1500
7.197058200836182,330,82,56,0.002136752136752137,1492.2,1462.8049728049727,1415,1500
7.2189249992370605,331,82,56,0.002136752136752137,1492.2,1462.8049728049727,1415,1500
7.240828037261963,332,81,57,0.0022624434389140274,1492.1,1465.3187988482107,1415,1500
7.262763023376465,333,83,57,0.00205761316872428,1492.3,1461.2221934444158,1415,1500
7.284645080566406,334,83,57,0.0023148148148148147,1492.3,1466.3662263662263,1415,1500
7.306575059890747,335,83,56,0.0019157088122605363,1492.3,1458.3841063151408,1415,1500
7.32846212387085,336,83,56,0.0019157088122605363,1492.3,1458.3841063151408,1415,1500
7.350265979766846,337,84,56,0.002028397565922921,1492.4,1460.6378813883885,1415,1500
7.37217116355896,338,85,55,0.0021008403361344537,1492.5,1462.0867367926191,1415,1500
7.394275188446045,339,87,55,0.002178649237472767,1492.7,1463.6429148193854,1415,1500
7.416189193725586,340,85,55,0.001851851851851852,1492.5,1457.1069671069672,1415,1500
7.438179016113281,341,85,56,0.001851851851851852,1492.5,1457.1069671069672,1415,1500
7.460252046585083,342,86,56,0.001851851851851852,1492.6,1457.1069671069672,1415,1500
7.482046127319336,343,88,56,0.001984126984126984,1492.8,1459.7524697524698,1415,1500
7.503923177719116,344,87,56,0.00196078431372549,1492.7,1459.2856163444399,1415,1500
7.525687217712402,345,87,55,0.001851851851851852,1492.7,1457.1069671069672,1415,1500
7.547563076019287,346,88,56,0.001851851851851852,1492.8,1457.1069671069672,1415,1500
7.569716215133667,347,88,56,0.0017921146953405018,1492.8,1455.91222397674,1415,1500
7.591454982757568,348,89,57,0.0018796992481203006,1492.9,1457.663915032336,1415,1500
7.613298177719116,349,89,57,0.0017543859649122807,1492.9,1455.1576493681757,1415,1500
7.635096073150635,350,89,56,0.0017921146953405018,1492.9,1455.91222397674,1415,1500
7.657011985778809,351,89,57,0.001697792869269949,1492.9,1454.025787455329,1415,1500
7.67892599105835,352,89,58,0.0018796992481203006,1492.9,1457.663915032336,1415,1500
7.70070219039917,353,90,59,0.0018148820326678765,1493.0,1456.3675707232876,1415,1500
7.7225611209869385,354,89,59,0.0017921146953405018,1492.9,1455.91222397674,1415,1500
7.744415044784546,355,88,60,0.001851851851851852,1492.8,1457.1069671069672,1415,1500
7.766206979751587,356,89,60,0.0017921146953405018,1492.9,1455.91222397674,1415,1500
7.788264036178589,357,91,59,0.001644736842105263,1493.1,1452.9646669120352,1415,1500
7.810092210769653,358,91,59,0.001644736842105263,1493.1,1452.9646669120352,1415,1500
7.831987142562866,359,93,59,0.0018148820326678765,1493.3,1456.3675707232876,1415,1500
7.853801012039185,360,93,59,0.0016129032258064516,1493.3,1452.327994586059,1415,1500
7.875529050827026,361,94,60,0.0016666666666666668,1493.4,1453.4032634032635,1415,1500
7.8973472118377686,362,93,62,0.0018796992481203006,1493.3,1457.663915032336,1415,1500
7.91926908493042,363,94,63,0.001594896331738437,1493.4,1451.9678567046988,1415,1500
7.9410600662231445,364,94,64,0.0015479876160990713,1493.4,1451.0296823919116,1415,1500
7.963122129440308,365,98,66,0.001697792869269949,1493.8,1454.025787455329,1415,1500
7.9849631786346436,366,97,65,0.0016339869281045752,1493.7,1452.7496686320217,1415,1500
8.006993055343628,367,99,67,0.001697792869269949,1493.9,1454.025787455329,1415,1500
8.028733015060425,368,98,68,0.0015151515151515152,1493.8,1450.3729603729603,1415,1500
8.050634145736694,369,98,70,0.0015479876160990713,1493.8,1451.0296823919116,1415,1500
8.072496175765991,370,100,72,0.001697792869269949,1494.0,1454.025787455329,1415,1500
8.094322204589844,371,100,73,0.001594896331738437,1494.0,1451.9678567046988,1415,1500
8.116085052490234,372,101,73,0.0016339869281045752,1494.1,1452.7496686320217,1415,1500
8.138185024261475,373,102,73,0.0016339869281045752,1494.2,1452.7496686320217,1415,1500
8.160084009170532,374,104,74,0.001594896331738437,1494.4,1451.9678567046988,1415,1500
8.181917190551758,375,105,75,0.001594896331738437,1494.5,1451.9678567046988,1415,1500
8.203798055648804,376,105,76,0.0015479876160990713,1494.5,1451.0296823919116,1415,1500
8.22557806968689,377,108,77,0.0017921146953405018,1494.8,1455.91222397674,1415,1500
8.247419118881226,378,108,79,0.0015479876160990713,1494.8,1451.0296823919116,1415,1500
8.269260168075562,379,111,80,0.001697792869269949,1495.1,1454.025787455329,1415,1500
8.291077136993408,380,112,81,0.001697792869269949,1495.2,1454.025787455329,1415,1500
8.313018083572388,381,113,83,0.0015479876160990713,1495.3,1451.0296823919116,1415,1500
8.33476710319519,382,114,84,0.001594896331738437,1495.4,1451.9678567046988,1415,1500
8.356645107269287,383,116,85,0.001697792869269949,1495.6,1454.025787455329,1415,1500
8.378610134124756,384,116,86,0.0015479876160990713,1495.6,1451.0296823919116,1415,1500
8.400431156158447,385,119,87,0.0017921146953405018,1495.9,1455.91222397674,1415,1500
8.422587156295776,386,120,89,0.001697792869269949,1496.0,1454.025787455329,1415,1500
8.444416046142578,387,120,90,0.001594896331738437,1496.0,1451.9678567046988,1415,1500
8.466271162033081,388,122,91,0.0017543859649122807,1496.2,1455.1576493681757,1415,1500
8.488075017929077,389,122,91,0.0016835016835016834,1496.2,1453.7399637399637,1415,1500
8.51003909111023,390,122,92,0.001851851851851852,1496.2,1457.1069671069672,1415,1500
8.531774997711182,391,126,91,0.001851851851851852,1496.6,1457.1069671069672,1415,1500
8.553489208221436,392,127,92,0.001851851851851852,1496.7,1457.1069671069672,1415,1500
8.575338125228882,393,127,93,0.00205761316872428,1496.7,1461.2221934444158,1414.0,1500
8.597230195999146,394,128,94,0.0018796992481203006,1496.8,1457.663915032336,1412.0,1500
8.619226217269897,395,129,95,0.001949317738791423,1496.9,1459.0562848457585,1410.0,1500
8.641138076782227,396,130,94,0.0020833333333333333,1497.0,1461.7365967365968,1412.0,1500
8.662943124771118,397,133,94,0.002178649237472767,1497.3,1463.6429148193854,1412.0,1500
8.684872150421143,398,134,94,0.0022624434389140274,1497.4,1465.3187988482107,1412.0,1500
8.70674204826355,399,135,94,0.0022624434389140274,1497.5,1465.3187988482107,1412.0,1500
8.72874116897583,400,136,95,0.002178649237472767,1497.6,1463.6429148193854,1410.0,1500
8.750657081604004,401,137,95,0.0022624434389140274,1497.7,1465.3187988482107,1410.0,1500
8.772643089294434,402,137,95,0.0020833333333333333,1497.7,1461.7365967365968,1410.0,1500
8.794700145721436,403,141,94,0.0023148148148148147,1498.1,1466.3662263662263,1412.0,1500
8.816627025604248,404,141,95,0.0022624434389140274,1498.1,1465.3187988482107,1410.0,1500
8.83872103691101,405,140,95,0.0021551724137931034,1498.0,1463.1733783457921,1410.0,1500
8.86063003540039,406,141,95,0.002380952380952381,1498.1,1467.6889776889777,1410.0,1500
8.882533073425293,407,141,95,0.002403846153846154,1498.1,1468.1468531468531,1410.0,1500
8.904365062713623,408,143,96,0.0022988505747126436,1498.3,1466.046941564183,1408.0,1500
8.926315069198608,409,142,96,0.002564102564102564,1498.2,1471.3519813519813,1408.0,1500
8.948219060897827,410,143,96,0.002403846153846154,1498.3,1468.1468531468531,1408.0,1500
8.970182180404663,411,146,96,0.0030303030303030303,1498.6,1480.6759906759908,1408.0,1500
8.992021083831787,412,147,96,0.0030303030303030303,1498.7,1480.6759906759908,1408.0,1500
9.01380705833435,413,148,95,0.003246753246753247,1498.8,1485.004995004995,1410.0,1500
9.035665035247803,414,150,94,0.003105590062111801,1499.0,1482.181731312166,1412.0,1500
9.057468175888062,415,151,93,0.003105590062111801,1499.1,1482.181731312166,1414.0,1500
9.079414129257202,416,150,93,0.0027472527472527475,1499.0,1475.014985014985,1414.0,1500
9.101279020309448,417,151,91,0.0027472527472527475,1499.1,1475.014985014985,1415,1500
9.123157024383545,418,154,89,0.003787878787878788,1499.4,1495.8275058275058,1415,1500
9.145044088363647,419,156,88,0.0033444816053511705,1499.6,1486.9595621769536,1415,1500
9.166843175888062,420,157,88,0.0033444816053511705,1499.7,1486.9595621769536,1415,1500
9.188615083694458,421,157,88,0.0034965034965034965,1499.7,1490.0,1415,1500
9.210597038269043,422,156,88,0.004273504273504274,1499.6,1505.5400155400155,1415,1500
9.232413053512573,423,157,87,0.004273504273504274,1499.7,1505.5400155400155,1415,1500
9.25428318977356,424,159,86,0.004784688995215311,1499.9,1515.7637099742362,1415,1500
9.276123046875,425,160,84,0.005050505050505051,1500.0,1521.0800310800312,1415,1500
9.298044204711914,426,161,82,0.0043859649122807015,1500.1,1507.789228315544,1415,1500
9.320196151733398,427,162,79,0.005050505050505051,1500.2,1521.0800310800312,1415,1500
9.341953039169312,428,163,77,0.004629629629629629,1500.3,1512.6625226625226,1415,1500
9.363802194595337,429,162,76,0.004132231404958678,1500.2,1502.7145581691036,1415,1500
9.385680198669434,430,165,75,0.004784688995215311,1500.5,1515.7637099742362,1415,1500
9.40759801864624,431,165,73,0.004629629629629629,1500.5,1512.6625226625226,1415,1500
9.429565191268921,432,166,72,0.005555555555555556,1500.6,1530,1415,1500
9.45173716545105,433,167,71,0.005050505050505051,1500.7,1521.0800310800312,1415,1500
9.473538160324097,434,167,70,0.004629629629629629,1500.7,1512.6625226625226,1415,1500
9.495316982269287,435,168,69,0.005555555555555556,1500.8,1530,1415,1500
9.51718807220459,436,168,68,0.005291005291005291,1500.8,1525.890035890036,1415,1500
9.53913402557373,437,168,65,0.007142857142857143,1500.8,1530,1415,1500
9.560992002487183,438,169,64,0.007407407407407408,1500.9,1530,1415,1500
9.582787990570068,439,169,63,0.005,1500.9,1520.06993006993,1415,1500
9.604592084884644,440,170,62,0.006666666666666667,1501.0,1530,1415,1500
9.626350164413452,441,171,61,0.006666666666666667,1501.1,1530,1415,1500
9.648226022720337,442,171,57,0.006944444444444444,1501.1,1530,1415,1500
9.669872045516968,443,173,55,0.007936507936507936,1501.3,1530,1415,1500
9.691639184951782,444,176,53,0.007407407407407408,1501.6,1530,1415,1500
9.713703155517578,445,175,52,0.005555555555555556,1501.5,1530,1415,1500
9.73538613319397,446,177,51,0.007407407407407408,1501.7,1530,1415,1500
9.757155179977417,447,178,50,0.007407407407407408,1501.8,1530,1415,1500
9.77889108657837,448,179,48,0.008333333333333333,1501.9,1530,1415,1500
9.800666093826294,449,180,46,0.009523809523809525,1502.0,1530,1415,1500
9.822373151779175,450,180,44,0.007936507936507936,1502.0,1530,1415,1500
9.84424614906311,451,180,43,0.006944444444444444,1502.0,1530,1415,1500
9.865888118743896,452,182,43,0.007936507936507936,1502.2,1530,1415,1500
9.887535095214844,453,183,42,0.008333333333333333,1502.3,1530,1415,1500
9.909399032592773,454,184,42,0.007407407407407408,1502.4,1530,1415,1500
9.93119502067566,455,184,41,0.008928571428571428,1502.4,1530,1415,1500
9.952897071838379,456,185,39,0.008333333333333333,1502.5,1530,1415,1500
9.974768161773682,457,184,39,0.006535947712418301,1502.4,1530,1415,1500
9.996551036834717,458,185,37,0.008928571428571428,1502.5,1530,1415,1500
10.018397092819214,459,186,35,0.008928571428571428,1502.6,1530,1415,1500
10.040189981460571,460,187,36,0.01020408163265306,1502.7,1530,1415,1500
10.061991214752197,461,186,37,0.0125,1502.6,1530,1415,1500
10.083603143692017,462,187,38,0.007936507936507936,1502.7,1530,1415,1500
10.105345010757446,463,185,37,0.008928571428571428,1502.5,1530,1415,1500
10.127134084701538,464,188,36,0.01020408163265306,1502.8,1530,1415,1500
10.148905038833618,465,186,34,0.01020408163265306,1502.6,1530,1415,1500
10.171036005020142,466,189,32,0.01020408163265306,1502.9,1530,1415,1500
10.192947149276733,467,189,31,0.008928571428571428,1502.9,1530,1415,1500
10.214715003967285,468,187,31,0.008928571428571428,1502.7,1530,1415,1500
10.2365140914917,469,189,31,0.010416666666666666,1502.9,1530,1415,1500
10.25821304321289,470,189,32,0.014285714285714285,1502.9,1530,1415,1500
10.279965162277222,471,190,32,0.010416666666666666,1503.0,1530,1415,1500
10.301740169525146,472,188,32,0.01020408163265306,1502.8,1530,1415,1500
10.323444128036499,473,188,31,0.01020408163265306,1502.8,1530,1415,1500
10.345072984695435,474,191,29,0.012987012987012988,1503.1,1530,1415,1500
10.366900205612183,475,190,27,0.016666666666666666,1503.0,1530,1415,1500
10.388756036758423,476,190,26,0.014285714285714285,1503.0,1530,1415,1500
10.410469055175781,477,190,26,0.0125,1503.0,1530,1415,1500
10.432083129882812,478,190,26,0.011363636363636364,1503.0,1530,1415,1500
10.453953981399536,479,190,26,0.0125,1503.0,1530,1415,1500
10.475612163543701,480,189,26,0.01020408163265306,1502.9,1530,1415,1500
10.497358083724976,481,189,25,0.01020408163265306,1502.9,1530,1415,1500
10.5193030834198,482,190,24,0.01020408163265306,1503.0,1530,1415,1500
10.540961027145386,483,191,22,0.01020408163265306,1503.1,1530,1415,1500
10.562705039978027,484,191,21,0.01020408163265306,1503.1,1530,1415,1500
10.584403038024902,485,192,20,0.0125,1503.2,1530,1415,1500
10.606134176254272,486,193,20,0.012987012987012988,1503.3,1530,1415,1500
10.62807011604309,487,193,20,0.011363636363636364,1503.3,1530,1415,1500
10.65024209022522,488,193,20,0.0125,1503.3,1530,1415,1500
10.671916007995605,489,194,20,0.011363636363636364,1503.4,1530,1415,1500
10.69392704963684,490,193,20,0.01020408163265306,1503.3,1530,1415,1500
10.715666055679321,491,194,19,0.014285714285714285,1503.4,1530,1415,1500
10.73739218711853,492,194,18,0.008928571428571428,1503.4,1530,1415,1500
10.759276151657104,493,197,15,0.016666666666666666,1503.7,1530,1415,1500
10.781031131744385,494,196,15,0.01020408163265306,1503.6,1530,1415,1500
10.802801132202148,495,196,15,0.01020408163265306,1503.6,1530,1415,1500
10.824515104293823,496,197,14,0.011904761904761904,1503.7,1530,1415,1500
10.846269130706787,497,199,14,0.010416666666666666,1503.9,1530,1415,1500
10.86803913116455,498,200,14,0.012987012987012988,1504.0,1530,1415,1500
10.88984203338623,499,201,13,0.012987012987012988,1504.1,1530,1415,1500
10.911624193191528,500,201,12,0.0125,1504.1,1530,1415,1500
10.933263063430786,501,202,13,0.012987012987012988,1504.2,1530,1415,1500
10.955138206481934,502,200,12,0.01020408163265306,1504.0,1530,1415,1500
10.976940155029297,503,200,11,0.008928571428571428,1504.0,1530,1415,1500
10.998707056045532,504,201,10,0.016666666666666666,1504.1,1530,1415,1500
11.020287990570068,505,202,9,0.011363636363636364,1504.2,1530,1415,1500
11.041805028915405,506,201,9,0.01020408163265306,1504.1,1530,1415,1500
11.063603162765503,507,202,9,0.01020408163265306,1504.2,1530,1415,1500
11.08537220954895,508,203,9,0.01020408163265306,1504.3,1530,1415,1500
11.107071161270142,509,204,10,0.016666666666666666,1504.4,1530,1415,1500
11.128919124603271,510,203,13,0.007352941176470588,1504.3,1530,1415,1500
11.150722026824951,511,203,12,0.0125,1504.3,1530,1415,1500
11.172486066818237,512,205,11,0.01020408163265306,1504.5,1530,1415,1500
11.19418215751648,513,205,9,0.01020408163265306,1504.5,1530,1415,1500
11.215949058532715,514,206,8,0.01020408163265306,1504.6,1530,1415,1500
11.237611055374146,515,205,7,0.007352941176470588,1504.5,1530,1415,1500
11.259672164916992,516,206,7,0.01020408163265306,1504.6,1530,1415,1500
11.281491994857788,517,206,6,0.008928571428571428,1504.6,1530,1415,1500
11.30318808555603,518,208,5,0.011904761904761904,1504.8,1530,1415,1500
11.325059175491333,519,209,4,0.008928571428571428,1504.9,1530,1415,1500
11.346873044967651,520,207,3,0.0078125,1504.7,1530,1415,1500
11.368584156036377,521,209,3,0.01020408163265306,1504.9,1530,1415,1500
11.390300989151001,522,209,2,0.011904761904761904,1504.9,1530,1415,1500
11.41220998764038,523,210,3,0.009523809523809525,1505.0,1530,1415,1500
11.433856010437012,524,209,3,0.008403361344537815,1504.9,1530,1415,1500
11.455653190612793,525,211,3,0.009523809523809525,1505.1,1530,1415,1500
11.47747015953064,526,212,2,0.011111111111111112,1505.2,1530,1415,1500
11.499322175979614,527,212,2,0.011111111111111112,1505.2,1530,1415,1500
11.521108150482178,528,212,2,0.0125,1505.2,1530,1415,1500
11.542898178100586,529,214,2,0.013333333333333334,1505.4,1530,1415,1500
11.564630031585693,530,214,1,0.016666666666666666,1505.4,1530,1415,1500
