time,frame,x,y,size_inv,roll,pitch,thrust,yaw
0,1,143,89,0.0008503401360544217,1498.3,1483.503401360544,1442.0,1500
0.05,2,140,95,0.001358695652173913,1498.0,1488.5869565217392,1430.0,1500
0.1,3,143,87,0.00065359477124183,1498.3,1481.5359477124182,1446.0,1500
0.15000000000000002,4,145,87,0.0007092198581560284,1498.5,1482.0921985815603,1446.0,1500
0.2,5,142,93,0.0016025641025641025,1498.2,1491.025641025641,1434.0,1500
0.25,6,141,93,0.0012787723785166241,1498.1,1487.7877237851662,1434.0,1500
0.3,7,154,88,0.003134796238244514,1499.4,1506.347962382445,1444.0,1500
0.35,8,144,89,0.000946969696969697,1498.4,1484.469696969697,1442.0,1500
0.39999999999999997,9,144,95,0.0010964912280701754,1498.4,1485.9649122807018,1430.0,1500
0.44999999999999996,10,145,92,0.0009090909090909091,1498.5,1484.090909090909,1436.0,1500
0.49999999999999994,11,144,97,0.0013020833333333333,1498.4,1488.0208333333333,1426.0,1500
0.5499999999999999,12,154,95,0.0013175230566534915,1499.4,1488.175230566535,1430.0,1500
0.6,13,146,95,0.0011337868480725624,1498.6,1486.3378684807255,1430.0,1500
0.65,14,147,96,0.0009718172983479105,1498.7,1484.718172983479,1428.0,1500
0.7000000000000001,15,148,91,0.0008525149190110827,1498.8,1483.5251491901108,1438.0,1500
0.7500000000000001,16,147,94,0.0007541478129713424,1498.7,1482.5414781297134,1432.0,1500
0.8000000000000002,17,147,92,0.0011337868480725624,1498.7,1486.3378684807255,1436.0,1500
0.8500000000000002,18,144,97,0.0014184397163120568,1498.4,1489.1843971631206,1426.0,1500
0.9000000000000002,19,143,98,0.0014492753623188406,1498.3,1489.4927536231885,1424.0,1500
0.9500000000000003,20,144,96,0.0012755102040816326,1498.4,1487.7551020408164,1428.0,1500
1.0000000000000002,21,143,94,0.0009718172983479105,1498.3,1484.718172983479,1432.0,1500
1.0500000000000003,22,144,90,0.0007396449704142012,1498.4,1482.396449704142,1440.0,1500
1.1000000000000003,23,142,95,0.0011441647597254005,1498.2,1486.441647597254,1430.0,1500
1.1500000000000004,24,141,91,0.0008361204013377926,1498.1,1483.361204013378,1438.0,1500
1.2000000000000004,25,143,94,0.0012755102040816326,1498.3,1487.7551020408164,1432.0,1500
1.2500000000000004,26,143,92,0.0009057971014492754,1498.3,1484.0579710144928,1436.0,1500
1.3000000000000005,27,134,90,0.0014492753623188406,1497.4,1489.4927536231885,1440.0,1500
1.3500000000000005,28,153,90,0.001838235294117647,1499.3,1493.3823529411766,1440.0,1500
1.4000000000000006,29,142,97,0.002583979328165375,1498.2,1500.8397932816538,1426.0,1500
1.4500000000000006,30,145,101,0.0019342359767891683,1498.5,1494.3423597678916,1418.0,1500
1.5000000000000007,31,147,100,0.001336898395721925,1498.7,1488.3689839572191,1420.0,1500
1.5500000000000007,32,147,95,0.0010582010582010583,1498.7,1485.5820105820105,1430.0,1500
1.6000000000000008,33,152,97,0.001221001221001221,1499.2,1487.210012210012,1426.0,1500
1.6500000000000008,34,145,94,0.0007122507122507123,1498.5,1482.1225071225072,1432.0,1500
1.7000000000000008,35,144,91,0.0005291005291005291,1498.4,1480.2910052910054,1438.0,1500
1.7500000000000009,36,143,90,0.0005494505494505495,1498.3,1480.4945054945056,1440.0,1500
1.800000000000001,37,144,85,0.0004873294346978557,1498.4,1480,1450.0,1500
1.850000000000001,38,144,88,0.0005390835579514825,1498.4,1480.3908355795147,1444.0,1500
1.900000000000001,39,145,89,0.000641025641025641,1498.5,1481.4102564102564,1442.0,1500
1.950000000000001,40,146,91,0.0007396449704142012,1498.6,1482.396449704142,1438.0,1500
2.000000000000001,41,146,92,0.0009057971014492754,1498.6,1484.0579710144928,1436.0,1500
2.0500000000000007,42,147,97,0.002583979328165375,1498.7,1500.8397932816538,1426.0,1500
2.1000000000000005,43,149,94,0.0016233766233766235,1498.9,1491.2337662337663,1432.0,1500
2.1500000000000004,44,149,95,0.0018315018315018315,1498.9,1493.3150183150183,1430.0,1500
2.2,45,163,84,0.002857142857142857,1500.3,1503.5714285714287,1452.0,1500
2.25,46,139,92,0.015151515151515152,1497.9,1520,1436.0,1500
2.3,47,165,86,0.016666666666666666,1500.5,1520,1448.0,1500
2.3499999999999996,47,,,,1500.0,1500.0,1420.0,1500
2.3999999999999995,48,146,86,0.027777777777777776,1498.6,1520,1448.0,1500
2.4499999999999993,49,137,88,0.03333333333333333,1497.7,1520,1444.0,1500
2.499999999999999,50,162,80,0.05,1500.2,1520,1460.0,1500
2.549999999999999,51,162,81,0.03333333333333333,1500.2,1520,1458.0,1500
2.5999999999999988,51,,,,1500.0,1500.0,1420.0,1500
2.6499999999999986,52,135,86,0.03125,1497.5,1520,1448.0,1500
2.6999999999999984,53,154,91,0.014492753623188406,1499.4,1520,1438.0,1500
2.7499999999999982,54,141,89,0.00390625,1498.1,1514.0625,1442.0,1500
2.799999999999998,55,141,97,0.005714285714285714,1498.1,1520,1426.0,1500
2.849999999999998,56,145,89,0.0012919896640826874,1498.5,1487.919896640827,1442.0,1500
2.8999999999999977,57,145,95,0.0012254901960784314,1498.5,1487.2549019607843,1430.0,1500
2.9499999999999975,58,146,91,0.0009523809523809524,1498.6,1484.5238095238096,1438.0,1500
2.9999999999999973,59,150,95,0.0017482517482517483,1499.0,1492.4825174825176,1430.0,1500
3.049999999999997,60,149,84,0.0005865102639296188,1498.9,1480.865102639296,1452.0,1500
3.099999999999997,61,150,80,0.00045045045045045046,1499.0,1480,1460.0,1500
3.149999999999997,62,151,78,0.0004385964912280702,1499.1,1480,1464.0,1500
3.1999999999999966,63,151,76,0.00045045045045045046,1499.1,1480,1468.0,1500
3.2499999999999964,64,152,75,0.00044306601683650863,1499.2,1480,1470.0,1500
3.2999999999999963,65,153,74,0.0004098360655737705,1499.3,1480,1470,1500
3.349999999999996,66,154,75,0.0004203446826397646,1499.4,1480,1470.0,1500
3.399999999999996,67,153,76,0.0004926108374384236,1499.3,1480,1468.0,1500
3.4499999999999957,68,154,77,0.0005070993914807302,1499.4,1480.0709939148073,1466.0,1500
3.4999999999999956,69,155,79,0.0005747126436781609,1499.5,1480.7471264367816,1462.0,1500
3.5499999999999954,70,154,78,0.0005656108597285068,1499.4,1480.656108597285,1464.0,1500
3.599999999999995,71,152,85,0.001182033096926714,1499.2,1486.8203309692672,1450.0,1500
3.649999999999995,72,153,89,0.0022727272727272726,1499.3,1497.7272727272727,1442.0,1500
3.699999999999995,73,141,87,0.005847953216374269,1498.1,1520,1446.0,1500
3.7499999999999947,74,138,81,0.007575757575757576,1497.8,1520,1458.0,1500
3.7999999999999945,75,169,72,0.037037037037037035,1500.9,1520,1470,1500
3.8499999999999943,76,163,81,0.037037037037037035,1500.3,1520,1458.0,1500
3.899999999999994,77,168,83,0.01818181818181818,1500.8,1520,1454.0,1500
3.949999999999994,77,,,,1500.0,1500.0,1420.0,1500
3.999999999999994,77,,,,1500.0,1500.0,1420.0,1500
4.049999999999994,77,,,,1500.0,1500.0,1420.0,1500
4.099999999999993,77,,,,1500.0,1500.0,1420.0,1500
4.149999999999993,77,,,,1500.0,1500.0,1420.0,1500
4.199999999999993,77,,,,1500.0,1500.0,1420.0,1500
4.249999999999993,78,144,92,0.041666666666666664,1498.4,1520,1436.0,1500
4.299999999999993,79,166,77,0.022727272727272728,1500.6,1520,1466.0,1500
4.3499999999999925,80,156,92,0.002551020408163265,1499.6,1500.5102040816325,1436.0,1500
4.399999999999992,81,148,93,0.0015873015873015873,1498.8,1490.873015873016,1434.0,1500
4.449999999999992,82,149,94,0.0009157509157509158,1498.9,1484.1575091575091,1432.0,1500
4.499999999999992,83,153,86,0.000588235294117647,1499.3,1480.8823529411766,1448.0,1500
4.549999999999992,84,151,81,0.0004616805170821791,1499.1,1480,1458.0,1500
4.599999999999992,85,151,81,0.00045372050816696913,1499.1,1480,1458.0,1500
4.6499999999999915,86,152,81,0.00046598322460391424,1499.2,1480,1458.0,1500
4.699999999999991,87,154,79,0.00045372050816696913,1499.4,1480,1462.0,1500
4.749999999999991,88,154,84,0.0006157635467980296,1499.4,1481.1576354679803,1452.0,1500
4.799999999999991,89,156,82,0.0005159958720330237,1499.6,1480.1599587203302,1456.0,1500
4.849999999999991,90,156,82,0.0005252100840336134,1499.6,1480.2521008403362,1456.0,1500
4.899999999999991,91,156,82,0.0004748338081671415,1499.6,1480,1456.0,1500
4.94999999999999,92,155,93,0.0014577259475218659,1499.5,1489.5772594752186,1434.0,1500
4.99999999999999,93,154,92,0.0009057971014492754,1499.4,1484.0579710144928,1436.0,1500
5.04999999999999,94,153,92,0.00101010101010101,1499.3,1485.1010101010102,1436.0,1500
5.09999999999999,95,152,97,0.0017094017094017094,1499.2,1492.094017094017,1426.0,1500
5.14999999999999,96,156,96,0.0020833333333333333,1499.6,1495.8333333333333,1428.0,1500
5.1999999999999895,97,162,89,0.020833333333333332,1500.2,1520,1442.0,1500
5.249999999999989,98,160,86,0.01098901098901099,1500.0,1520,1448.0,1500
5.299999999999989,99,159,90,0.047619047619047616,1499.9,1520,1440.0,1500
5.349999999999989,100,158,93,0.041666666666666664,1499.8,1520,1434.0,1500
5.399999999999989,101,160,87,0.020833333333333332,1500.0,1520,1446.0,1500
5.449999999999989,102,160,83,0.05,1500.0,1520,1454.0,1500
5.4999999999999885,103,165,79,0.041666666666666664,1500.5,1520,1462.0,1500
5.549999999999988,104,165,87,0.03571428571428571,1500.5,1520,1446.0,1500
5.599999999999988,105,162,84,0.025,1500.2,1520,1452.0,1500
5.649999999999988,106,165,83,0.025,1500.5,1520,1454.0,1500
5.699999999999988,107,156,98,0.005681818181818182,1499.6,1520,1424.0,1500
5.749999999999988,108,157,91,0.0125,1499.7,1520,1438.0,1500
5.799999999999987,109,148,97,0.003125,1498.8,1506.25,1426.0,1500
5.849999999999987,110,150,102,0.0022172949002217295,1499.0,1497.1729490022174,1416.0,1500
5.899999999999987,111,150,92,0.001358695652173913,1499.0,1488.5869565217392,1436.0,1500
5.949999999999987,112,153,93,0.0006988120195667365,1499.3,1481.9881201956673,1434.0,1500
5.999999999999987,113,153,90,0.0005509641873278236,1499.3,1480.5096418732783,1440.0,1500
6.0499999999999865,114,153,87,0.0004789272030651341,1499.3,1480,1446.0,1500
6.099999999999986,115,153,83,0.00041339396444811904,1499.3,1480,1454.0,1500
6.149999999999986,116,153,80,0.0003748125937031484,1499.3,1480,1460.0,1500
6.199999999999986,117,155,84,0.0004203446826397646,1499.5,1480,1452.0,1500
6.249999999999986,118,155,80,0.0003852080123266564,1499.5,1480,1460.0,1500
6.299999999999986,119,156,84,0.000462962962962963,1499.6,1480,1452.0,1500
6.349999999999985,120,157,82,0.00040096230954290296,1499.7,1480,1456.0,1500
6.399999999999985,121,157,86,0.0004789272030651341,1499.7,1480,1448.0,1500
6.449999999999985,122,157,85,0.0004662004662004662,1499.7,1480,1450.0,1500
6.499999999999985,123,156,89,0.0006172839506172839,1499.6,1481.1728395061727,1442.0,1500
6.549999999999985,124,154,94,0.001,1499.4,1485.0,1432.0,1500
6.5999999999999845,125,152,96,0.0015527950310559005,1499.2,1490.527950310559,1428.0,1500
6.649999999999984,126,152,89,0.0008547008547008547,1499.2,1483.5470085470085,1442.0,1500
6.699999999999984,127,157,89,0.0038314176245210726,1499.7,1513.3141762452108,1442.0,1500
6.749999999999984,128,155,94,0.00625,1499.5,1520,1432.0,1500
6.799999999999984,129,160,97,0.03333333333333333,1500.0,1520,1426.0,1500
6.849999999999984,130,163,85,0.015151515151515152,1500.3,1520,1450.0,1500
6.8999999999999835,131,158,90,0.022727272727272728,1499.8,1520,1440.0,1500
6.949999999999983,132,162,83,0.02,1500.2,1520,1454.0,1500
6.999999999999983,133,154,96,0.009523809523809525,1499.4,1520,1428.0,1500
7.049999999999983,134,139,92,0.015625,1497.9,1520,1436.0,1500
7.099999999999983,134,,,,1500.0,1500.0,1420.0,1500
7.149999999999983,135,158,95,0.008403361344537815,1499.8,1520,1430.0,1500
7.199999999999982,136,164,90,0.01818181818181818,1500.4,1520,1440.0,1500
7.249999999999982,137,139,99,0.020833333333333332,1497.9,1520,1422.0,1500
7.299999999999982,138,160,90,0.006944444444444444,1500.0,1520,1440.0,1500
7.349999999999982,139,160,104,0.01020408163265306,1500.0,1520,1412.0,1500
7.399999999999982,140,151,88,0.0012077294685990338,1499.1,1487.0772946859904,1444.0,1500
7.4499999999999815,141,145,97,0.0012345679012345679,1498.5,1487.3456790123457,1426.0,1500
7.499999999999981,142,147,96,0.0008169934640522876,1498.7,1483.1699346405228,1428.0,1500
7.549999999999981,143,145,91,0.0006157635467980296,1498.5,1481.1576354679803,1438.0,1500
7.599999999999981,144,144,87,0.00041339396444811904,1498.4,1480,1446.0,1500
7.649999999999981,145,142,87,0.00045045045045045046,1498.2,1480,1446.0,1500
7.699999999999981,146,140,88,0.0004065040650406504,1498.0,1480,1444.0,1500
7.7499999999999805,147,140,90,0.0004761904761904762,1498.0,1480,1440.0,1500
7.79999999999998,148,140,89,0.00045372050816696913,1498.0,1480,1442.0,1500
7.84999999999998,149,140,93,0.0005102040816326531,1498.0,1480.1020408163265,1434.0,1500
7.89999999999998,150,141,94,0.0005973715651135006,1498.1,1480.973715651135,1432.0,1500
7.94999999999998,151,139,98,0.0010416666666666667,1497.9,1485.4166666666667,1424.0,1500
7.99999999999998,152,143,97,0.0009057971014492754,1498.3,1484.0579710144928,1426.0,1500
8.04999999999998,153,138,96,0.0022624434389140274,1497.8,1497.6244343891403,1428.0,1500
8.09999999999998,154,152,95,0.0049261083743842365,1499.2,1520,1430.0,1500
8.14999999999998,155,133,99,0.022222222222222223,1497.3,1520,1422.0,1500
8.199999999999982,156,138,93,0.027777777777777776,1497.8,1520,1434.0,1500
8.249999999999982,157,156,92,0.041666666666666664,1499.6,1520,1436.0,1500
8.299999999999983,157,,,,1500.0,1500.0,1420.0,1500
8.349999999999984,157,,,,1500.0,1500.0,1420.0,1500
8.399999999999984,157,,,,1500.0,1500.0,1420.0,1500
8.449999999999985,157,,,,1500.0,1500.0,1420.0,1500
8.499999999999986,158,157,91,0.022222222222222223,1499.7,1520,1438.0,1500
8.549999999999986,159,156,97,0.011111111111111112,1499.6,1520,1426.0,1500
8.599999999999987,160,147,98,0.0023148148148148147,1498.7,1498.148148148148,1424.0,1500
8.649999999999988,161,151,101,0.0027548209366391185,1499.1,1502.5482093663911,1418.0,1500
8.699999999999989,162,144,97,0.000992063492063492,1498.4,1484.920634920635,1426.0,1500
8.74999999999999,163,140,92,0.000663129973474801,1498.0,1481.631299734748,1436.0,1500
8.79999999999999,164,137,88,0.0005494505494505495,1497.7,1480.4945054945056,1444.0,1500
8.84999999999999,165,130,84,0.0005299417064122947,1497.0,1480.299417064123,1452.0,1500
8.899999999999991,166,122,89,0.0010570824524312897,1496.2,1485.570824524313,1442.0,1500
8.949999999999992,167,110,86,0.0014285714285714286,1495.0,1489.2857142857142,1448.0,1500
8.999999999999993,168,104,86,0.016666666666666666,1494.4,1520,1448.0,1500
9.049999999999994,168,,,,1500.0,1500.0,1420.0,1500
9.099999999999994,168,,,,1500.0,1500.0,1420.0,1500
9.149999999999995,168,,,,1500.0,1500.0,1420.0,1500
9.199999999999996,168,,,,1500.0,1500.0,1420.0,1500
9.249999999999996,168,,,,1500.0,1500.0,1420.0,1500
9.299999999999997,168,,,,1500.0,1500.0,1420.0,1500
9.349999999999998,168,,,,1500.0,1500.0,1420.0,1500
9.399999999999999,168,,,,1500.0,1500.0,1420.0,1500
9.45,168,,,,1500.0,1500.0,1420.0,1500
9.5,168,,,,1500.0,1500.0,1420.0,1500
9.55,168,,,,1500.0,1500.0,1420.0,1500
9.600000000000001,168,,,,1500.0,1500.0,1420.0,1500
9.650000000000002,168,,,,1500.0,1500.0,1420.0,1500
9.700000000000003,168,,,,1500.0,1500.0,1420.0,1500
9.750000000000004,168,,,,1500.0,1500.0,1420.0,1500
9.800000000000004,168,,,,1500.0,1500.0,1420.0,1500
9.850000000000005,168,,,,1500.0,1500.0,1420.0,1500
9.900000000000006,168,,,,1500.0,1500.0,1420.0,1500
9.950000000000006,168,,,,1500.0,1500.0,1420.0,1500
10.000000000000007,168,,,,1500.0,1500.0,1420.0,1500
10.050000000000008,168,,,,1500.0,1500.0,1420.0,1500
10.100000000000009,168,,,,1500.0,1500.0,1420.0,1500
10.15000000000001,168,,,,1500.0,1500.0,1420.0,1500
10.20000000000001,168,,,,1500.0,1500.0,1420.0,1500
10.25000000000001,168,,,,1500.0,1500.0,1420.0,1500
10.300000000000011,168,,,,1500.0,1500.0,1420.0,1500
10.350000000000012,168,,,,1500.0,1500.0,1420.0,1500
10.400000000000013,168,,,,1500.0,1500.0,1420.0,1500
10.450000000000014,168,,,,1500.0,1500.0,1420.0,1500
10.500000000000014,168,,,,1500.0,1500.0,1420.0,1500
10.550000000000015,168,,,,1500.0,1500.0,1420.0,1500
10.600000000000016,168,,,,1500.0,1500.0,1420.0,1500
10.650000000000016,168,,,,1500.0,1500.0,1420.0,1500
10.700000000000017,168,,,,1500.0,1500.0,1420.0,1500
10.750000000000018,168,,,,1500.0,1500.0,1420.0,1500
10.800000000000018,168,,,,1500.0,1500.0,1420.0,1500
10.85000000000002,168,,,,1500.0,1500.0,1420.0,1500
10.90000000000002,168,,,,1500.0,1500.0,1420.0,1500
10.95000000000002,168,,,,1500.0,1500.0,1420.0,1500
11.000000000000021,168,,,,1500.0,1500.0,1420.0,1500
11.050000000000022,168,,,,1500.0,1500.0,1420.0,1500
11.100000000000023,168,,,,1500.0,1500.0,1420.0,1500
11.150000000000023,168,,,,1500.0,1500.0,1420.0,1500
11.200000000000024,168,,,,1500.0,1500.0,1420.0,1500
11.250000000000025,168,,,,1500.0,1500.0,1420.0,1500
11.300000000000026,168,,,,1500.0,1500.0,1420.0,1500
11.350000000000026,168,,,,1500.0,1500.0,1420.0,1500
11.400000000000027,169,124,77,0.027777777777777776,1496.4,1520,1466.0,1500
11.450000000000028,170,140,90,0.002631578947368421,1498.0,1501.3157894736842,1440.0,1500
11.500000000000028,171,150,81,0.0030303030303030303,1499.0,1505.3030303030303,1458.0,1500
11.55000000000003,172,146,87,0.00625,1498.6,1520,1446.0,1500
11.60000000000003,173,145,67,0.012987012987012988,1498.5,1520,1470,1500
11.65000000000003,174,121,87,0.014285714285714285,1496.1,1520,1446.0,1500
11.700000000000031,174,,,,1500.0,1500.0,1420.0,1500
11.750000000000032,174,,,,1500.0,1500.0,1420.0,1500
11.800000000000033,174,,,,1500.0,1500.0,1420.0,1500
11.850000000000033,174,,,,1500.0,1500.0,1420.0,1500
11.900000000000034,174,,,,1500.0,1500.0,1420.0,1500
11.950000000000035,174,,,,1500.0,1500.0,1420.0,1500
12.000000000000036,174,,,,1500.0,1500.0,1420.0,1500
12.050000000000036,174,,,,1500.0,1500.0,1420.0,1500
12.100000000000037,174,,,,1500.0,1500.0,1420.0,1500
12.150000000000038,174,,,,1500.0,1500.0,1420.0,1500
12.200000000000038,174,,,,1500.0,1500.0,1420.0,1500
12.250000000000039,174,,,,1500.0,1500.0,1420.0,1500
12.30000000000004,174,,,,1500.0,1500.0,1420.0,1500
12.35000000000004,174,,,,1500.0,1500.0,1420.0,1500
12.400000000000041,174,,,,1500.0,1500.0,1420.0,1500
12.450000000000042,174,,,,1500.0,1500.0,1420.0,1500
12.500000000000043,174,,,,1500.0,1500.0,1420.0,1500
12.550000000000043,174,,,,1500.0,1500.0,1420.0,1500
12.600000000000044,174,,,,1500.0,1500.0,1420.0,1500
12.650000000000045,174,,,,1500.0,1500.0,1420.0,1500
12.700000000000045,174,,,,1500.0,1500.0,1420.0,1500
12.750000000000046,174,,,,1500.0,1500.0,1420.0,1500
12.800000000000047,175,123,74,0.03125,1496.3,1520,1470,1500
12.850000000000048,176,158,71,0.027777777777777776,1499.8,1520,1470,1500
12.900000000000048,177,143,91,0.0022522522522522522,1498.3,1497.5225225225224,1438.0,1500
12.950000000000049,178,159,87,0.005,1499.9,1520,1446.0,1500
13.00000000000005,179,150,83,0.000588235294117647,1499.0,1480.8823529411766,1454.0,1500
13.05000000000005,180,151,83,0.0005656108597285068,1499.1,1480.656108597285,1454.0,1500
13.100000000000051,181,152,82,0.000505050505050505,1499.2,1480.050505050505,1456.0,1500
13.150000000000052,182,151,83,0.000505050505050505,1499.1,1480.050505050505,1454.0,1500
13.200000000000053,183,149,89,0.0007396449704142012,1498.9,1482.396449704142,1442.0,1500
13.250000000000053,184,150,87,0.0006506180871828237,1499.0,1481.5061808718283,1446.0,1500
13.300000000000054,185,145,88,0.000925925925925926,1498.5,1484.2592592592594,1444.0,1500
13.350000000000055,186,145,98,0.003048780487804878,1498.5,1505.4878048780488,1424.0,1500
13.400000000000055,187,160,89,0.020833333333333332,1500.0,1520,1442.0,1500
13.450000000000056,187,,,,1500.0,1500.0,1420.0,1500
13.500000000000057,187,,,,1500.0,1500.0,1420.0,1500
13.550000000000058,187,,,,1500.0,1500.0,1420.0,1500
13.600000000000058,187,,,,1500.0,1500.0,1420.0,1500
13.650000000000059,187,,,,1500.0,1500.0,1420.0,1500
13.70000000000006,187,,,,1500.0,1500.0,1420.0,1500
13.75000000000006,187,,,,1500.0,1500.0,1420.0,1500
13.800000000000061,187,,,,1500.0,1500.0,1420.0,1500
13.850000000000062,187,,,,1500.0,1500.0,1420.0,1500
13.900000000000063,188,158,84,0.013888888888888888,1499.8,1520,1452.0,1500
13.950000000000063,189,139,91,0.000784313725490196,1497.9,1482.8431372549019,1438.0,1500
14.000000000000064,190,138,94,0.0008525149190110827,1497.8,1483.5251491901108,1432.0,1500
14.050000000000065,191,140,87,0.000505050505050505,1498.0,1480.050505050505,1446.0,1500
14.100000000000065,192,140,90,0.0006993006993006993,1498.0,1481.993006993007,1440.0,1500
14.150000000000066,193,141,84,0.0005194805194805195,1498.1,1480.1948051948052,1452.0,1500
14.200000000000067,194,142,84,0.000474158368895211,1498.2,1480,1452.0,1500
14.250000000000068,195,144,85,0.000505050505050505,1498.4,1480.050505050505,1450.0,1500
14.300000000000068,196,144,87,0.0005973715651135006,1498.4,1480.973715651135,1446.0,1500
14.350000000000069,197,144,93,0.0008163265306122449,1498.4,1483.1632653061224,1434.0,1500
14.40000000000007,198,152,91,0.0016835016835016834,1499.2,1491.8350168350169,1438.0,1500
14.45000000000007,199,127,96,0.011111111111111112,1496.7,1520,1428.0,1500
14.500000000000071,200,163,100,0.03333333333333333,1500.3,1520,1420.0,1500
14.550000000000072,201,161,92,0.03333333333333333,1500.1,1520,1436.0,1500
14.600000000000072,202,163,91,0.019230769230769232,1500.3,1520,1438.0,1500
14.650000000000073,202,,,,1500.0,1500.0,1420.0,1500
14.700000000000074,203,166,96,0.047619047619047616,1500.6,1520,1428.0,1500
14.750000000000075,204,155,99,0.013888888888888888,1499.5,1520,1422.0,1500
14.800000000000075,205,165,89,0.01818181818181818,1500.5,1520,1442.0,1500
14.850000000000076,206,160,104,0.05555555555555555,1500.0,1520,1412.0,1500
14.900000000000077,206,,,,1500.0,1500.0,1420.0,1500
14.950000000000077,207,131,95,0.037037037037037035,1497.1,1520,1430.0,1500
15.000000000000078,207,,,,1500.0,1500.0,1420.0,1500
15.050000000000079,208,157,100,0.027777777777777776,1499.7,1520,1420.0,1500
15.10000000000008,209,168,93,0.047619047619047616,1500.8,1520,1434.0,1500
15.15000000000008,209,,,,1500.0,1500.0,1420.0,1500
15.200000000000081,210,161,97,0.022727272727272728,1500.1,1520,1426.0,1500
15.250000000000082,211,161,98,0.011764705882352941,1500.1,1520,1424.0,1500
15.300000000000082,212,160,108,0.011764705882352941,1500.0,1520,1404.0,1500
15.350000000000083,213,165,89,0.01020408163265306,1500.5,1520,1442.0,1500
15.400000000000084,214,166,87,0.006535947712418301,1500.6,1520,1446.0,1500
15.450000000000085,215,151,100,0.0011363636363636363,1499.1,1486.3636363636363,1420.0,1500
15.500000000000085,216,149,105,0.0017482517482517483,1498.9,1492.4825174825176,1410.0,1500
15.550000000000086,217,147,103,0.0025,1498.7,1500.0,1414.0,1500
15.600000000000087,218,149,103,0.0012919896640826874,1498.9,1487.919896640827,1414.0,1500
15.650000000000087,219,149,99,0.0009057971014492754,1498.9,1484.0579710144928,1422.0,1500
15.700000000000088,220,150,98,0.0011574074074074073,1499.0,1486.5740740740741,1424.0,1500
15.750000000000089,221,150,101,0.0010638297872340426,1499.0,1485.6382978723404,1418.0,1500
15.80000000000009,222,150,97,0.0007336757153338225,1499.0,1482.336757153338,1426.0,1500
15.85000000000009,223,149,104,0.0012077294685990338,1498.9,1487.0772946859904,1412.0,1500
15.900000000000091,224,150,101,0.0009671179883945841,1499.0,1484.6711798839458,1418.0,1500
15.950000000000092,225,150,104,0.0013297872340425532,1499.0,1488.2978723404256,1412.0,1500
16.000000000000092,226,149,99,0.000744047619047619,1498.9,1482.4404761904761,1422.0,1500
16.050000000000093,227,150,96,0.0006184291898577613,1499.0,1481.1842918985776,1428.0,1500
16.100000000000094,228,149,105,0.0012254901960784314,1498.9,1487.2549019607843,1410.0,1500
16.150000000000095,229,149,98,0.0006666666666666666,1498.9,1481.6666666666667,1424.0,1500
16.200000000000095,230,148,97,0.0006944444444444445,1498.8,1481.9444444444443,1426.0,1500
16.250000000000096,231,149,100,0.0008,1498.9,1483.0,1420.0,1500
16.300000000000097,232,149,96,0.0006451612903225806,1498.9,1481.4516129032259,1428.0,1500
16.350000000000097,233,150,96,0.0006127450980392157,1499.0,1481.127450980392,1428.0,1500
16.400000000000098,234,149,100,0.0007262164124909223,1498.9,1482.2621641249093,1420.0,1500
16.4500000000001,235,149,95,0.0005656108597285068,1498.9,1480.656108597285,1430.0,1500
16.5000000000001,236,148,104,0.0014285714285714286,1498.8,1489.2857142857142,1412.0,1500
16.5500000000001,237,148,97,0.0006868131868131869,1498.8,1481.868131868132,1426.0,1500
16.6000000000001,238,149,94,0.0005291005291005291,1498.9,1480.2910052910054,1432.0,1500
16.6500000000001,239,149,93,0.0005102040816326531,1498.9,1480.1020408163265,1434.0,1500
16.700000000000102,240,149,92,0.00046598322460391424,1498.9,1480,1436.0,1500
16.750000000000103,241,148,88,0.00042052144659377626,1498.8,1480,1444.0,1500
16.800000000000104,242,149,89,0.0004385964912280702,1498.9,1480,1442.0,1500
16.850000000000104,243,148,86,0.0003875968992248062,1498.8,1480,1448.0,1500
16.900000000000105,244,149,87,0.0004314063848144953,1498.9,1480,1446.0,1500
16.950000000000106,245,148,87,0.0004314063848144953,1498.8,1480,1446.0,1500
17.000000000000107,246,147,84,0.00035842293906810036,1498.7,1480,1452.0,1500
17.050000000000107,247,147,88,0.0004314063848144953,1498.7,1480,1444.0,1500
17.100000000000108,248,146,88,0.000434593654932638,1498.6,1480,1444.0,1500
17.15000000000011,249,146,89,0.0004385964912280702,1498.6,1480,1442.0,1500
17.20000000000011,250,146,87,0.0003968253968253968,1498.6,1480,1446.0,1500
17.25000000000011,251,145,90,0.0004616805170821791,1498.5,1480,1440.0,1500
17.30000000000011,252,144,92,0.0005291005291005291,1498.4,1480.2910052910054,1436.0,1500
17.35000000000011,253,145,94,0.0006060606060606061,1498.5,1481.060606060606,1432.0,1500
17.400000000000112,254,144,91,0.0005060728744939271,1498.4,1480.0607287449393,1438.0,1500
17.450000000000113,255,145,94,0.0005896226415094339,1498.5,1480.8962264150944,1432.0,1500
17.500000000000114,256,144,96,0.0006203473945409429,1498.4,1481.2034739454093,1428.0,1500
17.550000000000114,257,143,97,0.0007407407407407407,1498.3,1482.4074074074074,1426.0,1500
17.600000000000115,258,143,93,0.0006802721088435374,1498.3,1481.8027210884354,1434.0,1500
17.650000000000116,259,143,96,0.0007288629737609329,1498.3,1482.2886297376094,1428.0,1500
17.700000000000117,260,143,96,0.0007880220646178094,1498.3,1482.880220646178,1428.0,1500
17.750000000000117,261,143,93,0.0006863417982155113,1498.3,1481.8634179821552,1434.0,1500
17.800000000000118,262,143,95,0.0007336757153338225,1498.3,1482.336757153338,1430.0,1500
17.85000000000012,263,142,93,0.0007575757575757576,1498.2,1482.5757575757575,1434.0,1500
17.90000000000012,264,143,92,0.0006587615283267457,1498.3,1481.5876152832675,1436.0,1500
17.95000000000012,265,143,93,0.0007662835249042146,1498.3,1482.6628352490422,1434.0,1500
18.00000000000012,266,143,91,0.0007331378299120235,1498.3,1482.3313782991202,1438.0,1500
18.05000000000012,267,143,92,0.0008417508417508417,1498.3,1483.4175084175083,1436.0,1500
18.100000000000122,268,143,92,0.0008613264427217916,1498.3,1483.613264427218,1436.0,1500
18.150000000000123,269,142,91,0.0008818342151675485,1498.2,1483.8183421516756,1438.0,1500
18.200000000000124,270,142,92,0.0011086474501108647,1498.2,1486.0864745011086,1436.0,1500
18.250000000000124,271,142,89,0.0008710801393728223,1498.2,1483.7108013937282,1442.0,1500
18.300000000000125,272,141,90,0.000925925925925926,1498.1,1484.2592592592594,1440.0,1500
18.350000000000126,273,141,90,0.0009615384615384616,1498.1,1484.6153846153845,1440.0,1500
18.400000000000126,274,141,91,0.0009861932938856016,1498.1,1484.861932938856,1438.0,1500
18.450000000000127,275,141,93,0.0010256410256410256,1498.1,1485.2564102564102,1434.0,1500
18.500000000000128,276,140,98,0.001736111111111111,1498.0,1492.361111111111,1424.0,1500
18.55000000000013,277,140,93,0.0010683760683760685,1498.0,1485.6837606837607,1434.0,1500
18.60000000000013,278,142,95,0.0011750881316098707,1498.2,1486.7508813160987,1430.0,1500
18.65000000000013,279,142,94,0.0010395010395010396,1498.2,1485.3950103950103,1432.0,1500
18.70000000000013,280,142,95,0.0012987012987012987,1498.2,1487.987012987013,1430.0,1500
18.75000000000013,281,143,96,0.0012422360248447205,1498.3,1487.4223602484471,1428.0,1500
18.800000000000132,282,142,96,0.0012422360248447205,1498.2,1487.4223602484471,1428.0,1500
18.850000000000133,283,142,96,0.001336898395721925,1498.2,1488.3689839572191,1428.0,1500
18.900000000000134,284,142,98,0.001488095238095238,1498.2,1489.8809523809523,1424.0,1500
18.950000000000134,285,142,101,0.0022222222222222222,1498.2,1497.2222222222222,1418.0,1500
19.000000000000135,286,144,98,0.0013774104683195593,1498.4,1488.7741046831957,1424.0,1500
19.050000000000136,287,138,99,0.0035714285714285713,1497.8,1510.7142857142858,1422.0,1500
19.100000000000136,288,144,101,0.002688172043010753,1498.4,1501.8817204301076,1418.0,1500
19.150000000000137,289,144,95,0.0032258064516129032,1498.4,1507.258064516129,1430.0,1500
19.200000000000138,290,144,103,0.0024813895781637717,1498.4,1499.8138957816377,1414.0,1500
19.25000000000014,291,143,101,0.0020833333333333333,1498.3,1495.8333333333333,1418.0,1500
19.30000000000014,292,143,100,0.0033333333333333335,1498.3,1508.3333333333333,1420.0,1500
19.35000000000014,293,142,101,0.002849002849002849,1498.2,1503.4900284900284,1418.0,1500
19.40000000000014,294,142,100,0.002551020408163265,1498.2,1500.5102040816325,1420.0,1500
19.45000000000014,295,142,98,0.002178649237472767,1498.2,1496.7864923747277,1424.0,1500
19.500000000000142,296,148,99,0.0044444444444444444,1498.8,1519.4444444444443,1422.0,1500
19.550000000000143,297,146,98,0.0023923444976076554,1498.6,1498.9234449760766,1424.0,1500
19.600000000000144,298,144,99,0.003205128205128205,1498.4,1507.051282051282,1422.0,1500
19.650000000000144,299,143,97,0.0020833333333333333,1498.3,1495.8333333333333,1426.0,1500
19.700000000000145,300,149,101,0.013333333333333334,1498.9,1520,1418.0,1500
19.750000000000146,301,144,100,0.0030864197530864196,1498.4,1505.8641975308642,1420.0,1500
19.800000000000146,302,144,97,0.001984126984126984,1498.4,1494.8412698412699,1426.0,1500
19.850000000000147,303,144,98,0.002551020408163265,1498.4,1500.5102040816325,1424.0,1500
19.900000000000148,304,144,97,0.0018796992481203006,1498.4,1493.796992481203,1426.0,1500
19.95000000000015,305,149,93,0.005,1498.9,1520,1434.0,1500
20.00000000000015,306,149,98,0.004166666666666667,1498.9,1516.6666666666667,1424.0,1500
20.05000000000015,307,144,98,0.003367003367003367,1498.4,1508.6700336700337,1424.0,1500
20.10000000000015,308,148,99,0.002352941176470588,1498.8,1498.5294117647059,1422.0,1500
20.15000000000015,309,145,100,0.002652519893899204,1498.5,1501.525198938992,1420.0,1500
20.200000000000152,310,143,97,0.003205128205128205,1498.3,1507.051282051282,1426.0,1500
20.250000000000153,311,145,95,0.002564102564102564,1498.5,1500.6410256410256,1430.0,1500
20.300000000000153,312,145,96,0.002150537634408602,1498.5,1496.505376344086,1428.0,1500
20.350000000000154,313,144,98,0.00196078431372549,1498.4,1494.6078431372548,1424.0,1500
20.400000000000155,314,145,98,0.002688172043010753,1498.5,1501.8817204301076,1424.0,1500
20.450000000000156,315,144,95,0.00202020202020202,1498.4,1495.20202020202,1430.0,1500
20.500000000000156,316,143,97,0.0021008403361344537,1498.3,1496.0084033613446,1426.0,1500
20.550000000000157,317,142,98,0.0017921146953405018,1498.2,1492.921146953405,1424.0,1500
20.600000000000158,318,143,96,0.0012987012987012987,1498.3,1487.987012987013,1428.0,1500
20.65000000000016,319,143,94,0.0011111111111111111,1498.3,1486.111111111111,1432.0,1500
20.70000000000016,320,142,98,0.0016339869281045752,1498.2,1491.3398692810458,1424.0,1500
20.75000000000016,321,143,94,0.0011961722488038277,1498.3,1486.9617224880383,1432.0,1500
20.80000000000016,322,143,94,0.0010964912280701754,1498.3,1485.9649122807018,1432.0,1500
20.85000000000016,323,143,92,0.0010683760683760685,1498.3,1485.6837606837607,1436.0,1500
20.900000000000162,324,144,92,0.0010604453870625664,1498.4,1485.6044538706258,1436.0,1500
20.950000000000163,325,143,88,0.0008928571428571428,1498.3,1483.9285714285713,1444.0,1500
21.000000000000163,326,144,90,0.0009033423667570009,1498.4,1484.03342366757,1440.0,1500
21.050000000000164,327,143,89,0.0010416666666666667,1498.3,1485.4166666666667,1442.0,1500
21.100000000000165,328,143,90,0.001,1498.3,1485.0,1440.0,1500
21.150000000000166,329,144,91,0.0011086474501108647,1498.4,1486.0864745011086,1438.0,1500
21.200000000000166,330,144,91,0.001,1498.4,1485.0,1438.0,1500
21.250000000000167,331,144,92,0.0010121457489878543,1498.4,1485.1214574898786,1436.0,1500
21.300000000000168,332,145,92,0.0011750881316098707,1498.5,1486.7508813160987,1436.0,1500
21.35000000000017,333,146,94,0.001081081081081081,1498.6,1485.8108108108108,1432.0,1500
21.40000000000017,334,145,97,0.0013227513227513227,1498.5,1488.2275132275133,1426.0,1500
21.45000000000017,335,145,95,0.0012626262626262627,1498.5,1487.6262626262626,1430.0,1500
21.50000000000017,336,146,95,0.0011261261261261261,1498.6,1486.2612612612613,1430.0,1500
21.55000000000017,337,145,98,0.001388888888888889,1498.5,1488.888888888889,1424.0,1500
21.600000000000172,338,146,95,0.0010683760683760685,1498.6,1485.6837606837607,1430.0,1500
21.650000000000173,339,146,98,0.0013605442176870747,1498.6,1488.6054421768708,1424.0,1500
21.700000000000173,340,146,97,0.0012987012987012987,1498.6,1487.987012987013,1426.0,1500
21.750000000000174,341,146,98,0.0014619883040935672,1498.6,1489.6198830409357,1424.0,1500
21.800000000000175,342,145,100,0.0016339869281045752,1498.5,1491.3398692810458,1420.0,1500
21.850000000000176,343,145,98,0.0015151515151515152,1498.5,1490.1515151515152,1424.0,1500
21.900000000000176,344,144,100,0.0026041666666666665,1498.4,1501.0416666666667,1420.0,1500
21.950000000000177,345,145,103,0.002840909090909091,1498.5,1503.409090909091,1414.0,1500
22.000000000000178,346,146,98,0.001336898395721925,1498.6,1488.3689839572191,1424.0,1500
22.05000000000018,347,148,100,0.0022988505747126436,1498.8,1497.9885057471265,1420.0,1500
22.10000000000018,348,145,96,0.001736111111111111,1498.5,1492.361111111111,1428.0,1500
22.15000000000018,349,146,98,0.001594896331738437,1498.6,1490.9489633173844,1424.0,1500
22.20000000000018,350,145,99,0.0020833333333333333,1498.5,1495.8333333333333,1422.0,1500
22.25000000000018,351,145,99,0.002380952380952381,1498.5,1498.8095238095239,1422.0,1500
22.300000000000182,352,145,97,0.0030303030303030303,1498.5,1505.3030303030303,1426.0,1500
22.350000000000183,353,145,97,0.0020161290322580645,1498.5,1495.1612903225807,1426.0,1500
22.400000000000183,354,145,99,0.0034965034965034965,1498.5,1509.9650349650349,1422.0,1500
22.450000000000184,355,147,97,0.00625,1498.7,1520,1426.0,1500
22.500000000000185,356,135,90,0.0125,1497.5,1520,1440.0,1500
22.550000000000185,357,133,97,0.02857142857142857,1497.3,1520,1426.0,1500
22.600000000000186,358,142,99,0.01282051282051282,1498.2,1520,1422.0,1500
22.650000000000187,359,149,93,0.03333333333333333,1498.9,1520,1434.0,1500
22.700000000000188,359,,,,1500.0,1500.0,1420.0,1500
22.75000000000019,360,152,95,0.02,1499.2,1520,1430.0,1500
22.80000000000019,361,146,94,0.010526315789473684,1498.6,1520,1432.0,1500
22.85000000000019,362,133,92,0.020833333333333332,1497.3,1520,1436.0,1500
22.90000000000019,363,146,93,0.007936507936507936,1498.6,1520,1434.0,1500
22.95000000000019,364,142,94,0.0024509803921568627,1498.2,1499.5098039215686,1432.0,1500
23.000000000000192,365,142,93,0.001443001443001443,1498.2,1489.4300144300144,1434.0,1500
23.050000000000193,366,142,93,0.0011961722488038277,1498.2,1486.9617224880383,1434.0,1500
23.100000000000193,367,142,91,0.0010416666666666667,1498.2,1485.4166666666667,1438.0,1500
23.150000000000194,368,141,86,0.0008928571428571428,1498.1,1483.9285714285713,1448.0,1500
23.200000000000195,369,141,86,0.0010416666666666667,1498.1,1485.4166666666667,1448.0,1500
23.250000000000195,370,142,85,0.0008410428931875525,1498.2,1483.4104289318755,1450.0,1500
23.300000000000196,371,143,85,0.0008410428931875525,1498.3,1483.4104289318755,1450.0,1500
23.350000000000197,372,143,90,0.0010256410256410256,1498.3,1485.2564102564102,1440.0,1500
23.400000000000198,373,145,93,0.0011148272017837235,1498.5,1486.1482720178371,1434.0,1500
23.4500000000002,374,144,93,0.001851851851851852,1498.4,1493.5185185185185,1434.0,1500
23.5000000000002,375,145,96,0.001422475106685633,1498.5,1489.2247510668562,1428.0,1500
23.5500000000002,376,141,94,0.007407407407407408,1498.1,1520,1432.0,1500
23.6000000000002,377,139,93,0.005681818181818182,1497.9,1520,1434.0,1500
23.6500000000002,378,132,89,0.05555555555555555,1497.2,1520,1442.0,1500
23.700000000000202,378,,,,1500.0,1500.0,1420.0,1500
23.750000000000203,378,,,,1500.0,1500.0,1420.0,1500
23.800000000000203,378,,,,1500.0,1500.0,1420.0,1500
23.850000000000204,378,,,,1500.0,1500.0,1420.0,1500
23.900000000000205,378,,,,1500.0,1500.0,1420.0,1500
23.950000000000205,378,,,,1500.0,1500.0,1420.0,1500
24.000000000000206,378,,,,1500.0,1500.0,1420.0,1500
24.050000000000207,379,133,89,0.03125,1497.3,1520,1442.0,1500
24.100000000000207,380,144,90,0.003367003367003367,1498.4,1508.6700336700337,1440.0,1500
24.150000000000208,381,138,90,0.004830917874396135,1497.8,1520,1440.0,1500
24.20000000000021,382,144,89,0.0013157894736842105,1498.4,1488.157894736842,1442.0,1500
24.25000000000021,383,143,87,0.0010964912280701754,1498.3,1485.9649122807018,1446.0,1500
24.30000000000021,384,142,86,0.0010416666666666667,1498.2,1485.4166666666667,1448.0,1500
24.35000000000021,385,142,84,0.0009157509157509158,1498.2,1484.1575091575091,1452.0,1500
24.40000000000021,386,142,84,0.000975609756097561,1498.2,1484.7560975609756,1452.0,1500
24.450000000000212,387,143,85,0.0008710801393728223,1498.3,1483.7108013937282,1450.0,1500
24.500000000000213,388,146,88,0.0008841732979664014,1498.6,1483.841732979664,1444.0,1500
24.550000000000214,389,146,90,0.0009746588693957114,1498.6,1484.7465886939572,1440.0,1500
24.600000000000215,390,145,95,0.001736111111111111,1498.5,1492.361111111111,1430.0,1500
24.650000000000215,391,148,92,0.001142857142857143,1498.8,1486.4285714285713,1436.0,1500
24.700000000000216,392,139,90,0.01020408163265306,1497.9,1520,1440.0,1500
24.750000000000217,393,146,99,0.025,1498.6,1520,1422.0,1500
24.800000000000217,393,,,,1500.0,1500.0,1420.0,1500
24.850000000000218,393,,,,1500.0,1500.0,1420.0,1500
24.90000000000022,393,,,,1500.0,1500.0,1420.0,1500
24.95000000000022,393,,,,1500.0,1500.0,1420.0,1500
25.00000000000022,393,,,,1500.0,1500.0,1420.0,1500
25.05000000000022,393,,,,1500.0,1500.0,1420.0,1500
25.10000000000022,393,,,,1500.0,1500.0,1420.0,1500
25.150000000000222,393,,,,1500.0,1500.0,1420.0,1500
25.200000000000223,393,,,,1500.0,1500.0,1420.0,1500
25.250000000000224,394,151,93,0.006211180124223602,1499.1,1520,1434.0,1500
25.300000000000225,395,147,93,0.0015479876160990713,1498.7,1490.4798761609907,1434.0,1500
25.350000000000225,396,147,89,0.0013513513513513514,1498.7,1488.5135135135135,1442.0,1500
25.400000000000226,397,146,88,0.0014245014245014246,1498.6,1489.2450142450143,1444.0,1500
25.450000000000227,398,144,82,0.0008210180623973727,1498.4,1483.2101806239737,1456.0,1500
25.500000000000227,399,143,79,0.0008210180623973727,1498.3,1483.2101806239737,1462.0,1500
25.550000000000228,400,144,80,0.0007501875468867217,1498.4,1482.5018754688672,1460.0,1500
25.60000000000023,401,144,85,0.000975609756097561,1498.4,1484.7560975609756,1450.0,1500
25.65000000000023,402,145,85,0.0008620689655172414,1498.5,1483.6206896551723,1450.0,1500
25.70000000000023,403,147,89,0.000925925925925926,1498.7,1484.2592592592594,1442.0,1500
25.75000000000023,404,148,89,0.0016891891891891893,1498.8,1491.8918918918919,1442.0,1500
25.80000000000023,405,155,95,0.0022675736961451248,1499.5,1497.6757369614513,1430.0,1500
25.850000000000232,406,138,87,0.022222222222222223,1497.8,1520,1446.0,1500
25.900000000000233,406,,,,1500.0,1500.0,1420.0,1500
25.950000000000234,406,,,,1500.0,1500.0,1420.0,1500
26.000000000000234,406,,,,1500.0,1500.0,1420.0,1500
26.050000000000235,406,,,,1500.0,1500.0,1420.0,1500
26.100000000000236,406,,,,1500.0,1500.0,1420.0,1500
26.150000000000237,406,,,,1500.0,1500.0,1420.0,1500
26.200000000000237,406,,,,1500.0,1500.0,1420.0,1500
26.250000000000238,406,,,,1500.0,1500.0,1420.0,1500
26.30000000000024,406,,,,1500.0,1500.0,1420.0,1500
26.35000000000024,406,,,,1500.0,1500.0,1420.0,1500
26.40000000000024,406,,,,1500.0,1500.0,1420.0,1500
26.45000000000024,406,,,,1500.0,1500.0,1420.0,1500
26.50000000000024,407,163,84,0.016666666666666666,1500.3,1520,1452.0,1500
26.550000000000242,408,147,86,0.007936507936507936,1498.7,1520,1448.0,1500
26.600000000000243,409,152,85,0.003134796238244514,1499.2,1506.347962382445,1450.0,1500
26.650000000000244,410,147,87,0.0019230769230769232,1498.7,1494.2307692307693,1446.0,1500
26.700000000000244,411,148,88,0.0017921146953405018,1498.8,1492.921146953405,1444.0,1500
26.750000000000245,412,147,85,0.0035842293906810036,1498.7,1510.84229390681,1450.0,1500
26.800000000000246,413,144,90,0.00196078431372549,1498.4,1494.6078431372548,1440.0,1500
26.850000000000247,414,144,90,0.0013175230566534915,1498.4,1488.175230566535,1440.0,1500
26.900000000000247,415,143,94,0.00196078431372549,1498.3,1494.6078431372548,1432.0,1500
26.950000000000248,416,142,93,0.0014005602240896359,1498.2,1489.0056022408965,1434.0,1500
27.00000000000025,417,143,92,0.0010395010395010396,1498.3,1485.3950103950103,1436.0,1500
27.05000000000025,418,143,88,0.0009157509157509158,1498.3,1484.1575091575091,1444.0,1500
27.10000000000025,419,142,87,0.0008928571428571428,1498.2,1483.9285714285713,1446.0,1500
27.15000000000025,420,142,87,0.001,1498.2,1485.0,1446.0,1500
27.20000000000025,421,143,85,0.0009033423667570009,1498.3,1484.03342366757,1450.0,1500
27.250000000000252,422,144,86,0.0009861932938856016,1498.4,1484.861932938856,1448.0,1500
27.300000000000253,423,144,91,0.0012531328320802004,1498.4,1487.531328320802,1438.0,1500
27.350000000000254,424,144,94,0.0012077294685990338,1498.4,1487.0772946859904,1432.0,1500
27.400000000000254,425,144,93,0.00102880658436214,1498.4,1485.2880658436213,1434.0,1500
27.450000000000255,426,143,96,0.0015479876160990713,1498.3,1490.4798761609907,1428.0,1500
27.500000000000256,427,142,96,0.001644736842105263,1498.2,1491.4473684210527,1428.0,1500
27.550000000000257,428,141,95,0.0026041666666666665,1498.1,1501.0416666666667,1430.0,1500
27.600000000000257,429,141,94,0.002840909090909091,1498.1,1503.409090909091,1432.0,1500
27.650000000000258,430,132,87,0.016666666666666666,1497.2,1520,1446.0,1500
27.70000000000026,430,,,,1500.0,1500.0,1420.0,1500
27.75000000000026,430,,,,1500.0,1500.0,1420.0,1500
27.80000000000026,431,129,92,0.02857142857142857,1496.9,1520,1436.0,1500
27.85000000000026,432,133,93,0.010416666666666666,1497.3,1520,1434.0,1500
27.90000000000026,433,144,95,0.0026666666666666666,1498.4,1501.6666666666667,1430.0,1500
27.950000000000262,434,142,91,0.001736111111111111,1498.2,1492.361111111111,1438.0,1500
28.000000000000263,435,142,88,0.00102880658436214,1498.2,1485.2880658436213,1444.0,1500
28.050000000000264,436,142,88,0.0010121457489878543,1498.2,1485.1214574898786,1444.0,1500
28.100000000000264,437,141,84,0.001,1498.1,1485.0,1452.0,1500
28.150000000000265,438,140,85,0.0012836970474967907,1498.0,1487.836970474968,1450.0,1500
28.200000000000266,439,138,80,0.000992063492063492,1497.8,1484.920634920635,1460.0,1500
28.250000000000266,440,138,82,0.0009523809523809524,1497.8,1484.5238095238096,1456.0,1500
28.300000000000267,441,139,85,0.0009157509157509158,1497.9,1484.1575091575091,1450.0,1500
28.350000000000268,442,140,86,0.0008410428931875525,1498.0,1483.4104289318755,1448.0,1500
28.40000000000027,443,139,89,0.000925925925925926,1497.9,1484.2592592592594,1442.0,1500
28.45000000000027,444,140,93,0.00102880658436214,1498.0,1485.2880658436213,1434.0,1500
28.50000000000027,445,140,91,0.0010449320794148381,1498.0,1485.4493207941484,1438.0,1500
28.55000000000027,446,142,93,0.0017825311942959,1498.2,1492.825311942959,1434.0,1500
28.60000000000027,447,143,93,0.001402524544179523,1498.3,1489.0252454417953,1434.0,1500
28.650000000000272,448,144,91,0.0017921146953405018,1498.4,1492.921146953405,1438.0,1500
28.700000000000273,449,144,92,0.002232142857142857,1498.4,1497.3214285714287,1436.0,1500
28.750000000000274,450,148,94,0.003246753246753247,1498.8,1507.4675324675325,1432.0,1500
28.800000000000274,451,141,90,0.005050505050505051,1498.1,1520,1440.0,1500
28.850000000000275,452,152,93,0.0029411764705882353,1499.2,1504.4117647058824,1434.0,1500
28.900000000000276,453,147,93,0.001697792869269949,1498.7,1491.9779286926994,1434.0,1500
28.950000000000276,454,146,93,0.0015625,1498.6,1490.625,1434.0,1500
29.000000000000277,455,147,88,0.0011574074074074073,1498.7,1486.5740740740741,1444.0,1500
29.050000000000278,456,146,87,0.0010395010395010396,1498.6,1485.3950103950103,1446.0,1500
29.10000000000028,457,145,84,0.000949667616334283,1498.5,1484.4966761633427,1452.0,1500
29.15000000000028,458,143,80,0.0009157509157509158,1498.3,1484.1575091575091,1460.0,1500
29.20000000000028,459,141,78,0.0009157509157509158,1498.1,1484.1575091575091,1464.0,1500
29.25000000000028,460,141,75,0.0009380863039399625,1498.1,1484.3808630393996,1470.0,1500
29.30000000000028,461,142,76,0.0009523809523809524,1498.2,1484.5238095238096,1468.0,1500
29.350000000000282,462,144,80,0.000925925925925926,1498.4,1484.2592592592594,1460.0,1500
29.400000000000283,463,145,84,0.001,1498.5,1485.0,1452.0,1500
29.450000000000284,464,147,86,0.0008771929824561404,1498.7,1483.7719298245613,1448.0,1500
29.500000000000284,465,148,91,0.0015015015015015015,1498.8,1490.015015015015,1438.0,1500
29.550000000000285,466,149,90,0.0010204081632653062,1498.9,1485.204081632653,1440.0,1500
29.600000000000286,467,152,93,0.008695652173913044,1499.2,1520,1434.0,1500
29.650000000000286,468,153,94,0.003952569169960474,1499.3,1514.5256916996047,1432.0,1500
29.700000000000287,469,150,94,0.013157894736842105,1499.0,1520,1432.0,1500
29.750000000000288,470,141,86,0.022727272727272728,1498.1,1520,1448.0,1500
29.80000000000029,471,142,90,0.041666666666666664,1498.2,1520,1440.0,1500
29.85000000000029,471,,,,1500.0,1500.0,1420.0,1500
29.90000000000029,472,156,93,0.047619047619047616,1499.6,1520,1434.0,1500
29.95000000000029,473,147,91,0.0125,1498.7,1520,1438.0,1500
30.00000000000029,474,149,92,0.006666666666666667,1498.9,1520,1436.0,1500
30.050000000000292,475,146,97,0.003703703703703704,1498.6,1512.037037037037,1426.0,1500
30.100000000000293,476,147,94,0.0015873015873015873,1498.7,1490.873015873016,1432.0,1500
30.150000000000293,477,147,92,0.0012285012285012285,1498.7,1487.2850122850123,1436.0,1500
30.200000000000294,478,145,89,0.0010683760683760685,1498.5,1485.6837606837607,1442.0,1500
30.250000000000295,479,144,84,0.0009157509157509158,1498.4,1484.1575091575091,1452.0,1500
30.300000000000296,480,143,81,0.0009033423667570009,1498.3,1484.03342366757,1458.0,1500
30.350000000000296,481,143,80,0.0009033423667570009,1498.3,1484.03342366757,1460.0,1500
30.400000000000297,482,143,79,0.0008710801393728223,1498.3,1483.7108013937282,1462.0,1500
30.450000000000298,483,143,81,0.0010121457489878543,1498.3,1485.1214574898786,1458.0,1500
30.5000000000003,484,145,85,0.0009578544061302681,1498.5,1484.5785440613026,1450.0,1500
30.5500000000003,485,146,89,0.0012987012987012987,1498.6,1487.987012987013,1442.0,1500
30.6000000000003,486,147,88,0.0029411764705882353,1498.7,1504.4117647058824,1444.0,1500
30.6500000000003,487,141,90,0.007518796992481203,1498.1,1520,1440.0,1500
30.7000000000003,488,148,92,0.0064516129032258064,1498.8,1520,1436.0,1500
30.750000000000302,488,,,,1500.0,1500.0,1420.0,1500
30.800000000000303,488,,,,1500.0,1500.0,1420.0,1500
30.850000000000303,488,,,,1500.0,1500.0,1420.0,1500
30.900000000000304,488,,,,1500.0,1500.0,1420.0,1500
30.950000000000305,488,,,,1500.0,1500.0,1420.0,1500
31.000000000000306,488,,,,1500.0,1500.0,1420.0,1500
31.050000000000306,488,,,,1500.0,1500.0,1420.0,1500
31.100000000000307,488,,,,1500.0,1500.0,1420.0,1500
31.150000000000308,489,134,86,0.05555555555555555,1497.4,1520,1448.0,1500
31.20000000000031,490,145,95,0.003125,1498.5,1506.25,1430.0,1500
31.25000000000031,491,149,97,0.002564102564102564,1498.9,1500.6410256410256,1426.0,1500
31.30000000000031,492,145,93,0.0012626262626262627,1498.5,1487.6262626262626,1434.0,1500
31.35000000000031,493,144,87,0.0009746588693957114,1498.4,1484.7465886939572,1446.0,1500
31.40000000000031,494,144,86,0.0010256410256410256,1498.4,1485.2564102564102,1448.0,1500
31.450000000000312,495,144,84,0.000975609756097561,1498.4,1484.7560975609756,1452.0,1500
31.500000000000313,496,144,82,0.0008928571428571428,1498.4,1483.9285714285713,1456.0,1500
31.550000000000313,497,145,84,0.0010256410256410256,1498.5,1485.2564102564102,1452.0,1500
31.600000000000314,498,145,89,0.0012987012987012987,1498.5,1487.987012987013,1442.0,1500
31.650000000000315,499,146,88,0.00102880658436214,1498.6,1485.2880658436213,1444.0,1500
31.700000000000315,500,146,93,0.0012787723785166241,1498.6,1487.7877237851662,1434.0,1500
31.750000000000316,501,147,94,0.0014705882352941176,1498.7,1489.7058823529412,1432.0,1500
31.800000000000317,502,147,100,0.0044444444444444444,1498.7,1519.4444444444443,1420.0,1500
31.850000000000318,503,144,99,0.011764705882352941,1498.4,1520,1422.0,1500
31.90000000000032,504,151,98,0.014285714285714285,1499.1,1520,1424.0,1500
31.95000000000032,505,157,91,0.03333333333333333,1499.7,1520,1438.0,1500
32.00000000000032,505,,,,1500.0,1500.0,1420.0,1500
32.05000000000032,505,,,,1500.0,1500.0,1420.0,1500
32.100000000000314,505,,,,1500.0,1500.0,1420.0,1500
32.15000000000031,505,,,,1500.0,1500.0,1420.0,1500
32.20000000000031,506,137,88,0.02857142857142857,1497.7,1520,1444.0,1500
32.250000000000306,507,148,97,0.00909090909090909,1498.8,1520,1426.0,1500
32.3000000000003,508,154,89,0.005681818181818182,1499.4,1520,1442.0,1500
32.3500000000003,509,151,92,0.005494505494505495,1499.1,1520,1436.0,1500
32.4000000000003,510,150,90,0.0016129032258064516,1499.0,1491.1290322580646,1440.0,1500
32.450000000000294,511,150,92,0.0015432098765432098,1499.0,1490.432098765432,1436.0,1500
32.50000000000029,512,151,89,0.0011261261261261261,1499.1,1486.2612612612613,1442.0,1500
32.55000000000029,513,149,86,0.0011261261261261261,1498.9,1486.2612612612613,1448.0,1500
32.600000000000286,514,148,83,0.0008928571428571428,1498.8,1483.9285714285713,1454.0,1500
32.65000000000028,515,147,83,0.0010351966873706005,1498.7,1485.351966873706,1454.0,1500
32.70000000000028,516,147,84,0.0012195121951219512,1498.7,1487.1951219512196,1452.0,1500
32.75000000000028,517,146,84,0.0009615384615384616,1498.6,1484.6153846153845,1452.0,1500
32.800000000000274,518,146,86,0.0010683760683760685,1498.6,1485.6837606837607,1448.0,1500
32.85000000000027,519,147,89,0.0010683760683760685,1498.7,1485.6837606837607,1442.0,1500
32.90000000000027,520,146,91,0.0010683760683760685,1498.6,1485.6837606837607,1438.0,1500
32.950000000000266,521,146,95,0.0013175230566534915,1498.6,1488.175230566535,1430.0,1500
33.00000000000026,522,147,94,0.0017825311942959,1498.7,1492.825311942959,1432.0,1500
33.05000000000026,523,147,99,0.0018975332068311196,1498.7,1493.9753320683112,1422.0,1500
33.10000000000026,524,149,95,0.002304147465437788,1498.9,1498.041474654378,1430.0,1500
33.150000000000254,525,149,95,0.002688172043010753,1498.9,1501.8817204301076,1430.0,1500
33.20000000000025,526,149,93,0.0035714285714285713,1498.9,1510.7142857142858,1434.0,1500
33.25000000000025,527,157,95,0.011904761904761904,1499.7,1520,1430.0,1500
33.300000000000246,528,158,94,0.016666666666666666,1499.8,1520,1432.0,1500
33.35000000000024,529,156,96,0.02,1499.6,1520,1428.0,1500
33.40000000000024,530,142,93,0.009615384615384616,1498.2,1520,1434.0,1500
33.45000000000024,531,148,100,0.030303030303030304,1498.8,1520,1420.0,1500
33.500000000000234,532,155,99,0.02,1499.5,1520,1422.0,1500
33.55000000000023,533,153,100,0.017857142857142856,1499.3,1520,1420.0,1500
33.60000000000023,534,148,99,0.03333333333333333,1498.8,1520,1422.0,1500
33.650000000000226,535,155,97,0.007352941176470588,1499.5,1520,1426.0,1500
33.70000000000022,536,145,95,0.020833333333333332,1498.5,1520,1430.0,1500
33.75000000000022,536,,,,1500.0,1500.0,1420.0,1500
33.80000000000022,537,153,98,0.008928571428571428,1499.3,1520,1424.0,1500
33.850000000000215,538,153,96,0.0033444816053511705,1499.3,1508.4448160535117,1428.0,1500
33.90000000000021,539,150,94,0.001594896331738437,1499.0,1490.9489633173844,1432.0,1500
33.95000000000021,540,151,92,0.0013605442176870747,1499.1,1488.6054421768708,1436.0,1500
34.000000000000206,541,152,89,0.0011750881316098707,1499.2,1486.7508813160987,1442.0,1500
34.0500000000002,542,151,89,0.0012077294685990338,1499.1,1487.0772946859904,1442.0,1500
34.1000000000002,543,150,86,0.0011441647597254005,1499.0,1486.441647597254,1448.0,1500
34.1500000000002,544,150,83,0.0009861932938856016,1499.0,1484.861932938856,1454.0,1500
34.200000000000195,545,149,83,0.000925925925925926,1498.9,1484.2592592592594,1454.0,1500
34.25000000000019,546,148,84,0.0009861932938856016,1498.8,1484.861932938856,1452.0,1500
34.30000000000019,547,148,88,0.0010964912280701754,1498.8,1485.9649122807018,1444.0,1500
34.350000000000186,548,148,90,0.0010526315789473684,1498.8,1485.5263157894738,1440.0,1500
34.40000000000018,549,148,92,0.001142857142857143,1498.8,1486.4285714285713,1436.0,1500
34.45000000000018,550,146,96,0.001953125,1498.6,1494.53125,1428.0,1500
34.50000000000018,551,145,95,0.002232142857142857,1498.5,1497.3214285714287,1430.0,1500
34.550000000000175,552,139,94,0.0043859649122807015,1497.9,1518.859649122807,1432.0,1500
34.60000000000017,552,,,,1500.0,1500.0,1420.0,1500
34.65000000000017,552,,,,1500.0,1500.0,1420.0,1500
34.700000000000166,552,,,,1500.0,1500.0,1420.0,1500
34.75000000000016,552,,,,1500.0,1500.0,1420.0,1500
34.80000000000016,552,,,,1500.0,1500.0,1420.0,1500
34.85000000000016,552,,,,1500.0,1500.0,1420.0,1500
34.900000000000155,553,154,93,0.025,1499.4,1520,1434.0,1500
34.95000000000015,554,142,96,0.013888888888888888,1498.2,1520,1428.0,1500
35.00000000000015,555,148,91,0.0021551724137931034,1498.8,1496.551724137931,1438.0,1500
35.050000000000146,556,150,94,0.0015037593984962407,1499.0,1490.0375939849623,1432.0,1500
35.10000000000014,557,150,90,0.0012077294685990338,1499.0,1487.0772946859904,1440.0,1500
35.15000000000014,558,152,88,0.0011655011655011655,1499.2,1486.6550116550115,1444.0,1500
35.20000000000014,559,150,84,0.0009615384615384616,1499.0,1484.6153846153845,1452.0,1500
35.250000000000135,560,149,80,0.000925925925925926,1498.9,1484.2592592592594,1460.0,1500
35.30000000000013,561,148,79,0.0008818342151675485,1498.8,1483.8183421516756,1462.0,1500
35.35000000000013,562,148,81,0.0009157509157509158,1498.8,1484.1575091575091,1458.0,1500
35.40000000000013,563,148,81,0.0008130081300813008,1498.8,1483.1300813008131,1458.0,1500
35.450000000000124,564,148,87,0.0011655011655011655,1498.8,1486.6550116550115,1446.0,1500
35.50000000000012,565,149,87,0.0008841732979664014,1498.9,1483.841732979664,1446.0,1500
35.55000000000012,566,149,91,0.0011441647597254005,1498.9,1486.441647597254,1438.0,1500
35.600000000000115,567,149,94,0.001388888888888889,1498.9,1488.888888888889,1432.0,1500
35.65000000000011,568,150,95,0.0016806722689075631,1499.0,1491.8067226890757,1430.0,1500
35.70000000000011,569,150,91,0.0021008403361344537,1499.0,1496.0084033613446,1438.0,1500
35.75000000000011,570,148,93,0.0033333333333333335,1498.8,1508.3333333333333,1434.0,1500
35.800000000000104,571,150,97,0.0027472527472527475,1499.0,1502.4725274725274,1426.0,1500
35.8500000000001,572,157,89,0.01020408163265306,1499.7,1520,1442.0,1500
35.9000000000001,573,156,91,0.005128205128205128,1499.6,1520,1438.0,1500
35.950000000000095,574,143,94,0.006802721088435374,1498.3,1520,1432.0,1500
36.00000000000009,575,151,93,0.013157894736842105,1499.1,1520,1434.0,1500
36.05000000000009,576,154,92,0.022222222222222223,1499.4,1520,1436.0,1500
36.10000000000009,577,153,88,0.013888888888888888,1499.3,1520,1444.0,1500
36.150000000000084,578,150,90,0.017857142857142856,1499.0,1520,1440.0,1500
36.20000000000008,578,,,,1500.0,1500.0,1420.0,1500
36.25000000000008,579,152,89,0.041666666666666664,1499.2,1520,1442.0,1500
36.300000000000075,580,135,92,0.030303030303030304,1497.5,1520,1436.0,1500
36.35000000000007,581,155,87,0.015873015873015872,1499.5,1520,1446.0,1500
36.40000000000007,582,140,94,0.013157894736842105,1498.0,1520,1432.0,1500
36.45000000000007,583,145,91,0.003968253968253968,1498.5,1514.6825396825398,1438.0,1500
36.500000000000064,584,148,89,0.002688172043010753,1498.8,1501.8817204301076,1442.0,1500
36.55000000000006,585,149,90,0.003125,1498.9,1506.25,1440.0,1500
36.60000000000006,586,151,84,0.002304147465437788,1499.1,1498.041474654378,1452.0,1500
36.650000000000055,587,153,82,0.001443001443001443,1499.3,1489.4300144300144,1456.0,1500
36.70000000000005,588,153,80,0.001336898395721925,1499.3,1488.3689839572191,1460.0,1500
36.75000000000005,589,154,78,0.0012254901960784314,1499.4,1487.2549019607843,1464.0,1500
36.80000000000005,590,155,82,0.001388888888888889,1499.5,1488.888888888889,1456.0,1500
36.850000000000044,591,155,83,0.0014619883040935672,1499.5,1489.6198830409357,1454.0,1500
36.90000000000004,592,156,81,0.001081081081081081,1499.6,1485.8108108108108,1458.0,1500
36.95000000000004,593,155,83,0.001081081081081081,1499.5,1485.8108108108108,1454.0,1500
37.000000000000036,594,154,85,0.0011750881316098707,1499.4,1486.7508813160987,1450.0,1500
37.05000000000003,595,153,87,0.0011961722488038277,1499.3,1486.9617224880383,1446.0,1500
37.10000000000003,596,152,89,0.0011574074074074073,1499.2,1486.5740740740741,1442.0,1500
37.15000000000003,597,151,90,0.0012285012285012285,1499.1,1487.2850122850123,1440.0,1500
37.200000000000024,598,151,91,0.0010121457489878543,1499.1,1485.1214574898786,1438.0,1500
37.25000000000002,599,151,92,0.0011750881316098707,1499.1,1486.7508813160987,1436.0,1500
37.30000000000002,600,150,92,0.0011261261261261261,1499.0,1486.2612612612613,1436.0,1500
37.350000000000016,601,150,93,0.0012422360248447205,1499.0,1487.4223602484471,1434.0,1500
37.40000000000001,602,150,95,0.0012422360248447205,1499.0,1487.4223602484471,1430.0,1500
37.45000000000001,603,149,94,0.0015151515151515152,1498.9,1490.1515151515152,1432.0,1500
37.50000000000001,604,149,96,0.0014705882352941176,1498.9,1489.7058823529412,1428.0,1500
37.550000000000004,605,149,94,0.0016129032258064516,1498.9,1491.1290322580646,1432.0,1500
37.6,606,149,93,0.001466275659824047,1498.9,1489.6627565982405,1434.0,1500
37.65,607,149,96,0.001697792869269949,1498.9,1491.9779286926994,1428.0,1500
37.699999999999996,608,148,96,0.0016666666666666668,1498.8,1491.6666666666667,1428.0,1500
37.74999999999999,609,147,96,0.001984126984126984,1498.7,1494.8412698412699,1428.0,1500
37.79999999999999,610,148,97,0.0019157088122605363,1498.8,1494.1570881226053,1426.0,1500
37.84999999999999,611,147,98,0.0021008403361344537,1498.7,1496.0084033613446,1424.0,1500
37.899999999999984,612,147,100,0.0029585798816568047,1498.7,1504.585798816568,1420.0,1500
37.94999999999998,613,147,98,0.0025,1498.7,1500.0,1424.0,1500
37.99999999999998,614,147,98,0.0026666666666666666,1498.7,1501.6666666666667,1424.0,1500
38.049999999999976,615,147,97,0.003205128205128205,1498.7,1507.051282051282,1426.0,1500
38.09999999999997,616,148,96,0.00625,1498.8,1520,1428.0,1500
38.14999999999997,617,147,98,0.011111111111111112,1498.7,1520,1424.0,1500
38.19999999999997,618,146,92,0.006211180124223602,1498.6,1520,1436.0,1500
38.249999999999964,619,145,92,0.004830917874396135,1498.5,1520,1436.0,1500
38.29999999999996,620,143,91,0.010526315789473684,1498.3,1520,1438.0,1500
38.34999999999996,621,141,94,0.011111111111111112,1498.1,1520,1432.0,1500
