time,x,y,size_inv,roll,pitch,thrust,yaw
0.004613161087036133,169,103.2115,1142.2766343679345,1502.0699999999999,1494.8302448546558,1296.01774,1500.0
0.031007051467895508,169,103.2115,1142.2766343679345,1502.3399999999999,1494.8302448546558,1295.8892800000001,1500.0
0.05333709716796875,170,103.2115,1142.2766343679345,1502.8399999999999,1494.8302448546558,1295.76082,1500.0
0.07566404342651367,170,103.2115,1142.2766343679345,1503.1400000000001,1494.8302448546558,1295.6323600000001,1500.0
0.0979311466217041,170,103.2115,1142.2766343679345,1503.4400000000001,1494.8302448546558,1295.5038999999999,1500.0
0.12016415596008301,170,103.2115,1142.2766343679345,1503.74,1494.8302448546558,1295.37544,1500.0
0.14241600036621094,170,103.2115,1142.2766343679345,1504.04,1494.8302448546558,1295.2469799999999,1500.0
0.16487812995910645,170,103.2115,1142.2766343679345,1504.3399999999999,1494.8302448546558,1295.11852,1500.0
0.18720316886901855,170,103.2115,1142.2766343679345,1504.6400000000001,1494.8302448546558,1294.9900600000001,1500.0
0.20946121215820312,170,103.2115,1142.2766343679345,1504.9400000000001,1494.8302448546558,1294.8616,1500.0
0.23187708854675293,170,103.2115,1142.2766343679345,1507.1700000000001,1494.8302448546558,1294.8616,1500.0
0.25446605682373047,170,103.2115,1142.2766343679345,1505.0,1494.8302448546558,1294.8616,1500.0
0.27709007263183594,172,103.2115,1142.2766343679345,1509.8599999999999,1494.8302448546558,1294.8616,1500.0
0.29964518547058105,172,103.2115,1145.4496250189566,1514.3199999999999,1494.9397130321161,1294.8616,1500.0
0.32219505310058594,170,102.2115,1145.4496250189566,1513.9200000000001,1495.0349027516465,1297.5016000000001,1500.0
0.34482407569885254,172,101.2115,1151.9769200724877,1518.78,1495.3552841505241,1301.5816,1500.0
0.3674321174621582,169,100.2115,1158.5042151260188,1515.95,1495.8714844010076,1307.1016,1500.0
0.3900182247161865,170,99.2115,1168.583126605736,1507.3499999999999,1496.7060342698003,1314.0616,1500.0
0.41259121894836426,170,96.2115,1178.6620380854531,1498.55,1497.6525720439233,1327.7416000000001,1500.0
0.43535709381103516,173,94.2115,1185.1893331389842,1505.8399999999999,1498.7789463957342,1340.3016,1500.0
0.4579501152038574,169,92.2115,1191.7166281925151,1494.01,1499.7095018959394,1350,1500.0
0.4804651737213135,169,88.2115,1209.5647006045142,1496.1800000000001,1500.8348053634058,1350,1500.0
0.5039541721343994,168,86.2115,1212.7376912555362,1495.8599999999999,1501.3845259936954,1350,1500.0
0.5289950370788574,167,83.2115,1212.7376912555362,1493.3099999999999,1501.4104231968029,1350,1500.0
0.5537772178649902,162,79.2115,1212.7376912555362,1480,1501.0446826966986,1350,1500.0
0.5785560607910156,159,74.2115,1195.0662339154887,1480,1499.8734580667569,1350,1500.0
0.6037700176239014,160,71.2115,1172.6001951265912,1480,1497.1316111635142,1350,1500.0
0.6288301944732666,159,68.2115,1142.214143480333,1480,1493.554530558356,1350,1500.0
0.6537041664123535,160,66.2115,1111.8280918340749,1480,1489.3682357482014,1350,1500.0
0.6785671710968018,157,64.2115,1080.9970386025029,1480,1484.4508256855718,1350,1500.0
0.703275203704834,159,61.2115,1044.7705510554056,1480,1479.6784478341183,1350,1500.0
0.7278990745544434,161,60.2115,993.9721911135623,1480,1475.1999502583267,1350,1500.0
0.752446174621582,160,59.2115,956.31537753822522,1480,1471.5692380522305,1350,1500.0
0.7772331237792969,159,59.2115,917.18182617562002,1490.8800000000001,1468.581037083989,1350,1500.0
0.8020780086517334,158,59.2115,878.42601179527935,1503.76,1466.2817246946518,1350,1500.0
0.8270490169525146,159,60.2115,848.21188214778431,1503.96,1464.7578715298118,1350,1500.0
0.8518941402435303,160,61.2115,821.55725985587196,1499.76,1464.8243179121584,1350,1500.0
0.8765361309051514,159,62.2115,796.92236850629752,1495.1600000000001,1465.5086336083907,1350,1500.0
0.9013400077819824,162,64.2115,772.28747715672307,1504.6199999999999,1466.8903340965044,1350,1500.0
0.9261040687561035,163,66.2115,751.64920381864874,1513.8,1469.0712884314009,1335.0216,1500.0
0.9511430263519287,163,70.2115,735.2888546038306,1520,1471.5067361008444,1314.4616000000001,1500.0
0.9763312339782715,163,70.2115,721.09756674706171,1520,1473.6015324499551,1302.8616,1500.0
1.0011441707611084,164,72.2115,707.3915941589795,1520,1475.6357226138471,1290.1415999999999,1500.0
1.0257542133331299,164,73.2115,695.16235935816542,1520,1477.6137679938536,1282.7816,1500.0
1.0504481792449951,164,75.2115,685.72837822610882,1520,1479.396994550282,1276.9416000000001,1500.0
1.07517409324646,164,76.2115,675.93995518842166,1520,1480.960170490469,1280.7016000000001,1500.0
1.0998570919036865,165,76.2115,670.34352570330338,1520,1482.4261561197375,1284.3016,1500.0
1.124662160873413,165,77.2115,667.09576170702155,1517.51,1483.8885894386149,1289.5016000000001,1500.0
1.1495981216430664,165,78.2115,663.84799771073972,1515.4000000000001,1485.2482971851657,1293.3416,1500.0
1.1744911670684814,165,79.2115,658.59908620159752,1515.46,1486.3884230904152,1298.6215999999999,1500.0
1.199526071548462,165,79.2115,655.45286519874776,1515.52,1487.5401193786745,1302.4616000000001,1500.0
1.2243530750274658,168,79.2115,653.38867787412687,1518.47,1488.5448063321512,1306.3016,1500.0
1.2492961883544922,168,80.2115,653.38867787412687,1520,1489.3424687907232,1307.5816,1500.0
1.2742030620574951,168,79.2115,652.37271067529002,1520,1489.9330691766877,1314.1415999999999,1500.0
1.2991390228271484,169,79.2115,651.35674347645306,1520,1490.5251058032738,1319.5816,1500.0
1.3239500522613525,169,80.2115,654.31366293575434,1520,1491.1188485726411,1321.0216,1500.0
1.348708152770996,169,80.2115,654.31366293575434,1520,1491.6552435593653,1323.6615999999999,1500.0
1.373671054840088,168,79.2115,653.2976957369176,1520,1492.059154757841,1330.3815999999999,1500.0
1.398470163345337,168,79.2115,653.2976957369176,1520,1492.4311629207534,1331.7416000000001,1500.0
1.423408031463623,168,80.2115,655.29884324977797,1512.8,1492.7757013595153,1329.1016,1500.0
1.448439121246338,167,79.2115,656.31481044861482,1499.46,1492.8744837051856,1333.1016,1500.0
1.473440170288086,167,80.2115,657.33077764745178,1492.8299999999999,1492.9418194470825,1333.2616,1500.0
1.4983160495758057,167,80.2115,657.33077764745178,1490.5999999999999,1493.0655413685149,1330.4616000000001,1500.0
1.523306131362915,164,79.2115,659.39496497207278,1481.0799999999999,1493.2299987366814,1331.6615999999999,1500.0
1.5483341217041016,164,80.2115,661.45915229669367,1480,1493.3058338578501,1331.8216,1500.0
1.5731451511383057,165,80.2115,662.50737242247783,1480,1493.4362932822462,1329.0216,1500.0
1.5978801250457764,165,79.2115,666.90989695077087,1480,1493.652964780372,1331.6615999999999,1500.0
1.6226871013641357,165,80.2115,672.32838867790076,1480,1494.0062838667416,1331.8216,1500.0
1.6477391719818115,162,77.2115,683.13458524734745,1480,1494.5841822825078,1338.3016,1500.0
1.6723430156707764,161,77.2115,695.36382004816153,1480,1495.4715446002479,1342.6215999999999,1500.0
1.69722318649292,162,76.2115,709.06979263624373,1480,1496.7443172240914,1350,1500.0
1.7218871116638184,161,75.2115,725.90297465618789,1480,1498.3024852952442,1350,1500.0
1.7465121746063232,161,74.2115,742.73615667613205,1480,1500.0405393233673,1350,1500.0
1.7711071968078613,161,73.2115,761.903610404755,1480,1501.7776750116102,1350,1500.0
1.795713186264038,161,72.2115,781.07106413337794,1480,1503.4180058434015,1350,1500.0
1.8204350471496582,161,72.2115,802.03546664905934,1480,1504.9044432686933,1350,1500.0
1.8452410697937012,161,71.2115,819.64556476223174,1487.48,1506.0261740822216,1350,1500.0
1.8700010776519775,161,71.2115,835.45871408834557,1496.1600000000001,1506.7667769366085,1350,1500.0
1.894639015197754,162,70.2115,844.86819137330588,1500.76,1506.9349862587251,1350,1500.0
1.9196560382843018,162,71.2115,851.12955959132273,1502.99,1506.4936999568881,1350,1500.0
1.944390058517456,162,70.2115,854.25676902318469,1507.3900000000001,1505.2854412501706,1350,1500.0
1.9692230224609375,162,71.2115,855.91419002207147,1509.6199999999999,1503.5686806992794,1350,1500.0
1.9941341876983643,162,70.2115,855.91419002207147,1511.8499999999999,1501.400668254925,1350,1500.0
2.0190720558166504,163,70.2115,854.18911918649542,1512.1099999999999,1499.183595841504,1350,1500.0
2.0442721843719482,164,70.2115,850.80662735203259,1514.5999999999999,1497.0569317973318,1350,1500.0
2.0690441131591797,164,70.2115,845.62718673051131,1516.8900000000001,1495.2080977745311,1350,1500.0
2.0938711166381836,164,71.2115,842.10516710787692,1519.1800000000001,1493.6899192410081,1349.1016,1500.0
2.1188321113586426,165,70.2115,837.12900123602287,1520,1492.4903065529916,1348.9416000000001,1500.0
2.1437010765075684,165,70.2115,833.74650940155993,1520,1491.5821792117929,1348.9416000000001,1500.0
2.168450117111206,165,70.2115,832.08908840267304,1520,1491.0228826159957,1347.5816,1500.0
2.193376064300537,161,70.2115,832.08908840267304,1512.25,1490.8756271349407,1347.5816,1500.0
2.2182321548461914,165,70.2115,830.43166740378615,1510.9400000000001,1490.9322344367488,1349.0216,1500.0
2.243046998977661,165,71.2115,832.08908840267304,1504.4300000000001,1491.3520511098247,1346.3815999999999,1500.0
2.2682621479034424,165,71.2115,828.83799336639515,1500.0899999999999,1491.8034439946548,1344.9416000000001,1500.0
2.2931270599365234,165,71.2115,827.24431932900404,1497.9200000000001,1492.212455557757,1343.5016000000001,1500.0
2.3180391788482666,165,71.2115,825.65064529161282,1513.3499999999999,1492.4182736810922,1342.0616,1500.0
2.3426201343536377,166,71.2115,827.37571612718898,1513.6099999999999,1492.6845629526772,1339.2616,1500.0
2.36749005317688,165,70.2115,828.9693901645802,1513.4100000000001,1492.7493409237031,1343.2616,1500.0
2.3919360637664795,166,70.188,828.9693901645802,1515.8399999999999,1492.9005383087035,1346.12364,1500.0
2.4166011810302734,170,59.2585,915.15528210669413,1520,1496.0710467779838,1350,1500.0
2.4412930011749268,169,60.329,1001.3411740488082,1520,1501.922752447771,1350,1500.0
2.466017007827759,170,60.2585,1087.5270659909222,1520,1510.2068079957205,1350,1500.0
2.4905810356140137,170,57.188,1172.0555369341494,1520,1520.9733614651948,1350,1500.0
2.5152571201324463,171,57.1645,1266.8791421589235,1520,1534.5334183445912,1350,1500.0
2.53977108001709,172,59.1175,1408.0451108394141,1520,1535,1350,1500.0
2.564667224884033,175,57.0,1502.8687160641882,1520,1535,1350,1500.0
2.589743137359619,172,53.9295,1573.1493797358057,1520,1535,1350,1500.0
2.6145071983337402,171,53.906,1652.833081605364,1520,1535,1350,1500.0
2.6391751766204834,171,54.953,1732.516783474922,1520,1535,1350,1500.0
2.6636760234832764,178,58.094,1709.1985845940319,1520,1535,1350,1500.0
2.6883621215820312,177,64.3055,1681.0224276129561,1520,1535,1350,1500.0
2.712980031967163,175,68.47,1657.704228732066,1520,1535,1333.01028,1500.0
2.7379610538482666,134,57.658,1606.0479409334271,1480,1526.3986517825117,1336.1182799999999,1500.0
2.7626872062683105,170,81.7285,1558.0204006247754,1480,1506.9785071261383,1265.66932,1500.0
2.7877371311187744,170,84.7755,1467.6527918861279,1480,1490.2908748929387,1250,1500.0
2.812366008758545,171,85.7755,1415.8583856709151,1480,1476.7582674602461,1250,1500.0
2.8371520042419434,165,95.7285,1336.1682447143373,1480,1464.2169368355219,1250,1500.0
2.8617470264434814,161,96.658,1249.0853419568916,1506.76,1455,1250,1500.0
2.88637113571167,160,96.564,1160.67837167214,1486.4300000000001,1455,1250,1500.0
2.911011219024658,160,96.4935,1090.4114777230286,1481.49,1455,1250,1500.0
2.93570613861084,161,97.3995,1022.4000643204321,1480,1455,1250,1500.0
2.960294008255005,162,97.3055,950.80910284401466,1487.6199999999999,1455,1250,1500.0
2.9850220680236816,166,100.282,903.84884120888853,1480,1455,1250,1500.0
3.009568214416504,168,102.2585,848.64477188859905,1480.9200000000001,1455,1251.22768,1500.0
3.0344231128692627,171,102.188,788.20333344932112,1520,1455,1259.0486799999999,1500.0
3.0590851306915283,175,102.1175,735.53105594232511,1520,1455,1268.1479999999999,1500.0
3.0840530395507812,179,102.047,730.32128885799671,1520,1455,1263.5495599999999,1500.0
3.1088790893554688,187,100.906,725.28983225423326,1520,1455,1268.94884,1500.0
3.1336991786956787,191,99.812,721.58244317777587,1520,1459.4815318652006,1281.5291199999999,1500.0
3.1586341857910156,195,97.718,718.97996562410503,1520,1466.4593640096639,1298.22324,1500.0
3.1836981773376465,198,95.577,717.74489153083755,1520,1474.5262914952427,1316.62724,1500.0
3.2086381912231445,204,91.483,714.03750245438027,1520,1480.6357290718709,1343.20064,1500.0
3.233490228652954,205,89.4125,714.03750245438027,1520,1485.6549294465149,1350,1500.0
3.258376121520996,206,87.2715,711.60852340428744,1520,1489.1566513089094,1350,1500.0
3.28328013420105,207,84.2245,710.4146184474622,1520,1490.9710193560609,1350,1500.0
3.308406114578247,208,82.1775,710.4146184474622,1520,1491.2846960959043,1350,1500.0
3.3332290649414062,208,78.154,710.4146184474622,1520,1491.6645231678053,1350,1500.0
3.3579540252685547,209,77.154,711.60852340428744,1520,1491.9345962626037,1350,1500.0
3.382505178451538,209,76.154,712.80242836111279,1520,1492.275003576819,1350,1500.0
3.4073731899261475,209,75.154,711.5673542678453,1520,1492.5609882333099,1350,1500.0
3.4323511123657227,209,74.154,711.5673542678453,1520,1492.8154785004226,1350,1500.0
3.457491159439087,210,72.201,712.76125922467054,1520,1492.9999368162521,1350,1500.0
3.4820141792297363,210,72.2245,712.76125922467054,1520,1493.1073882623666,1350,1500.0
3.506686210632324,210,71.248,713.95516418149577,1520,1493.1115257605788,1350,1500.0
3.531506061553955,210,70.248,715.14906913832112,1520,1493.1897677043874,1350,1500.0
3.556347131729126,211,69.2245,713.95516418149577,1520,1493.2214473548797,1350,1500.0
3.5810770988464355,214,66.2245,712.76125922467054,1520,1493.1456755592578,1350,1500.0
3.6057450771331787,216,65.2715,711.5673542678453,1520,1493.0699037636359,1350,1500.0
3.6303510665893555,219,65.342,711.5673542678453,1520,1492.9636873916149,1350,1500.0
3.6550490856170654,221,66.4595,710.37344931101995,1520,1492.7075947783758,1350,1500.0
3.6798651218414307,225,67.577,708.02478382218339,1520,1492.4474800754872,1350,1500.0
3.704653024673462,231,70.671,704.55860814107791,1520,1492.1858027524145,1350,1500.0
3.7293031215667725,234,71.765,702.28633741679755,1520,1491.9329641773284,1347.08356,1500.0
3.754223108291626,237,72.8825,698.82016173569207,1520,1491.6065849082083,1326.8520799999999,1500.0
3.7789180278778076,248,67.906,685.0820773009907,1520,1490.9292909627704,1325.5885599999999,1500.0
3.803812026977539,240,71.8825,679.6635855738607,1520,1490.231983213328,1312.3762400000001,1500.0
3.8287241458892822,243,70.8355,675.26106104556766,1520,1489.5793249725932,1319.443,1500.0
3.853483200073242,244,69.7415,670.85853651727462,1520,1488.8951100907616,1332.5008,1500.0
3.8782811164855957,244,67.624,665.26210703215622,1520,1488.2456002929371,1350,1500.0
3.9029581546783447,244,66.577,660.85958250386307,1520,1488.2578552489467,1350,1500.0
3.927741050720215,245,65.5535,657.61181850758135,1520,1488.4325232464248,1350,1500.0
3.9523770809173584,246,65.6005,654.46559750473159,1520,1488.6734277585522,1350,1500.0
3.9770021438598633,246,66.6475,651.31937650188195,1520,1489.0159289905632,1350,1500.0
4.001650094985962,247,68.7885,649.18912269786915,1520,1489.5308949595228,1350,1500.0
4.026291131973267,256,67.8825,652.54542489930759,1520,1490.0232484352064,1350,1500.0
4.05098819732666,258,69.9765,650.60447263884305,1520,1490.4658467859606,1350,1500.0
4.075783014297485,259,71.0705,649.5885054400062,1520,1490.9388260778489,1334.5603199999998,1500.0
4.100450038909912,259,71.094,648.57253824116924,1520,1491.4380238780948,1323.9213199999999,1500.0
4.1250340938568115,262,70.094,649.62075836695328,1520,1491.9378794687618,1324.82512,1500.0
4.149682998657227,262,70.0705,649.62075836695328,1520,1492.0995642009279,1323.4780799999999,1500.0
4.1744561195373535,261,68.047,654.02328289524644,1520,1492.4321602450595,1334.7000399999999,1500.0
4.199359178543091,260,67.047,659.44177462237633,1520,1492.8984542952444,1349.1330800000001,1500.0
4.224187135696411,259,66.094,667.28924539959894,1520,1493.5776742763162,1350,1500.0
4.248833179473877,239,65.1645,674.12074897798482,1516.45,1494.3304666906772,1350,1500.0
4.273966073989868,234,64.235,684.50253121124774,1480,1495.5113778920265,1350,1500.0
4.2987401485443115,225,65.376,691.86197519884217,1480,1496.5770918513865,1350,1500.0
4.3239521980285645,223,65.4465,696.12570639396085,1480,1497.4011985194409,1350,1500.0
4.348736047744751,217,66.4935,700.38943758907942,1480,1497.8518898607506,1350,1500.0
4.3736350536346436,215,66.564,700.38943758907942,1480,1497.9049508007524,1350,1500.0
4.398547172546387,210,66.517,702.51969139309222,1480,1497.408598562997,1350,1500.0
4.423608064651489,203,63.4465,700.24742066881186,1480,1496.5147759397289,1350,1500.0
4.448272228240967,198,61.2585,697.97514994453161,1480,1495.4595160748393,1350,1500.0
4.47308611869812,195,58.2585,694.39141036242756,1480,1494.2704426642358,1350,1500.0
4.4979071617126465,192,55.2585,690.80767078032352,1480,1493.1788021735208,1350,1500.0
4.522637128829956,190,52.859,689.61376582349817,1480,1492.245737028672,1350,1500.0
4.547810077667236,186,47.765,690.80767078032352,1480,1491.7163537402239,1350,1500.0
4.572487115859985,184,46.765,693.15633626916008,1480,1491.5268750181453,1350,1500.0
4.5971291065216064,184,46.812,695.50500175799664,1480,1491.7507925715117,1350,1500.0
4.621944189071655,181,48.8825,701.28828521059836,1480,1492.3786887842193,1350,1500.0
4.646698236465454,179,49.9295,705.98953498497144,1480,1493.2782952501361,1350,1500.0
4.671480178833008,174,51.9765,710.69078475934441,1480,1494.179136790146,1350,1500.0
4.696156024932861,173,54.0235,715.39203453371738,1480,1495.0119277723286,1350,1500.0
4.720706224441528,166,55.0705,718.97577411582142,1480,1495.6987700293157,1350,1500.0
4.7454140186309814,165,56.0705,722.55951369792547,1480,1496.0386152791468,1338.7274399999999,1500.0
4.770252227783203,161,57.0705,724.98849274801819,1480,1496.1282413429194,1323.26028,1500.0
4.795222043991089,159,58.047,724.98849274801819,1480,1495.9606791632091,1319.0745999999999,1500.0
4.819987058639526,158,59.0,724.98849274801819,1480,1495.5815019617014,1320.6364000000001,1500.0
4.844597101211548,157,58.953,724.98849274801819,1480,1495.0577603499326,1326.33356,1500.0
4.8695290088653564,156,59.8825,722.55951369792547,1480,1494.4086930895871,1329.5045600000001,1500.0
4.894662141799927,154,61.8355,717.8582639235525,1480,1493.6036618679773,1330.0111200000001,1500.0
4.91945219039917,154,63.859,713.15701414917953,1480,1492.7986306463672,1327.4695199999999,1500.0
4.944307088851929,154,65.906,706.32551057079365,1480,1491.9201056685185,1321.8365200000001,1500.0
4.969471216201782,153,66.9765,700.54222711819182,1480,1490.9803113651212,1314.27828,1500.0
4.994534015655518,151,68.0,694.7589436655901,1480,1490.1202694886144,1306.5452,1500.0
5.019833087921143,149,70.0,690.05769389121701,1480,1489.4790036283937,1298.8687199999999,1500.0
5.044602155685425,149,69.9765,686.59151821011153,1480,1489.0213853176219,1297.9920400000001,1500.0
5.0693910121917725,149,68.953,684.24285272127497,1480,1488.9082260527532,1304.2247199999999,1500.0
5.094362020492554,149,67.953,684.24285272127497,1480,1489.1526327897404,1314.9305200000001,1500.0
5.119402170181274,148,67.953,686.67183177136781,1480,1489.7549669396094,1326.038,1500.0
5.1443541049957275,150,66.953,693.97555909941161,1480,1490.7393867698015,1342.7293999999999,1500.0
5.169291019439697,151,66.9295,701.27928642745542,1480,1492.0098514674701,1350,1500.0
5.194109201431274,151,65.9295,712.08548299690199,1490.8,1493.5562379957869,1350,1500.0
5.2191290855407715,152,66.9295,720.47124400317455,1506.3699999999999,1495.1698068906796,1350,1500.0
5.24412202835083,152,69.9765,728.85700500944699,1520,1496.7157113691769,1350,1500.0
5.268903017044067,152,71.0235,736.1607323374908,1520,1497.8965973830495,1348.8687199999999,1500.0
5.293797016143799,152,72.0705,744.83667510292469,1520,1498.8017277392378,1336.0653599999998,1500.0
5.318802118301392,151,74.188,752.39510767608954,1517.4400000000001,1499.2097505179238,1317.52016,1500.0
5.3439412117004395,150,76.235,759.02791299178534,1506.27,1499.3094464730459,1300.27188,1500.0
5.369317054748535,150,76.2115,765.90238200148178,1493.1300000000001,1499.1861876962082,1294.0736400000001,1500.0
5.394324064254761,150,74.047,771.70790885197812,1484.3299999999999,1499.0131726653276,1297.8530799999999,1500.0
5.419811010360718,150,70.906,775.97990030800372,1480,1498.659971722768,1310.2909199999999,1500.0
5.444597005844116,152,67.812,782.00688575850131,1480.3299999999999,1498.3661577593921,1334.4167199999999,1500.0
5.469476222991943,152,66.8355,791.06350764527565,1489.1300000000001,1498.2112803278289,1350,1500.0
5.494371175765991,144,67.953,800.12012953204999,1480,1498.1672062424752,1350,1500.0
5.519118070602417,149,69.0235,810.90182225440026,1481.5999999999999,1498.3251259663639,1350,1500.0
5.544088125228882,142,70.0235,818.58622870378463,1480,1498.7035988911073,1350,1500.0
5.569125175476074,147,69.9765,827.99570598874493,1480,1499.2372528033245,1350,1500.0
5.593973159790039,147,67.906,835.98214504233783,1480,1499.6596830613728,1350,1500.0
5.618762016296387,148,66.859,842.49184630866262,1480,1499.9335957944527,1350,1500.0
5.643614053726196,148,65.812,847.46801218051655,1480,1499.8771568365869,1350,1500.0
5.668662071228027,148,65.859,853.97771344684134,1491.71,1499.6900051827035,1350,1500.0
5.693866014480591,148,67.906,855.63513444572823,1504.79,1499.1469818240007,1350,1500.0
5.7189202308654785,141,68.953,857.36020528130427,1500.8599999999999,1498.4485273280179,1350,1500.0
5.7438271045684814,149,67.9295,859.08527611688044,1496.01,1497.6829415377263,1350,1500.0
5.76872706413269,148,67.906,860.88222490393889,1497.98,1496.9964684911872,1350,1500.0
5.793708086013794,150,66.8825,864.40424452657339,1489.8199999999999,1496.2633689695892,1348.2711200000001,1500.0
5.818788051605225,151,66.906,866.20119331363162,1494.54,1495.7592541514587,1346.8670400000001,1500.0
5.843777179718018,151,66.9295,866.20119331363162,1520,1495.3831419852595,1350,1500.0
5.868605136871338,151,67.953,867.99814210069019,1520,1495.1608113400689,1350,1500.0
5.8935441970825195,151,67.9295,869.79509088774864,1520,1495.0338572074224,1350,1500.0
5.918625116348267,152,66.9295,873.4654543676977,1520,1495.0094142059238,1350,1500.0
5.943530082702637,152,66.906,876.98747399033221,1520,1495.0318699484897,1350,1500.0
5.968387126922607,151,66.9295,880.65783747028127,1512.98,1495.2168562678792,1350,1500.0
5.9932661056518555,151,66.9295,884.32820095023033,1508.6400000000001,1495.4558886895109,1350,1500.0
6.018359184265137,151,66.9295,886.20161564312116,1502.1300000000001,1495.6891288187755,1350,1500.0
6.043341159820557,151,66.906,888.07503033601188,1495.5599999999999,1495.8640101687095,1350,1500.0
6.068234205245972,150,66.906,889.9484450289026,1488.73,1495.9376812456835,1350,1500.0
6.093189001083374,150,66.906,893.61880850885177,1486.5,1495.9093276878009,1350,1500.0
6.118224143981934,150,67.906,895.49222320174249,1484.27,1495.7627769559781,1350,1500.0
6.143050193786621,151,67.9295,897.36563789463321,1484.47,1495.6139322469803,1348.9361999999999,1500.0
6.16820502281189,151,67.906,897.36563789463321,1486.6400000000001,1495.4543631946894,1347.49244,1500.0
6.193237066268921,152,68.906,901.19392009314902,1495.6400000000001,1495.4201255853532,1343.4124400000001,1500.0
6.21845006942749,152,67.9295,901.19392009314902,1502.27,1495.2585498017249,1343.07844,1500.0
6.243689060211182,152,68.9295,903.14878759877411,1508.9000000000001,1495.1621229698658,1341.7326399999999,1500.0
6.268984079360962,152,68.9295,905.10365510439919,1511.1300000000001,1495.0681397223887,1341.65264,1500.0
6.29426121711731,153,68.9295,905.10365510439919,1515.79,1495.0215620119229,1341.5388,1500.0
6.319226026535034,153,68.9295,905.10365510439919,1513.6800000000001,1494.8014898103331,1344.22496,1500.0
6.344243049621582,153,68.9295,905.10365510439919,1511.5699999999999,1494.6915285131417,1344.1769200000001,1500.0
6.369193077087402,153,68.9295,905.10365510439919,1509.46,1494.5204776063995,1345.56888,1500.0
6.394336223602295,153,68.9295,905.10365510439919,1509.52,1494.2883370901066,1346.9288799999999,1500.0
6.419428110122681,154,68.9295,905.10365510439919,1507.6099999999999,1494.0561965738136,1348.3208399999999,1500.0
6.444563150405884,153,68.9295,903.14878759877411,1505.24,1493.8714615945319,1348.3527999999999,1500.0
6.470035076141357,154,68.9295,903.14878759877411,1505.5,1493.6955235190258,1349.7128,1500.0
6.495047092437744,154,69.9295,903.14878759877411,1505.5599999999999,1493.5782314686883,1347.0727999999999,1500.0
6.520298004150391,154,68.9295,901.19392009314902,1505.6199999999999,1493.4521425145754,1348.2728,1500.0
6.545100212097168,154,68.9295,901.19392009314902,1503.45,1493.3348504642379,1348.2728,1500.0
6.56995415687561,154,68.9295,901.19392009314902,1505.6800000000001,1493.3348504642379,1348.2728,1500.0
6.594862222671509,154,68.9295,901.19392009314902,1503.51,1493.3348504642379,1348.2728,1500.0
6.619872093200684,154,68.9295,903.14878759877411,1501.3399999999999,1493.4022933931819,1350,1500.0
6.644644021987915,154,68.9295,905.10365510439919,1499.1700000000001,1493.6456743976323,1350,1500.0
6.66926121711731,154,68.9295,905.10365510439919,1499.1700000000001,1493.8802584983073,1350,1500.0
6.694338083267212,154,68.9295,905.10365510439919,1497.0,1494.0561965738136,1350,1500.0
6.719241142272949,155,68.9295,905.10365510439919,1499.4300000000001,1494.2321346493197,1350,1500.0
6.744146108627319,155,68.9295,903.14878759877411,1501.6600000000001,1494.2233377455445,1349.7128,1500.0
6.769116163253784,155,68.9295,903.14878759877411,1503.8900000000001,1494.0473996700382,1349.7128,1500.0
6.794154167175293,156,68.9295,903.14878759877411,1508.55,1493.8714615945321,1349.7128,1500.0
6.819490194320679,155,68.9295,903.14878759877411,1510.5799999999999,1493.6955235190258,1349.7128,1500.0
6.844624042510986,156,69.9295,901.27537290588339,1510.8399999999999,1493.4549526366147,1347.0728000000001,1500.0
6.869863033294678,156,69.9295,897.44709070736758,1510.9000000000001,1493.2666744599792,1345.6328000000001,1500.0
6.894651174545288,156,69.9295,895.49222320174249,1510.96,1493.0868266494617,1344.1928,1500.0
6.919640064239502,156,69.9295,895.49222320174249,1506.6199999999999,1492.9157757427195,1342.7528,1500.0
6.944678068161011,156,69.9295,895.49222320174249,1506.6800000000001,1492.7447248359774,1341.3127999999999,1500.0
6.969687223434448,157,69.9295,895.49222320174249,1506.9400000000001,1492.6860788108086,1342.6727999999998,1500.0
6.994657039642334,157,70.9295,893.61880850885177,1507.0,1492.7338508854773,1341.3927999999999,1500.0
7.019366025924683,157,70.9295,891.74539381596094,1507.0599999999999,1492.8427125696967,1341.3127999999999,1500.0
7.044344186782837,158,70.9295,889.87197912307022,1511.72,1492.8953718131295,1341.2328,1500.0
7.069516181945801,158,70.9295,887.99856443017939,1514.01,1492.8918286157757,1341.1528000000001,1500.0
7.094625234603882,158,70.9295,887.99856443017939,1514.0699999999999,1492.8405133437529,1339.7128,1500.0
7.119389057159424,158,70.9295,887.99856443017939,1514.1300000000001,1492.7867544873482,1341.0728000000001,1500.0
7.14434814453125,159,70.9295,886.12514973728867,1516.6199999999999,1492.7221216804435,1342.4328,1500.0
7.1694231033325195,160,70.9295,884.25173504439795,1516.9400000000001,1492.7136913143256,1343.7927999999999,1500.0
7.19467306137085,159,70.9295,882.37832035150711,1514.6300000000001,1492.7614633889941,1345.1527999999998,1500.0
7.2198381423950195,161,70.9295,880.50490565861639,1519.55,1492.7530330228763,1346.5128,1500.0
7.244653224945068,160,70.9295,880.50490565861639,1520,1492.6968305820894,1346.5128,1500.0
7.2693681716918945,160,70.9295,882.37832035150711,1519.53,1492.7614633889943,1346.5128,1500.0
7.294483184814453,161,70.9295,882.37832035150711,1517.6199999999999,1492.8738682705675,1346.5128,1500.0
7.319423198699951,160,69.9295,884.25173504439795,1517.48,1493.1071083998324,1349.1528000000001,1500.0
7.344454050064087,160,69.9295,886.12514973728867,1508.74,1493.5089558514576,1350,1500.0
7.369488000869751,160,69.9295,887.99856443017939,1504.4000000000001,1493.9670057438693,1350,1500.0
7.39469313621521,160,69.9295,889.87197912307022,1502.23,1494.3126507547076,1350,1500.0
7.419480085372925,159,69.9295,891.74539381596094,1495.4000000000001,1494.6582957655462,1350,1500.0
7.444375038146973,159,69.9295,893.61880850885177,1491.0,1494.8915358948111,1350,1500.0
7.469135999679565,159,69.9295,895.49222320174249,1490.9400000000001,1495.0123711425024,1350,1500.0
7.494330167770386,159,69.9295,897.36563789463321,1488.71,1495.0770039494073,1350,1500.0
7.519300222396851,158,69.9295,897.36563789463321,1484.05,1495.0770039494073,1349.4728,1500.0
7.5444111824035645,159,69.9295,899.23905258752404,1488.5899999999999,1495.0292318747386,1348.1128000000001,1500.0
7.5694169998168945,157,69.9295,903.23567059902416,1485.9000000000001,1495.0547103145618,1348.1128000000001,1500.0
7.594360113143921,157,69.9295,907.23228861052428,1483.6099999999999,1495.1438848539433,1348.1128000000001,1500.0
7.619223117828369,157,69.9295,911.2289066220244,1481.3199999999999,1495.2967554928832,1348.1128000000001,1500.0
7.644167184829712,156,69.9295,915.22552463352463,1481.0,1495.6257271129548,1348.1128000000001,1500.0
7.669061183929443,156,69.9295,919.22214264502475,1480,1496.0183948325848,1348.1127999999999,1500.0
7.6939311027526855,156,69.9295,923.21876065652486,1480,1496.3473664526564,1348.1127999999999,1500.0
7.7187981605529785,155,69.9295,927.21537866802498,1480,1496.6126419731697,1348.1127999999999,1500.0
7.7436230182647705,155,69.9295,931.2119966795251,1480,1496.8142213941246,1348.1127999999999,1500.0
7.768732070922852,155,69.9295,935.20861469102533,1480,1496.8959022747347,1348.1127999999999,1500.0
7.7935240268707275,155,69.9295,937.16348219665031,1482.3699999999999,1496.8434466633337,1348.1128000000001,1500.0
7.818519115447998,155,69.9295,935.12173169077528,1482.3099999999999,1496.5918552153598,1348.1128000000001,1500.0
7.84350323677063,155,69.9295,933.07998118490013,1486.6500000000001,1496.1591127118645,1348.1128000000001,1500.0
7.868652105331421,154,69.9295,931.03823067902499,1488.5599999999999,1495.5452191528482,1348.1128000000001,1500.0
7.893915176391602,154,69.9295,928.99648017314996,1488.5,1494.7501745383104,1348.1128000000001,1500.0
7.919074058532715,154,68.9295,926.95472966727482,1488.4400000000001,1493.8964838986039,1350,1500.0
7.944021224975586,155,68.9295,924.91297916139979,1490.8099999999999,1493.2239443144188,1350,1500.0
7.968809127807617,154,68.9295,922.87122865552465,1488.3800000000001,1492.7325557857548,1350,1500.0
7.993829011917114,154,68.9295,920.8294781496495,1490.55,1492.4223183126121,1350,1500.0
8.018914222717285,154,68.9295,918.78772764377447,1492.72,1492.2932318949906,1350,1500.0
8.043659210205078,154,68.9295,918.78772764377447,1494.8900000000001,1492.3544844101668,1350,1500.0
8.068518161773682,154,68.9295,920.8294781496495,1492.6600000000001,1492.5474298329721,1350,1500.0
8.093508005142212,154,68.9295,922.87122865552465,1494.8299999999999,1492.8628802861299,1350,1500.0
8.118735074996948,154,68.9295,924.91297916139979,1494.8299999999999,1493.3008357696401,1350,1500.0
8.143872022628784,155,68.9295,926.95472966727482,1497.26,1493.8612962835027,1349.7128,1500.0
8.168720006942749,155,69.9295,926.95472966727482,1499.49,1494.3513164049127,1347.0727999999999,1500.0
8.193602085113525,155,69.9295,926.95472966727482,1503.8900000000001,1494.6575789807939,1345.6327999999999,1500.0
8.21875,155,68.9295,924.99986216164984,1506.1199999999999,1494.7126410822025,1346.8327999999999,1500.0
8.243825197219849,155,69.9295,924.99986216164984,1508.3499999999999,1494.5927425418574,1344.1927999999998,1500.0
8.269010066986084,155,68.9295,923.04499465602476,1506.1800000000001,1494.2216435270395,1345.3927999999999,1500.0
8.29395604133606,155,68.9295,921.09012715039967,1504.01,1493.791898487053,1348.1928,1500.0
8.318982124328613,155,69.9295,919.04837664452464,1501.8399999999999,1493.3617624735652,1348.3528000000001,1500.0
8.344251155853271,155,69.9295,915.05175863302452,1499.6700000000001,1492.9814755814712,1346.9128000000001,1500.0
8.369158029556274,155,69.9295,911.05514062152429,1497.5,1492.542542664208,1348.2728,1500.0
8.394251108169556,154,69.9295,907.05852261002417,1495.0699999999999,1492.1622557721139,1346.8328000000001,1500.0
8.419195175170898,154,69.9295,905.10365510439919,1492.8399999999999,1491.8498027824648,1344.0328,1500.0
8.444335222244263,154,70.9295,905.10365510439919,1490.6099999999999,1491.6686517269434,1341.3927999999999,1500.0
8.469895124435425,155,70.9295,907.05852261002417,1490.8099999999999,1491.7360946558877,1341.3127999999999,1500.0
8.494876146316528,154,70.9295,907.05852261002417,1488.3800000000001,1492.0345377617464,1339.8727999999999,1500.0
8.519744157791138,154,70.9295,909.01339011564926,1490.55,1492.5815748520704,1339.7927999999999,1500.0
8.54455018043518,154,70.9295,910.96825762127423,1492.72,1493.2459039927319,1339.7128,1500.0
8.569340229034424,154,70.9295,910.96825762127423,1494.8900000000001,1493.840183714442,1341.0728000000001,1500.0
8.594349145889282,154,70.9295,912.92312512689932,1492.6600000000001,1494.2647157744136,1342.4328,1500.0
8.619354009628296,153,70.9295,914.87799263252441,1492.4000000000001,1494.6279953192088,1343.7928000000002,1500.0
8.644306182861328,154,69.9295,914.87799263252441,1492.5999999999999,1494.7452873695463,1347.7928000000002,1500.0
8.669344186782837,154,69.9295,914.87799263252441,1492.5999999999999,1494.6866413443777,1350,1500.0
8.694494009017944,154,69.9295,909.25276164695026,1492.5999999999999,1494.4339248502065,1350,1500.0
8.71967101097107,154,69.9295,901.90245982579995,1494.77,1493.8942904574722,1350,1500.0
8.744546175003052,154,68.9295,892.89473700576286,1499.1700000000001,1492.9596739353042,1350,1500.0
8.76935601234436,154,68.9295,883.88701418572577,1499.1700000000001,1491.8134717537037,1350,1500.0
8.794312000274658,154,68.9295,873.28561732829769,1499.1700000000001,1490.4007021583811,1350,1500.0
8.819399118423462,154,67.9295,861.15068507639876,1499.1700000000001,1488.9544975453607,1350,1500.0
8.844504117965698,154,67.9295,847.53901503723171,1499.1700000000001,1487.5929616455603,1350,1500.0
8.869264125823975,154,66.9295,832.50430676669725,1497.0,1486.3730902199738,1350,1500.0
8.894294023513794,153,66.9295,818.05225056439781,1494.5699999999999,1485.2627424118275,1350,1500.0
8.919491052627563,155,65.9295,802.27612683479208,1497.2,1484.309236399366,1350,1500.0
8.944371223449707,155,64.9295,790.17036658513553,1499.4300000000001,1483.5684132206211,1350,1500.0
8.9691321849823,155,63.9295,779.78967717105502,1501.6600000000001,1483.1201233259296,1350,1500.0
8.994115114212036,155,63.9295,769.78799872949662,1503.8900000000001,1483.0053394389986,1350,1500.0
9.019161224365234,155,62.9295,761.06473031430301,1510.52,1483.2315020322671,1350,1500.0
9.044132232666016,155,61.9295,753.93513593650039,1508.3499999999999,1483.8794738454235,1350,1500.0
9.069164037704468,154,61.9295,747.06066692680395,1503.75,1484.6846572998677,1350,1500.0
9.094041109085083,154,61.9295,741.66293570437563,1499.3499999999999,1485.5490454013518,1350,1500.0
9.118957042694092,154,60.9295,738.96665273967938,1494.95,1486.4937609894321,1350,1500.0
9.143802165985107,154,60.9295,737.64258521237321,1488.3800000000001,1487.4947639400043,1350,1500.0
9.168775081634521,154,61.9295,736.36417518600854,1486.1500000000001,1488.4121119993194,1350,1500.0
9.193710088729858,154,60.9295,736.36417518600854,1488.3199999999999,1489.3845082368457,1350,1500.0
9.218688011169434,154,60.9295,735.08576515964398,1490.49,1490.3252425193855,1350,1500.0
9.243532180786133,155,60.9295,735.08576515964398,1495.0899999999999,1491.1334562716788,1350,1500.0
9.268463134765625,155,61.9295,733.80735513327932,1499.49,1491.7153108772452,1350,1500.0
9.293442010879517,155,61.9295,732.52894510691476,1503.8900000000001,1492.1216299522687,1350,1500.0
9.318514108657837,156,60.9295,733.80735513327932,1508.55,1492.3715729480293,1350,1500.0
9.343454122543335,156,61.9295,733.80735513327932,1513.01,1492.5305357635802,1350,1500.0
9.36850118637085,156,61.9295,732.52894510691476,1513.0699999999999,1492.5645049442808,1350,1500.0
9.393724203109741,156,61.9295,731.25053508055021,1513.1300000000001,1492.5971043999532,1350,1500.0
9.418988227844238,156,61.9295,730.01546098728272,1513.1900000000001,1492.6311989453172,1350,1500.0
9.443977117538452,156,61.9295,727.50197686765057,1508.8499999999999,1492.5074315203919,1350,1500.0
9.469022035598755,156,62.9295,725.07299781755785,1504.51,1492.2728226959857,1350,1500.0
9.49396300315857,157,61.9295,723.83792372429036,1504.77,1492.0832388226693,1350,1500.0
9.519284009933472,157,61.9295,720.25418414218632,1504.8299999999999,1491.8139260679807,1350,1500.0
9.544356107711792,157,61.9295,717.82520509209348,1504.8900000000001,1491.5126925089885,1350,1500.0
9.569145202636719,157,61.9295,714.11781601563621,1507.1199999999999,1491.2836457805529,1350,1500.0
9.5942862033844,157,61.9295,711.68883696554337,1509.3499999999999,1491.1332212687387,1350,1500.0
9.619446039199829,157,59.9295,708.10509738343933,1507.1800000000001,1490.9058402918724,1350,1500.0
9.644506216049194,157,59.9295,703.40384760906636,1505.01,1490.7090651000451,1350,1500.0
9.669355154037476,156,59.9295,699.93767192796088,1500.4100000000001,1490.5225489914119,1350,1500.0
9.694261074066162,156,59.9295,696.47149624685539,1496.01,1490.3790864333439,1350,1500.0
9.719160079956055,156,58.9295,693.11719184434628,1491.6099999999999,1490.208367535457,1350,1500.0
9.744316101074219,155,59.9295,688.56898248501204,1486.95,1490.0738019366129,1350,1500.0
9.769423007965088,154,60.9295,684.30525128989336,1480.0599999999999,1489.9871673526532,1350,1500.0
9.79439115524292,154,61.9295,679.90272676160032,1480,1489.9029336322089,1350,1500.0
9.819098234176636,153,62.9295,675.50020223330716,1480,1489.7833730444886,1350,1500.0
9.844151020050049,153,63.9295,671.09767770501412,1480,1489.6601256135673,1343.5528000000002,1500.0
9.86922001838684,153,63.9295,668.89813383451633,1480,1489.646185653588,1337.7928000000002,1500.0
9.894187211990356,153,65.9295,666.76788003050365,1480,1489.6834362632635,1329.5528000000002,1500.0
9.919114112854004,154,65.9295,663.62165902765389,1480,1489.7818945917231,1326.5128,1500.0
9.944045066833496,154,66.9295,661.4914052236411,1485.97,1489.9811833597214,1323.6327999999999,1500.0
9.969373226165771,154,67.9295,660.44318509785705,1494.71,1490.3174170151208,1323.4728,1500.0
9.99459719657898,155,69.9295,656.43804551277174,1503.71,1490.5157166968504,1317.8727999999999,1500.0
10.019471168518066,157,71.9295,652.66865996346394,1515.2,1490.601898997649,1313.6327999999999,1500.0
10.044462203979492,158,71.9295,648.78407949732298,1520,1490.6277230316598,1310.4328,1500.0
10.069270133972168,159,71.9295,643.99872674917833,1520,1490.5016725003493,1308.6728000000001,1500.0
10.094236135482788,159,72.9295,640.11414628303737,1520,1490.1939555020217,1305.7128,1500.0
10.119203090667725,162,73.9295,636.10900669795205,1520,1489.9398638590967,1306.9128000000001,1500.0
10.14408016204834,162,74.9295,634.10785918509157,1520,1489.7970112739488,1309.5528000000002,1500.0
10.1688551902771,163,75.9295,633.12267887106793,1520,1489.767863329658,1310.7528,1500.0
10.193965196609497,164,76.9295,631.12153135820745,1520,1489.8973226583548,1309.1527999999998,1500.0
10.218932151794434,166,77.9295,626.3361786100628,1520,1490.0723207052436,1307.5527999999999,1500.0
10.243800163269043,184,77.9295,624.50774532121943,1520,1490.3259260785862,1307.2328,1500.0
10.268697023391724,184,77.9295,622.78232235850805,1520,1490.5352195938078,1306.9928,1500.0
10.293690204620361,185,77.9295,619.32936194416061,1520,1490.5757237829237,1309.5527999999999,1500.0
10.318911075592041,185,75.9295,615.97305974272217,1520,1490.4924821362818,1320.1928,1500.0
10.343916177749634,188,71.9295,610.17208624661839,1520,1490.3947940148353,1340.4328,1500.0
10.368824005126953,190,69.9295,601.97975527712549,1520,1490.0301266654517,1350,1500.0
10.393630027770996,193,68.9295,594.29534882774124,1520,1489.4807037353039,1350,1500.0
10.418522119522095,195,68.9295,585.86946456306555,1520,1488.8527898424873,1350,1500.0
10.443417072296143,207,66.9295,649.90618497460127,1520,1490.6134029897601,1350,1500.0
10.46849513053894,202,78.9295,665.4977342921926,1520,1492.8282571739599,1350,1500.0
10.493211030960083,203,68.9295,659.13383661154307,1520,1495.1900817757521,1350,1500.0
10.518140077590942,207,69.9295,652.43703873751986,1520,1497.7588060885355,1350,1500.0
10.543209075927734,209,70.9295,644.0512777312473,1520,1500.4703214804856,1346.4328,1500.0
10.5679612159729,210,70.9295,637.07583038488428,1520,1499.0360275727789,1328.4328,1500.0
10.593124151229858,212,73.9295,636.33435256959285,1520,1496.4980200295649,1341.5528000000002,1500.0
10.618141174316406,212,77.9295,647.48360299838691,1520,1494.4840622080674,1322.4328,1500.0
10.643249034881592,214,79.9295,664.00066053901753,1520,1493.1610469237519,1306.9928,1500.0
10.66851806640625,212,70.9295,722.61748782895097,1520,1494.0363545544421,1320.5128,1500.0
10.693597078323364,217,77.9295,679.07251794910667,1520,1495.4852134546011,1307.4728,1500.0
10.718472003936768,209,62.9295,803.48671760580476,1520,1501.9345497558204,1334.5128,1500.0
10.743203163146973,208,62.9295,959.91927746827059,1520,1512.3610735176928,1350,1500.0
10.768071174621582,208,62.9295,1118.4101604868215,1518.3299999999999,1526.3596588356654,1350,1500.0
10.793045043945312,209,64.953,1244.1965755809097,1505.3299999999999,1535,1350,1500.0
10.817805051803589,182,82.953,1262.5614418731375,1480,1535,1350,1500.0
10.842357158660889,176,85.953,1270.0315541913724,1480,1535,1341.5830799999999,1500.0
10.867038011550903,160,81.953,1283.7375267794546,1480,1535,1298.58924,1500.0
10.89165210723877,164,91.953,1269.5684823205804,1480,1535,1250,1500.0
10.916288137435913,144,85.953,1236.618194790736,1480,1535,1250,1500.0
10.940921068191528,145,94.953,1227.5615729039616,1480,1522.1823218172026,1250,1500.0
10.965455055236816,142,97.953,1106.0471492658992,1480,1502.7196296655002,1250,1500.0
10.990215063095093,138,96.953,993.01489160925814,1480,1483.7747579716038,1250,1500.0
11.014763116836548,148,95.953,899.09436833900565,1480,1467.7031425424277,1250,1500.0
11.039480209350586,142,96.953,843.74834569760696,1480,1455.8953413914528,1250,1500.0
11.064204216003418,148,104.953,882.83254831952797,1480,1455,1250,1500.0
11.08882212638855,148,106.953,933.97926329122652,1480,1455,1250,1500.0
11.113481044769287,144,106.953,986.31115862754052,1486.0899999999999,1455.5230620153582,1250,1500.0
11.138437032699585,141,108.953,1055.6842724067042,1504.5999999999999,1471.6471615688424,1250,1500.0
11.16342306137085,206,64.953,1143.4638383862093,1520,1492.8197298692023,1329.0352,1500.0
11.188209056854248,205,65.953,1224.5261947801771,1520,1513.7771906043276,1350,1500.0
11.21273922920227,206,65.953,1301.3165597181194,1520,1530.3049027185953,1350,1500.0
11.237490177154541,206,64.953,1379.1286211484157,1520,1535,1350,1500.0
11.261933088302612,206,63.953,1445.485512589355,1520,1535,1350,1500.0
11.286571025848389,206,63.953,1508.4880996277852,1520,1535,1350,1500.0
11.311198234558105,208,65.953,1556.6524705356071,1520,1535,1350,1500.0
11.335600137710571,207,63.953,1634.5349683334209,1520,1535,1350,1500.0
11.360117197036743,206,65.953,1658.9934379350493,1520,1535,1350,1500.0
11.384682178497314,208,67.953,1667.2562405687956,1520,1535,1349.5151999999998,1500.0
11.409402132034302,206,63.953,1681.9568442110963,1520,1535,1350,1500.0
11.433961153030396,206,64.953,1701.5236198923988,1520,1531.9426717091601,1350,1500.0
11.458767175674438,209,68.953,1677.0651502907706,1520,1523.1119617962142,1338.4752000000001,1500.0
11.483588218688965,206,65.953,1657.4983746094681,1520,1514.583114902282,1343.4352000000001,1500.0
11.508617162704468,206,63.953,1665.8509903153204,1518.8399999999999,1507.9254223259709,1350,1500.0
11.533579111099243,206,65.953,1638.6276502369863,1518.8399999999999,1501.2989791388957,1350,1500.0
11.558495044708252,208,67.953,1622.9742296919442,1520,1494.5259225597256,1343.6751999999999,1500.0
11.583364009857178,206,63.953,1614.6216139860917,1516.6099999999999,1491.3391242411883,1350,1500.0
11.608660221099854,206,63.953,1641.8449540644258,1516.6099999999999,1491.036878554957,1350,1500.0
11.633618116378784,206,64.953,1681.6096917393311,1520,1491.7307384248188,1350,1500.0
11.658781051635742,206,63.953,1681.6096917393311,1520,1494.3200754891125,1350,1500.0
11.683531045913696,206,63.953,1697.6188718422152,1512.1500000000001,1498.9879377700972,1350,1500.0
11.708503007888794,206,65.953,1722.0773414438434,1518.6600000000001,1504.1949787961773,1350,1500.0
11.733283042907715,207,67.953,1701.8793794502405,1520,1506.374723345132,1350,1500.0
11.75859808921814,205,64.953,1685.8701993473564,1518.46,1505.9577362201894,1350,1500.0
11.783555030822754,205,64.953,1705.4369750286592,1516.23,1505.4711439643647,1350,1500.0
11.808458089828491,206,63.953,1748.3137356520353,1520,1504.9455960369562,1347.5151999999998,1500.0
11.833250045776367,205,64.953,1740.6571712550037,1518.3399999999999,1502.2448645677719,1350,1500.0
11.858000040054321,205,63.953,1740.6571712550037,1511.71,1501.6071655603405,1350,1500.0
11.882877111434937,207,67.953,1700.8924335800984,1518.74,1501.7510760395448,1350,1500.0
11.907637119293213,205,64.953,1693.2358691830668,1520,1500.6357698257107,1350,1500.0
11.932337045669556,205,67.953,1642.0064928538382,1518.28,1495.6951744339885,1349.3552,1500.0
11.95716404914856,206,67.953,1626.3530723087958,1520,1491.6382161788149,1343.6752000000001,1500.0
11.982051134109497,205,63.953,1673.7743743807325,1520,1488.6817943777676,1343.0352,1500.0
12.006821155548096,205,65.953,1660.2281450629075,1518.22,1486.9502406633394,1347.5952,1500.0
12.031652212142944,207,67.953,1625.0079488365627,1520,1485.1109453452934,1340.8751999999999,1500.0
12.056348085403442,206,67.953,1582.1311882131865,1520,1486.3109580672146,1346.3152,1500.0
12.081147193908691,205,64.953,1575.0871489679178,1520,1488.1704051587708,1350,1500.0
12.10585904121399,205,63.953,1575.0871489679178,1520,1487.2162723026145,1350,1500.0
12.130628108978271,207,67.953,1575.0871489679178,1520,1485.8819710752805,1349.1152,1500.0
12.155253171920776,205,67.953,1539.866952741573,1520,1485.2160879198073,1350,1500.0
12.179909229278564,206,67.953,1539.866952741573,1520,1485.7444199948784,1350,1500.0
12.204722166061401,205,67.953,1539.866952741573,1520,1486.2257918083144,1344.7952,1500.0
12.229574203491211,205,67.953,1492.4456506696363,1520,1486.4937677624268,1339.0352,1500.0
12.254658222198486,205,67.953,1466.227142312556,1513.8800000000001,1485.6642141580087,1341.7552000000001,1500.0
12.279415130615234,205,67.953,1461.6826008639953,1518.22,1485.8524630480126,1341.7551999999998,1500.0
12.304172039031982,207,67.953,1457.1380594154348,1520,1484.6180728758584,1341.7551999999998,1500.0
12.329061031341553,205,67.953,1424.4173609857985,1520,1482.0639478670421,1345.8352,1500.0
12.354018211364746,205,67.953,1376.9960589138616,1520,1480.8663092039935,1350,1500.0
12.378996133804321,207,68.953,1372.735551305836,1520,1481.3081893892167,1348.6351999999999,1500.0
12.40387511253357,205,67.953,1368.1910098572755,1520,1480.8285217788239,1349.8352,1500.0
12.428781032562256,205,68.953,1359.3859608006892,1520,1480.338202899411,1347.1952000000001,1500.0
12.453525066375732,205,68.953,1350.5809117441031,1520,1481.5469744540787,1345.7552000000001,1500.0
12.478443145751953,207,68.953,1346.3204041360775,1520,1484.0710202791824,1344.3152,1500.0
12.503334999084473,206,68.953,1342.0598965280519,1520,1485.9363260818143,1345.6752000000001,1500.0
12.52803921699524,206,68.953,1337.7993889200266,1520,1487.8101528996624,1344.2351999999998,1500.0
12.552739143371582,206,68.953,1333.538881312001,1520,1489.948131189208,1345.5952,1500.0
12.577636003494263,206,68.953,1329.2783737039754,1520,1491.504976241019,1346.9551999999999,1500.0
12.602540016174316,206,67.953,1329.2783737039754,1520,1491.9139849713893,1350,1500.0
12.627270221710205,208,67.953,1333.538881312001,1520,1492.5977964424774,1350,1500.0
12.651803016662598,206,67.953,1333.538881312001,1520,1493.3817298423542,1350,1500.0
12.676510095596313,206,67.953,1337.7993889200266,1520,1494.3041297394916,1350,1500.0
12.701371192932129,206,67.953,1342.0598965280519,1520,1495.3458238496539,1350,1500.0
12.725985050201416,157,67.953,1334.29073559577,1480,1495.9724943951755,1350,1500.0
12.750583171844482,158,68.953,1302.8441318222481,1480,1495.1657726499836,1350,1500.0
12.775048017501831,160,68.953,1253.6394459177959,1480,1492.6751837298282,1349.9151999999999,1500.0
12.79965615272522,170,83.953,1169.0516150932885,1480,1487.104290048075,1307.5151999999998,1500.0
12.824666023254395,168,81.953,1082.9152656266847,1480,1478.558891863712,1288.3951999999999,1500.0
12.849764108657837,164,75.953,992.02443665547275,1480,1467.7315233083789,1284.0752,1500.0
12.87465214729309,162,73.953,901.6275795808433,1480,1456.2090833689933,1280.6351999999999,1500.0
12.899287223815918,160,71.953,811.7355509279962,1480,1455,1280.0752,1500.0
12.924082040786743,159,69.953,722.35956910630443,1480,1455,1324.3951999999999,1500.0
12.949100017547607,157,67.953,633.51123067377137,1480,1455,1350,1500.0
12.973889112472534,152,63.953,557.2321960659126,1480,1455,1350,1500.0
12.998621225357056,153,61.953,504.09096901492711,1480,1455,1350,1500.0
13.023179054260254,152,61.953,468.18018070571298,1480,1455,1350,1500.0
13.04793405532837,154,60.953,468.18018070571298,1480,1455,1350,1500.0
13.072567224502563,152,61.953,469.2010559586505,1480,1455,1350,1500.0
13.097452163696289,150,58.953,474.07020751067978,1480,1455,1350,1500.0
13.121916055679321,150,57.953,479.05158675694122,1480,1465.7383430158698,1350,1500.0
13.14649510383606,150,57.953,484.78544043644376,1480,1476.568964256018,1350,1500.0
13.17136812210083,151,57.953,490.0032472847912,1480,1484.8725180362258,1350,1500.0
13.195974111557007,152,57.953,496.70025953180573,1480,1490.6569359399855,1350,1500.0
13.220997095108032,152,57.953,504.28355537001391,1482.6800000000001,1494.0923208636946,1350,1500.0
13.245784044265747,153,57.953,513.90948206412565,1496.0799999999999,1495.9325558607732,1350,1500.0
13.270455121994019,154,57.953,526.47631264253971,1509.54,1496.7416749726369,1350,1500.0
13.295307159423828,154,58.953,539.36588686341702,1520,1497.6258652466172,1350,1500.0
13.32010817527771,154,58.953,554.55891268654602,1520,1498.6050173502688,1350,1500.0
13.344828128814697,155,58.953,565.49686182516245,1520,1499.5842368792671,1350,1500.0
13.36958622932434,155,58.953,574.10318841025253,1520,1500.3830396800684,1350,1500.0
13.394694089889526,156,58.953,580.62544697068677,1520,1500.7861377072518,1350,1500.0
13.419263124465942,155,57.953,587.14770553112101,1519.2,1500.768063243446,1350,1500.0
13.444209098815918,156,57.953,591.66311530372934,1519.52,1500.165749071296,1350,1500.0
13.469166040420532,158,55.953,596.42975840203167,1520,1499.27878666889,1350,1500.0
13.49380612373352,159,54.953,600.56844185988643,1520,1498.2855571575556,1350,1500.0
13.518602132797241,160,54.953,601.4188288915085,1520,1497.288711326978,1350,1500.0
13.54331922531128,160,53.953,601.4188288915085,1520,1496.2833904677586,1350,1500.0
13.568096160888672,165,51.953,597.96586847716094,1520,1495.3438086625815,1350,1500.0
13.592704057693481,165,50.953,596.24044551444968,1520,1494.4023779753159,1350,1500.0
13.617656230926514,166,49.953,595.41368034481718,1520,1493.4500570831115,1350,1500.0
13.642226219177246,166,48.953,594.60956627572261,1520,1492.6183592337022,1350,1500.0
13.667219161987305,166,48.953,593.0230709502116,1520,1491.9312135656869,1350,1500.0
13.691927194595337,167,47.953,591.43657562470059,1520,1491.5391129559453,1350,1500.0
13.716495037078857,166,46.953,588.17292809793503,1520,1491.288080406207,1350,1500.0
13.741112232208252,166,45.953,584.81662589649659,1520,1491.1097082583028,1350,1500.0
13.765733003616333,167,44.953,582.33535962614746,1520,1490.9345942390726,1350,1500.0
13.790650129318237,168,43.953,579.85409335579823,1516.6600000000001,1490.7802319512625,1350,1500.0
13.81554102897644,167,40.953,580.68085852543072,1512.1199999999999,1490.6571596671217,1350,1500.0
13.840588092803955,168,39.953,581.53124555705267,1514.6099999999999,1490.7037614550329,1350,1500.0
13.865380048751831,168,37.953,584.98420597140023,1519.0699999999999,1491.0422388125942,1350,1500.0
13.890199184417725,168,35.953,590.16894146168192,1519.1300000000001,1491.6688037768538,1350,1500.0
13.91516900062561,168,34.953,597.09183015482097,1514.79,1492.612158207776,1350,1500.0
13.94011902809143,172,32.953,604.99989916198354,1520,1493.6999872503829,1350,1500.0
13.964721202850342,171,31.953,612.90796816914622,1520,1494.8761257155045,1350,1500.0
13.98924708366394,171,33.953,627.88112669711506,1520,1496.2253851484047,1350,1500.0
14.013962030410767,171,33.953,648.25201644751235,1520,1497.8245389467902,1350,1500.0
14.039221048355103,180,40.953,651.60831864895079,1520,1498.9580048575499,1350,1500.0
14.064008235931396,172,29.953,678.33476821421368,1520,1500.5487487330638,1350,1500.0
14.08879017829895,171,28.953,707.8811942278038,1520,1502.5896027535221,1350,1500.0
14.113483190536499,170,31.953,746.35703884481904,1520,1505.0301137969582,1350,1500.0
14.138077020645142,169,32.953,788.93667905875805,1520,1507.6997698066834,1350,1500.0
14.16326904296875,168,32.953,830.56054732625637,1480,1511.6201494193824,1350,1500.0
14.188124179840088,166,35.953,879.76631003749048,1480,1515.6844755347145,1350,1500.0
14.212960004806519,164,35.953,913.03332901335796,1480,1519.1395443819126,1350,1500.0
14.23759913444519,164,37.953,932.04273027495333,1480,1521.2413800660629,1350,1500.0
14.262198209762573,164,44.953,956.85912870001994,1480,1522.1701874698761,1350,1500.0
14.28710412979126,163,46.953,991.66169414107208,1480,1521.7912665584861,1326.3151999999998,1500.0
14.312012195587158,156,19.953,1033.4815931853404,1480,1520.5479683439225,1350,1500.0
14.336733102798462,161,40.953,1001.4539009014012,1480,1516.9018968417195,1350,1500.0
14.361194133758545,162,42.953,956.43560497299075,1480,1511.8605300080787,1350,1500.0
14.385857105255127,162,44.953,905.66363378955884,1480,1505.0585178012016,1350,1500.0
14.410620212554932,161,45.953,854.18796238182438,1480,1495.8696309226448,1350,1500.0
14.435364007949829,159,46.953,792.79059328454787,1487.0799999999999,1483.7611542702477,1336.9552000000001,1500.0
14.460081100463867,159,46.953,746.67974206659449,1489.1300000000001,1473.2578135180815,1335.1152000000002,1500.0
14.485021114349365,159,46.953,706.97903778569059,1486.78,1464.8636770922574,1336.1552000000001,1500.0
14.510012149810791,157,46.953,656.72583097493055,1480,1458.7052684244838,1333.2751999999998,1500.0
14.53496503829956,155,44.953,613.50104469714393,1480,1455.4143613084709,1335.7551999999998,1500.0
14.559568166732788,154,42.953,538.92663611662124,1480,1455,1350,1500.0
14.584216117858887,153,40.953,534.52945538435699,1480,1455.9425166031265,1350,1500.0
14.609336137771606,153,39.953,533.10353650879642,1480,1458.2035319454985,1350,1500.0
14.63428807258606,153,37.953,533.82575516005431,1480,1461.9879137394219,1350,1500.0
14.659241199493408,149,34.953,539.16793010229514,1480,1467.0025676193568,1350,1500.0
14.683994054794312,148,34.953,546.71511500794043,1480,1474.8861030332096,1350,1500.0
14.708649158477783,146,33.953,555.78956170071842,1480,1481.929249833285,1350,1500.0
14.733457088470459,146,33.953,564.86400839349642,1480,1488.1391640382503,1350,1500.0
14.758187055587769,145,33.953,574.1870015122347,1480,1493.0789571722964,1350,1500.0
14.78324818611145,148,33.953,583.5099946309731,1480,1496.6811660150365,1350,1500.0
14.807969093322754,150,33.953,592.16424984667947,1480,1497.8499298419299,1350,1500.0
14.832496166229248,150,33.953,600.81850506238584,1480,1498.6019391017596,1350,1500.0
14.85747218132019,153,33.953,608.78687524934162,1504.04,1499.0026686167353,1350,1500.0
14.882395029067993,153,32.953,616.25698756757652,1520,1499.0875463132622,1350,1500.0
14.907410144805908,156,32.953,624.89801708244534,1520,1499.037809683763,1350,1500.0
14.93196702003479,160,48.953,696.59627368607551,1520,1501.129938508499,1350,1500.0
14.956448078155518,159,49.953,767.41949435861648,1520,1505.0958043795624,1344.7152000000001,1500.0
14.981227159500122,145,38.953,780.31476071151144,1520,1508.9819836363401,1350,1500.0
15.006043195724487,144,40.953,792.30925478240283,1516.3399999999999,1513.0554272944437,1335.4351999999999,1500.0
15.031164169311523,144,45.953,804.30374885329411,1480,1517.2499337973441,1309.3552,1500.0
15.055867195129395,151,48.953,815.01983289782095,1480,1517.7179022367147,1326.1551999999999,1500.0
15.080682039260864,150,50.953,822.15217736024374,1480,1514.3939485979577,1344.0751999999998,1500.0
15.105306148529053,147,53.953,827.08497795216863,1480,1510.6734161539759,1325.6751999999999,1500.0
15.130085229873657,147,58.953,826.15731694532894,1480,1506.4031155278881,1304.6352000000002,1500.0
15.155286073684692,147,60.953,817.51628743046024,1480,1501.3784350992607,1298.3152,1500.0
15.179928064346313,145,61.953,744.14087862557551,1480,1495.369170355119,1278.3951999999999,1500.0
15.204668998718262,146,62.953,668.41745673893456,1488.78,1488.774392847941,1261.2752,1500.0
15.22971510887146,145,61.953,650.62198917193939,1480,1481.9973170632629,1271.3552,1500.0
15.254404067993164,143,60.953,632.82652160494422,1480,1475.1018717341121,1294.1551999999999,1500.0
15.279167175292969,142,60.953,614.2895762226575,1480,1468.5252779863429,1314.5552,1500.0
15.303953170776367,143,59.953,597.03104086673545,1480,1466.1606880726433,1336.3152,1500.0
15.328811168670654,142,58.953,584.09772290820888,1480,1468.1849377455476,1350,1500.0
15.35367202758789,141,58.953,574.90784783284175,1480,1471.1660487309423,1350,1500.0
15.378270149230957,143,59.953,573.13203961974875,1480,1475.1671469946391,1350,1500.0
15.403131008148193,140,59.953,573.98242665137082,1480,1480.0585605853769,1350,1500.0
15.427846193313599,142,59.953,575.65957885262526,1480,1483.8382590426243,1350,1500.0
15.45261001586914,142,59.953,581.46055234872915,1480,1486.3148403214941,1350,1500.0
15.47758412361145,142,60.953,585.48571763173993,1486.5999999999999,1488.9217138994077,1350,1500.0
15.502609014511108,142,61.953,588.66049588312876,1484.3699999999999,1491.1926885489961,1350,1500.0
15.527527093887329,142,61.953,592.57675194980902,1493.1700000000001,1492.9773559473879,1350,1500.0
15.552162170410156,142,61.953,596.49300801648928,1495.3399999999999,1494.2611258350273,1348.8751999999999,1500.0
15.57722520828247,142,62.953,598.03690702915105,1495.3399999999999,1494.8444791377813,1344.7151999999999,1500.0
15.602082014083862,142,62.953,598.03690702915105,1493.1700000000001,1494.9036787257367,1344.5552,1500.0
15.627280235290527,143,62.953,594.77325950238549,1497.77,1494.6065215325425,1345.8352,1500.0
15.652097225189209,143,62.953,590.74809421937459,1495.6600000000001,1493.9757187979028,1347.1152000000002,1500.0
15.677065134048462,142,62.953,585.98145112107227,1495.46,1493.0139193221819,1348.3952000000002,1500.0
15.701800107955933,142,61.953,578.71678115841917,1495.46,1491.9043338908155,1350,1500.0
15.726428031921387,142,60.953,572.52421918455639,1495.46,1490.7345510446728,1350,1500.0
15.75120210647583,144,60.953,565.82742131053305,1495.9200000000001,1489.6526573999065,1350,1500.0
15.775992155075073,142,58.953,559.79936133954175,1491.1199999999999,1488.751928875555,1350,1500.0
15.800721168518066,143,57.953,553.77130136855033,1493.55,1488.0738448199725,1350,1500.0
