time,x,y,size_inv,roll,pitch,thrust,yaw
0.0032629966735839844,124,44,3842.2032246921453,1492.26,1493.0,1350,1500.0
0.028306961059570312,125,44,3842.2032246921453,1491.9349999999999,1493.0,1350,1500.0
0.05106496810913086,123,45,3810.1848644863771,1490.98,1492.8078898387655,1350,1500.0
0.07361388206481934,125,44,3810.1848644863771,1490.855,1492.7758714785596,1350,1500.0
0.09631896018981934,123,44,3810.1848644863771,1489.9000000000001,1492.7438531183539,1350,1500.0
0.11907482147216797,123,44,3810.1848644863771,1489.345,1492.7118347581481,1350,1500.0
0.14172983169555664,125,44,3810.1848644863771,1489.22,1492.6798163979424,1350,1500.0
0.16437482833862305,125,45,3778.1665042806089,1488.6949999999999,1492.455687876502,1350,1500.0
0.18723487854003906,125,45,3778.1665042806089,1488.1700000000001,1492.3916511560903,1350,1500.0
0.21031785011291504,126,45,3778.1665042806089,1487.8599999999999,1492.3276144356789,1350,1500.0
0.23362398147583008,126,45,3778.1665042806089,1510.29,1485.8599056741136,1350,1500.0
0.2581608295440674,127,45,3778.1665042806089,1516.1199999999999,1485.7958689537022,1350,1500.0
0.28160881996154785,128,45,3810.1848644863771,1519.1949999999999,1488.5174295711925,1350,1500.0
0.30583882331848145,130,46,3810.1848644863771,1520,1491.0788983876539,1350,1500.0
0.32924699783325195,131,47,3848.6068967332985,1520,1495.4077806874739,1350,1500.0
0.3526148796081543,132,47,3887.0289289802195,1520,1501.3119663094174,1350,1500.0
0.37589287757873535,133,46,3887.0289289802195,1520,1507.0240417701264,1350,1500.0
0.39925694465637207,135,45,3919.0472891859877,1520,1510.3987769358143,1350,1500.0
0.4225888252258301,136,44,3919.0472891859877,1520,1513.6134203004733,1350,1500.0
0.4459869861602783,136,44,3957.4693214329091,1520,1515.521714568737,1350,1500.0
0.46931982040405273,136,43,3957.4693214329091,1520,1514.1641360960125,1350,1500.0
0.49268198013305664,136,44,3957.4693214329091,1520,1512.806557623288,1350,1500.0
0.516650915145874,135,44,3957.4693214329091,1520,1510.136226382127,1350,1500.0
0.5399339199066162,135,45,3957.4693214329091,1520,1507.465895140966,1350,1500.0
0.5632998943328857,134,47,3957.4693214329091,1502.22,1503.2202605776811,1350,1500.0
0.5878298282623291,132,50,3957.4693214329091,1480,1500.4730852720263,1350,1500.0
0.6112368106842041,131,55,3995.8913536798304,1480,1499.4933234497298,1346.1600000000001,1500.0
0.6347768306732178,125,68,4081.2736475618781,1480,1503.4977530327978,1294.6400000000001,1500.0
0.6578598022460938,121,77,4119.6956798087995,1480,1508.8426846298139,1250,1500.0
0.6808218955993652,121,85,4119.6956798087995,1480,1515.4939653232254,1250,1500.0
0.7036550045013428,117,92,4119.6956798087995,1480,1522.145246016637,1250,1500.0
0.7266168594360352,117,98,4119.6956798087995,1480,1523,1250,1500.0
0.7495617866516113,117,103,4119.6956798087995,1480,1522.4696987333887,1250,1500.0
0.7726888656616211,116,107,4119.6956798087995,1480,1516.1428707567291,1250,1500.0
0.7956907749176025,115,111,4081.2736475618781,1480,1508.0486292967109,1250,1500.0
0.8189868927001953,117,120,4042.8516153149567,1480,1498.3790845145691,1250,1500.0
0.8424279689788818,120,124,4004.4295830680358,1480,1488.6326956679334,1250,1500.0
0.8659849166870117,122,129,3887.0289289802204,1480,1477.0078963558926,1250,1500.0
0.8902978897094727,123,133,3816.5885365275308,1511.575,1464.2283015190972,1250,1500.0
0.9139478206634521,125,136,3778.1665042806098,1520,1463,1250,1500.0
0.9373109340667725,127,140,3746.1481440748416,1520,1463,1250,1500.0
0.9606389999389648,129,143,3746.1481440748416,1520,1463,1250,1500.0
0.9843189716339111,131,149,3746.1481440748416,1520,1463,1250,1500.0
1.008335828781128,132,152,3714.1297838690734,1520,1463,1250,1500.0
1.0315778255462646,132,154,3682.1114236633052,1520,1463,1250,1500.0
1.0550389289855957,133,156,3650.093063457537,1520,1463.6391636913108,1250,1500.0
1.0787858963012695,133,157,3618.0747032517693,1520,1468.3010369372705,1250,1500.0
1.102193832397461,134,158,3618.0747032517693,1520,1468.5443764748343,1250,1500.0
1.1251988410949707,134,159,3618.0747032517693,1520,1468.6020095232047,1250,1500.0
1.1483128070831299,134,160,3586.0563430460011,1520,1468.2498075609412,1250,1500.0
1.1711468696594238,133,160,3586.0563430460011,1520,1469.3704501681432,1250,1500.0
1.1939449310302734,133,159,3554.0379828402329,1510.135,1471.5797170223411,1250,1500.0
1.216937780380249,132,157,3554.0379828402329,1495.95,1473.9490756775681,1250,1500.0
1.2399978637695312,132,155,3586.0563430460011,1484.75,1476.5425628542353,1250,1500.0
1.2632319927215576,129,152,3656.4967354986902,1480,1483.5289690511338,1250,1500.0
1.2862029075622559,129,148,3726.9371279513798,1480,1492.1547152905675,1252.0,1500.0
1.3095629215240479,128,142,3844.3377820391952,1480,1507.1414424242141,1286.4000000000001,1500.0
1.3333048820495605,127,130,3914.7781744918843,1480,1523,1338.3199999999999,1500.0
1.3564488887786865,126,122,3985.2185669445739,1480,1523,1350,1500.0
1.3793718814849854,125,113,4102.6192210323889,1480,1523,1350,1500.0
1.4022119045257568,124,104,4220.0198751202042,1480,1523,1350,1500.0
1.4250497817993164,122,95,4337.4205292080196,1480,1523,1350,1500.0
1.4478459358215332,120,86,4422.8028230900672,1480,1523,1350,1500.0
1.4707098007202148,120,77,4508.1851169721149,1480,1523,1350,1500.0
1.493468999862671,120,69,4555.1453786072407,1480,1523,1350,1500.0
1.5162198543548584,124,57,4602.1056402423665,1480,1523,1350,1500.0
1.5389878749847412,126,53,4555.1453786072407,1480,1523,1350,1500.0
1.5618138313293457,128,51,4555.1453786072407,1490.925,1523,1350,1500.0
1.5848298072814941,131,50,4516.7233463603197,1520,1523,1350,1500.0
1.6076610088348389,133,51,4431.3410524782721,1520,1523,1350,1500.0
1.630680799484253,136,53,4345.9587585962236,1520,1501.0728958865475,1350,1500.0
1.6548337936401367,139,55,4260.5764647141759,1520,1480.077389820952,1350,1500.0
1.6782138347625732,141,58,4175.1941708321283,1520,1463,1350,1500.0
1.7014439105987549,144,63,4089.8118769500807,1520,1463,1350,1500.0
1.7247869968414307,145,65,4004.4295830680326,1520,1463,1314.96,1500.0
1.7490248680114746,146,66,3919.0472891859849,1520,1463,1289.5999999999999,1500.0
1.7723009586334229,145,66,3880.6252569390635,1520,1463,1276.48,1500.0
1.795597791671753,147,65,3880.6252569390635,1520,1463,1277.1200000000001,1500.0
1.8190479278564453,147,59,3966.0075508211112,1520,1463,1307.76,1500.0
1.843517780303955,149,49,4051.3898447031593,1520,1463,1350,1500.0
1.8668339252471924,148,39,4051.3898447031593,1520,1471.1421327661958,1350,1500.0
1.8901848793029785,148,42,4089.8118769500807,1520,1494.7289914511114,1350,1500.0
1.914355993270874,148,43,4089.8118769500807,1520,1514.7938305133928,1350,1500.0
1.9376649856567383,149,45,4089.8118769500807,1520,1523,1350,1500.0
1.9608559608459473,149,45,4089.8118769500807,1518.3399999999999,1523,1350,1500.0
1.984332799911499,150,46,4057.7935167443125,1518.5999999999999,1519.3831288095528,1350,1500.0
2.008774995803833,150,46,4057.7935167443125,1515.875,1509.9120978606866,1350,1500.0
2.033155918121338,149,46,4019.3714844973911,1515.7049999999999,1498.6736534284621,1350,1500.0
2.0576717853546143,149,46,3901.9708304095757,1510.135,1485.5567985308323,1350,1500.0
2.0810508728027344,148,45,3816.588536527528,1507.1199999999999,1472.4292708464675,1350,1500.0
2.1045968532562256,148,45,3816.588536527528,1495.9200000000001,1463,1350,1500.0
2.1286628246307373,148,45,3778.1665042806067,1484.72,1463,1350,1500.0
2.1519858837127686,148,45,3778.1665042806067,1480,1463,1350,1500.0
2.1753509044647217,149,46,3746.1481440748385,1480,1463,1350,1500.0
2.1985998153686523,149,46,3746.1481440748385,1484.9200000000001,1463,1350,1500.0
2.221998929977417,149,46,3778.1665042806067,1493.3050000000001,1463,1350,1500.0
2.246677875518799,149,46,3778.1665042806067,1501.6900000000001,1472.1816621942096,1350,1500.0
2.2699849605560303,149,46,3746.1481440748385,1507.29,1480.1158118531989,1350,1500.0
2.2934679985046387,149,46,3746.1481440748385,1507.29,1486.1928966202536,1350,1500.0
2.3188037872314453,149,45,3746.1481440748385,1504.5050000000001,1488.9400719259086,1350,1500.0
2.345658779144287,149,45,3746.1481440748385,1501.72,1489.1257784151021,1350,1500.0
2.373760938644409,149,46,3714.1297838690707,1498.9349999999999,1486.3401810772002,1350,1500.0
2.400182008743286,149,46,3682.1114236633025,1496.1500000000001,1484.8032997873233,1350,1500.0
2.426481008529663,149,46,3714.1297838690707,1496.1500000000001,1483.6506388199157,1350,1500.0
2.4527578353881836,149,46,3714.1297838690707,1496.1500000000001,1482.3378860514792,1350,1500.0
2.480088949203491,149,46,3682.1114236633025,1496.1500000000001,1480.8010047616024,1350,1500.0
2.5052177906036377,149,46,3650.0930634575343,1496.1500000000001,1480.5128395197505,1350,1500.0
2.530430793762207,149,46,3682.1114236633025,1496.1500000000001,1483.1703634168291,1350,1500.0
2.5555617809295654,149,46,3714.1297838690707,1496.1500000000001,1484.5791712658829,1350,1500.0
2.5808818340301514,149,46,3682.1114236633025,1496.1500000000001,1484.3550427444425,1350,1500.0
2.606034994125366,149,46,3682.1114236633025,1496.1500000000001,1486.8524748404925,1350,1500.0
2.6310348510742188,149,46,3714.1297838690707,1496.1500000000001,1492.1355042744442,1350,1500.0
2.6560888290405273,149,46,3746.1481440748385,1496.1500000000001,1494.9211016123461,1350,1500.0
2.681198835372925,149,46,3714.1297838690707,1496.1500000000001,1494.7610098113173,1350,1500.0
2.7061758041381836,150,46,3682.1114236633025,1499.165,1495.8496340583133,1350,1500.0
2.7311949729919434,149,46,3682.1114236633025,1498.9649999999999,1495.8496340583133,1350,1500.0
2.756154775619507,149,46,3714.1297838690707,1498.9649999999999,1493.5122937632923,1350,1500.0
2.7812039852142334,149,46,3714.1297838690707,1498.9649999999999,1489.7021088988058,1350,1500.0
2.806180953979492,149,46,3714.1297838690707,1498.9649999999999,1489.7021088988058,1350,1500.0
2.8313419818878174,149,46,3746.1481440748385,1493.365,1492.4877062367077,1350,1500.0
