time,x,y,size_inv,roll,pitch,thrust,yaw
0.01382303237915039,184,97.53,1625.5475181389843,1505.52,1507.6084638316254,1303.0627999999999,1500.0
0.04951620101928711,186,96.53,1632.0497082115403,1506.7,1507.6377236869519,1304.4015999999999,1500.0
0.07191705703735352,188,97.6005,1632.0497082115403,1507.9400000000001,1507.6377236869519,1303.21298,1500.0
0.09424400329589844,190,97.671,1638.5518982840963,1509.24,1507.6669835422783,1303.22154,1500.0
0.11654114723205566,192,98.718,1638.5518982840963,1510.5999999999999,1507.6669835422783,1302.0164199999999,1500.0
0.13872599601745605,194,98.7885,1638.5518982840963,1512.02,1507.6669835422783,1301.98028,1500.0
0.16097116470336914,197,100.8355,1645.0540883566523,1513.73,1507.696243397605,1299.49046,1500.0
0.1832590103149414,198,101.859,1658.6003176744773,1515.0699999999999,1507.7572014295351,1298.1878999999999,1500.0
0.20584917068481445,199,102.8825,1672.1465469923023,1516.4400000000001,1507.8181594614653,1296.8444,1500.0
0.22829914093017578,199,102.859,1693.3493407071587,1517.6099999999999,1507.9135720331822,1296.7582400000001,1500.0
0.25104713439941406,198,102.8355,1714.5521344220149,1520,1514.127404111216,1265.8253200000001,1500.0
0.27384519577026367,198,102.765,1737.6053537701678,1520,1516.617550156335,1268.9869200000001,1500.0
0.2966470718383789,197,101.6945,1758.8081474850242,1520,1518.9226793384801,1276.2999600000001,1500.0
0.3193840980529785,196,101.6475,1781.861366833177,1520,1521.3100239595269,1285.2224000000001,1500.0
0.3421921730041504,194,100.624,1811.4167762538859,1509.0999999999999,1523.3411230956299,1295.3007600000001,1500.0
0.36522507667541504,193,100.6005,1840.9721856745946,1489.0699999999999,1524.9867168914629,1304.0512799999999,1500.0
0.3880321979522705,189,100.6005,1873.173507938681,1480,1526.4221295043012,1309.7922799999999,1500.0
0.41079115867614746,188,101.6005,1889.1826880415651,1480,1527.3991721371442,1308.5039200000001,1500.0
0.4336071014404297,187,101.6005,1905.191868144449,1480,1527.879683891719,1306.8920000000001,1500.0
0.456409215927124,186,101.577,1913.5444838503015,1480,1527.4390788238859,1302.50828,1500.0
0.47916102409362793,185,101.5535,1921.897099556154,1480,1526.1118114734318,1298.12456,1500.0
0.5019311904907227,184,100.53,1931.0452024720878,1480,1523.8220841475002,1296.5105599999999,1500.0
0.5250210762023926,184,100.483,1939.3978181779403,1480,1521.4548886055716,1298.0483199999999,1500.0
0.5477759838104248,184,100.483,1939.3978181779403,1480,1518.7811520672381,1299.5935999999999,1500.0
0.5704882144927979,183,100.5065,1948.5459210938739,1480,1516.8085304197746,1302.403,1500.0
0.5933670997619629,182,101.53,1948.5459210938739,1480,1515.1802476494595,1302.5047199999999,1500.0
0.616185188293457,182,102.577,1939.3978181779398,1480,1513.653508821511,1298.2047600000001,1500.0
0.6389851570129395,182,103.6005,1939.3978181779398,1482.97,1512.1470549174198,1290.96756,1500.0
0.6617660522460938,182,103.624,1939.3978181779398,1485.02,1511.1208764164151,1284.89652,1500.0
0.6847231388092041,182,103.624,1939.3978181779398,1489.3,1509.7963902116298,1278.95144,1500.0
0.7074880599975586,183,103.624,1939.3978181779398,1498.24,1508.7224824780203,1275.9041200000001,1500.0
0.7302401065826416,184,103.624,1930.249715262006,1507.24,1508.156294456245,1277.1803600000001,1500.0
0.7532250881195068,184,103.624,1939.3978181779398,1516.04,1508.1974609193667,1281.3863200000001,1500.0
0.776482105255127,185,104.6475,1939.3978181779398,1520,1508.1974609193667,1282.95604,1500.0
0.7993090152740479,186,105.6945,1930.249715262006,1520,1508.156294456245,1282.9579200000001,1500.0
0.8220980167388916,186,104.6945,1921.8970995561535,1520,1507.8681292143931,1285.46424,1500.0
0.8449950218200684,186,104.718,1913.5444838503013,1520,1507.6038285888435,1285.2846,1500.0
0.8676900863647461,186,104.6945,1905.1918681444488,1520,1506.5400633171625,1283.80324,1500.0
0.8903870582580566,186,103.6475,1896.8392524385963,1520,1505.2257195743059,1287.8915999999999,1500.0
0.913222074508667,186,102.6005,1888.4866367327438,1520,1504.2096835352297,1296.4192399999999,1500.0
0.9359760284423828,185,102.6005,1872.4774566298597,1520,1503.1800744956315,1300.89048,1500.0
0.9588780403137207,183,103.671,1856.4682765269758,1509.99,1501.8969039078199,1302.6014,1500.0
0.9817161560058594,182,103.718,1824.2669542628894,1496.53,1500.3504290421895,1305.4070400000001,1500.0
1.0047290325164795,180,105.7885,1801.2137349147365,1480.5799999999999,1498.6546810015873,1298.4793999999999,1500.0
1.0275170803070068,179,106.8355,1778.1605155665834,1480,1496.4940502354136,1286.9167600000001,1500.0
1.0502409934997559,180,108.906,1770.5039511695518,1480,1494.8829798196066,1272.5044,1500.0
1.0730791091918945,180,110.0,1755.8033475272514,1480,1493.5091654529242,1260.65392,1500.0
1.0961120128631592,180,111.0705,1734.600553812395,1480,1493.1515082841393,1250,1500.0
1.1187951564788818,181,112.1175,1713.3977600975388,1480,1493.2903819936223,1250,1500.0
1.141517162322998,180,113.1175,1692.1949663826824,1492.7,1493.9257865813734,1250,1500.0
1.1644401550292969,180,113.094,1692.1949663826824,1503.55,1494.6357222015765,1250,1500.0
1.188101053237915,179,111.9765,1692.1949663826824,1507.6300000000001,1495.747418637231,1250,1500.0
1.2134370803833008,177,107.859,1706.895570024983,1504.8800000000001,1497.6724138535139,1264.749,1500.0
1.2387511730194092,175,105.6475,1721.5961736672834,1488.9300000000001,1500.6189982215126,1285.3270400000001,1500.0
1.2640061378479004,173,103.4595,1744.6493930154363,1480,1504.875336983079,1310.4036800000001,1500.0
1.2893311977386475,170,99.154,1752.3059574124679,1480,1509.0623907973652,1341.3395600000001,1500.0
1.3145091533660889,166,91.9425,1767.0065610547686,1480,1513.2811427882552,1350,1500.0
1.339691162109375,164,88.731,1796.5619704754772,1480,1516.9352836577855,1350,1500.0
1.364706039428711,162,86.543,1835.2654828121199,1480,1520.2735763305532,1350,1500.0
1.389801025390625,162,84.449,1864.8208922328286,1480,1522.4380878504855,1350,1500.0
1.415006160736084,161,83.3785,1900.0410884591734,1480,1525.2253029340118,1350,1500.0
1.4400291442871094,162,82.4255,1925.1983714779908,1480,1527.8399171801304,1350,1500.0
1.4649860858917236,164,84.543,1942.6990900997771,1480,1529.6127919891426,1350,1500.0
1.4899110794067383,165,87.778,1960.1998087215634,1480,1530.0294957258789,1350,1500.0
1.515024185180664,168,91.966,1979.4108248450241,1494.1199999999999,1529.9484983002785,1343.42428,1500.0
1.5401601791381836,172,98.2715,1996.9115434668104,1520,1528.5013112529045,1292.9570799999999,1500.0
1.5652010440826416,174,101.4595,2014.4122620885967,1520,1526.5107268923241,1250,1500.0
1.590149164199829,176,104.6005,2023.5603650045305,1520,1524.5936180138594,1250,1500.0
1.6150181293487549,176,105.6945,2014.4122620885967,1520,1522.4307953744653,1250,1500.0
1.6400370597839355,176,105.6945,2023.5603650045305,1520,1520.3587500640065,1250,1500.0
1.665147066116333,174,104.6475,2004.3493488810698,1520,1517.5893210036495,1250,1500.0
1.6900920867919922,173,103.6005,1995.2012459651364,1520,1514.2954073385058,1250,1500.0
1.7150330543518066,171,102.53,1986.0531430492024,1520,1510.7031859695817,1250,1500.0
1.7399301528930664,170,101.483,1968.5524244274161,1501.5,1507.6222640049373,1275.0735999999999,1500.0
1.7650530338287354,169,100.4595,1940.9887925981031,1480,1503.6965942847273,1302.5109600000001,1500.0
1.7901179790496826,170,100.483,1923.4880739763169,1480,1500.968868641359,1317.1510000000001,1500.0
1.8151559829711914,170,101.53,1905.9873553545306,1480,1498.7900291729466,1321.7878799999999,1500.0
1.8401851654052734,171,103.671,1888.4866367327443,1480,1496.9094974083146,1314.7597599999999,1500.0
1.8654201030731201,172,105.765,1880.1340210268918,1480,1495.5951536654579,1300.3532399999999,1500.0
1.8906621932983398,174,109.859,1862.6333024051055,1506.22,1495.6428828980629,1274.78556,1500.0
1.9158670902252197,174,112.0,1871.7814053210393,1520,1496.5586875486688,1250,1500.0
1.940669059753418,174,114.094,1871.7814053210393,1520,1498.2089257659823,1250,1500.0
1.9656710624694824,174,115.1645,1880.9295082369731,1520,1500.9503735637245,1250,1500.0
1.9909770488739014,174,116.188,1898.4302268587594,1520,1504.2305650744943,1250,1500.0
2.0163350105285645,174,116.188,1915.9309454805457,1520,1508.2589123063456,1250,1500.0
2.041518211364746,173,116.188,1933.431664102332,1520,1511.7383733632407,1250,1500.0
2.066857099533081,173,116.1645,1941.7842798081845,1513.1900000000001,1514.902224869536,1250,1500.0
2.0923240184783936,173,115.1175,1959.2849984299708,1504.45,1517.5583566639971,1250,1500.0
2.1181790828704834,173,114.094,1986.8486302592839,1497.8800000000001,1519.7860589342888,1262.6597999999999,1500.0
2.143778085708618,172,113.047,2004.3493488810702,1493.22,1520.9184349778393,1277.0466799999999,1500.0
2.1691551208496094,172,112.0,2014.4122620885973,1493.1600000000001,1521.5436282634223,1290.0294799999999,1500.0
2.194559097290039,172,110.953,2033.623278212058,1493.0999999999999,1522.2851615534798,1301.6063200000001,1500.0
2.2205140590667725,172,108.9295,2033.623278212058,1493.04,1522.1646452411526,1312.88132,1500.0
2.246150016784668,171,108.9295,2043.6861914195852,1490.55,1521.2625030833797,1317.47036,1500.0
2.2714030742645264,170,108.906,2053.7491046271125,1490.23,1520.1372267631791,1319.18984,1500.0
2.296708106994629,170,108.906,2063.8120178346394,1487.9400000000001,1519.2350846054062,1317.9495199999999,1500.0
2.3225932121276855,170,108.9295,2083.0230339581003,1485.6500000000001,1518.048356898227,1313.7475199999999,1500.0
2.3479011058807373,170,108.953,2083.0230339581003,1483.3599999999999,1517.3002011771455,1305.2698,1500.0
2.3731601238250732,170,110.0,2072.960120750573,1485.47,1516.4280091128323,1295.4481599999999,1500.0
2.3996222019195557,170,111.047,2072.960120750573,1489.8099999999999,1515.5223469241548,1285.47696,1500.0
2.4250731468200684,171,113.1175,2053.7491046271125,1496.5799999999999,1513.6520172829921,1272.7199599999999,1500.0
2.4503791332244873,172,113.141,2043.6861914195852,1505.5799999999999,1510.9446362250217,1263.8752400000001,1500.0
2.4755570888519287,172,113.1645,2043.6861914195852,1514.3800000000001,1508.282538276485,1257.8144400000001,1500.0
2.500681161880493,172,113.1645,2033.623278212058,1520,1506.1789320109658,1254.71344,1500.0
2.525768995285034,172,114.1645,2014.4122620885973,1520,1503.7597161948472,1251.9359999999999,1500.0
2.5508430004119873,172,114.2115,2004.3493488810702,1520,1502.534327809258,1256.03188,1500.0
2.5758299827575684,172,115.2115,1985.1383327576095,1520,1501.8715477529986,1257.578,1500.0
2.6009302139282227,172,114.188,1985.1383327576095,1516.8499999999999,1501.2952172692947,1263.0599999999999,1500.0
2.6261789798736572,172,114.1645,1975.990229841676,1512.51,1500.705164631217,1265.95192,1500.0
2.651492118835449,172,113.141,1966.8421269257421,1508.1700000000001,1500.9933298730689,1272.8937599999999,1500.0
2.676720142364502,172,113.1175,1966.8421269257421,1506.0,1501.3501058867903,1275.98516,1500.0
2.7019541263580322,172,112.094,1966.8421269257421,1506.0,1502.5576554716936,1284.5184400000001,1500.0
2.7282040119171143,171,113.094,1957.6940240098083,1503.5699999999999,1503.4495955059972,1286.28576,1500.0
2.7549991607666016,170,114.1175,1948.5459210938745,1498.9100000000001,1504.3140912315528,1286.48524,1500.0
2.781633138656616,170,115.1645,1948.5459210938745,1494.45,1505.1923091114825,1280.9230399999999,1500.0
2.808094024658203,170,115.188,1931.0452024720882,1489.99,1505.1648648027347,1276.4254800000001,1500.0
2.834773063659668,169,116.235,1931.0452024720882,1483.0999999999999,1504.639843244081,1264.96624,1500.0
2.8614501953125,168,116.2115,1921.8970995561547,1480,1504.3480983097838,1259.0174,1500.0
2.887611150741577,168,115.188,1913.5444838503022,1480,1504.0837976842342,1258.6401599999999,1500.0
2.9140350818634033,168,115.1645,1913.5444838503022,1480,1503.5826407418831,1261.4203199999999,1500.0
2.940577983856201,168,114.141,1913.5444838503022,1480,1504.1315269168392,1266.97208,1500.0
2.966958999633789,168,114.1645,1896.0437652285159,1482.3,1504.0766382993436,1275.5571600000001,1500.0
2.9934580326080322,168,115.188,1896.0437652285159,1488.8099999999999,1504.374946003124,1280.0426,1500.0
3.0202510356903076,168,116.2585,1896.0437652285159,1493.1500000000001,1504.8999675617777,1278.67236,1500.0
3.0503461360931396,168,117.282,1896.0437652285159,1497.49,1505.4249891204313,1274.3949600000001,1500.0
3.0767831802368164,168,117.282,1904.3963809343684,1501.8299999999999,1505.7131543622831,1268.4480000000001,1500.0
3.1032750606536865,169,115.2115,1904.3963809343684,1506.4300000000001,1507.0137759507659,1266.60904,1500.0
3.129857063293457,169,113.141,1904.3963809343684,1508.6600000000001,1508.0399544517707,1270.6493600000001,1500.0
3.156154155731201,169,111.0,1921.8970995561547,1510.8900000000001,1509.4193292740515,1282.24668,1500.0
3.1827681064605713,169,109.9295,1921.8970995561547,1513.1199999999999,1510.7199508625342,1296.9986799999999,1500.0
3.2095491886138916,168,108.8825,1921.8970995561547,1512.9200000000001,1511.5194155086658,1314.62212,1500.0
3.2384982109069824,167,108.8825,1930.2497152620072,1506.0899999999999,1512.0820238379956,1325.1597999999999,1500.0
3.2650840282440186,167,110.0235,1930.2497152620072,1499.46,1512.6070453966493,1325.4958799999999,1500.0
3.2917301654815674,167,114.1645,1930.2497152620072,1492.8299999999999,1512.0820238379956,1308.8182400000001,1500.0
3.3180830478668213,167,115.1645,1939.3978181779407,1486.2,1511.8726118299419,1290.08044,1500.0
3.3447670936584473,167,115.141,1939.3978181779407,1483.97,1511.8726118299419,1269.67308,1500.0
3.371579170227051,168,114.1175,1948.5459210938745,1490.74,1511.6870644381904,1254.7554399999999,1500.0
3.39785099029541,169,115.1645,1948.5459210938745,1499.74,1511.4603505833172,1250,1500.0
3.4240500926971436,169,115.188,1948.5459210938745,1508.54,1511.7586582870977,1250,1500.0
3.450430154800415,169,115.2115,1940.1933053880221,1517.3399999999999,1511.2199145740701,1251.6815999999999,1500.0
3.4769701957702637,168,116.235,1940.1933053880221,1520,1510.718757631719,1257.3896,1500.0
3.5032570362091064,168,116.2585,1931.8406896821696,1519.3699999999999,1509.6311277437355,1261.39796,1500.0
3.5297391414642334,167,116.2585,1923.4880739763171,1510.3699999999999,1508.2929193845764,1266.8143600000001,1500.0
3.5561940670013428,166,115.188,1923.4880739763171,1499.1400000000001,1506.9922977960937,1269.49092,1500.0
3.582736015319824,165,113.0705,1923.4880739763171,1485.6800000000001,1506.46727623744,1275.1788799999999,1500.0
3.609288215637207,164,110.953,1923.4880739763171,1480,1505.9422546787866,1286.8138000000001,1500.0
3.6357131004333496,161,106.8355,1923.4880739763171,1480,1506.1928331499621,1308.23568,1500.0
3.6622002124786377,160,106.7415,1942.6990900997778,1480,1507.6073486197483,1323.5408,1500.0
3.6898910999298096,158,107.7885,1952.7620033073049,1480,1509.2825850226384,1332.93968,1500.0
3.7163991928100586,157,108.906,1970.2627219290912,1480,1511.2657346373708,1334.6838,1500.0
3.7428250312805176,157,113.0,1989.4737380525519,1480,1513.8329110745647,1319.6397999999999,1500.0
3.769404172897339,156,114.1645,2006.9744566743382,1480,1516.6668342604789,1294.87336,1500.0
3.795699119567871,157,116.2585,2024.4751752961245,1480,1518.6225395664635,1265.7129600000001,1500.0
3.8220481872558594,158,122.47,2024.4751752961245,1480,1519.8957168461984,1250,1500.0
3.8481011390686035,158,125.658,2015.3270723801907,1480,1519.8032414580266,1250,1500.0
3.874464988708496,159,131.034,2015.3270723801907,1488.23,1518.5992715655686,1250,1500.0
3.900989055633545,160,137.316,2006.1789694642569,1508.2,1516.0296490052037,1250,1500.0
3.9273130893707275,164,146.692,1996.1160562567297,1520,1512.6803097686977,1250,1500.0
3.953620195388794,165,149.88,1986.0531430492024,1520,1509.3309705321917,1250,1500.0
3.9798851013183594,168,152.021,1986.0531430492024,1520,1507.100822138729,1250,1500.0
4.006175994873047,171,151.0445,1975.9902298416753,1520,1505.0998337233104,1250,1500.0
4.032380104064941,172,149.9505,1966.8421269257415,1520,1503.9024266003357,1250,1500.0
4.058765172958374,172,147.833,1966.8421269257415,1520,1503.8749822915879,1250,1500.0
4.084994077682495,172,144.645,1975.9902298416753,1520,1504.7669223258915,1250,1500.0
4.111356019973755,170,141.5275,1995.201245965136,1520,1506.0060328658546,1250,1500.0
4.1375861167907715,169,139.41,2014.4122620885967,1520,1508.4252486819735,1253.3177199999998,1500.0
4.16448712348938,169,136.2925,2023.5603650045305,1520,1511.3480675636142,1293.9091599999999,1500.0
4.191052198410034,169,130.0575,2023.5603650045305,1506.9100000000001,1513.9278325859075,1328.53964,1500.0
4.217594146728516,169,126.9165,2023.5603650045305,1485.03,1515.6568240370191,1350,1500.0
4.244035005569458,169,124.752,2023.5603650045305,1480,1516.2331545207228,1350,1500.0
4.270327091217041,168,123.6815,2023.5603650045305,1480.3699999999999,1515.3549366407933,1350,1500.0
4.296759128570557,169,119.564,2032.7084679204643,1487.0799999999999,1513.9689990490292,1350,1500.0
4.323191165924072,169,118.47,2042.7713811279914,1493.5899999999999,1512.8890654998033,1350,1500.0
4.349544048309326,169,116.3525,2052.8342943355187,1500.0999999999999,1512.3854624342812,1350,1500.0
4.3758862018585205,169,113.282,2042.7713811279914,1502.27,1512.0657362373693,1350,1500.0
4.402245044708252,168,113.2115,2042.7713811279914,1504.24,1512.367623633595,1350,1500.0
4.4286110401153564,167,113.188,2052.8342943355187,1499.5799999999999,1512.7422384480026,1346.84988,1500.0
4.455491065979004,166,113.235,2052.8342943355187,1492.6900000000001,1512.4677953605246,1338.5728799999999,1500.0
4.484981060028076,164,117.3525,2062.8972075430456,1481.1400000000001,1511.9367479862547,1317.82484,1500.0
4.511430025100708,163,118.423,2084.0822879799448,1480,1512.6950775700755,1293.538,1500.0
4.5377960205078125,162,120.5405,2117.625332005035,1480,1514.5153093107958,1266.2040400000001,1500.0
4.564877033233643,161,122.5875,2138.8104124419342,1480,1516.5861509235026,1250,1500.0
4.594343185424805,159,123.658,2138.8104124419342,1480,1518.8635470704694,1250,1500.0
4.620301008224487,158,123.6815,2138.8104124419342,1480,1520.8390558212102,1250,1500.0
4.645405054092407,156,122.658,2138.8104124419342,1480,1521.2415723495112,1250,1500.0
4.670557022094727,155,121.5875,2128.7474992344069,1480,1519.2843357306472,1250,1500.0
4.695649147033691,154,121.564,2118.6845860268795,1480,1516.0559942855693,1250,1500.0
4.720872163772583,152,121.517,2109.5364831109459,1480,1512.5573263993256,1253.8117199999999,1500.0
4.746150016784668,150,119.4935,2099.4735699034186,1480,1509.0545418667696,1270.87808,1500.0
4.771454095840454,150,119.47,2069.1403865505863,1480,1505.1860980310817,1281.2566000000002,1500.0
4.79662013053894,149,119.47,2035.5973425254961,1480,1501.9069846148202,1285.72972,1500.0
4.821943998336792,149,119.4935,2005.2641591726635,1480,1498.9716472765576,1287.29108,1500.0
4.847156047821045,148,119.517,1995.2012459651364,1480,1496.3745249326792,1287.2311200000001,1500.0
4.872512102127075,147,119.5405,1985.1383327576091,1480,1494.0792899850264,1281.43956,1500.0
4.897989988327026,146,119.564,1985.1383327576091,1480,1493.6493291479776,1276.9403200000002,1500.0
4.923488140106201,145,119.5405,1995.2012459651364,1480,1495.2772340618681,1273.9872,1500.0
4.949021100997925,145,118.4465,2005.2641591726635,1480,1498.7251299769282,1273.9918,1500.0
4.974584102630615,144,114.3995,2014.4122620885973,1480,1502.7726840381281,1283.4974,1500.0
4.999979019165039,144,114.376,2014.4122620885973,1480,1507.080959032432,1291.0264,1500.0
5.025345087051392,143,114.376,2014.4122620885973,1480,1510.479238526151,1298.6249599999999,1500.0
5.05072808265686,143,114.3995,2014.4122620885973,1480,1512.2674519066657,1306.0956799999999,1500.0
5.07591700553894,142,115.3995,2014.4122620885973,1480,1512.5418949941436,1307.8594399999999,1500.0
5.1010661125183105,142,115.423,2014.4122620885973,1480,1511.9655645104399,1299.3976,1500.0
5.126282215118408,141,116.4935,2005.2641591726635,1480,1510.7717370799105,1288.04008,1500.0
5.151533126831055,141,117.5405,2005.2641591726635,1480,1509.6190761125029,1275.17112,1500.0
5.176915168762207,141,120.611,1986.0531430492028,1480,1508.1055224850616,1255.5502000000001,1500.0
5.202131032943726,141,121.705,1966.8421269257421,1480,1506.3175257701423,1250,1500.0
5.227184057235718,140,122.7285,1957.6940240098083,1480,1504.574812164657,1250,1500.0
5.25225305557251,140,122.752,1948.5459210938745,1480,1503.1065416466497,1250,1500.0
5.277904987335205,140,122.752,1932.5367409909904,1480,1501.1271208782143,1250,1500.0
5.3030312061309814,141,122.752,1907.379457972173,1480,1499.5044761235008,1250,1500.0
5.328428030014038,142,122.752,1899.0268422663205,1484.0699999999999,1498.8595348679273,1250,1500.0
5.353833198547363,143,122.752,1873.8695592475028,1495.3,1497.9331402938371,1250,1500.0
5.379106044769287,144,121.7285,1865.5169435416506,1506.5899999999999,1497.1062313389577,1254.84356,1500.0
5.404540061950684,146,120.6815,1848.0162249198643,1520,1496.6736851684761,1266.16912,1500.0
5.429975986480713,148,120.5875,1848.0162249198643,1520,1497.2529987292178,1272.3105599999999,1500.0
5.455249071121216,149,118.5405,1839.6636092140118,1520,1497.4689735067548,1282.2554400000001,1500.0
5.4804160594940186,151,117.47,1831.3109935081593,1520,1498.6693637067674,1291.1780799999999,1500.0
5.5056140422821045,153,116.3525,1831.3109935081593,1520,1500.1340545323294,1298.8685599999999,1500.0
5.530778169631958,154,113.282,1831.3109935081593,1520,1502.1685130721121,1310.39256,1500.0
5.555963039398193,154,113.2585,1838.9675579051909,1520,1503.7124045930277,1318.0308,1500.0
5.581207036972046,154,113.2585,1838.9675579051909,1520,1505.4724200453322,1319.90924,1500.0
5.606540203094482,154,114.3055,1846.6241223022225,1520,1507.2430254211213,1316.0262,1500.0
5.631759166717529,155,117.423,1846.6241223022225,1520,1508.7285977859478,1303.4323200000001,1500.0
5.656995058059692,155,119.517,1838.9675579051909,1520,1509.4249971204233,1281.8778,1500.0
5.68216609954834,156,121.611,1822.9583778023068,1520,1509.144140417314,1257.36996,1500.0
5.707352161407471,156,121.611,1815.3018134052752,1519.46,1508.4205950817945,1250,1500.0
5.73275899887085,156,121.6345,1800.6012097629748,1517.4100000000001,1506.5143611254048,1250,1500.0
5.7582221031188965,155,122.6345,1784.5920296600907,1512.8699999999999,1504.1219631718559,1250,1500.0
5.783407211303711,155,121.6345,1777.5479904148219,1510.7,1502.0179810386303,1250,1500.0
5.8087592124938965,155,122.658,1769.8914260177903,1504.1300000000001,1500.8717933483947,1250,1500.0
5.8343729972839355,154,122.658,1748.6886323029339,1495.1300000000001,1499.487957678605,1250,1500.0
5.859748125076294,154,122.658,1727.4858385880775,1486.3299999999999,1498.5797713478187,1250,1500.0
5.885033130645752,154,121.6345,1712.7852349457771,1484.0999999999999,1498.2203775692628,1259.3795600000001,1500.0
5.910557985305786,155,121.6345,1705.7411957005083,1484.3,1497.8770625759407,1262.25936,1500.0
5.936728000640869,155,120.5875,1698.6971564552393,1486.47,1497.301544865996,1267.9212,1500.0
5.962438106536865,157,121.5875,1698.6971564552393,1497.9000000000001,1497.8001960236354,1269.6866399999999,1500.0
5.987879037857056,159,120.611,1698.6971564552393,1513.79,1499.1299966948973,1275.1980800000001,1500.0
6.013297080993652,160,122.658,1698.6971564552393,1520,1500.8615581816105,1269.9078400000001,1500.0
6.038532018661499,161,123.6815,1721.7503758033922,1520,1503.5997769131932,1265.7319600000001,1500.0
6.064057111740112,163,122.6815,1714.7063365581234,1520,1506.1841822265526,1261.1007199999999,1500.0
6.0895280838012695,165,121.6815,1721.2085266306792,1520,1508.3885274625729,1260.70948,1500.0
6.114859104156494,166,123.6815,1734.7547559485042,1520,1510.3948739432863,1251.1040399999999,1500.0
6.140237092971802,169,123.6815,1741.7987951937732,1520,1512.1422636367622,1251.02216,1500.0
6.165592193603516,173,121.6815,1735.2966051212175,1520,1512.0391152578839,1259.08608,1500.0
6.19075608253479,175,121.705,1735.2966051212175,1520,1512.1765479116902,1263.31188,1500.0
6.215911149978638,176,122.752,1721.7503758033927,1520,1511.4565042496781,1260.6418000000001,1500.0
6.241206169128418,180,123.8225,1728.7944150486614,1520,1510.2276642144886,1263.3300400000001,1500.0
6.266488075256348,186,123.8695,1721.7503758033927,1520,1508.3014642940175,1264.3948800000001,1500.0
6.291666030883789,190,124.94,1713.3977600975402,1520,1507.2005252930962,1255.69804,1500.0
6.316810131072998,193,125.0105,1728.0983637398408,1520,1506.4330227111523,1250,1500.0
6.342315196990967,197,126.0575,1751.1515830879937,1520,1507.4025429415756,1250,1500.0
6.367462158203125,200,126.1045,1776.3088661068111,1520,1509.1199944739001,1250,1500.0
6.392695188522339,206,127.1515,1811.5290623331559,1520,1512.573298534523,1250,1500.0
6.417956113815308,209,127.222,1871.4176551066976,1520,1518.240359402989,1250,1500.0
6.442943096160889,211,128.2925,1913.6818905783111,1520,1524.2140015092066,1250,1500.0
6.4682371616363525,214,128.3395,1962.4483161224805,1520,1529.8903161966521,1250,1500.0
6.493951082229614,218,127.3865,2008.7906795781971,1520,1535.6478777045998,1250,1500.0
6.519973993301392,219,127.41,2062.1770822791827,1520,1540.714196519242,1250,1500.0
6.545070171356201,220,127.457,2089.7407141084959,1520,1542.6473277822533,1250,1500.0
6.570235013961792,220,126.4805,2107.2414327302822,1520,1542.9653614754563,1254.20364,1500.0
6.595380067825317,223,127.5745,2098.8888170244295,1520,1540.6820877408038,1257.0959599999999,1500.0
6.6206769943237305,225,127.598,2081.3880984026432,1520,1535.8068026675976,1258.5067200000001,1500.0
6.646797180175781,227,126.598,2039.1238629310296,1520,1527.40557642915,1261.22756,1500.0
6.672124147415161,228,124.5275,1985.7374602300442,1520,1517.4955482305879,1268.2502399999998,1500.0
6.697354078292847,230,123.457,1936.9710346858749,1520,1506.361201109748,1271.42436,1500.0
6.722726106643677,232,118.3395,1871.3886003333712,1520,1495.1478586273715,1289.8233599999999,1500.0
6.748404026031494,233,117.2925,1799.8889538588369,1520,1484.2032133171886,1306.20732,1500.0
6.773736000061035,234,115.222,1723.1843522769609,1520,1475.0714538708926,1323.9690399999999,1500.0
6.798988103866577,236,114.1985,1652.7439598242715,1520,1470,1336.0868800000001,1500.0
6.824266195297241,238,110.1515,1592.3664805791093,1520,1470,1350,1500.0
6.849521160125732,239,108.081,1549.4897199557331,1520,1470,1350,1500.0
6.87493109703064,239,105.0105,1502.0684178837964,1520,1470,1350,1500.0
6.899998188018799,240,102.9165,1469.3477194541601,1520,1470,1350,1500.0
6.925037145614624,240,98.846,1428.3642183907773,1520,1470,1350,1500.0
6.950047016143799,239,96.7755,1390.1160414933893,1520,1470,1350,1500.0
6.975525140762329,238,94.7285,1368.6838734043358,1520,1471.6797815542659,1350,1500.0
7.000531196594238,237,93.705,1342.0467502079407,1520,1475.6938805488576,1350,1500.0
7.0256571769714355,236,92.705,1313.7086612901921,1520,1478.5122863884928,1350,1500.0
7.050917148590088,233,90.6815,1293.5828348751379,1509.3699999999999,1481.1096709071608,1350,1500.0
7.076305150985718,232,89.6345,1273.4570084600839,1491.3900000000001,1483.5868468698654,1350,1500.0
7.101582050323486,230,88.5405,1253.3311820450297,1480,1485.4598753067605,1350,1500.0
7.126780986785889,228,87.47,1237.7498970785362,1480,1487.0615039608047,1350,1500.0
7.151897192001343,221,86.376,1222.1686121120426,1480,1488.91435844803,1350,1500.0
7.177131175994873,217,86.2585,1214.8501297792959,1480,1490.5628856301266,1350,1500.0
7.202502012252808,214,86.235,1214.8501297792959,1480,1492.3044502607022,1350,1500.0
7.2276740074157715,211,87.2585,1218.6169956858569,1480,1494.7405563072857,1350,1500.0
7.252787113189697,204,90.3055,1218.6169956858569,1480,1497.2954748593875,1333.8520000000001,1500.0
7.278156995773315,203,91.3525,1229.2897824211127,1480,1500.3033389843126,1316.8219999999999,1500.0
7.303351163864136,199,92.3995,1236.6082647538597,1480,1503.3509973569221,1300.7072800000001,1500.0
7.328636169433594,197,92.4465,1243.9267470866066,1480,1506.0144354070624,1287.0830000000001,1500.0
7.3540661334991455,194,95.517,1247.4783635127926,1480,1507.9376843065636,1269.7626399999999,1500.0
7.3796000480651855,186,100.658,1258.7991408712605,1480,1509.7680792020192,1252.5421200000001,1500.0
7.4048850536346436,182,102.6815,1270.1199182297285,1480,1510.8302916651187,1250,1500.0
7.430149078369141,177,102.5405,1285.701203196222,1480,1511.7204515515018,1250,1500.0
7.455172061920166,171,100.3525,1297.7308717365295,1480,1512.5164102802116,1250,1500.0
7.480279207229614,159,96.0235,1315.3961739190222,1480,1513.7675974174117,1250,1500.0
7.505617141723633,152,94.8355,1336.8283420080757,1480,1514.9994538523547,1273.7611200000001,1500.0
7.530872106552124,147,92.6475,1354.4936441905681,1480,1516.3852554167427,1306.2431200000001,1500.0
7.556120157241821,141,89.248,1382.9544088179175,1480,1517.9581368729457,1343.25548,1500.0
7.581326007843018,137,87.0835,1423.9379098813004,1480,1520.3146500325763,1350,1500.0
7.606338024139404,130,90.107,1483.3888804935445,1480,1523.5844262853802,1350,1500.0
7.631160020828247,128,96.248,1543.4233058793593,1480,1527.7115540816505,1350,1500.0
7.656114101409912,128,103.4595,1603.4577312651741,1480,1532.9194198292996,1326.10168,1500.0
7.681058168411255,129,109.8825,1659.2316490429635,1480,1538.5411234974001,1270.6025999999999,1500.0
7.70603609085083,129,122.1645,1698.996386717869,1480,1543.1856079776912,1250,1500.0
7.730924129486084,129,127.4465,1745.367804946912,1480,1546.2138658960873,1250,1500.0
7.755663156509399,128,128.799,1924.7385655691446,1480,1550,1250,1500.0
7.780018091201782,,,1924.7385655691446,1516.3699999999999,1550,1250,1500.0
7.804176092147827,,,1924.7385655691446,1520,1550,1250,1500.0
7.828311204910278,,,1924.7385655691446,1520,1550,1250,1500.0
7.852322101593018,,,1924.7385655691446,1520,1550,1339.0427999999999,1500.0
7.876327037811279,,,1924.7385655691446,1520,1550,1350,1500.0
7.900214195251465,,,1924.7385655691446,1520,1550,1350,1500.0
7.924203157424927,,,1924.7385655691446,1520,1543.0569172829823,1350,1500.0
7.948351144790649,,,1924.7385655691446,1520,1529.3168088845182,1350,1500.0
7.972491979598999,,,1924.7385655691446,1520,1516.9678430329257,1339.1666399999999,1500.0
7.997183084487915,115,133.9635,2624.2845319958524,1480,1526.1213163538569,1250,1500.0
8.02185606956482,116,130.9165,3313.035035977703,1480,1550,1250,1500.0
8.046487092971802,114,131.8695,4200.583980881589,1480,1550,1250,1500.0
8.071038007736206,112,131.846,5073.4323221431741,1480,1550,1250,1500.0
8.095509052276611,,,5073.4323221431741,1480,1550,1250,1500.0
8.119454145431519,,,5073.4323221431741,1480,1550,1250,1500.0
8.143446207046509,,,5073.4323221431741,1483.51,1550,1296.48648,1500.0
8.167813062667847,,,5073.4323221431741,1520,1487.4858631986408,1350,1500.0
8.191830158233643,,,5073.4323221431741,1520,1470,1350,1500.0
8.216011047363281,,,5073.4323221431741,1520,1470,1350,1500.0
8.24027705192566,105,118.7285,5585.7260854354599,1520,1470,1350,1500.0
8.265092134475708,104,116.6345,6098.0198487277466,1480,1550,1315.7689599999999,1500.0
8.290235042572021,102,115.5875,6509.6844799447617,1480,1550,1251.23684,1500.0
8.315021991729736,101,114.564,6861.8864422082088,1480,1550,1250,1500.0
8.339725017547607,100,114.564,7273.5510734252239,1480,1550,1250,1500.0
8.364212989807129,,,7273.5510734252239,1480,1550,1250,1500.0
8.388309001922607,,,7273.5510734252239,1480,1550,1283.70336,1500.0
8.412723064422607,95,116.658,8357.2494188512137,1480,1550,1283.3712399999999,1500.0
8.43730115890503,,,8357.2494188512137,1520,1470,1344.14004,1500.0
8.461400032043457,,,8357.2494188512137,1520,1470,1350,1500.0
8.485465049743652,,,8357.2494188512137,1520,1470,1350,1500.0
8.509801149368286,93,119.6815,8920.7725584727268,1520,1504.1339759654998,1284.8663999999999,1500.0
8.534637212753296,92,118.658,8920.7725584727268,1520,1470,1284.67048,1500.0
8.559563159942627,91,117.6345,9272.9745207361739,1480,1550,1250,1500.0
8.584218978881836,90,117.5875,9272.9745207361739,1480,1550,1250,1500.0
8.609033107757568,88,116.517,9413.8553056415531,1480,1550,1250,1500.0
8.633771181106567,87,114.4935,9554.7360905469322,1480,1550,1250,1500.0
8.658441066741943,86,117.4935,9655.3652226222021,1480,1550,1250,1500.0
8.683180093765259,85,118.5405,9972.3469886593048,1480,1550,1250,1500.0
8.707935094833374,85,117.611,9720.7741584711293,1480,1550,1257.0065199999999,1500.0
8.732795000076294,83,118.6815,8576.1177811149282,1480,1550,1275.06816,1500.0
8.757774114608765,82,120.799,7378.6311094192088,1480,1499.5350079169827,1256.39156,1500.0
8.78256607055664,82,121.846,6725.4565612215447,1480,1470,1250,1500.0
8.80741810798645,81,121.8695,5508.7588734023657,1480,1470,1250,1500.0
8.83237910270691,81,119.893,4621.2099284984806,1480,1470,1250,1500.0
8.857083082199097,82,121.893,3916.806003971587,1480,1470,1250,1500.0
8.881765127182007,83,120.9165,3207.857537996133,1480,1470,1250,1500.0
8.906550168991089,84,120.893,2639.7898569260578,1480,1470,1255.62888,1500.0
8.931249141693115,84,121.846,1911.9058015816015,1480,1470,1259.04656,1500.0
8.956102132797241,85,120.7755,1677.1044934059705,1481.6099999999999,1470,1262.1638800000001,1500.0
8.980863094329834,88,116.705,1537.2595966248959,1497.76,1470,1278.8868400000001,1500.0
9.005649089813232,90,115.6815,1450.2449941833388,1511.5999999999999,1470,1287.81324,1500.0
9.03065299987793,93,115.6815,1382.4414078652421,1520,1470,1294.02172,1500.0
9.055982112884521,95,115.705,1314.6378215471454,1520,1470,1302.8045999999999,1500.0
9.081078052520752,97,115.7755,1277.6566155094836,1520,1470,1311.1202000000001,1500.0
9.105881214141846,100,117.846,1277.6566155094836,1520,1470,1299.93688,1500.0
9.130712032318115,101,118.893,1282.2011569580441,1520,1470,1286.93632,1500.0
9.155565023422241,101,119.9635,1286.7456984066048,1520,1470,1272.3979999999999,1500.0
9.180291175842285,100,120.987,1315.0837873243534,1520,1478.541043845401,1255.2119600000001,1500.0
9.205247163772583,100,122.034,1343.4218762421019,1520,1492.6249594044041,1250,1500.0
9.230132102966309,98,124.081,1375.649506776012,1520,1503.4978599132648,1250,1500.0
9.254798173904419,97,125.081,1413.8976836734,1490.8599999999999,1512.6621876275226,1250,1500.0
9.279580116271973,95,125.1045,1452.1458605707878,1480,1520.6671805722453,1250,1500.0
9.304437160491943,94,126.128,1503.9402667860006,1480,1526.5525708107471,1250,1500.0
9.329334020614624,92,126.128,1547.9655120689315,1480,1530.9140356673465,1250,1500.0
9.354254007339478,92,126.128,1576.1416690500071,1480,1534.1158065039854,1250,1500.0
9.379221200942993,92,126.128,1597.8156359585269,1480,1535.7799821221668,1250,1500.0
9.404039144515991,92,126.1045,1619.4896028670469,1480,1535.9358223772174,1250,1500.0
9.428867101669312,92,125.081,1636.305611675381,1480,1534.3167603796869,1250,1500.0
9.453726053237915,93,124.0575,1653.1216204837153,1480,1531.4108065969631,1259.60304,1500.0
9.478743076324463,94,123.081,1653.1216204837153,1480,1527.7054402717545,1267.9464399999999,1500.0
9.50359320640564,94,123.1045,1647.1010741202376,1480,1523.6393723894164,1273.6959999999999,1500.0
9.528570175170898,95,124.128,1641.0805277567597,1480.0999999999999,1519.2396954085843,1276.6739600000001,1500.0
9.553758144378662,96,125.222,1627.5342984389349,1493.5599999999999,1514.9446376328792,1273.7341999999999,1500.0
9.578963041305542,98,127.269,1620.4902591936659,1502.9400000000001,1510.7793153651305,1263.83736,1500.0
9.604168176651001,99,128.3395,1620.4902591936659,1509.95,1507.4909759834179,1250.8366000000001,1500.0
9.629178047180176,101,129.3865,1626.9924492662219,1520,1505.4384139482727,1250,1500.0
9.654359102249146,102,130.4335,1633.4946393387779,1520,1504.5923694043684,1250,1500.0
9.679504156112671,106,132.4805,1639.9968294113339,1520,1505.2586445859602,1250,1500.0
9.70431900024414,109,132.457,1639.9968294113339,1520,1506.8227825311915,1250,1500.0
9.72921109199524,111,131.363,1652.5195658473676,1520,1508.8189548834662,1250,1500.0
9.754135131835938,114,130.316,1665.0423022834013,1520,1510.6200615335642,1250,1500.0
9.778966188430786,117,129.269,1677.5650387194351,1520,1512.2261024814857,1250,1500.0
9.803883075714111,122,128.1985,1691.1112680372601,1520,1513.4466177430215,1250,1500.0
9.828700065612793,124,127.1515,1698.1553072825288,1520,1514.6378731492312,1264.961,1500.0
9.85372805595398,125,126.081,1691.6531172099731,1520,1514.8217406351719,1277.9636399999999,1500.0
9.878647089004517,127,125.0575,1691.6531172099731,1520,1514.4785694924535,1288.0282,1500.0
9.903614044189453,128,125.034,1691.6531172099731,1520,1513.5790998657501,1292.5710799999999,1500.0
9.928798198699951,133,124.0105,1685.1509271374173,1520,1511.8375966246504,1294.00648,1500.0
9.953808069229126,135,123.9635,1685.1509271374173,1520,1509.7027108841612,1291.43812,1500.0
9.979092121124268,136,122.9165,1678.6487370648615,1520,1508.1093130836032,1290.0678800000001,1500.0
10.004059076309204,138,121.8695,1672.1465469923055,1520,1506.6965316739495,1288.7634400000002,1500.0
10.028932094573975,141,119.8225,1665.6443569197497,1520,1505.4643666552001,1292.9648,1500.0
10.053970098495483,143,118.7755,1658.6003176744809,1520,1504.8149604217037,1296.0639200000001,1500.0
10.078904151916504,145,118.752,1651.5562784292119,1520,1504.1655541882071,1299.261,1500.0
10.103840112686157,146,118.752,1665.1025077470367,1520,1504.210256744956,1300.95416,1500.0
10.128976106643677,147,118.752,1672.1465469923055,1520,1504.8271520280896,1301.1076800000001,1500.0
10.154060125350952,149,118.752,1679.1905862375745,1520,1506.0454998929349,1295.5615600000001,1500.0
10.179055213928223,150,118.752,1700.3933799524307,1520,1508.1912226168783,1288.4757999999999,1500.0
10.20415711402893,151,117.7285,1721.5961736672871,1520,1511.3956715069835,1284.0902000000001,1500.0
10.229113101959229,152,116.658,1742.7989673821435,1520,1514.2283647472884,1282.7264399999999,1500.0
10.254063129425049,154,115.611,1756.345196699968,1520,1516.8152822704485,1284.2660799999999,1500.0
10.27892518043518,156,115.611,1762.8473867725238,1520,1518.9478592622886,1287.3332399999999,1500.0
10.303806066513062,157,115.6345,1762.8473867725238,1520,1519.567687598553,1291.7622799999999,1500.0
10.32883620262146,158,115.658,1762.8473867725238,1520,1518.7040271345679,1293.3236399999998,1500.0
10.354004144668579,159,116.6815,1755.803347527255,1520,1516.7315665732642,1289.2137600000001,1500.0
10.37912106513977,159,117.705,1742.2571182094302,1520,1513.722006695388,1280.6984400000001,1500.0
10.403979063034058,160,117.705,1742.2571182094302,1520,1510.5945946224467,1273.4113200000002,1500.0
10.428832054138184,160,116.6815,1727.5565145671299,1520,1507.5960955352919,1268.89204,1500.0
10.453725099563599,160,116.658,1706.3537208522735,1520,1504.5683365928103,1264.66436,1500.0
10.47885799407959,160,115.6345,1691.6531172099731,1520,1502.1875455625482,1267.4322,1500.0
10.503720045089722,160,115.6345,1684.6090779647043,1520,1500.8490485333189,1273.2615599999999,1500.0
10.528873205184937,160,115.6345,1684.6090779647043,1515.1900000000001,1499.7373153828698,1279.0909200000001,1500.0
10.554006099700928,160,115.6345,1684.6090779647043,1508.6800000000001,1499.5076184509589,1282.02252,1500.0
10.57900619506836,160,115.658,1684.6090779647043,1504.3399999999999,1500.5500891419392,1284.79432,1500.0
10.604076147079468,161,116.6815,1678.1068878921483,1504.5999999999999,1502.0389493165965,1280.6345200000001,1500.0
10.629123210906982,161,116.6815,1684.6090779647043,1504.6600000000001,1503.7976503792647,1276.31096,1500.0
10.65408205986023,161,116.6815,1671.062848646879,1506.8900000000001,1505.0597466751417,1271.9874,1500.0
10.679031133651733,161,116.6815,1664.5606585743233,1509.1199999999999,1505.7174573361765,1269.0558000000001,1500.0
10.704325199127197,161,116.6815,1664.5606585743233,1511.3499999999999,1505.7683440410922,1266.2219600000001,1500.0
10.729557037353516,160,117.705,1658.0584685017675,1506.75,1505.5440184835888,1264.9438399999999,1500.0
10.754601001739502,161,117.7285,1651.5562784292117,1504.78,1504.5231746421975,1264.83188,1500.0
10.779718160629272,161,118.752,1645.0540883566559,1502.6099999999999,1504.1200388576992,1262.0460800000001,1500.0
10.804830074310303,161,119.8225,1638.5518982840999,1500.4400000000001,1503.9119687753773,1257.66236,1500.0
10.829928159713745,161,122.893,1632.0497082115439,1498.27,1503.508832990879,1250,1500.0
10.854881048202515,161,123.9635,1638.5518982840999,1502.6700000000001,1503.5543483213869,1250,1500.0
10.879642009735107,161,124.987,1638.5518982840999,1502.6700000000001,1504.1558009030982,1250,1500.0
10.904688119888306,161,125.0105,1645.0540883566559,1502.6700000000001,1504.9653235671315,1250,1500.0
10.930114030838013,161,124.987,1651.5562784292117,1502.6700000000001,1506.164977635518,1250,1500.0
10.955205202102661,161,122.94,1658.0584685017675,1502.6700000000001,1507.9498288104346,1250,1500.0
10.980154991149902,161,121.846,1671.6046978195925,1500.5,1509.5875679349597,1250,1500.0
11.005177021026611,161,120.799,1685.1509271374175,1500.5,1511.4366282368428,1258.77088,1500.0
11.030266046524048,162,119.752,1691.6531172099735,1502.9300000000001,1512.8638589577688,1276.1110799999999,1500.0
11.055204153060913,162,119.7285,1698.1553072825293,1505.1600000000001,1513.9009582743415,1290.73524,1500.0
11.080246210098267,163,119.7285,1704.6574973550851,1509.8199999999999,1514.5479261865607,1295.42372,1500.0
11.105324983596802,164,119.705,1711.7015366003538,1516.71,1514.7909455405224,1295.65516,1500.0
11.130271196365356,164,119.705,1718.7455758456229,1520,1514.4325123127728,1291.53484,1500.0
11.155156135559082,164,119.705,1725.7896150908916,1520,1514.0903345602046,1284.4509600000001,1500.0
11.180008172988892,165,118.6815,1725.7896150908916,1520,1513.5213929288559,1280.0352800000001,1500.0
11.20488715171814,165,118.6815,1725.7896150908916,1520,1512.7573855953306,1277.1753200000001,1500.0
11.229629039764404,164,118.658,1718.7455758456229,1520,1511.7341034326621,1275.79944,1500.0
11.254558086395264,164,118.6345,1718.7455758456229,1517.3099999999999,1510.7262639714161,1275.88132,1500.0
11.279664993286133,165,117.6345,1718.7455758456229,1515.4000000000001,1509.4908478576303,1279.99892,1500.0
11.304864168167114,165,118.6815,1718.7455758456229,1508.8900000000001,1508.4504974460215,1277.3186000000001,1500.0
11.329868078231812,165,118.705,1718.7455758456229,1504.55,1507.6052127365892,1275.8326400000001,1500.0
11.354916095733643,165,119.7285,1711.7015366003538,1506.78,1507.1508722052693,1271.6389999999999,1500.0
11.379798173904419,165,119.7285,1704.6574973550851,1509.01,1506.6965316739495,1268.6077600000001,1500.0
11.40483808517456,165,119.7285,1697.6134581098163,1506.8399999999999,1506.2421911426297,1262.7765199999999,1500.0
11.42982006072998,165,118.7285,1697.6134581098163,1506.8399999999999,1505.8195487879136,1263.9088400000001,1500.0
11.454846143722534,166,118.6815,1704.6574973550851,1509.27,1505.6399257871592,1264.0310400000001,1500.0
11.47975206375122,166,117.6345,1704.6574973550851,1509.3299999999999,1505.6399257871592,1269.7586799999999,1500.0
11.504786014556885,166,116.5875,1697.6134581098163,1509.3900000000001,1505.8195487879136,1277.0259599999999,1500.0
11.529998064041138,166,116.5875,1704.6574973550851,1511.6199999999999,1506.6965316739495,1284.3968399999999,1500.0
11.55498218536377,166,116.5875,1711.7015366003538,1513.8499999999999,1507.7848357373434,1287.5437999999999,1500.0
11.580022096633911,166,116.5875,1718.7455758456229,1511.6800000000001,1508.6618186233795,1290.5272,1500.0
11.604945182800293,166,116.611,1718.7455758456229,1509.51,1509.2957821554537,1289.125,1500.0
11.629859209060669,167,116.6345,1718.7455758456229,1509.77,1510.1410668648859,1284.7573599999998,1500.0
11.654841184616089,168,117.6345,1725.7896150908916,1512.26,1510.5954073962057,1277.77792,1500.0
11.679908990859985,168,116.6345,1725.7896150908916,1514.55,1510.5954073962057,1275.99848,1500.0
11.7048921585083,168,116.6345,1718.7455758456229,1519.01,1510.1410668648859,1273.08296,1500.0
11.72982406616211,168,116.6345,1718.7455758456229,1520,1509.7184245101698,1271.65716,1500.0
11.75477409362793,168,116.611,1718.7455758456229,1520,1509.0844609780956,1271.7831200000001,1500.0
11.779828071594238,168,116.611,1711.7015366003538,1519.1900000000001,1507.9961569147015,1274.6808799999999,1500.0
11.804933071136475,168,116.611,1704.6574973550851,1514.8499999999999,1506.9078528513076,1274.77864,1500.0
11.82981014251709,168,116.611,1697.6134581098163,1510.51,1506.2421911426297,1274.8764000000001,1500.0
11.854849100112915,168,116.611,1697.6134581098163,1506.1700000000001,1505.6082276105553,1274.9422,1500.0
11.88004207611084,167,116.6345,1697.6134581098163,1501.5699999999999,1504.9742640784812,1274.8481999999999,1500.0
11.904968023300171,167,117.6345,1690.5694188645473,1499.3399999999999,1504.7312447245195,1270.7824000000001,1500.0
11.929975986480713,167,117.658,1690.5694188645473,1497.1099999999999,1504.9425659018775,1269.2145599999999,1500.0
11.955357074737549,167,117.658,1690.5694188645473,1494.8800000000001,1505.3652082565936,1267.6749199999999,1500.0
11.980285167694092,167,117.658,1690.5694188645473,1492.6500000000001,1505.7878506113098,1266.13528,1500.0
12.005091190338135,167,117.6345,1690.5694188645473,1494.8199999999999,1506.2104929660259,1264.7554399999999,1500.0
12.029942035675049,167,117.6345,1690.5694188645473,1496.99,1506.8444564981,1266.1474000000001,1500.0
12.05492615699768,167,117.658,1690.5694188645473,1499.1600000000001,1507.2670988528164,1267.54312,1500.0
12.079926013946533,167,117.658,1690.5694188645473,1501.3299999999999,1507.4784200301744,1268.96704,1500.0
12.105035066604614,168,117.6345,1690.5694188645473,1505.9300000000001,1507.6897412075325,1270.453,1500.0
12.12991714477539,168,117.6345,1690.5694188645473,1508.1600000000001,1507.9010623848906,1271.8129999999999,1500.0
12.15487813949585,168,117.658,1690.5694188645473,1510.3900000000001,1507.9010623848906,1271.7509600000001,1500.0
12.180109024047852,167,117.6345,1690.5694188645473,1510.1900000000001,1507.9010623848903,1271.8130000000001,1500.0
12.20526909828186,167,116.6345,1690.5694188645473,1510.1900000000001,1507.9010623848903,1274.48684,1500.0
12.230281114578247,167,116.611,1690.5694188645473,1505.79,1507.9010623848903,1275.9569200000001,1500.0
12.255081176757812,167,116.611,1697.6134581098163,1501.3900000000001,1508.1440817388523,1277.43076,1500.0
12.279965162277222,167,115.5875,1697.6134581098163,1496.99,1508.3554029162103,1281.6724400000001,1500.0
12.304946184158325,167,115.564,1704.6574973550851,1496.99,1508.8097434475301,1284.6502,1500.0
12.330068111419678,167,114.5405,1704.6574973550851,1496.99,1509.2323858022462,1287.5018,1500.0
12.354969024658203,168,114.5405,1704.6574973550851,1501.5899999999999,1509.6550281569623,1289.0913600000001,1500.0
12.379848003387451,168,114.5405,1704.6574973550851,1505.99,1509.6550281569623,1290.68092,1500.0
12.405009984970093,168,113.517,1704.6574973550851,1510.3900000000001,1509.6550281569625,1292.0747600000002,1500.0
12.430068016052246,169,113.4935,1704.6574973550851,1515.05,1509.2323858022462,1292.2686000000001,1500.0
12.455315113067627,170,113.4935,1704.6574973550851,1520,1508.8097434475301,1290.9284400000001,1500.0
12.480070114135742,170,113.4935,1711.7015366003538,1520,1508.6301204467759,1289.62024,1500.0
12.50480604171753,170,112.47,1704.6574973550851,1520,1508.387101092814,1291.0140799999999,1500.0
12.529735088348389,171,112.47,1704.6574973550851,1520,1508.1757799154559,1289.70588,1500.0
12.554939985275269,171,112.4465,1697.6134581098163,1520,1507.9327605614942,1288.42588,1500.0
12.579896211624146,172,111.423,1704.6574973550851,1520,1507.9644587380978,1291.2116799999999,1500.0
12.604790210723877,172,110.376,1704.6574973550851,1520,1507.5418163833817,1295.5333599999999,1500.0
12.62966513633728,172,110.376,1704.6574973550851,1520,1507.5418163833817,1295.7328399999999,1500.0
12.654640197753906,172,109.3525,1704.6574973550851,1520,1507.5418163833817,1300.0263199999999,1500.0
12.679450035095215,172,110.376,1698.1553072825293,1520,1507.7401331805947,1300.35572,1500.0
12.704307079315186,173,110.423,1698.1553072825293,1520,1507.5450674784181,1298.92344,1500.0
12.729305982589722,173,111.4465,1691.1112680372603,1519.3399999999999,1507.3183035996376,1291.91392,1500.0
12.75449514389038,173,112.4935,1684.6090779647045,1517.23,1506.6875911625998,1284.7604799999999,1500.0
12.779545068740845,173,112.4935,1684.6090779647045,1517.29,1506.0861385808882,1275.99764,1500.0
12.804882049560547,174,112.47,1678.1068878921487,1519.78,1505.439170668669,1270.1946,1500.0
12.829806089401245,174,111.4465,1664.560658574324,1519.8399999999999,1504.5654388776693,1268.58896,1500.0
12.854791164398193,174,111.3995,1658.0584685017682,1519.9000000000001,1503.9509819158127,1270.1689200000001,1500.0
12.879967212677002,175,110.376,1651.5562784292124,1520,1503.5315906561329,1277.3261199999999,1500.0
12.904980182647705,175,110.3525,1645.0540883566566,1520,1502.9171336942763,1284.70912,1500.0
12.929975032806396,176,109.3525,1645.0540883566566,1520,1502.5270022899231,1293.2461599999999,1500.0
12.955133199691772,177,109.329,1638.5518982841008,1520,1502.7253190871361,1297.71552,1500.0
12.979907035827637,176,109.3055,1632.0497082115448,1520,1502.9073804091677,1300.69516,1500.0
13.0051109790802,177,108.282,1632.0497082115448,1520,1503.3137672887024,1302.0589199999999,1500.0
13.029994010925293,177,108.2585,1625.5475181389888,1520,1503.8859600150872,1302.1907200000001,1500.0
13.05508804321289,178,108.3055,1619.5269717755111,1520,1504.0846380450819,1299.4022,1500.0
13.079998016357422,177,109.329,1613.5064254120334,1520,1504.086444208991,1295.2942,1500.0
13.104987144470215,178,110.376,1607.4858790485557,1520,1504.1026996841724,1289.6484399999999,1500.0
13.130117177963257,177,110.3995,1601.465332685078,1520,1503.7432730662726,1283.7231999999999,1500.0
13.15523910522461,177,112.4465,1595.4447863216005,1517.3,1503.3982957596454,1272.38824,1500.0
13.180207014083862,177,113.47,1583.8337326206079,1510.73,1503.0410623407784,1262.2992400000001,1500.0
13.205185174942017,176,113.47,1577.8131862571302,1508.3,1502.6945368936574,1256.3362,1500.0
13.230156183242798,176,113.47,1571.7926398936524,1499.5,1502.3335621352644,1253.33672,1500.0
13.255047082901001,175,113.4465,1560.1815861926598,1494.8399999999999,1501.9603312646313,1251.8570400000001,1500.0
13.280143022537231,175,112.4465,1554.1610398291821,1490.3800000000001,1501.5978083657449,1258.75272,1500.0
13.305217981338501,175,113.4465,1548.5705324916671,1488.0899999999999,1501.5855522535051,1264.6102800000001,1500.0
13.330485105514526,175,113.4465,1542.9800251541521,1488.03,1501.5861973120441,1270.2758799999999,1500.0
13.35568904876709,174,113.4465,1537.3895178166372,1487.71,1501.5997435413617,1274.51756,1500.0
13.380940198898315,174,113.423,1531.799010479122,1489.8199999999999,1501.9616213817094,1278.72352,1500.0
13.40585207939148,174,112.3995,1526.208503141607,1491.9300000000001,1502.3364003928359,1280.0193999999999,1500.0
13.430907011032104,175,112.3525,1526.208503141607,1496.47,1502.7234355162022,1281.6192000000001,1500.0
13.455811023712158,175,111.3055,1520.6179958040921,1498.6400000000001,1503.0724121857709,1285.92668,1500.0
13.480898141860962,176,109.2585,1515.0274884665771,1507.6400000000001,1503.4084876845609,1294.38184,1500.0
13.505879163742065,177,109.2115,1515.0274884665771,1516.7,1503.7568192955905,1300.47084,1500.0
13.530893087387085,178,109.2115,1509.4369811290621,1520,1504.0670924528226,1304.99764,1500.0
13.555620193481445,178,109.2585,1509.4369811290621,1520,1504.2348076729481,1307.90876,1500.0
13.580761194229126,178,110.282,1509.4369811290621,1520,1504.5702381131991,1305.2426399999999,1500.0
13.605682134628296,179,110.282,1509.4369811290621,1520,1505.0733837735754,1298.07312,1500.0
13.630518198013306,180,110.282,1509.4369811290621,1520,1505.4088142138262,1290.80396,1500.0
13.65525197982788,180,110.282,1509.4369811290621,1520,1505.9119598742027,1284.9267600000001,1500.0
13.680330038070679,181,109.2585,1504.2320260217205,1520,1506.2355345833757,1281.94712,1500.0
13.705449104309082,181,109.2115,1504.2320260217205,1520,1506.4148163704062,1282.15308,1500.0
13.730446100234985,182,108.188,1504.2320260217205,1520,1506.4263829373115,1287.7886000000001,1500.0
13.755364179611206,183,107.188,1499.0270709143788,1520,1506.2583785530135,1294.89984,1500.0
13.78013801574707,183,107.188,1493.8221158070371,1520,1505.7665102953697,1300.8110799999999,1500.0
13.805162191390991,183,107.1645,1488.6171606996954,1520,1505.4307906909462,1303.85464,1500.0
13.830042123794556,184,107.1645,1483.412205592354,1520,1504.9389224333024,1305.34644,1500.0
13.855099201202393,186,107.141,1478.2072504850123,1520,1504.2909055224384,1304.03448,1500.0
13.87990117073059,187,107.141,1473.0022953776706,1520,1503.7990372647946,1299.8943199999999,1500.0
13.904905080795288,187,107.1645,1467.797340270329,1520,1503.4633176603709,1295.6921199999999,1500.0
13.930126190185547,188,107.141,1467.797340270329,1520,1503.3071690071508,1292.9063200000001,1500.0
13.955034017562866,189,107.141,1462.5923851629873,1520,1503.2837467091676,1290.15624,1500.0
13.980120182037354,190,108.141,1452.5294719554604,1520,1503.2488735099485,1286.09232,1500.0
14.004945993423462,190,107.141,1452.5294719554604,1520,1503.4154320733835,1287.2284,1500.0
14.02996301651001,191,107.094,1447.671513855275,1520,1503.5705397355823,1287.35436,1500.0
14.05508804321289,192,106.0705,1442.8135557550893,1520,1503.4237600015551,1290.09212,1500.0
14.080162048339844,193,105.047,1442.8135557550893,1520,1503.4549897321992,1294.3037200000001,1500.0
14.104990005493164,194,105.0,1437.9555976549038,1520,1503.7662460476183,1300.24316,1500.0
14.129836082458496,195,103.9765,1437.9555976549038,1520,1503.9432145212679,1306.0282400000001,1500.0
14.154956102371216,196,102.9765,1437.9555976549038,1520,1504.2555118277085,1313.0615600000001,1500.0
14.179805994033813,196,102.953,1433.0976395547182,1520,1504.6916870657035,1316.1230800000001,1500.0
14.204890012741089,197,102.953,1428.2396814545327,1520,1504.825974907473,1316.2906,1500.0
14.229751110076904,197,102.953,1428.2396814545327,1520,1504.9717136504785,1314.9665199999999,1500.0
14.254886150360107,197,101.953,1428.2396814545327,1520,1505.1174523934842,1314.77664,1500.0
14.27997612953186,198,101.9295,1433.0976395547182,1520,1505.2850519479405,1310.71272,1500.0
14.305204153060913,198,100.8825,1437.9555976549038,1520,1505.7441289884082,1310.71084,1500.0
14.330145120620728,199,99.859,1437.9555976549038,1520,1506.4728227034359,1313.54656,1500.0
14.35502004623413,198,99.859,1442.8135557550893,1520,1507.2233772299146,1315.2180000000001,1500.0
14.379914045333862,198,99.859,1442.8135557550893,1520,1507.9520709449423,1315.4814000000001,1500.0
14.40498399734497,198,99.859,1437.9555976549038,1520,1508.2216876195027,1317.039,1500.0
14.429970979690552,198,99.859,1437.9555976549038,1520,1508.0759488764973,1315.69696,1500.0
14.454954147338867,198,99.8825,1437.9555976549038,1520,1507.784471390486,1311.4270799999999,1500.0
14.47978401184082,198,99.8355,1437.9555976549038,1519.0,1507.2015164184638,1307.3094800000001,1500.0
14.504824161529541,198,98.812,1437.9555976549038,1516.8299999999999,1506.6185614464416,1307.1975199999999,1500.0
14.530066013336182,198,97.765,1433.0976395547182,1516.8299999999999,1506.3052231489796,1308.6533999999999,1500.0
14.55518102645874,198,96.6945,1428.2396814545327,1516.8299999999999,1505.9918848515176,1313.10292,1500.0
14.580059051513672,198,95.671,1423.3817233543473,1519.0,1505.5328078110499,1320.4276399999999,1500.0
14.605040073394775,199,95.6475,1418.5237652541616,1520,1505.0737307705824,1326.4546,1500.0
14.62999701499939,199,95.671,1413.6658071539762,1520,1504.4689149871094,1329.5255199999999,1500.0
14.655234098434448,199,94.671,1409.1212657054155,1520,1503.8749120781174,1332.33304,1500.0
14.680038213729858,199,94.671,1404.576724256855,1520,1503.4360504116796,1330.94316,1500.0
14.7049720287323,199,95.671,1404.576724256855,1520,1503.3091166677716,1324.0155199999999,1500.0
14.729893207550049,198,94.671,1400.0321828082942,1520,1503.3168737298993,1320.9259999999999,1500.0
14.755022048950195,198,94.624,1390.6296832595483,1520,1503.3121724801249,1318.2183199999999,1500.0
14.779990196228027,199,92.53,1390.6296832595483,1519.3800000000001,1503.4767162222279,1319.6063200000001,1500.0
14.80505919456482,198,90.483,1386.0851418109876,1514.78,1503.6114070282638,1325.34148,1500.0
14.830020189285278,198,90.4595,1381.5406003624271,1510.3800000000001,1503.4640228478372,1332.8742400000001,1500.0
14.855233192443848,197,90.483,1376.9960589138664,1510.1199999999999,1503.3072361678619,1337.54872,1500.0
14.880141019821167,196,91.5065,1368.1910098572803,1507.6300000000001,1503.2855369618719,1339.3858,1500.0
14.905184984207153,196,91.5535,1368.1910098572803,1500.9400000000001,1503.1671242331799,1337.8237999999999,1500.0
14.930135011672974,195,92.5535,1363.9305022492547,1496.22,1503.038060235468,1327.9466,1500.0
14.955345153808594,194,92.5535,1355.1254531926684,1489.27,1502.8970668164534,1317.8435999999999,1500.0
14.980414152145386,194,92.53,1350.864945584643,1484.75,1502.7850448491733,1309.2284400000001,1500.0
15.005451202392578,193,92.53,1346.6044379766174,1482.2,1502.7914356105855,1303.5147999999999,1500.0
15.036250114440918,193,91.53,1333.7970938943104,1482.02,1502.375145285394,1303.4205999999999,1500.0
15.061561107635498,192,91.53,1325.5342912605636,1481.6400000000001,1501.8507155307334,1307.7103199999999,1500.0
15.08681607246399,192,91.53,1317.2714886268172,1485.8599999999999,1501.4703683969988,1312.0319999999999,1500.0
15.111838102340698,191,92.5535,1313.0109810187917,1485.48,1501.0995105756638,1313.5538799999999,1500.0
15.136788129806519,190,92.577,1309.0086859930707,1485.0999999999999,1500.6012248449615,1314.84996,1500.0
15.161834001541138,189,92.6005,1300.7458833593241,1482.49,1500.6043233959492,1313.24828,1500.0
15.186930179595947,189,92.6005,1296.7435883336034,1482.3099999999999,1500.8744783101854,1310.3148000000001,1500.0
15.21192717552185,188,92.6005,1292.7412933078824,1480,1501.2561810599771,1307.38132,1500.0
15.236790180206299,188,93.624,1284.9721323756005,1480,1501.5156733134615,1304.64356,1500.0
15.261564016342163,188,93.6945,1277.2029714433186,1480,1501.6544132122801,1303.01368,1500.0
15.286880016326904,188,94.7415,1269.8844891105716,1485.8499999999999,1501.6871745303699,1300.13012,1500.0
15.311827182769775,188,95.765,1262.5660067778249,1490.1300000000001,1501.4926350010078,1295.8009199999999,1500.0
15.336765050888062,189,96.812,1255.2475244450779,1501.24,1501.0707946241944,1289.9358400000001,1500.0
15.361801147460938,189,96.812,1243.92674708661,1509.98,1500.6296550267075,1286.8009999999999,1500.0
15.387179136276245,189,96.7885,1233.253960351354,1516.55,1500.2173285901324,1283.89364,1500.0
15.412231206893921,190,95.7415,1225.9354780186072,1520,1499.7917669143387,1286.6217999999999,1500.0
15.437295198440552,190,93.718,1218.6169956858603,1520,1499.4656908577558,1296.3014000000001,1500.0
15.462058067321777,190,93.6945,1207.9442089506042,1520,1499.1233769184969,1306.5464400000001,1500.0
15.486891984939575,190,92.671,1204.3925925244182,1520,1499.152731566383,1318.0733599999999,1500.0
15.51161503791809,190,92.624,1197.4866716957233,1520,1499.367106595744,1328.33448,1500.0
15.536503076553345,189,91.6005,1194.1323672932144,1520,1499.7163892369299,1336.88572,1500.0
15.561398983001709,189,90.577,1190.7780628907053,1516.8499999999999,1500.1845972160229,1339.85304,1500.0
15.586292028427124,189,89.53,1184.2507678371744,1512.45,1500.8635206197132,1342.86652,1500.0
15.611173152923584,189,88.4595,1177.7234727836433,1508.05,1501.2200988366149,1344.58392,1500.0
15.636312007904053,189,87.4125,1177.7234727836433,1503.6500000000001,1501.7002215289215,1347.6811600000001,1500.0
