time,x,y,size_inv,roll,pitch,thrust,yaw
0.0004439353942871094,166,49,0.005050505050505051,1518.0,1498.0,1350,1506.0
0.02223801612854004,167,49,0.004784688995215311,1520,1498.0,1350,1507.0
0.04370880126953125,166,49,0.005050505050505051,1520,1498.0,1350,1506.0
0.06515002250671387,167,49,0.004784688995215311,1520,1498.0,1350,1507.0
0.08658099174499512,167,49,0.004784688995215311,1520,1498.0,1350,1507.0
0.10798287391662598,167,48,0.005555555555555556,1520,1498.0,1350,1507.0
0.1294078826904297,166,48,0.005555555555555556,1520,1498.0,1350,1506.0
0.15079879760742188,166,48,0.005555555555555556,1520,1498.0,1350,1506.0
0.17218995094299316,168,49,0.006060606060606061,1520,1498.0,1350,1508.0
0.19360685348510742,166,48,0.005555555555555556,1520,1498.0,1350,1506.0
0.21518683433532715,167,49,0.005050505050505051,1520,1498.0,1350,1507.0
0.2369089126586914,167,49,0.005050505050505051,1520,1498.0,1350,1507.0
0.25861287117004395,166,49,0.005050505050505051,1520,1498.0,1350,1506.0
0.2803208827972412,166,49,0.0053475935828877,1520,1498.0,1350,1506.0
0.30207395553588867,165,49,0.005050505050505051,1520,1498.0,1349.8,1505.0
0.32390594482421875,164,48,0.005555555555555556,1520,1498.0,1350,1504.0
0.3456308841705322,163,47,0.005555555555555556,1520,1498.0,1350,1503.0
0.3673429489135742,163,45,0.006666666666666667,1520,1498.0,1350,1503.0
0.38904786109924316,160,44,0.006172839506172839,1520,1498.0,1350,1500.0
0.4109518527984619,159,43,0.005555555555555556,1520,1498.0,1350,1499.0
0.4327118396759033,158,43,0.005555555555555556,1520,1498.0,1350,1498.0
0.4544398784637451,157,45,0.005555555555555556,1515.0,1498.0,1350,1497.0
0.47620081901550293,157,47,0.006666666666666667,1506.0,1498.0,1350,1497.0
0.49797797203063965,156,48,0.006666666666666667,1494.0,1498.0,1350,1496.0
0.519758939743042,156,49,0.006060606060606061,1485.0,1498.0,1349.5,1496.0
0.541571855545044,153,49,0.005555555555555556,1480,1498.0,1346.2,1493.0
0.5634398460388184,153,49,0.005050505050505051,1480,1498.0,1344.4000000000001,1493.0
0.5852229595184326,154,49,0.0053475935828877,1480,1498.0,1344.4000000000001,1494.0
0.6069929599761963,155,49,0.005050505050505051,1480,1498.0,1345.3,1495.0
0.6287569999694824,155,50,0.005555555555555556,1480,1498.0,1345.8,1495.0
0.65053391456604,156,51,0.005555555555555556,1480,1498.0,1346.0,1496.0
0.672325849533081,157,53,0.005555555555555556,1480,1498.0,1344.0,1497.0
0.6941239833831787,157,55,0.005555555555555556,1480,1498.0,1340.8,1497.0
0.715904951095581,159,57,0.007142857142857143,1480,1498.0,1336.7,1499.0
0.7376899719238281,159,59,0.007142857142857143,1480,1498.0,1332.3,1499.0
0.759443998336792,159,60,0.007142857142857143,1480,1498.0,1329.2,1499.0
0.7812268733978271,159,61,0.007142857142857143,1480,1498.0,1327.0,1499.0
0.8029818534851074,158,62,0.005050505050505051,1480,1498.0,1325.7,1498.0
0.8247590065002441,158,62,0.005050505050505051,1480,1498.0,1326.5999999999999,1498.0
0.8465428352355957,158,62,0.005050505050505051,1480,1498.0,1328.4000000000001,1498.0
0.8683068752288818,157,62,0.005050505050505051,1480,1498.0,1330.5,1497.0
0.8900690078735352,158,62,0.004784688995215311,1480,1498.0,1332.5999999999999,1498.0
0.9118678569793701,157,63,0.005050505050505051,1480,1498.0,1333.4000000000001,1497.0
0.9337158203125,157,64,0.005050505050505051,1480,1498.0,1333.3,1497.0
0.9554870128631592,158,65,0.006493506493506494,1480,1498.0,1332.3,1498.0
0.9772448539733887,156,66,0.005050505050505051,1480,1498.0,1330.7,1496.0
0.9990370273590088,156,67,0.005050505050505051,1480,1498.0,1328.5,1496.0
1.0208208560943604,156,68,0.005050505050505051,1480,1498.0,1326.3,1496.0
1.04258394241333,157,68,0.006493506493506494,1480,1498.0,1325.7,1497.0
1.0643749237060547,156,69,0.005050505050505051,1480,1498.0,1324.4000000000001,1496.0
1.0861899852752686,156,69,0.0043859649122807015,1480,1498.0,1324.7,1496.0
1.1079599857330322,156,70,0.004784688995215311,1480,1498.0,1324.3,1496.0
1.1297450065612793,155,70,0.004629629629629629,1480,1498.0,1325.2,1495.0
1.1515209674835205,156,71,0.004784688995215311,1480,1498.0,1324.5,1496.0
1.1733670234680176,155,72,0.005050505050505051,1480,1498.0,1323.8,1495.0
1.195396900177002,155,72,0.004629629629629629,1480,1498.0,1323.8,1495.0
1.2172229290008545,155,73,0.004629629629629629,1480,1498.0,1322.8,1495.0
1.2390120029449463,155,74,0.004629629629629629,1480,1498.0,1321.2,1495.0
1.2607979774475098,156,75,0.0043859649122807015,1480,1498.0,1319.9000000000001,1496.0
1.2825798988342285,156,76,0.004166666666666667,1480,1498.0,1318.5999999999999,1496.0
1.3043708801269531,155,77,0.004629629629629629,1480,1498.0,1317.0,1495.0
1.3261468410491943,157,77,0.0043859649122807015,1480,1498.0,1316.7,1497.0
1.3479318618774414,156,77,0.004629629629629629,1480,1498.0,1317.0,1496.0
1.3697078227996826,156,78,0.004629629629629629,1480,1498.0,1316.3,1496.0
1.3914899826049805,156,78,0.004629629629629629,1480,1498.0,1316.9000000000001,1496.0
1.4133470058441162,156,79,0.004273504273504274,1480,1498.0,1316.8,1496.0
1.4351389408111572,157,79,0.0043859649122807015,1480,1498.0,1317.4000000000001,1497.0
1.4569239616394043,157,80,0.004048582995951417,1480,1498.0,1316.4000000000001,1497.0
1.4786789417266846,157,80,0.004901960784313725,1480,1498.0,1316.7,1497.0
1.5004398822784424,157,81,0.0038461538461538464,1480,1498.0,1315.4000000000001,1497.0
1.5222418308258057,157,81,0.004273504273504274,1480,1498.0,1315.4000000000001,1497.0
1.5440728664398193,157,81,0.004629629629629629,1480,1498.0,1315.4000000000001,1497.0
1.5658879280090332,158,82,0.004048582995951417,1480,1498.0,1314.7,1498.0
1.5876569747924805,159,82,0.003663003663003663,1480,1498.0,1314.7,1499.0
1.6094279289245605,160,82,0.004901960784313725,1480,1498.0,1315.3,1500.0
1.6312048435211182,157,83,0.004273504273504274,1480,1498.0,1314.3,1497.0
1.6531879901885986,159,83,0.003663003663003663,1480,1498.0,1314.3,1499.0
1.6751508712768555,160,83,0.004629629629629629,1481.0,1498.0,1314.5999999999999,1500.0
1.6970767974853516,159,84,0.003663003663003663,1481.0,1498.0,1313.5999999999999,1499.0
1.7189149856567383,160,84,0.003663003663003663,1486.0,1498.0,1313.3,1500.0
1.740752935409546,159,84,0.0034965034965034965,1486.0,1498.0,1313.5999999999999,1499.0
1.7625579833984375,159,84,0.0034965034965034965,1488.0,1498.0,1313.9000000000001,1499.0
1.7843828201293945,159,84,0.0034965034965034965,1489.0,1498.0,1313.9000000000001,1499.0
1.8062009811401367,159,85,0.0034965034965034965,1489.0,1498.0,1313.2,1499.0
1.8280029296875,159,85,0.0034965034965034965,1488.0,1498.0,1313.5,1499.0
1.8498108386993408,159,85,0.0034965034965034965,1490.0,1498.0,1313.5,1499.0
1.8716118335723877,161,85,0.004273504273504274,1496.0,1498.0,1313.5,1501.0
1.8935039043426514,160,85,0.003663003663003663,1494.0,1498.0,1313.5,1500.0
1.9153268337249756,160,85,0.003663003663003663,1495.0,1498.0,1313.8,1500.0
1.9371538162231445,160,85,0.0034965034965034965,1495.0,1498.0,1314.0999999999999,1500.0
1.9589807987213135,160,85,0.0034965034965034965,1496.0,1498.0,1314.4000000000001,1500.0
1.9807839393615723,160,85,0.0034965034965034965,1497.0,1498.0,1314.7,1500.0
2.002624988555908,160,85,0.0034965034965034965,1498.0,1498.0,1315.0,1500.0
2.0249099731445312,160,85,0.0034965034965034965,1499.0,1498.0,1315.0,1500.0
2.0482327938079834,160,85,0.0034965034965034965,1500.0,1498.0,1315.0,1500.0
2.071542978286743,161,85,0.0034965034965034965,1504.0,1498.0,1315.0,1501.0
2.094972848892212,161,85,0.0034965034965034965,1504.0,1498.0,1315.0,1501.0
2.1182668209075928,161,85,0.0034965034965034965,1505.0,1498.0,1315.0,1501.0
2.1415648460388184,162,85,0.0033444816053511705,1509.0,1498.0,1315.0,1502.0
2.1650068759918213,162,85,0.003246753246753247,1511.0,1498.0,1315.0,1502.0
2.188309907913208,162,85,0.0034965034965034965,1513.0,1498.0,1315.0,1502.0
2.2116010189056396,162,85,0.0034965034965034965,1515.0,1498.0,1315.0,1502.0
2.235038995742798,162,85,0.0034965034965034965,1517.0,1498.0,1315.0,1502.0
2.258307933807373,164,85,0.004048582995951417,1520,1498.0,1315.0,1504.0
2.2814688682556152,162,85,0.0034965034965034965,1520,1498.0,1315.0,1502.0
2.3048110008239746,163,85,0.0034965034965034965,1520,1498.0,1315.0,1503.0
2.328042984008789,163,84,0.003246753246753247,1520,1498.0,1316.3,1503.0
2.3515539169311523,163,84,0.003663003663003663,1520,1498.0,1316.5999999999999,1503.0
2.374950885772705,163,83,0.003663003663003663,1520,1498.0,1318.2,1503.0
2.398149013519287,163,83,0.003663003663003663,1520,1498.0,1318.8,1503.0
2.4213428497314453,165,82,0.0035714285714285713,1520,1498.0,1320.7,1505.0
2.4447948932647705,164,82,0.004273504273504274,1520,1498.0,1321.0,1504.0
2.467989921569824,164,81,0.004273504273504274,1520,1498.0,1322.5999999999999,1504.0
2.491179943084717,164,81,0.004273504273504274,1520,1498.0,1322.5999999999999,1504.0
2.5143909454345703,163,80,0.0034965034965034965,1520,1498.0,1323.9000000000001,1503.0
2.5376198291778564,164,79,0.004273504273504274,1520,1498.0,1324.9000000000001,1504.0
2.560837984085083,162,78,0.0034965034965034965,1520,1498.0,1326.5,1502.0
2.5840189456939697,162,78,0.0034965034965034965,1520,1498.0,1326.5,1502.0
2.607203960418701,162,77,0.0034965034965034965,1520,1498.0,1328.0999999999999,1502.0
2.6303839683532715,162,77,0.0034965034965034965,1520,1498.0,1328.0999999999999,1502.0
2.6536288261413574,162,76,0.0034965034965034965,1520,1498.0,1329.0999999999999,1502.0
2.676849842071533,162,75,0.003246753246753247,1520,1498.0,1329.8,1502.0
2.7000699043273926,162,75,0.0034965034965034965,1520,1498.0,1329.8,1502.0
2.7232940196990967,163,73,0.004273504273504274,1520,1498.0,1331.8,1503.0
2.7465128898620605,163,73,0.004273504273504274,1520,1498.0,1332.0999999999999,1503.0
2.769735813140869,163,72,0.004273504273504274,1520,1498.0,1333.4000000000001,1503.0
2.792958974838257,161,71,0.003246753246753247,1520,1498.0,1334.7,1501.0
2.8161089420318604,161,71,0.0034965034965034965,1520,1498.0,1335.0,1501.0
2.839303970336914,161,70,0.0034965034965034965,1520,1498.0,1335.7,1501.0
2.862839937210083,162,69,0.003968253968253968,1520,1498.0,1336.7,1502.0
2.8860998153686523,162,69,0.004273504273504274,1520,1498.0,1336.4000000000001,1502.0
2.9093589782714844,160,67,0.003246753246753247,1518.0,1498.0,1338.4000000000001,1500.0
2.932727813720703,160,66,0.003246753246753247,1516.0,1498.0,1339.7,1500.0
2.956113815307617,160,65,0.003246753246753247,1513.0,1498.0,1341.3,1500.0
2.9793949127197266,161,64,0.003968253968253968,1513.0,1498.0,1342.5999999999999,1501.0
3.002762794494629,160,63,0.003246753246753247,1508.0,1498.0,1344.5,1500.0
3.026129961013794,161,63,0.003968253968253968,1510.0,1498.0,1344.5,1501.0
3.04943585395813,159,62,0.003246753246753247,1504.0,1498.0,1345.2,1499.0
3.0728018283843994,161,60,0.002857142857142857,1508.0,1498.0,1347.2,1501.0
3.0961649417877197,161,60,0.0026666666666666666,1507.0,1498.0,1346.9000000000001,1501.0
3.119452953338623,161,59,0.002857142857142857,1506.0,1498.0,1347.3,1501.0
3.1428258419036865,161,59,0.0026666666666666666,1507.0,1498.0,1347.3,1501.0
3.166191816329956,161,58,0.002857142857142857,1508.0,1498.0,1348.3,1501.0
3.1894588470458984,160,57,0.0027472527472527475,1506.0,1498.0,1348.7,1500.0
3.2127878665924072,160,57,0.002564102564102564,1505.0,1498.0,1348.4000000000001,1500.0
3.2361929416656494,161,56,0.0030303030303030303,1508.0,1498.0,1349.0999999999999,1501.0
3.2595479488372803,160,55,0.002564102564102564,1505.0,1498.0,1350,1500.0
3.2828269004821777,159,54,0.0027472527472527475,1503.0,1498.0,1350,1499.0
3.306119918823242,159,54,0.002564102564102564,1501.0,1498.0,1350,1499.0
3.3293259143829346,159,53,0.002564102564102564,1499.0,1498.0,1350,1499.0
3.3526439666748047,160,52,0.003246753246753247,1500.0,1498.0,1350,1500.0
3.3759169578552246,159,52,0.002564102564102564,1496.0,1498.0,1350,1499.0
3.399089813232422,158,51,0.0027472527472527475,1491.0,1498.0,1350,1498.0
3.422398805618286,158,50,0.002564102564102564,1489.0,1498.0,1350,1498.0
3.4457509517669678,157,49,0.002564102564102564,1484.0,1498.0,1350,1497.0
3.468940019607544,157,48,0.002564102564102564,1480.0,1498.0,1350,1497.0
3.492173910140991,157,47,0.002564102564102564,1480,1498.0,1350,1497.0
3.5153348445892334,157,46,0.002564102564102564,1480,1498.0,1350,1497.0
3.5384960174560547,157,45,0.002564102564102564,1480,1498.0,1350,1497.0
3.5699009895324707,157,44,0.002564102564102564,1480,1498.0,1350,1497.0
3.5932388305664062,157,43,0.002564102564102564,1480,1498.0,1350,1497.0
3.616527795791626,158,42,0.0024691358024691358,1480,1498.0,1350,1498.0
3.6397879123687744,157,41,0.002403846153846154,1480,1498.0,1350,1497.0
3.6630568504333496,157,41,0.002403846153846154,1480,1498.0,1350,1497.0
3.6863059997558594,157,40,0.002403846153846154,1480,1498.0,1350,1497.0
3.7095649242401123,159,40,0.002028397565922921,1480,1498.0,1350,1499.0
3.7328169345855713,159,39,0.0021551724137931034,1480,1498.0,1350,1499.0
3.756126880645752,159,39,0.002028397565922921,1480,1498.0,1350,1499.0
3.7793049812316895,159,38,0.0020833333333333333,1480,1498.0,1350,1499.0
3.802609920501709,159,38,0.00196078431372549,1480,1498.0,1350,1499.0
3.8259339332580566,159,38,0.00196078431372549,1481.0,1498.0,1350,1499.0
3.849246025085449,159,37,0.0018975332068311196,1482.0,1498.0,1350,1499.0
3.8725898265838623,159,37,0.0018975332068311196,1484.0,1498.0,1350,1499.0
3.895951986312866,158,36,0.001851851851851852,1483.0,1498.0,1350,1498.0
3.919240951538086,158,35,0.0017921146953405018,1484.0,1498.0,1350,1498.0
3.942593812942505,158,35,0.0017921146953405018,1483.0,1498.0,1350,1498.0
3.96596097946167,158,35,0.0017921146953405018,1482.0,1498.0,1350,1498.0
3.989264965057373,158,35,0.001697792869269949,1481.0,1498.0,1350,1498.0
4.012621879577637,157,34,0.001851851851851852,1480,1498.0,1350,1497.0
4.035900831222534,157,35,0.0017543859649122807,1480,1498.0,1350,1497.0
4.0591418743133545,157,34,0.001697792869269949,1480,1498.0,1350,1497.0
4.082403898239136,157,34,0.001697792869269949,1480,1498.0,1350,1497.0
4.105702877044678,157,34,0.0017543859649122807,1480,1498.0,1350,1497.0
4.1289098262786865,157,34,0.0016129032258064516,1480,1498.0,1350,1497.0
4.152216911315918,159,34,0.0014705882352941176,1480,1498.0,1350,1499.0
4.175473928451538,159,34,0.0014705882352941176,1480,1498.0,1350,1499.0
4.198676824569702,160,34,0.0014285714285714286,1480,1498.0,1350,1500.0
4.222021818161011,160,34,0.0014285714285714286,1480.0,1498.0,1350,1500.0
4.245445966720581,160,35,0.0013605442176870747,1483.0,1498.0,1350,1500.0
4.268765926361084,160,34,0.0013605442176870747,1486.0,1498.0,1350,1500.0
4.292081832885742,160,34,0.0012987012987012987,1489.0,1498.0,1350,1500.0
