time,frame,x,y,size_inv,roll,pitch,thrust,yaw
7.390975952148438e-05,1,,,,1500.0,1500.0,1250.0,1500
0.021112918853759766,2,,,,1500.0,1500.0,1250.0,1500
0.04189181327819824,3,,,,1500.0,1500.0,1250.0,1500
0.06258893013000488,4,,,,1500.0,1500.0,1250.0,1500
0.08327698707580566,5,,,,1500.0,1500.0,1250.0,1500
0.10390090942382812,6,,,,1500.0,1500.0,1250.0,1500
0.12456488609313965,7,,,,1500.0,1500.0,1250.0,1500
0.14520001411437988,8,,,,1500.0,1500.0,1250.0,1500
0.16583490371704102,9,,,,1500.0,1500.0,1250.0,1500
0.18645977973937988,10,,,,1500.0,1500.0,1250.0,1500
0.207230806350708,11,,,,1500.0,1500.0,1250.0,1500
0.22797393798828125,12,,,,1500.0,1500.0,1250.0,1500
0.2487049102783203,13,,,,1500.0,1500.0,1250.0,1500
0.2694399356842041,14,,,,1500.0,1500.0,1250.0,1500
0.2902398109436035,15,,,,1500.0,1500.0,1250.0,1500
0.3109757900238037,16,,,,1500.0,1500.0,1250.0,1500
0.3316969871520996,17,,,,1500.0,1500.0,1250.0,1500
0.3524208068847656,18,,,,1500.0,1500.0,1250.0,1500
0.37314796447753906,19,,,,1500.0,1500.0,1250.0,1500
0.3938748836517334,20,,,,1500.0,1500.0,1250.0,1500
0.4145989418029785,21,,,,1500.0,1500.0,1250.0,1500
0.4353189468383789,22,,,,1500.0,1500.0,1250.0,1500
0.45602989196777344,23,,,,1500.0,1500.0,1250.0,1500
0.47676992416381836,24,,,,1500.0,1500.0,1250.0,1500
0.4975008964538574,25,,,,1500.0,1500.0,1250.0,1500
0.5182278156280518,26,,,,1500.0,1500.0,1250.0,1500
0.538956880569458,27,,,,1500.0,1500.0,1250.0,1500
0.5597047805786133,28,,,,1500.0,1500.0,1250.0,1500
0.580467939376831,29,,,,1500.0,1500.0,1250.0,1500
0.6012039184570312,30,,,,1500.0,1500.0,1250.0,1500
0.6219267845153809,31,,,,1500.0,1500.0,1250.0,1500
0.6426517963409424,32,,,,1500.0,1500.0,1250.0,1500
0.6633808612823486,33,,,,1500.0,1500.0,1250.0,1500
0.6841030120849609,34,,,,1500.0,1500.0,1250.0,1500
0.7048308849334717,35,,,,1500.0,1500.0,1250.0,1500
0.7255759239196777,36,,,,1500.0,1500.0,1250.0,1500
0.7463347911834717,37,,,,1500.0,1500.0,1250.0,1500
0.7670729160308838,38,,,,1500.0,1500.0,1250.0,1500
0.7878038883209229,39,,,,1500.0,1500.0,1250.0,1500
0.808525800704956,40,,,,1500.0,1500.0,1250.0,1500
0.8292489051818848,41,,,,1500.0,1500.0,1250.0,1500
0.8499808311462402,42,,,,1500.0,1500.0,1250.0,1500
0.8707180023193359,43,,,,1500.0,1500.0,1250.0,1500
0.891481876373291,44,,,,1500.0,1500.0,1250.0,1500
0.9122178554534912,45,,,,1500.0,1500.0,1250.0,1500
0.932945966720581,46,,,,1500.0,1500.0,1250.0,1500
0.9536747932434082,47,,,,1500.0,1500.0,1250.0,1500
0.9744298458099365,48,,,,1500.0,1500.0,1250.0,1500
0.9951629638671875,49,,,,1500.0,1500.0,1250.0,1500
1.0159029960632324,50,,,,1500.0,1500.0,1250.0,1500
1.036625862121582,51,,,,1500.0,1500.0,1250.0,1500
1.057377815246582,52,,,,1500.0,1500.0,1250.0,1500
1.0782599449157715,53,267,19,0.013333333333333334,1510.7,1520,1300,1500
1.099259853363037,54,263,17,0.0043859649122807015,1510.3,1518.859649122807,1300,1500
1.1202077865600586,55,263,18,0.0022624434389140274,1510.3,1497.6244343891403,1300,1500
1.1411588191986084,56,264,19,0.0017006802721088435,1510.4,1492.0068027210884,1300,1500
1.1621317863464355,57,263,19,0.0013333333333333333,1510.3,1488.3333333333333,1300,1500
1.1830778121948242,58,262,21,0.0013333333333333333,1510.2,1488.3333333333333,1300,1500
1.2040197849273682,59,261,23,0.0012121212121212121,1510.1,1487.121212121212,1300,1500
1.224963903427124,60,262,26,0.001142857142857143,1510.2,1486.4285714285713,1300,1500
1.245919942855835,61,261,27,0.0011111111111111111,1510.1,1486.111111111111,1300,1500
1.2668647766113281,62,261,29,0.00102880658436214,1510.1,1485.2880658436213,1300,1500
1.2878139019012451,63,261,31,0.001001001001001001,1510.1,1485.01001001001,1300,1500
1.3087468147277832,64,261,33,0.0009746588693957114,1510.1,1484.7465886939572,1300,1500
1.329725980758667,65,261,34,0.001001001001001001,1510.1,1485.01001001001,1300,1500
1.3507089614868164,66,261,36,0.0010204081632653062,1510.1,1485.204081632653,1300,1500
1.371647834777832,67,260,38,0.0010204081632653062,1510.0,1485.204081632653,1300,1500
1.3925979137420654,68,257,39,0.0009398496240601503,1509.7,1484.3984962406016,1300,1500
1.4137589931488037,69,256,41,0.0009398496240601503,1509.6,1484.3984962406016,1300,1500
1.4347097873687744,70,255,43,0.0008841732979664014,1509.5,1483.841732979664,1300,1500
1.4556548595428467,71,254,44,0.0009398496240601503,1509.4,1484.3984962406016,1300,1500
1.4766199588775635,72,254,46,0.0008841732979664014,1509.4,1483.841732979664,1300,1500
1.4975569248199463,73,252,47,0.0007680491551459293,1509.2,1482.6804915514592,1300,1500
1.5185089111328125,74,251,49,0.0007867820613690008,1509.1,1482.86782061369,1300,1500
1.5394599437713623,75,250,50,0.0007867820613690008,1509.0,1482.86782061369,1300,1500
1.5604798793792725,76,250,50,0.0008130081300813008,1509.0,1483.1300813008131,1300,1500
1.5814149379730225,77,249,51,0.0007680491551459293,1508.9,1482.6804915514592,1300,1500
1.6023588180541992,78,249,51,0.0007936507936507937,1508.9,1482.936507936508,1300,1500
1.6232898235321045,79,249,53,0.0007680491551459293,1508.9,1482.6804915514592,1300,1500
1.644230842590332,80,249,54,0.0007680491551459293,1508.9,1482.6804915514592,1300,1500
1.6651709079742432,81,249,54,0.0007680491551459293,1508.9,1482.6804915514592,1300,1500
1.6861188411712646,82,248,55,0.0007680491551459293,1508.8,1482.6804915514592,1300,1500
1.707054853439331,83,248,55,0.0007680491551459293,1508.8,1482.6804915514592,1300,1500
1.7280049324035645,84,249,56,0.0007168458781362007,1508.9,1482.168458781362,1300,1500
1.7489748001098633,85,249,55,0.0007407407407407407,1508.9,1482.4074074074074,1300,1500
1.769934892654419,86,248,56,0.0007012622720897616,1508.8,1482.0126227208975,1300,1500
1.7908868789672852,87,248,57,0.0007012622720897616,1508.8,1482.0126227208975,1300,1500
1.8118269443511963,88,248,57,0.0007012622720897616,1508.8,1482.0126227208975,1300,1500
1.8328099250793457,89,248,57,0.0006863417982155113,1508.8,1481.8634179821552,1300,1500
1.8539159297943115,90,248,57,0.0006793478260869565,1508.8,1481.7934782608695,1300,1500
1.8748807907104492,91,247,58,0.0006793478260869565,1508.7,1481.7934782608695,1300,1500
1.8958427906036377,92,248,59,0.0006648936170212766,1508.8,1481.6489361702127,1300,1500
1.9167888164520264,93,247,60,0.0006793478260869565,1508.7,1481.7934782608695,1300,1500
1.9377248287200928,94,248,61,0.0006648936170212766,1508.8,1481.6489361702127,1300,1500
1.9586830139160156,95,248,62,0.0006944444444444445,1508.8,1481.9444444444443,1300,1500
1.9796497821807861,96,248,63,0.0006793478260869565,1508.8,1481.7934782608695,1300,1500
2.000659942626953,97,248,64,0.0007012622720897616,1508.8,1482.0126227208975,1300,1500
2.0216009616851807,98,247,65,0.0007012622720897616,1508.7,1482.0126227208975,1300,1500
2.042564868927002,99,247,66,0.0006793478260869565,1508.7,1481.7934782608695,1300,1500
2.0635018348693848,100,247,67,0.0006793478260869565,1508.7,1481.7934782608695,1300,1500
2.084446907043457,101,247,68,0.0006447453255963894,1508.7,1481.4474532559639,1300,1500
2.1053948402404785,102,247,68,0.0006648936170212766,1508.7,1481.6489361702127,1300,1500
2.126338005065918,103,246,68,0.0006447453255963894,1508.6,1481.4474532559639,1300,1500
2.147310972213745,104,246,68,0.0006447453255963894,1508.6,1481.4474532559639,1300,1500
2.1683409214019775,105,246,68,0.0006127450980392157,1508.6,1481.127450980392,1300,1500
2.1892948150634766,106,247,68,0.0006002400960384153,1508.7,1481.0024009603842,1300,1500
2.210232973098755,107,246,70,0.0005830903790087463,1508.6,1480.8309037900874,1300,1500
2.231186866760254,108,245,71,0.000588235294117647,1508.5,1480.8823529411766,1300,1500
2.252128839492798,109,245,72,0.0006184291898577613,1508.5,1481.1842918985776,1300,1500
2.273066997528076,110,244,72,0.0006002400960384153,1508.4,1481.0024009603842,1300,1500
2.294005870819092,111,244,72,0.0006257822277847309,1508.4,1481.2578222778473,1300,1500
2.314955949783325,112,242,71,0.0006313131313131314,1508.2,1481.3131313131314,1300,1500
2.3358988761901855,113,242,71,0.0006793478260869565,1508.2,1481.7934782608695,1300,1500
2.356841802597046,114,242,71,0.0006734006734006734,1508.2,1481.7340067340067,1300,1500
2.377776861190796,115,239,71,0.0006447453255963894,1507.9,1481.4474532559639,1300,1500
2.398937940597534,116,238,71,0.0006793478260869565,1507.8,1481.7934782608695,1300,1500
2.419893980026245,117,237,71,0.0006944444444444445,1507.7,1481.9444444444443,1300,1500
2.4408299922943115,118,236,71,0.0007012622720897616,1507.6,1482.0126227208975,1300,1500
2.461777925491333,119,233,71,0.0006720430107526882,1507.3,1481.720430107527,1300,1500
2.482726812362671,120,230,72,0.0006720430107526882,1507.0,1481.720430107527,1300,1500
2.5036568641662598,121,229,73,0.0006583278472679394,1506.9,1481.5832784726795,1300,1500
2.5245938301086426,122,227,74,0.0006720430107526882,1506.7,1481.720430107527,1300,1500
2.545522928237915,123,227,75,0.0006451612903225806,1506.7,1481.4516129032259,1300.0,1500
2.5664868354797363,124,226,75,0.00065359477124183,1506.6,1481.5359477124182,1300.0,1500
2.587458848953247,125,222,77,0.0006720430107526882,1506.2,1481.720430107527,1296.0,1500
2.6084189414978027,126,220,78,0.0006720430107526882,1506.0,1481.720430107527,1294.0,1500
2.629380941390991,127,220,78,0.0006863417982155113,1506.0,1481.8634179821552,1294.0,1500
2.6504218578338623,128,218,78,0.0006944444444444445,1505.8,1481.9444444444443,1294.0,1500
2.671402931213379,129,217,79,0.0006720430107526882,1505.7,1481.720430107527,1292.0,1500
2.6923608779907227,130,216,80,0.0006720430107526882,1505.6,1481.720430107527,1290.0,1500
2.713319778442383,131,215,80,0.0006720430107526882,1505.5,1481.720430107527,1290.0,1500
2.734290838241577,132,215,80,0.0006863417982155113,1505.5,1481.8634179821552,1290.0,1500
2.755255937576294,133,214,80,0.0006720430107526882,1505.4,1481.720430107527,1290.0,1500
2.7762269973754883,134,213,80,0.0006720430107526882,1505.3,1481.720430107527,1290.0,1500
2.7971949577331543,135,212,80,0.0006944444444444445,1505.2,1481.9444444444443,1290.0,1500
2.818173885345459,136,211,80,0.0006720430107526882,1505.1,1481.720430107527,1290.0,1500
