time,x,y,size_inv,roll,pitch,thrust,yaw
0.0011110305786132812,146,61,0.005555555555555556,1480,1494.0,1325,1486.0
0.0247650146484375,146,61,0.005555555555555556,1480,1494.0,1325,1486.0
0.04776501655578613,146,61,0.005555555555555556,1480,1494.0,1325,1486.0
0.07082605361938477,146,61,0.005555555555555556,1480,1494.0,1325,1486.0
0.09395599365234375,146,61,0.005555555555555556,1480,1494.0,1325,1486.0
0.11698102951049805,146,61,0.005555555555555556,1480,1494.0,1325,1486.0
0.13989901542663574,146,61,0.005555555555555556,1480,1494.0,1325,1486.0
0.16305804252624512,146,61,0.005555555555555556,1480,1494.0,1325,1486.0
0.1858348846435547,146,61,0.005555555555555556,1480,1494.0,1325,1486.0
0.2085270881652832,146,61,0.005555555555555556,1480,1494.0,1325,1486.0
0.23172807693481445,146,61,0.005555555555555556,1480,1494.0,1325,1486.0
0.2555069923400879,147,61,0.0058823529411764705,1480,1494.0,1325,1487.0
0.279263973236084,148,62,0.007142857142857143,1480,1494.0,1325,1488.0
0.3029470443725586,146,62,0.005555555555555556,1480,1494.0,1325,1486.0
0.32659292221069336,147,63,0.0058823529411764705,1480,1494.0,1325,1487.0
0.35024094581604004,148,65,0.005555555555555556,1480,1494.0,1325,1488.0
0.37407898902893066,151,66,0.007142857142857143,1480,1494.0,1325,1491.0
0.39777112007141113,153,66,0.006666666666666667,1480,1494.0,1325,1493.0
0.4214620590209961,154,66,0.0058823529411764705,1480,1494.0,1325,1494.0
0.4451789855957031,157,66,0.006666666666666667,1480,1494.0,1325,1497.0
0.468843936920166,159,66,0.006666666666666667,1480,1494.0,1325,1499.0
0.49249696731567383,161,66,0.006666666666666667,1480,1494.0,1325,1501.0
0.5161619186401367,162,68,0.005050505050505051,1480,1494.0,1325,1502.0
0.5397839546203613,165,69,0.006060606060606061,1480,1494.0,1325,1505.0
0.5634410381317139,166,69,0.007142857142857143,1488.0,1494.0,1325,1506.0
0.5872108936309814,166,70,0.005050505050505051,1506.0,1494.0,1325,1506.0
0.6110188961029053,167,70,0.005555555555555556,1520,1494.0,1325,1507.0
0.6347410678863525,168,71,0.005050505050505051,1520,1494.0,1325,1508.0
0.6583840847015381,169,72,0.005555555555555556,1520,1494.0,1325,1509.0
0.6820309162139893,170,74,0.005050505050505051,1520,1494.0,1325,1510.0
0.7056710720062256,170,75,0.005555555555555556,1520,1494.0,1325,1510.0
0.7293179035186768,170,76,0.0058823529411764705,1520,1494.0,1325,1510.0
0.7529520988464355,169,77,0.005555555555555556,1520,1494.0,1325,1509.0
0.7766270637512207,169,78,0.005555555555555556,1520,1494.0,1325,1509.0
0.8002760410308838,170,78,0.006493506493506494,1520,1494.0,1325,1510.0
0.8240580558776855,168,77,0.005555555555555556,1520,1494.0,1325,1508.0
0.8476989269256592,168,78,0.006535947712418301,1520,1494.0,1325,1508.0
0.8713970184326172,167,78,0.005555555555555556,1520,1494.0,1325,1507.0
0.8951020240783691,168,78,0.007142857142857143,1520,1494.0,1325,1508.0
0.918734073638916,166,80,0.006172839506172839,1520,1494.0,1325,1506.0
0.9423680305480957,167,81,0.007142857142857143,1520,1494.0,1325,1507.0
0.9660120010375977,166,82,0.007142857142857143,1520,1494.0,1325,1506.0
0.9896430969238281,165,84,0.007142857142857143,1520,1494.0,1325,1505.0
1.01328706741333,163,85,0.005555555555555556,1520,1494.0,1325,1503.0
1.0369160175323486,164,86,0.007142857142857143,1520,1494.0,1325,1504.0
1.0605590343475342,162,87,0.005555555555555556,1520,1494.0,1325,1502.0
1.0843501091003418,163,87,0.007142857142857143,1520,1494.0,1324.96,1503.0
1.108091115951538,163,88,0.007142857142857143,1520,1494.0,1322.4400000000001,1503.0
1.1318130493164062,162,90,0.006493506493506494,1520,1494.0,1318.6600000000001,1502.0
1.15556001663208,161,90,0.0058823529411764705,1520,1494.0,1317.04,1501.0
1.1792991161346436,160,91,0.005555555555555556,1520,1494.0,1314.52,1500.0
1.2030041217803955,160,92,0.0058823529411764705,1520,1494.0,1311.8199999999999,1500.0
1.2267820835113525,160,93,0.005555555555555556,1518.0,1494.0,1309.21,1500.0
1.2506990432739258,161,94,0.006493506493506494,1518.0,1494.0,1306.78,1501.0
1.274669885635376,159,96,0.005555555555555556,1509.0,1494.0,1303.0,1499.0
1.2985870838165283,159,97,0.005555555555555556,1506.0,1494.0,1300.1199999999999,1499.0
1.3227880001068115,159,98,0.005050505050505051,1502.0,1494.0,1297.1500000000001,1499.0
1.3466670513153076,159,98,0.005555555555555556,1498.0,1494.0,1295.3499999999999,1499.0
1.370507001876831,159,99,0.005555555555555556,1495.0,1494.0,1292.74,1499.0
1.3945209980010986,160,100,0.006493506493506494,1496.0,1494.0,1290.22,1500.0
1.4183859825134277,160,101,0.006493506493506494,1496.0,1494.0,1287.7,1500.0
1.4422109127044678,160,102,0.007142857142857143,1496.0,1494.0,1285.1800000000001,1500.0
1.466033935546875,160,103,0.006493506493506494,1496.0,1494.0,1282.48,1500.0
1.4898440837860107,160,103,0.007142857142857143,1495.0,1494.0,1280.95,1500.0
1.5137898921966553,158,104,0.005555555555555556,1490.0,1494.0,1278.6099999999999,1498.0
1.537635087966919,158,105,0.005050505050505051,1489.0,1494.0,1276.27,1498.0
1.5615639686584473,159,105,0.007142857142857143,1491.0,1494.0,1275.0999999999999,1499.0
1.5855441093444824,157,106,0.005555555555555556,1485.0,1494.0,1272.9400000000001,1497.0
1.6093940734863281,157,106,0.005555555555555556,1483.0,1494.0,1271.77,1497.0
1.6332519054412842,157,107,0.005555555555555556,1480.0,1494.0,1269.7,1497.0
1.6570959091186523,158,107,0.007142857142857143,1480.0,1494.0,1268.8,1498.0
1.6809780597686768,158,108,0.007142857142857143,1480,1494.0,1266.8199999999999,1498.0
1.7048249244689941,157,108,0.005555555555555556,1480,1494.0,1266.01,1497.0
1.7285640239715576,156,109,0.005555555555555556,1480,1494.0,1264.03,1496.0
1.7523059844970703,156,109,0.005555555555555556,1480,1494.0,1263.22,1496.0
1.7760651111602783,156,110,0.005050505050505051,1480,1494.0,1261.3299999999999,1496.0
1.799807071685791,156,109,0.005555555555555556,1480,1494.0,1261.6900000000001,1496.0
1.8236839771270752,157,110,0.006493506493506494,1480,1494.0,1260.0699999999999,1497.0
1.8474860191345215,156,109,0.0058823529411764705,1480,1494.0,1260.7,1496.0
1.8712971210479736,156,109,0.005555555555555556,1480,1494.0,1260.52,1496.0
1.89512300491333,156,109,0.005555555555555556,1480,1494.0,1260.52,1496.0
1.9188480377197266,157,109,0.006493506493506494,1480,1494.0,1260.4300000000001,1497.0
1.9425959587097168,156,109,0.0053475935828877,1480,1494.0,1260.52,1496.0
1.96635103225708,156,108,0.005555555555555556,1480,1494.0,1261.6900000000001,1496.0
1.9900469779968262,156,108,0.005555555555555556,1480,1494.0,1261.96,1496.0
2.0139009952545166,156,108,0.005050505050505051,1480,1494.0,1262.3199999999999,1496.0
2.037661075592041,156,107,0.005555555555555556,1480,1494.0,1263.76,1496.0
2.061444044113159,156,107,0.005050505050505051,1480,1494.0,1264.3900000000001,1496.0
2.08526611328125,156,106,0.005555555555555556,1480,1494.0,1265.9200000000001,1496.0
2.1090269088745117,156,106,0.005050505050505051,1480,1494.0,1266.55,1496.0
2.13275408744812,156,105,0.005555555555555556,1480,1494.0,1268.3499999999999,1496.0
2.156498908996582,157,105,0.0053475935828877,1480,1494.0,1269.0699999999999,1497.0
2.180251121520996,157,103,0.005555555555555556,1480,1494.0,1272.1300000000001,1497.0
2.204202890396118,157,103,0.005050505050505051,1480,1494.0,1273.1199999999999,1497.0
2.228195905685425,157,102,0.005050505050505051,1480,1494.0,1275.28,1497.0
2.2521650791168213,157,101,0.005050505050505051,1480,1494.0,1277.53,1497.0
2.276057004928589,157,100,0.005555555555555556,1480,1494.0,1279.96,1497.0
2.30002498626709,157,99,0.005555555555555556,1480,1494.0,1282.3,1497.0
2.324012041091919,159,97,0.007142857142857143,1480,1494.0,1285.99,1499.0
2.3477659225463867,158,96,0.0058823529411764705,1480,1494.0,1288.8699999999999,1498.0
2.3715949058532715,158,96,0.005050505050505051,1480,1494.0,1290.5799999999999,1498.0
2.3954620361328125,158,95,0.005050505050505051,1480,1494.0,1293.28,1498.0
2.419198989868164,158,94,0.005050505050505051,1480,1494.0,1295.8900000000001,1498.0
2.442941904067993,158,93,0.005050505050505051,1480,1494.0,1298.4100000000001,1498.0
2.4666879177093506,158,91,0.005555555555555556,1480,1494.0,1302.0999999999999,1498.0
2.4904160499572754,159,89,0.0053475935828877,1480,1494.0,1306.24,1499.0
2.5145978927612305,160,88,0.006493506493506494,1483.0,1494.0,1309.48,1500.0
2.538472890853882,159,87,0.005050505050505051,1483.0,1494.0,1312.72,1499.0
2.56227707862854,159,85,0.005555555555555556,1483.0,1494.0,1317.04,1499.0
2.5861029624938965,159,84,0.005555555555555556,1484.0,1494.0,1320.28,1499.0
2.609941005706787,159,83,0.005555555555555556,1485.0,1494.0,1323.4300000000001,1499.0
2.6339170932769775,159,81,0.005050505050505051,1486.0,1494.0,1325,1499.0
2.6576530933380127,160,80,0.005050505050505051,1490.0,1494.0,1325,1500.0
2.681441068649292,160,78,0.0058823529411764705,1492.0,1494.0,1325,1500.0
2.7052290439605713,160,77,0.005555555555555556,1494.0,1494.0,1325,1500.0
2.728940010070801,160,76,0.005555555555555556,1495.0,1494.0,1325,1500.0
2.752648115158081,160,74,0.005555555555555556,1495.0,1494.0,1325,1500.0
2.7763938903808594,161,72,0.0058823529411764705,1499.0,1494.0,1325,1501.0
2.8001348972320557,160,72,0.005050505050505051,1498.0,1494.0,1325,1500.0
2.8239920139312744,160,71,0.005555555555555556,1499.0,1494.0,1325,1500.0
2.8477280139923096,160,71,0.005555555555555556,1500.0,1494.0,1325,1500.0
2.871551990509033,160,71,0.005555555555555556,1501.0,1494.0,1325,1500.0
2.895364999771118,160,71,0.005555555555555556,1501.0,1494.0,1325,1500.0
2.9190831184387207,160,70,0.005555555555555556,1501.0,1494.0,1325,1500.0
2.9427950382232666,160,69,0.005555555555555556,1501.0,1494.0,1325,1500.0
2.9665169715881348,161,68,0.0058823529411764705,1504.0,1494.0,1325,1501.0
2.990341901779175,162,67,0.007936507936507936,1508.0,1494.0,1325,1502.0
3.014451026916504,161,65,0.006172839506172839,1506.0,1494.0,1325,1501.0
3.0382959842681885,161,63,0.006172839506172839,1507.0,1494.0,1325,1501.0
3.06204891204834,161,62,0.006172839506172839,1508.0,1494.0,1325,1501.0
3.085866928100586,162,61,0.005555555555555556,1512.0,1494.0,1325,1502.0
3.1096060276031494,162,61,0.005555555555555556,1514.0,1494.0,1325,1502.0
3.1333069801330566,163,62,0.006535947712418301,1519.0,1494.0,1325,1503.0
3.1569950580596924,163,63,0.0058823529411764705,1520,1494.0,1325,1503.0
3.1807239055633545,163,64,0.005555555555555556,1520,1494.0,1325,1503.0
3.2044830322265625,163,65,0.005555555555555556,1520,1494.0,1325,1503.0
3.2281250953674316,164,66,0.007142857142857143,1520,1494.0,1325,1504.0
3.2518019676208496,163,66,0.0058823529411764705,1520,1494.0,1325,1503.0
3.2755351066589355,162,66,0.005555555555555556,1520,1494.0,1325,1502.0
3.2992000579833984,162,66,0.006172839506172839,1520,1494.0,1325,1502.0
3.322835922241211,162,66,0.006535947712418301,1520,1494.0,1325,1502.0
3.3464879989624023,161,66,0.005555555555555556,1520,1494.0,1325,1501.0
3.37015700340271,161,66,0.005555555555555556,1520,1494.0,1325,1501.0
3.393951892852783,160,67,0.005555555555555556,1520,1494.0,1325,1500.0
3.417617082595825,160,68,0.005555555555555556,1518.0,1494.0,1325,1500.0
3.441425085067749,161,69,0.007142857142857143,1518.0,1494.0,1325,1501.0
3.4652819633483887,160,70,0.0058823529411764705,1512.0,1494.0,1325,1500.0
3.489001989364624,159,71,0.005555555555555556,1506.0,1494.0,1325,1499.0
3.512734889984131,160,71,0.007142857142857143,1506.0,1494.0,1325,1500.0
3.53645396232605,158,73,0.005555555555555556,1498.0,1494.0,1325,1498.0
3.56017804145813,158,73,0.005555555555555556,1494.0,1494.0,1325,1498.0
3.5840539932250977,159,74,0.007142857142857143,1494.0,1494.0,1325,1499.0
3.607783079147339,159,74,0.007142857142857143,1492.0,1494.0,1325,1499.0
3.6315560340881348,159,75,0.006493506493506494,1491.0,1494.0,1325,1499.0
3.6553568840026855,159,75,0.007142857142857143,1490.0,1494.0,1325,1499.0
3.679081916809082,158,76,0.0058823529411764705,1485.0,1494.0,1325,1498.0
3.702802896499634,158,78,0.0058823529411764705,1483.0,1494.0,1325,1498.0
3.726517915725708,159,79,0.007142857142857143,1485.0,1494.0,1325,1499.0
3.7502360343933105,158,80,0.005263157894736842,1481.0,1494.0,1325,1498.0
3.7741050720214844,157,81,0.005555555555555556,1480,1494.0,1325,1497.0
3.797745943069458,157,82,0.005555555555555556,1480,1494.0,1325,1497.0
3.821471929550171,157,83,0.005555555555555556,1480,1494.0,1325,1497.0
3.845489025115967,157,83,0.005555555555555556,1480,1494.0,1325,1497.0
3.8692100048065186,159,83,0.007142857142857143,1480,1494.0,1325,1499.0
3.8928749561309814,159,84,0.007142857142857143,1480,1494.0,1325,1499.0
3.916506052017212,158,84,0.005555555555555556,1480,1494.0,1325,1498.0
3.940117120742798,158,85,0.005555555555555556,1480,1494.0,1325,1498.0
3.963995933532715,159,86,0.007142857142857143,1480,1494.0,1325,1499.0
3.987679958343506,159,87,0.007142857142857143,1480,1494.0,1324.5999999999999,1499.0
4.011492013931274,157,89,0.005555555555555556,1480,1494.0,1321.1800000000001,1497.0
4.0353100299835205,157,90,0.005555555555555556,1480,1494.0,1318.48,1497.0
4.059043884277344,157,91,0.005555555555555556,1480,1494.0,1315.78,1497.0
4.082787036895752,157,92,0.005555555555555556,1480,1494.0,1312.99,1497.0
4.106507062911987,157,93,0.005555555555555556,1480,1494.0,1310.1099999999999,1497.0
4.1302490234375,157,93,0.005555555555555556,1480,1494.0,1308.5799999999999,1497.0
4.154155969619751,157,95,0.005050505050505051,1480,1494.0,1304.8900000000001,1497.0
4.177918910980225,157,96,0.005050505050505051,1480,1494.0,1302.0999999999999,1497.0
4.201679944992065,157,96,0.005555555555555556,1480,1494.0,1300.48,1497.0
4.225462913513184,157,97,0.005050505050505051,1480,1494.0,1297.96,1497.0
4.249260902404785,157,97,0.005555555555555556,1480,1494.0,1296.52,1497.0
4.273065090179443,157,98,0.005050505050505051,1480,1494.0,1294.3599999999999,1497.0
4.296812057495117,157,99,0.005050505050505051,1480,1494.0,1292.2,1497.0
4.32055401802063,157,99,0.005050505050505051,1480,1494.0,1291.03,1497.0
4.344455003738403,158,100,0.004784688995215311,1480,1494.0,1288.96,1498.0
4.368196964263916,158,100,0.005050505050505051,1480,1494.0,1287.79,1498.0
4.391912937164307,158,100,0.0058823529411764705,1480,1494.0,1286.98,1498.0
4.415661096572876,159,101,0.006493506493506494,1480,1494.0,1285.27,1499.0
4.439395904541016,159,101,0.007142857142857143,1480,1494.0,1284.46,1499.0
4.4631431102752686,158,102,0.0053475935828877,1480,1494.0,1282.75,1498.0
4.486891031265259,158,103,0.005050505050505051,1480,1494.0,1280.77,1498.0
4.510688066482544,158,103,0.005050505050505051,1480,1494.0,1279.78,1498.0
4.534519910812378,158,103,0.005050505050505051,1480,1494.0,1279.0599999999999,1498.0
4.558275938034058,158,103,0.004629629629629629,1480,1494.0,1278.3399999999999,1498.0
4.58204197883606,158,103,0.005555555555555556,1480,1494.0,1277.8900000000001,1498.0
4.605782985687256,158,104,0.005050505050505051,1480,1494.0,1276.45,1498.0
4.629549980163574,158,104,0.005050505050505051,1480,1494.0,1275.9100000000001,1498.0
4.653300046920776,159,104,0.005050505050505051,1480.0,1494.0,1275.46,1499.0
4.6770920753479,159,104,0.005050505050505051,1480.0,1494.0,1275.01,1499.0
4.700947046279907,159,104,0.005050505050505051,1481.0,1494.0,1274.6500000000001,1499.0
4.724828004837036,159,104,0.005050505050505051,1482.0,1494.0,1274.5599999999999,1499.0
4.748650074005127,160,104,0.005050505050505051,1486.0,1494.0,1274.47,1500.0
4.772481918334961,162,105,0.006060606060606061,1494.0,1494.0,1273.21,1502.0
4.796284914016724,160,104,0.005555555555555556,1492.0,1494.0,1274.02,1500.0
4.8200860023498535,160,104,0.004629629629629629,1494.0,1494.0,1273.9300000000001,1500.0
4.844027996063232,160,104,0.005050505050505051,1496.0,1494.0,1273.9300000000001,1500.0
4.8678319454193115,160,104,0.005050505050505051,1498.0,1494.0,1273.9300000000001,1500.0
4.891650915145874,160,104,0.005050505050505051,1499.0,1494.0,1274.1099999999999,1500.0
4.915472984313965,160,103,0.005050505050505051,1500.0,1494.0,1275.28,1500.0
4.939285039901733,161,103,0.0053475935828877,1504.0,1494.0,1275.55,1501.0
4.9630959033966064,161,103,0.005050505050505051,1506.0,1494.0,1275.8199999999999,1501.0
4.986912965774536,161,102,0.005555555555555556,1507.0,1494.0,1277.26,1501.0
5.0108020305633545,161,102,0.005050505050505051,1506.0,1494.0,1277.8900000000001,1501.0
5.034730911254883,161,102,0.005050505050505051,1507.0,1494.0,1278.25,1501.0
5.058542013168335,161,101,0.005050505050505051,1508.0,1494.0,1279.78,1501.0
5.082642078399658,162,100,0.005263157894736842,1512.0,1494.0,1281.5799999999999,1502.0
5.106488943099976,161,100,0.005050505050505051,1511.0,1494.0,1282.3,1501.0
5.130296945571899,161,99,0.005050505050505051,1512.0,1494.0,1284.1900000000001,1501.0
5.15427303314209,161,98,0.005555555555555556,1513.0,1494.0,1286.26,1501.0
5.178119897842407,161,97,0.005555555555555556,1513.0,1494.0,1288.4200000000001,1501.0
5.201946973800659,162,96,0.005050505050505051,1516.0,1494.0,1290.6700000000001,1502.0
5.22579288482666,163,95,0.006493506493506494,1520.0,1494.0,1293.0999999999999,1503.0
5.249630928039551,163,94,0.007142857142857143,1520,1494.0,1295.6199999999999,1503.0
5.273411989212036,163,93,0.007142857142857143,1520,1494.0,1298.23,1503.0
5.297115087509155,163,92,0.007142857142857143,1520,1494.0,1300.8399999999999,1503.0
5.32088303565979,161,92,0.005050505050505051,1520,1494.0,1302.28,1501.0
5.344691038131714,161,90,0.005555555555555556,1520,1494.0,1305.8800000000001,1501.0
5.368413925170898,162,89,0.007142857142857143,1520,1494.0,1308.5799999999999,1502.0
5.392142057418823,162,88,0.007142857142857143,1520,1494.0,1311.28,1502.0
5.415909051895142,160,87,0.005555555555555556,1520.0,1494.0,1313.98,1500.0
5.439671993255615,162,86,0.006060606060606061,1520,1494.0,1316.8599999999999,1502.0
5.463393926620483,161,84,0.007142857142857143,1520.0,1494.0,1320.73,1501.0
5.4872119426727295,159,83,0.005555555555555556,1512.0,1494.0,1323.7,1499.0
5.511099100112915,159,81,0.005555555555555556,1508.0,1494.0,1325,1499.0
5.534920930862427,159,80,0.005050505050505051,1504.0,1494.0,1325,1499.0
5.558732032775879,159,79,0.005050505050505051,1502.0,1494.0,1325,1499.0
5.582736015319824,158,78,0.005555555555555556,1497.0,1494.0,1325,1498.0
5.606565952301025,158,77,0.005555555555555556,1493.0,1494.0,1325,1498.0
5.630316972732544,158,76,0.005555555555555556,1489.0,1494.0,1325,1498.0
5.65419602394104,161,75,0.006060606060606061,1496.0,1494.0,1325,1501.0
5.677937030792236,159,74,0.005050505050505051,1489.0,1494.0,1325,1499.0
5.701659917831421,159,73,0.005555555555555556,1487.0,1494.0,1325,1499.0
5.725383043289185,159,72,0.005555555555555556,1487.0,1494.0,1325,1499.0
5.749083995819092,159,71,0.005555555555555556,1487.0,1494.0,1325,1499.0
5.772826910018921,159,71,0.005050505050505051,1487.0,1494.0,1325,1499.0
5.796551942825317,159,70,0.005555555555555556,1487.0,1494.0,1325,1499.0
5.820250034332275,159,69,0.005555555555555556,1488.0,1494.0,1325,1499.0
5.844134092330933,159,68,0.005555555555555556,1489.0,1494.0,1325,1499.0
5.86788010597229,159,67,0.005555555555555556,1490.0,1494.0,1325,1499.0
5.891645908355713,159,67,0.005555555555555556,1488.0,1494.0,1325,1499.0
5.915381908416748,161,66,0.007142857142857143,1494.0,1494.0,1325,1501.0
5.939085960388184,159,66,0.005555555555555556,1490.0,1494.0,1325,1499.0
5.962871074676514,159,64,0.005555555555555556,1490.0,1494.0,1325,1499.0
5.986609935760498,159,64,0.005555555555555556,1490.0,1494.0,1325,1499.0
6.010335922241211,159,63,0.005555555555555556,1490.0,1494.0,1325,1499.0
6.034271955490112,160,62,0.007142857142857143,1493.0,1494.0,1325,1500.0
6.058053970336914,160,62,0.007142857142857143,1494.0,1494.0,1325,1500.0
6.081779956817627,159,61,0.005555555555555556,1492.0,1494.0,1325,1499.0
6.105508089065552,160,60,0.007142857142857143,1495.0,1494.0,1325,1500.0
6.129240989685059,158,59,0.005555555555555556,1490.0,1494.0,1325,1498.0
6.1529700756073,158,59,0.005555555555555556,1487.0,1494.0,1325,1498.0
6.176175117492676,158,59,0.005555555555555556,1486.0,1494.0,1325,1498.0
6.199363946914673,158,60,0.005555555555555556,1485.0,1494.0,1325,1498.0
6.222570896148682,160,61,0.006666666666666667,1490.0,1494.0,1325,1500.0
6.245805978775024,159,61,0.007142857142857143,1488.0,1494.0,1325,1499.0
6.269038915634155,159,62,0.007142857142857143,1487.0,1494.0,1325,1499.0
6.292248964309692,158,63,0.005555555555555556,1483.0,1494.0,1325,1498.0
6.315428972244263,158,63,0.005555555555555556,1482.0,1494.0,1325,1498.0
6.338619947433472,159,63,0.007142857142857143,1483.0,1494.0,1325,1499.0
6.362096071243286,159,64,0.006493506493506494,1484.0,1494.0,1325,1499.0
6.385345935821533,159,64,0.007142857142857143,1485.0,1494.0,1325,1499.0
6.408567905426025,157,65,0.005050505050505051,1480.0,1494.0,1325,1497.0
6.431750059127808,157,65,0.005555555555555556,1480,1494.0,1325,1497.0
6.454838991165161,157,67,0.005050505050505051,1480,1494.0,1325,1497.0
6.477953910827637,157,68,0.005050505050505051,1480,1494.0,1325,1497.0
6.501117944717407,157,69,0.005050505050505051,1480,1494.0,1325,1497.0
6.524287939071655,157,70,0.005050505050505051,1480,1494.0,1325,1497.0
6.5473809242248535,157,71,0.005050505050505051,1480,1494.0,1325,1497.0
6.570486068725586,157,71,0.005050505050505051,1480,1494.0,1325,1497.0
6.593739032745361,157,71,0.005555555555555556,1480,1494.0,1325,1497.0
6.616853952407837,157,71,0.005050505050505051,1480,1494.0,1325,1497.0
6.6399641036987305,157,71,0.005050505050505051,1480,1494.0,1325,1497.0
6.663074016571045,157,71,0.005050505050505051,1480,1494.0,1325,1497.0
6.686187028884888,157,72,0.005050505050505051,1480,1494.0,1325,1497.0
6.7093119621276855,157,72,0.005555555555555556,1480,1494.0,1325,1497.0
6.732513904571533,157,73,0.005555555555555556,1480,1494.0,1325,1497.0
6.755871057510376,157,75,0.005050505050505051,1480,1494.0,1325,1497.0
6.779055118560791,157,76,0.005050505050505051,1480,1494.0,1325,1497.0
6.802203893661499,157,77,0.005050505050505051,1480,1494.0,1325,1497.0
6.825330018997192,158,79,0.004784688995215311,1480,1494.0,1325,1498.0
6.848436117172241,158,79,0.004784688995215311,1480,1494.0,1325,1498.0
6.871601104736328,158,80,0.004784688995215311,1480,1494.0,1325,1498.0
6.894763946533203,160,80,0.005555555555555556,1480,1494.0,1325,1500.0
6.917854070663452,158,81,0.005050505050505051,1480,1494.0,1325,1498.0
6.941041946411133,158,81,0.004629629629629629,1480,1494.0,1325,1498.0
6.964282989501953,158,82,0.005050505050505051,1480,1494.0,1325,1498.0
6.987389087677002,158,83,0.005050505050505051,1480,1494.0,1325,1498.0
7.010487079620361,158,84,0.005050505050505051,1480,1494.0,1325,1498.0
7.033735036849976,158,84,0.004629629629629629,1480,1494.0,1325,1498.0
7.0568320751190186,158,85,0.005050505050505051,1480,1494.0,1325,1498.0
7.079951047897339,159,85,0.0043859649122807015,1481.0,1494.0,1325,1499.0
7.103127956390381,160,86,0.006060606060606061,1485.0,1494.0,1325,1500.0
7.126308917999268,159,87,0.0053475935828877,1482.0,1494.0,1324.4200000000001,1499.0
7.149594068527222,159,87,0.004629629629629629,1483.0,1494.0,1323.3399999999999,1499.0
7.172892093658447,159,88,0.004629629629629629,1484.0,1494.0,1321.27,1499.0
7.196156978607178,161,90,0.006060606060606061,1491.0,1494.0,1317.8499999999999,1501.0
7.219434022903442,159,90,0.004629629629629629,1488.0,1494.0,1316.5,1499.0
7.242738962173462,159,91,0.004629629629629629,1489.0,1494.0,1314.25,1499.0
7.266042947769165,161,92,0.006060606060606061,1496.0,1494.0,1311.73,1501.0
7.289323091506958,161,92,0.005555555555555556,1499.0,1494.0,1310.3800000000001,1501.0
7.312608957290649,159,93,0.005050505050505051,1495.0,1494.0,1308.22,1499.0
7.335891008377075,162,93,0.005555555555555556,1503.0,1494.0,1307.05,1502.0
7.3591530323028564,161,94,0.005952380952380952,1503.0,1494.0,1304.98,1501.0
7.382452011108398,159,95,0.004629629629629629,1499.0,1494.0,1302.8199999999999,1499.0
7.405747890472412,160,96,0.004784688995215311,1502.0,1494.0,1300.48,1500.0
7.428997039794922,160,96,0.0043859649122807015,1501.0,1494.0,1299.4000000000001,1500.0
7.452256917953491,160,97,0.004784688995215311,1502.0,1494.0,1297.1500000000001,1500.0
7.4755189418792725,160,97,0.0043859649122807015,1503.0,1494.0,1296.0699999999999,1500.0
7.498805999755859,161,98,0.006060606060606061,1505.0,1494.0,1294.0899999999999,1501.0
7.522078037261963,159,98,0.004629629629629629,1499.0,1494.0,1293.1900000000001,1499.0
7.545371055603027,159,99,0.005050505050505051,1499.0,1494.0,1291.21,1499.0
7.56863808631897,159,99,0.004629629629629629,1496.0,1494.0,1290.3099999999999,1499.0
7.591897964477539,159,100,0.005050505050505051,1494.0,1494.0,1288.3299999999999,1499.0
7.620668888092041,159,100,0.004629629629629629,1494.0,1494.0,1287.52,1499.0
7.644176959991455,160,101,0.0043859649122807015,1496.0,1494.0,1285.6300000000001,1500.0
7.667485952377319,162,102,0.005208333333333333,1502.0,1494.0,1283.6500000000001,1502.0
7.690834045410156,162,102,0.005555555555555556,1504.0,1494.0,1282.6600000000001,1502.0
7.71419095993042,161,102,0.005952380952380952,1503.0,1494.0,1281.8499999999999,1501.0
7.737457036972046,160,102,0.004629629629629629,1500.0,1494.0,1281.1300000000001,1500.0
7.760783910751343,160,103,0.005050505050505051,1501.0,1494.0,1279.4200000000001,1500.0
7.784140110015869,161,103,0.006493506493506494,1505.0,1494.0,1278.8800000000001,1501.0
7.807410001754761,161,103,0.006493506493506494,1507.0,1494.0,1278.3399999999999,1501.0
7.830755949020386,159,102,0.004629629629629629,1503.0,1494.0,1279.0599999999999,1499.0
7.854123115539551,159,103,0.005050505050505051,1503.0,1494.0,1277.71,1499.0
7.877403974533081,160,103,0.004784688995215311,1505.0,1494.0,1277.53,1500.0
7.900727033615112,159,103,0.005050505050505051,1500.0,1494.0,1277.4400000000001,1499.0
7.924156904220581,160,103,0.005050505050505051,1500.0,1494.0,1277.3499999999999,1500.0
7.9476470947265625,159,103,0.005050505050505051,1496.0,1494.0,1277.0799999999999,1499.0
7.97105598449707,160,102,0.004629629629629629,1498.0,1494.0,1278.1600000000001,1500.0
7.994429111480713,160,102,0.004629629629629629,1498.0,1494.0,1278.4300000000001,1500.0
8.01775598526001,161,102,0.006493506493506494,1500.0,1494.0,1278.7,1501.0
8.041155099868774,161,101,0.005952380952380952,1500.0,1494.0,1280.1400000000001,1501.0
8.064636945724487,160,101,0.005050505050505051,1499.0,1494.0,1280.5899999999999,1500.0
8.087939023971558,160,100,0.004629629629629629,1500.0,1494.0,1282.1199999999999,1500.0
8.111258029937744,160,100,0.004629629629629629,1500.0,1494.0,1282.75,1500.0
8.134567975997925,161,99,0.005952380952380952,1504.0,1494.0,1284.55,1501.0
8.157856941223145,160,99,0.005050505050505051,1502.0,1494.0,1285.27,1500.0
8.18126106262207,160,97,0.004629629629629629,1503.0,1494.0,1288.3299999999999,1500.0
8.2046639919281,160,97,0.005050505050505051,1503.0,1494.0,1289.3199999999999,1500.0
8.227969884872437,162,96,0.003968253968253968,1509.0,1494.0,1291.48,1502.0
8.25132703781128,162,96,0.004329004329004329,1510.0,1494.0,1292.5599999999999,1502.0
8.274708986282349,160,95,0.005050505050505051,1505.0,1494.0,1294.72,1500.0
8.297986030578613,162,94,0.003968253968253968,1511.0,1494.0,1296.79,1502.0
8.321321964263916,160,94,0.005050505050505051,1507.0,1494.0,1297.8699999999999,1500.0
8.344676971435547,162,93,0.004329004329004329,1513.0,1494.0,1299.9400000000001,1502.0
8.367980003356934,160,91,0.004629629629629629,1508.0,1494.0,1303.3599999999999,1500.0
8.391354084014893,161,90,0.005952380952380952,1511.0,1494.0,1305.97,1501.0
8.414719104766846,160,89,0.0043859649122807015,1509.0,1494.0,1308.49,1500.0
8.437993049621582,161,89,0.004329004329004329,1512.0,1494.0,1310.1099999999999,1501.0
8.461328983306885,162,88,0.005050505050505051,1514.0,1494.0,1312.6300000000001,1502.0
8.48467493057251,162,87,0.004629629629629629,1514.0,1494.0,1315.0599999999999,1502.0
8.507951974868774,159,86,0.004629629629629629,1507.0,1494.0,1317.49,1499.0
8.531287908554077,160,84,0.003968253968253968,1507.0,1494.0,1321.0899999999999,1500.0
8.554654121398926,158,83,0.004629629629629629,1501.0,1494.0,1324.0599999999999,1498.0
8.577943086624146,157,82,0.004629629629629629,1494.0,1494.0,1325,1497.0
8.601181983947754,159,81,0.003968253968253968,1497.0,1494.0,1325,1499.0
8.624423027038574,160,80,0.004629629629629629,1498.0,1494.0,1325,1500.0
8.6476309299469,159,79,0.003968253968253968,1495.0,1494.0,1325,1499.0
8.670881032943726,160,78,0.004629629629629629,1496.0,1494.0,1325,1500.0
8.694138050079346,160,77,0.004629629629629629,1494.0,1494.0,1325,1500.0
8.717325925827026,156,75,0.004629629629629629,1480.0,1494.0,1325,1496.0
8.740505933761597,156,74,0.004629629629629629,1480,1494.0,1325,1496.0
8.763849973678589,158,73,0.004329004329004329,1480,1494.0,1325,1498.0
8.787272930145264,158,71,0.003968253968253968,1480,1494.0,1325,1498.0
8.81041693687439,158,70,0.003787878787878788,1480.0,1494.0,1325,1498.0
8.83375096321106,160,69,0.005050505050505051,1485.0,1494.0,1325,1500.0
8.85694408416748,159,68,0.004329004329004329,1482.0,1494.0,1325,1499.0
8.880152940750122,159,66,0.004329004329004329,1482.0,1494.0,1325,1499.0
8.903475999832153,159,65,0.003787878787878788,1481.0,1494.0,1325,1499.0
8.926664113998413,159,65,0.004132231404958678,1480.0,1494.0,1325,1499.0
8.949853897094727,159,64,0.003787878787878788,1483.0,1494.0,1325,1499.0
8.973063945770264,159,64,0.003787878787878788,1486.0,1494.0,1325,1499.0
8.99625301361084,159,64,0.003787878787878788,1487.0,1494.0,1325,1499.0
9.019429922103882,159,63,0.003968253968253968,1488.0,1494.0,1325,1499.0
9.042633056640625,159,63,0.004329004329004329,1489.0,1494.0,1325,1499.0
9.065829038619995,159,61,0.004132231404958678,1488.0,1494.0,1325,1499.0
9.089041948318481,159,59,0.004132231404958678,1488.0,1494.0,1325,1499.0
9.112231016159058,159,57,0.003787878787878788,1488.0,1494.0,1325,1499.0
9.1354079246521,159,56,0.004132231404958678,1488.0,1494.0,1325,1499.0
9.158592939376831,159,54,0.003968253968253968,1488.0,1494.0,1325,1499.0
9.181807041168213,158,54,0.004132231404958678,1485.0,1494.0,1325,1498.0
9.205014944076538,158,53,0.003787878787878788,1484.0,1494.0,1325,1498.0
9.228226900100708,158,53,0.003787878787878788,1483.0,1494.0,1325,1498.0
9.251494884490967,158,54,0.004132231404958678,1482.0,1494.0,1325,1498.0
9.274787902832031,160,54,0.0043859649122807015,1487.0,1494.0,1325,1500.0
9.297977924346924,159,54,0.003968253968253968,1485.0,1494.0,1325,1499.0
9.3212571144104,159,54,0.003787878787878788,1485.0,1494.0,1325,1499.0
9.34450888633728,159,53,0.003787878787878788,1485.0,1494.0,1325,1499.0
9.367729902267456,159,53,0.003787878787878788,1485.0,1494.0,1325,1499.0
9.390981912612915,159,52,0.003968253968253968,1485.0,1494.0,1325,1499.0
9.414278984069824,158,53,0.003787878787878788,1483.0,1494.0,1325,1498.0
9.437474012374878,158,53,0.003787878787878788,1483.0,1494.0,1325,1498.0
9.460731983184814,158,53,0.003787878787878788,1483.0,1494.0,1325,1498.0
9.484034061431885,158,54,0.0034965034965034965,1483.0,1494.0,1325,1498.0
9.507231950759888,160,54,0.004629629629629629,1487.0,1494.0,1325,1500.0
9.530427932739258,159,55,0.003787878787878788,1485.0,1494.0,1325,1499.0
9.553765058517456,159,56,0.0034965034965034965,1485.0,1494.0,1325,1499.0
9.57699704170227,159,57,0.0034965034965034965,1485.0,1494.0,1325,1499.0
9.60017704963684,158,58,0.003787878787878788,1482.0,1494.0,1325,1498.0
9.623491048812866,158,59,0.0034965034965034965,1481.0,1494.0,1325,1498.0
9.646682024002075,159,59,0.0033444816053511705,1484.0,1494.0,1325,1499.0
9.669862985610962,158,59,0.003787878787878788,1482.0,1494.0,1325,1498.0
9.693034887313843,158,60,0.0034965034965034965,1482.0,1494.0,1325,1498.0
9.716202020645142,158,60,0.003787878787878788,1482.0,1494.0,1325,1498.0
9.739372968673706,158,61,0.0034965034965034965,1480.0,1494.0,1325,1498.0
9.762553930282593,158,62,0.0034965034965034965,1480,1494.0,1325,1498.0
9.785677909851074,158,63,0.0034965034965034965,1480,1494.0,1325,1498.0
9.808770895004272,158,63,0.003246753246753247,1480,1494.0,1325,1498.0
9.831850051879883,158,64,0.0034965034965034965,1480,1494.0,1325,1498.0
9.854933977127075,158,64,0.003246753246753247,1480,1494.0,1325,1498.0
9.878062963485718,160,65,0.004048582995951417,1482.0,1494.0,1325,1500.0
9.901298999786377,161,66,0.004048582995951417,1487.0,1494.0,1325,1501.0
9.924577951431274,159,66,0.003246753246753247,1484.0,1494.0,1325,1499.0
9.9478120803833,160,67,0.0033444816053511705,1488.0,1494.0,1325,1500.0
9.97108507156372,161,68,0.003105590062111801,1493.0,1494.0,1325,1501.0
9.994343042373657,160,68,0.003246753246753247,1493.0,1494.0,1325,1500.0
10.017518997192383,160,69,0.003246753246753247,1495.0,1494.0,1325,1500.0
10.04079008102417,160,69,0.003105590062111801,1497.0,1494.0,1325,1500.0
10.064125061035156,159,70,0.003246753246753247,1496.0,1494.0,1325,1499.0
10.087593078613281,159,70,0.003246753246753247,1497.0,1494.0,1325,1499.0
10.110860109329224,159,71,0.003246753246753247,1496.0,1494.0,1325,1499.0
10.13410997390747,160,73,0.003105590062111801,1497.0,1494.0,1325,1500.0
10.157301902770996,160,74,0.003105590062111801,1498.0,1494.0,1325,1500.0
10.180514097213745,159,74,0.003246753246753247,1495.0,1494.0,1325,1499.0
10.203924894332886,159,75,0.003246753246753247,1493.0,1494.0,1325,1499.0
10.227133989334106,159,76,0.003246753246753247,1492.0,1494.0,1325,1499.0
10.250329971313477,160,77,0.002898550724637681,1494.0,1494.0,1325,1500.0
10.273696899414062,159,77,0.003246753246753247,1491.0,1494.0,1325,1499.0
10.2969069480896,159,78,0.003246753246753247,1491.0,1494.0,1325,1499.0
10.32010006904602,160,80,0.003246753246753247,1494.0,1494.0,1325,1500.0
10.343409061431885,160,81,0.003246753246753247,1495.0,1494.0,1325,1500.0
10.366602897644043,161,82,0.003105590062111801,1498.0,1494.0,1325,1501.0
10.389807939529419,160,83,0.003246753246753247,1496.0,1494.0,1325,1500.0
10.412997961044312,162,84,0.002898550724637681,1503.0,1494.0,1325,1502.0
10.436186075210571,161,85,0.0030303030303030303,1503.0,1494.0,1325,1501.0
10.459393978118896,161,85,0.003246753246753247,1505.0,1494.0,1325,1501.0
10.48263692855835,162,86,0.003703703703703704,1509.0,1494.0,1325,1502.0
10.505817890167236,162,87,0.003968253968253968,1512.0,1494.0,1325,1502.0
10.529014110565186,162,88,0.0026666666666666666,1515.0,1494.0,1322.53,1502.0
10.552336931228638,162,88,0.002857142857142857,1517.0,1494.0,1321.27,1502.0
10.575655937194824,162,89,0.0026666666666666666,1519.0,1494.0,1318.9300000000001,1502.0
10.598927021026611,162,89,0.002857142857142857,1520.0,1494.0,1317.76,1502.0
10.622188091278076,163,90,0.0030303030303030303,1520,1494.0,1315.6900000000001,1503.0
10.64540696144104,161,90,0.0027472527472527475,1520.0,1494.0,1314.79,1501.0
10.668699026107788,161,92,0.0026666666666666666,1520.0,1494.0,1311.6400000000001,1501.0
10.69198489189148,161,92,0.002857142857142857,1520.0,1494.0,1310.47,1501.0
10.71525502204895,160,93,0.0026666666666666666,1516.0,1494.0,1308.22,1500.0
10.738522052764893,160,94,0.0026666666666666666,1514.0,1494.0,1305.97,1500.0
10.761797904968262,161,94,0.0030303030303030303,1515.0,1494.0,1304.71,1501.0
10.785079002380371,161,95,0.0030303030303030303,1514.0,1494.0,1302.6400000000001,1501.0
10.808357000350952,159,95,0.002564102564102564,1507.0,1494.0,1301.5599999999999,1499.0
10.831640005111694,159,95,0.002564102564102564,1504.0,1494.0,1300.6600000000001,1499.0
10.854926109313965,158,96,0.002564102564102564,1497.0,1494.0,1298.8599999999999,1498.0
10.878225088119507,158,96,0.002564102564102564,1494.0,1494.0,1297.96,1498.0
10.901567935943604,159,97,0.0030303030303030303,1494.0,1494.0,1296.25,1499.0
10.92490005493164,158,97,0.0026666666666666666,1489.0,1494.0,1295.4400000000001,1498.0
10.948173999786377,157,97,0.002403846153846154,1484.0,1494.0,1294.72,1497.0
10.971517086029053,157,98,0.002564102564102564,1481.0,1494.0,1293.0999999999999,1497.0
10.994865894317627,157,98,0.002564102564102564,1480,1494.0,1292.3800000000001,1497.0
11.018064975738525,158,98,0.0030303030303030303,1480,1494.0,1291.9300000000001,1498.0
11.041382074356079,158,98,0.002840909090909091,1480,1494.0,1291.48,1498.0
11.06471300125122,158,98,0.002840909090909091,1480,1494.0,1291.03,1498.0
11.087929964065552,158,98,0.002840909090909091,1480,1494.0,1290.8499999999999,1498.0
11.111200094223022,156,98,0.002403846153846154,1480,1494.0,1290.6700000000001,1496.0
11.134464025497437,156,98,0.002403846153846154,1480,1494.0,1290.5799999999999,1496.0
11.15766191482544,156,98,0.002403846153846154,1480,1494.0,1290.49,1496.0
11.180963039398193,156,98,0.002403846153846154,1480,1494.0,1290.4000000000001,1496.0
11.204324960708618,156,98,0.002403846153846154,1480,1494.0,1290.4000000000001,1496.0
11.227561950683594,156,98,0.002403846153846154,1480,1494.0,1290.4000000000001,1496.0
11.250899076461792,156,98,0.0022624434389140274,1480,1494.0,1290.4000000000001,1496.0
11.274311065673828,156,98,0.0022624434389140274,1480,1494.0,1290.4000000000001,1496.0
11.297852039337158,156,97,0.002403846153846154,1480,1494.0,1291.5699999999999,1496.0
11.32135796546936,156,97,0.0022624434389140274,1480,1494.0,1291.8399999999999,1496.0
11.345058917999268,157,97,0.002178649237472767,1480,1494.0,1292.1099999999999,1497.0
11.368451118469238,156,96,0.0022624434389140274,1480,1494.0,1293.55,1496.0
11.391702890396118,157,96,0.0021008403361344537,1480,1494.0,1294.0899999999999,1497.0
11.414977073669434,157,95,0.002178649237472767,1480,1494.0,1295.6199999999999,1497.0
11.438215017318726,156,95,0.0022624434389140274,1480,1494.0,1296.25,1496.0
11.46144700050354,157,94,0.0021008403361344537,1480,1494.0,1298.05,1497.0
11.48471999168396,157,93,0.001984126984126984,1480,1494.0,1299.9400000000001,1497.0
11.507910966873169,156,92,0.002136752136752137,1480,1494.0,1302.0999999999999,1496.0
11.53116488456726,157,92,0.002178649237472767,1480,1494.0,1303.0899999999999,1497.0
11.554466009140015,158,90,0.00196078431372549,1480,1494.0,1306.4200000000001,1498.0
11.577706098556519,157,89,0.002136752136752137,1480,1494.0,1308.9400000000001,1497.0
11.600977897644043,159,88,0.0019157088122605363,1480,1494.0,1311.46,1499.0
11.624258041381836,159,87,0.0019157088122605363,1480,1494.0,1314.0699999999999,1499.0
11.647464990615845,159,86,0.001851851851851852,1480,1494.0,1316.8599999999999,1499.0
11.670767068862915,159,85,0.001851851851851852,1480,1494.0,1319.5599999999999,1499.0
11.694096088409424,159,85,0.00196078431372549,1480,1494.0,1321.0899999999999,1499.0
11.717313051223755,159,83,0.001851851851851852,1480.0,1494.0,1324.6900000000001,1499.0
11.740586042404175,159,82,0.001851851851851852,1483.0,1494.0,1325,1499.0
11.764036893844604,159,81,0.001851851851851852,1485.0,1494.0,1325,1499.0
11.787240028381348,159,80,0.001851851851851852,1486.0,1494.0,1325,1499.0
11.810457944869995,159,78,0.001851851851851852,1488.0,1494.0,1325,1499.0
11.833798885345459,159,77,0.001851851851851852,1488.0,1494.0,1325,1499.0
11.857006072998047,159,76,0.001851851851851852,1488.0,1494.0,1325,1499.0
11.8802170753479,159,74,0.001851851851851852,1488.0,1494.0,1325,1499.0
11.903563976287842,159,72,0.001851851851851852,1488.0,1494.0,1325,1499.0
11.92677092552185,159,71,0.001851851851851852,1488.0,1494.0,1325,1499.0
11.949958086013794,159,70,0.001851851851851852,1488.0,1494.0,1325,1499.0
11.973166942596436,159,69,0.001851851851851852,1488.0,1494.0,1325,1499.0
11.99635910987854,160,68,0.0017921146953405018,1491.0,1494.0,1325,1500.0
12.019536018371582,160,67,0.0017921146953405018,1492.0,1494.0,1325,1500.0
12.042731046676636,160,66,0.001851851851851852,1493.0,1494.0,1325,1500.0
12.065917015075684,160,64,0.001851851851851852,1494.0,1494.0,1325,1500.0
12.089102983474731,161,63,0.0017921146953405018,1498.0,1494.0,1325,1501.0
12.112299919128418,161,62,0.001736111111111111,1500.0,1494.0,1325,1501.0
12.135488986968994,161,61,0.0018975332068311196,1502.0,1494.0,1325,1501.0
12.158682107925415,161,59,0.0017921146953405018,1504.0,1494.0,1325,1501.0
12.181880950927734,161,58,0.0017921146953405018,1506.0,1494.0,1325,1501.0
12.20507001876831,161,57,0.0017921146953405018,1508.0,1494.0,1325,1501.0
12.228287935256958,161,56,0.0017921146953405018,1509.0,1494.0,1325,1501.0
12.251574993133545,161,53,0.0017921146953405018,1510.0,1494.0,1325,1501.0
12.274923086166382,161,52,0.0017921146953405018,1511.0,1494.0,1325,1501.0
12.298124074935913,161,51,0.00196078431372549,1512.0,1494.0,1325,1501.0
12.321378946304321,161,50,0.0018975332068311196,1512.0,1494.0,1325,1501.0
12.344656944274902,160,48,0.001851851851851852,1509.0,1494.0,1325,1500.0
12.367863893508911,162,47,0.0016835016835016834,1514.0,1494.0,1325,1502.0
12.391134977340698,162,46,0.0016835016835016834,1515.0,1494.0,1325,1502.0
12.414434909820557,162,46,0.001594896331738437,1516.0,1494.0,1325,1502.0
12.437649965286255,163,45,0.0017543859649122807,1520.0,1494.0,1325,1503.0
12.460906028747559,159,44,0.0017543859649122807,1510.0,1494.0,1325,1499.0
12.484195947647095,161,44,0.001594896331738437,1514.0,1494.0,1325,1501.0
12.507378101348877,160,43,0.0015479876160990713,1511.0,1494.0,1325,1500.0
12.530951023101807,160,42,0.0015479876160990713,1510.0,1494.0,1325,1500.0
12.554274082183838,160,40,0.0016835016835016834,1509.0,1494.0,1325,1500.0
12.57752799987793,161,39,0.0017543859649122807,1512.0,1494.0,1325,1501.0
12.600951910018921,159,36,0.0015479876160990713,1505.0,1494.0,1325,1499.0
12.624489068984985,159,34,0.0014705882352941176,1502.0,1494.0,1325,1499.0
12.647763013839722,159,33,0.0015479876160990713,1499.0,1494.0,1325,1499.0
12.671051025390625,158,32,0.0014705882352941176,1492.0,1494.0,1325,1498.0
12.694324970245361,158,32,0.0014005602240896359,1491.0,1494.0,1325,1498.0
12.717520952224731,158,31,0.0014705882352941176,1488.0,1494.0,1325,1498.0
12.740838050842285,158,32,0.0014705882352941176,1486.0,1494.0,1325,1498.0
12.764225006103516,158,32,0.0014705882352941176,1484.0,1494.0,1325,1498.0
12.787457942962646,159,32,0.0014705882352941176,1485.0,1494.0,1325,1499.0
12.810708045959473,159,32,0.0014705882352941176,1483.0,1494.0,1325,1499.0
12.833977937698364,159,31,0.0014705882352941176,1483.0,1494.0,1325,1499.0
12.857163906097412,160,30,0.0014285714285714286,1486.0,1494.0,1325,1500.0
12.880340099334717,160,29,0.0015037593984962407,1487.0,1494.0,1325,1500.0
12.903650999069214,161,27,0.0013513513513513514,1492.0,1494.0,1325,1501.0
12.926851987838745,160,27,0.0014285714285714286,1492.0,1494.0,1325,1500.0
12.950033903121948,159,26,0.0014705882352941176,1491.0,1494.0,1325,1499.0
12.973362922668457,160,26,0.0014285714285714286,1495.0,1494.0,1325,1500.0
12.996577024459839,160,26,0.001287001287001287,1497.0,1494.0,1325,1500.0
13.019731998443604,160,26,0.001287001287001287,1498.0,1494.0,1325,1500.0
13.042948007583618,159,25,0.0013157894736842105,1496.0,1494.0,1325,1499.0
13.066189050674438,159,25,0.001287001287001287,1496.0,1494.0,1325,1499.0
13.089401006698608,158,24,0.0013157894736842105,1492.0,1494.0,1325,1498.0
