time,x,y,size_inv,roll,pitch,thrust,yaw
0.0004410743713378906,175,55,0.005555555555555556,1520,1494.0,1350,1515.0
0.022454023361206055,175,55,0.005555555555555556,1520,1494.0,1350,1515.0
0.044003963470458984,175,55,0.005555555555555556,1520,1494.0,1350,1515.0
0.06541299819946289,175,55,0.005555555555555556,1520,1494.0,1350,1515.0
0.08679008483886719,175,55,0.005555555555555556,1520,1494.0,1350,1515.0
0.10817599296569824,175,55,0.005555555555555556,1520,1494.0,1350,1515.0
0.12961602210998535,175,55,0.005555555555555556,1520,1494.0,1350,1515.0
0.15102314949035645,175,55,0.005555555555555556,1520,1494.0,1350,1515.0
0.17252492904663086,175,55,0.005555555555555556,1520,1494.0,1350,1515.0
0.1940610408782959,175,55,0.005555555555555556,1520,1494.0,1350,1515.0
0.21563100814819336,175,55,0.005555555555555556,1520,1494.0,1350,1515.0
0.23738312721252441,175,55,0.005555555555555556,1520,1494.0,1350,1515.0
0.2591581344604492,175,55,0.005555555555555556,1520,1494.0,1350,1515.0
0.28088808059692383,174,55,0.005555555555555556,1520,1494.0,1350,1514.0
0.30271315574645996,173,55,0.005555555555555556,1520,1494.0,1350,1513.0
0.32455897331237793,172,55,0.006172839506172839,1520,1494.0,1350,1512.0
0.346311092376709,172,54,0.007936507936507936,1520,1494.0,1350,1512.0
0.36803197860717773,169,53,0.006172839506172839,1520,1494.0,1350,1509.0
0.38977599143981934,169,52,0.006666666666666667,1520,1494.0,1350,1509.0
0.4115140438079834,167,52,0.007142857142857143,1520,1494.0,1350,1507.0
0.4332571029663086,165,53,0.006666666666666667,1520,1494.0,1350,1505.0
0.4550330638885498,162,54,0.007142857142857143,1520,1494.0,1350,1502.0
0.47678613662719727,160,54,0.007142857142857143,1520,1494.0,1350,1500.0
0.49852514266967773,159,55,0.006666666666666667,1520,1494.0,1350,1499.0
0.5202579498291016,157,56,0.007142857142857143,1520,1494.0,1350,1497.0
0.5419890880584717,155,57,0.0058823529411764705,1520,1494.0,1350,1495.0
0.5638160705566406,153,58,0.005555555555555556,1502.0,1494.0,1350,1493.0
0.5856029987335205,154,59,0.007142857142857143,1489.0,1494.0,1350,1494.0
0.6074039936065674,153,60,0.007142857142857143,1480,1494.0,1348.04,1493.0
0.6292049884796143,151,61,0.005555555555555556,1480,1494.0,1346.26,1491.0
0.6510090827941895,151,63,0.007142857142857143,1480,1494.0,1342.8599999999999,1491.0
0.672814130783081,151,64,0.007142857142857143,1480,1494.0,1340.6600000000001,1491.0
0.6946239471435547,151,65,0.007142857142857143,1480,1494.0,1338.8399999999999,1491.0
0.7164280414581299,151,66,0.007142857142857143,1480,1494.0,1337.02,1491.0
0.7382340431213379,150,67,0.005555555555555556,1480,1494.0,1335.2,1490.0
0.7600431442260742,152,68,0.007142857142857143,1480,1494.0,1334.1800000000001,1492.0
0.7818350791931152,151,69,0.0053475935828877,1480,1494.0,1333.1600000000001,1491.0
0.8037259578704834,151,69,0.005555555555555556,1480,1494.0,1333.76,1491.0
0.8255360126495361,153,70,0.007142857142857143,1480,1494.0,1333.1600000000001,1493.0
0.8473320007324219,153,71,0.007142857142857143,1480,1494.0,1332.5599999999999,1493.0
0.869163990020752,153,72,0.007142857142857143,1480,1494.0,1331.5799999999999,1493.0
0.8909721374511719,152,73,0.005555555555555556,1480,1494.0,1330.5999999999999,1492.0
0.9127800464630127,152,74,0.005555555555555556,1480,1494.0,1328.8199999999999,1492.0
0.9345970153808594,154,75,0.007142857142857143,1480,1494.0,1327.04,1494.0
0.956402063369751,154,76,0.007142857142857143,1480,1494.0,1325.26,1494.0
0.9781889915466309,154,77,0.007142857142857143,1480,1494.0,1323.48,1494.0
0.9999821186065674,153,79,0.005555555555555556,1480,1494.0,1320.0799999999999,1493.0
1.0217840671539307,154,81,0.004784688995215311,1480,1494.0,1316.6400000000001,1494.0
1.043619155883789,153,82,0.005050505050505051,1480,1494.0,1314.4000000000001,1493.0
1.0654430389404297,153,83,0.005050505050505051,1480,1494.0,1312.1600000000001,1493.0
1.087235927581787,153,84,0.005050505050505051,1480,1494.0,1309.9200000000001,1493.0
1.1090359687805176,154,85,0.004784688995215311,1480,1494.0,1308.48,1494.0
1.1308319568634033,153,86,0.005050505050505051,1480,1494.0,1307.8399999999999,1493.0
1.152846097946167,154,87,0.004784688995215311,1480,1494.0,1307.2,1494.0
1.1746881008148193,153,87,0.005555555555555556,1480,1494.0,1308.1800000000001,1493.0
1.1964890956878662,153,88,0.005050505050505051,1480,1494.0,1307.96,1493.0
1.218264102935791,153,89,0.005050505050505051,1480,1494.0,1307.3599999999999,1493.0
1.2400729656219482,153,89,0.005555555555555556,1480,1494.0,1308.0,1493.0
1.2618789672851562,155,90,0.006493506493506494,1480,1494.0,1307.4400000000001,1495.0
1.2837860584259033,154,91,0.005050505050505051,1480,1494.0,1306.0799999999999,1494.0
1.3056020736694336,154,92,0.005050505050505051,1480,1494.0,1304.72,1494.0
1.3273999691009521,154,93,0.005050505050505051,1480,1494.0,1303.3599999999999,1494.0
1.349200963973999,154,94,0.005050505050505051,1480,1494.0,1301.2,1494.0
1.3709721565246582,154,95,0.005050505050505051,1480,1494.0,1299.04,1494.0
1.3927650451660156,154,96,0.005050505050505051,1480,1494.0,1297.26,1494.0
1.414546012878418,154,96,0.005050505050505051,1480,1494.0,1297.0999999999999,1494.0
1.4363510608673096,155,97,0.004784688995215311,1480,1494.0,1295.74,1495.0
1.458158016204834,154,97,0.005050505050505051,1480,1494.0,1296.3800000000001,1494.0
1.4799439907073975,155,98,0.005050505050505051,1480,1494.0,1295.8199999999999,1495.0
1.5017321109771729,155,98,0.005050505050505051,1480,1494.0,1296.8800000000001,1495.0
1.5235300064086914,155,99,0.005050505050505051,1480,1494.0,1295.9400000000001,1495.0
1.5453400611877441,155,99,0.005050505050505051,1480,1494.0,1296.6199999999999,1495.0
1.5671451091766357,155,99,0.004629629629629629,1480,1494.0,1296.9200000000001,1495.0
1.5889451503753662,155,100,0.005050505050505051,1480,1494.0,1296.02,1495.0
1.610764980316162,156,100,0.0043859649122807015,1480,1494.0,1295.9400000000001,1496.0
1.6326720714569092,157,100,0.005208333333333333,1480,1494.0,1296.6600000000001,1497.0
1.654569149017334,155,101,0.005050505050505051,1480,1494.0,1295.3800000000001,1495.0
1.676382064819336,156,101,0.0043859649122807015,1480,1494.0,1295.3,1496.0
1.6981821060180664,156,101,0.004629629629629629,1480,1494.0,1295.6400000000001,1496.0
1.719970941543579,156,102,0.005050505050505051,1480,1494.0,1294.3599999999999,1496.0
1.7417850494384766,156,102,0.005050505050505051,1480,1494.0,1293.9000000000001,1496.0
1.7635910511016846,157,102,0.0043859649122807015,1480,1494.0,1294.24,1497.0
1.7853729724884033,158,102,0.005555555555555556,1480,1494.0,1294.5799999999999,1498.0
1.8071849346160889,157,103,0.005050505050505051,1480,1494.0,1292.9200000000001,1497.0
1.8289859294891357,157,103,0.005050505050505051,1480,1494.0,1293.26,1497.0
1.8507840633392334,157,103,0.005050505050505051,1480,1494.0,1293.5999999999999,1497.0
1.872689962387085,157,103,0.005050505050505051,1480,1494.0,1293.5599999999999,1497.0
1.8946020603179932,157,103,0.005050505050505051,1480,1494.0,1293.52,1497.0
1.9169011116027832,157,103,0.005050505050505051,1480,1494.0,1294.28,1497.0
1.9401791095733643,160,103,0.006060606060606061,1480,1494.0,1294.6600000000001,1500.0
1.9633829593658447,158,103,0.005050505050505051,1480,1494.0,1295.04,1498.0
1.9866740703582764,158,102,0.004629629629629629,1480,1494.0,1297.04,1498.0
2.0099899768829346,159,102,0.004629629629629629,1480,1494.0,1297.8399999999999,1499.0
2.033292055130005,161,102,0.006060606060606061,1483.0,1494.0,1298.26,1501.0
2.056623935699463,159,102,0.005050505050505051,1481.0,1494.0,1298.6800000000001,1499.0
2.0799970626831055,159,101,0.004629629629629629,1483.0,1494.0,1300.72,1499.0
2.103325128555298,160,101,0.005050505050505051,1488.0,1494.0,1300.76,1500.0
2.1266629695892334,160,101,0.005050505050505051,1491.0,1494.0,1300.8,1500.0
2.1500210762023926,161,100,0.0043859649122807015,1497.0,1494.0,1302.46,1501.0
2.173354148864746,160,100,0.005050505050505051,1495.0,1494.0,1302.9200000000001,1500.0
2.1967110633850098,161,100,0.005050505050505051,1500.0,1494.0,1302.5799999999999,1501.0
2.220050096511841,161,99,0.004629629629629629,1503.0,1494.0,1304.24,1501.0
2.2434210777282715,161,99,0.005050505050505051,1505.0,1494.0,1304.7,1501.0
2.2670841217041016,161,99,0.005050505050505051,1505.0,1494.0,1304.3599999999999,1501.0
2.2904720306396484,161,98,0.005050505050505051,1507.0,1494.0,1305.6400000000001,1501.0
2.31384015083313,161,98,0.005050505050505051,1509.0,1494.0,1306.0999999999999,1501.0
2.3371951580047607,162,96,0.0058823529411764705,1513.0,1494.0,1309.0,1502.0
2.360530138015747,162,96,0.005050505050505051,1515.0,1494.0,1309.5,1502.0
2.383871078491211,162,95,0.005050505050505051,1516.0,1494.0,1312.0,1502.0
2.4071919918060303,162,95,0.005050505050505051,1518.0,1494.0,1312.5,1502.0
2.4305429458618164,162,94,0.005050505050505051,1519.0,1494.0,1314.6199999999999,1502.0
2.453900098800659,163,93,0.005263157894736842,1520,1494.0,1315.9400000000001,1503.0
2.477189064025879,163,93,0.005050505050505051,1520,1494.0,1316.0599999999999,1503.0
2.5004429817199707,164,92,0.006493506493506494,1520,1494.0,1317.0,1504.0
2.523685932159424,163,92,0.005050505050505051,1520,1494.0,1317.1199999999999,1503.0
2.546955108642578,164,91,0.007142857142857143,1520,1494.0,1318.0599999999999,1504.0
2.5702030658721924,165,91,0.006060606060606061,1520,1494.0,1317.76,1505.0
2.5934510231018066,164,90,0.007142857142857143,1520,1494.0,1319.0799999999999,1504.0
2.6167221069335938,164,89,0.007142857142857143,1520,1494.0,1320.4000000000001,1504.0
2.6399741172790527,162,89,0.005050505050505051,1520,1494.0,1320.52,1502.0
2.663304090499878,162,88,0.005555555555555556,1520,1494.0,1321.8399999999999,1502.0
2.686612129211426,162,86,0.005555555555555556,1520,1494.0,1325.5799999999999,1502.0
2.709897994995117,162,86,0.005555555555555556,1520,1494.0,1326.1199999999999,1502.0
2.7331700325012207,162,85,0.005555555555555556,1520,1494.0,1327.8599999999999,1502.0
2.7564151287078857,163,84,0.007142857142857143,1520,1494.0,1330.02,1503.0
2.779668092727661,163,83,0.007142857142857143,1520,1494.0,1332.1800000000001,1503.0
2.802976131439209,163,82,0.007142857142857143,1520,1494.0,1333.1600000000001,1503.0
2.8262979984283447,163,82,0.007142857142857143,1520,1494.0,1333.3199999999999,1503.0
2.849571943283081,163,81,0.007142857142857143,1520,1494.0,1334.6800000000001,1503.0
2.8729889392852783,161,80,0.006172839506172839,1520,1494.0,1335.6600000000001,1501.0
2.896420955657959,161,79,0.005555555555555556,1520,1494.0,1336.6400000000001,1501.0
2.9196791648864746,162,78,0.007142857142857143,1520,1494.0,1338.0,1502.0
2.9431121349334717,162,77,0.007142857142857143,1520,1494.0,1339.78,1502.0
2.966541051864624,162,76,0.007142857142857143,1520,1494.0,1341.5599999999999,1502.0
2.989794969558716,160,75,0.005555555555555556,1520.0,1494.0,1343.3399999999999,1500.0
3.013309955596924,160,75,0.005050505050505051,1517.0,1494.0,1343.5,1500.0
3.0368690490722656,161,73,0.007142857142857143,1517.0,1494.0,1346.48,1501.0
3.0602409839630127,160,73,0.0058823529411764705,1512.0,1494.0,1346.26,1500.0
3.0836081504821777,159,72,0.005555555555555556,1506.0,1494.0,1347.24,1499.0
3.1069459915161133,160,72,0.004784688995215311,1507.0,1494.0,1346.5999999999999,1500.0
3.130336046218872,159,71,0.005555555555555556,1503.0,1494.0,1347.96,1499.0
3.1537280082702637,159,70,0.005555555555555556,1500.0,1494.0,1348.52,1499.0
3.1771130561828613,159,70,0.005050505050505051,1497.0,1494.0,1348.26,1499.0
3.2004849910736084,159,69,0.005555555555555556,1494.0,1494.0,1349.2,1499.0
3.223816156387329,160,68,0.005555555555555556,1496.0,1494.0,1350,1500.0
3.2470951080322266,161,68,0.007142857142857143,1499.0,1494.0,1350,1501.0
3.2703731060028076,161,68,0.007142857142857143,1499.0,1494.0,1350,1501.0
3.29364013671875,161,68,0.007142857142857143,1500.0,1494.0,1350,1501.0
3.3169100284576416,161,68,0.007142857142857143,1502.0,1494.0,1349.3599999999999,1501.0
3.3402719497680664,161,68,0.007142857142857143,1503.0,1494.0,1347.8399999999999,1501.0
3.363610029220581,160,68,0.0058823529411764705,1502.0,1494.0,1346.7,1500.0
3.3869640827178955,159,67,0.005555555555555556,1500.0,1494.0,1347.5599999999999,1499.0
3.4103219509124756,159,67,0.005555555555555556,1500.0,1494.0,1347.22,1499.0
3.433659076690674,160,67,0.007142857142857143,1503.0,1494.0,1347.26,1500.0
3.4572930335998535,160,67,0.007142857142857143,1503.0,1494.0,1347.6800000000001,1500.0
3.480708122253418,159,67,0.005555555555555556,1499.0,1494.0,1348.0999999999999,1499.0
3.5040791034698486,160,67,0.007142857142857143,1500.0,1494.0,1347.72,1500.0
3.5274131298065186,159,68,0.0058823529411764705,1496.0,1494.0,1345.72,1499.0
3.5507819652557373,158,68,0.005555555555555556,1491.0,1494.0,1344.9200000000001,1498.0
3.5741159915924072,159,69,0.007936507936507936,1491.0,1494.0,1342.5,1499.0
3.5974249839782715,159,69,0.007936507936507936,1490.0,1494.0,1341.28,1499.0
3.6207990646362305,159,68,0.007142857142857143,1490.0,1494.0,1342.0599999999999,1499.0
3.644170045852661,159,68,0.007142857142857143,1490.0,1494.0,1342.4400000000001,1499.0
3.6675541400909424,159,68,0.007936507936507936,1489.0,1494.0,1342.8199999999999,1499.0
3.690911054611206,157,68,0.006172839506172839,1482.0,1494.0,1344.0,1497.0
3.7142491340637207,157,68,0.006172839506172839,1480.0,1494.0,1345.1800000000001,1497.0
3.7376041412353516,157,68,0.006172839506172839,1480,1494.0,1345.5599999999999,1497.0
3.7608721256256104,157,68,0.006172839506172839,1480,1494.0,1345.5599999999999,1497.0
3.784148931503296,157,68,0.006172839506172839,1480,1494.0,1345.5599999999999,1497.0
3.807384967803955,159,68,0.007936507936507936,1480,1494.0,1345.1800000000001,1499.0
3.8306691646575928,159,68,0.007142857142857143,1480,1494.0,1344.8,1499.0
3.853961944580078,159,68,0.007142857142857143,1480,1494.0,1344.8,1499.0
3.8772659301757812,158,69,0.0058823529411764705,1480,1494.0,1343.1800000000001,1498.0
3.9005351066589355,158,70,0.0058823529411764705,1480,1494.0,1341.1400000000001,1498.0
3.9237921237945557,158,71,0.006535947712418301,1480,1494.0,1338.6800000000001,1498.0
3.94710111618042,159,71,0.007142857142857143,1480,1494.0,1337.4200000000001,1499.0
3.9704220294952393,158,71,0.0058823529411764705,1480,1494.0,1336.1600000000001,1498.0
3.9936931133270264,158,72,0.0058823529411764705,1480,1494.0,1334.0799999999999,1498.0
4.016987085342407,159,73,0.007936507936507936,1483.0,1494.0,1332.3800000000001,1499.0
4.0403831005096436,159,73,0.007142857142857143,1483.0,1494.0,1332.6800000000001,1499.0
4.063755989074707,157,74,0.005555555555555556,1480,1494.0,1331.3599999999999,1497.0
4.08704400062561,157,74,0.005555555555555556,1480,1494.0,1331.24,1497.0
4.110310077667236,157,75,0.005555555555555556,1480,1494.0,1329.9200000000001,1497.0
4.133578062057495,157,75,0.005555555555555556,1480,1494.0,1330.22,1497.0
4.156826972961426,157,76,0.005050505050505051,1480,1494.0,1328.52,1497.0
4.180107116699219,157,76,0.005555555555555556,1480,1494.0,1328.8199999999999,1497.0
4.2033820152282715,157,77,0.005050505050505051,1480,1494.0,1327.5,1497.0
4.226647138595581,157,77,0.005555555555555556,1480,1494.0,1327.8,1497.0
4.249946117401123,157,78,0.005050505050505051,1480,1494.0,1326.0999999999999,1497.0
4.273200988769531,157,78,0.005555555555555556,1480,1494.0,1326.4000000000001,1497.0
4.296466112136841,159,78,0.006666666666666667,1480,1494.0,1326.3199999999999,1499.0
4.319716930389404,157,78,0.005555555555555556,1480,1494.0,1327.04,1497.0
4.343266010284424,159,79,0.006493506493506494,1480,1494.0,1325.76,1499.0
4.367051124572754,158,79,0.0053475935828877,1480,1494.0,1326.48,1498.0
4.390480995178223,158,79,0.0058823529411764705,1480,1494.0,1326.8199999999999,1498.0
4.413790941238403,158,79,0.0058823529411764705,1480,1494.0,1327.1600000000001,1498.0
4.4370739459991455,158,80,0.0053475935828877,1480,1494.0,1325.5,1498.0
4.460338115692139,158,80,0.005050505050505051,1480,1494.0,1325.8399999999999,1498.0
4.483622074127197,158,79,0.005555555555555556,1480,1494.0,1327.4200000000001,1498.0
4.5068700313568115,158,80,0.005050505050505051,1480,1494.0,1326.1800000000001,1498.0
4.530138969421387,159,80,0.0053475935828877,1480,1494.0,1326.1400000000001,1499.0
4.5534210205078125,161,80,0.006666666666666667,1487.0,1494.0,1326.9000000000001,1501.0
4.576784133911133,160,81,0.0053475935828877,1486.0,1494.0,1325.6600000000001,1500.0
4.600167989730835,160,81,0.005050505050505051,1488.0,1494.0,1324.8199999999999,1500.0
4.623820066452026,160,81,0.005555555555555556,1490.0,1494.0,1324.78,1500.0
4.647197961807251,160,81,0.005555555555555556,1492.0,1494.0,1324.74,1500.0
4.670552015304565,162,82,0.006060606060606061,1500.0,1494.0,1322.7,1502.0
4.693897008895874,160,82,0.005050505050505051,1498.0,1494.0,1322.6600000000001,1500.0
4.717261075973511,162,82,0.006060606060606061,1506.0,1494.0,1323.0,1502.0
4.740580081939697,160,82,0.005050505050505051,1504.0,1494.0,1322.96,1500.0
4.763926982879639,160,82,0.005555555555555556,1505.0,1494.0,1322.9200000000001,1500.0
4.787258148193359,160,82,0.0058823529411764705,1504.0,1494.0,1323.6800000000001,1500.0
4.810598134994507,160,82,0.0058823529411764705,1504.0,1494.0,1324.0599999999999,1500.0
4.833932161331177,160,83,0.0058823529411764705,1504.0,1494.0,1322.8199999999999,1500.0
4.857258081436157,160,83,0.0058823529411764705,1504.0,1494.0,1322.78,1500.0
4.880629062652588,160,84,0.0053475935828877,1504.0,1494.0,1321.1199999999999,1500.0
4.903983116149902,160,84,0.0058823529411764705,1502.0,1494.0,1320.28,1500.0
4.92734694480896,160,84,0.0058823529411764705,1502.0,1494.0,1319.4400000000001,1500.0
4.950732946395874,160,84,0.0058823529411764705,1500.0,1494.0,1319.4000000000001,1500.0
4.974056005477905,160,84,0.005555555555555556,1500.0,1494.0,1319.3599999999999,1500.0
4.997395992279053,162,84,0.007142857142857143,1506.0,1494.0,1320.1199999999999,1502.0
5.020749092102051,161,84,0.0058823529411764705,1505.0,1494.0,1320.8800000000001,1501.0
5.044150114059448,161,84,0.0058823529411764705,1506.0,1494.0,1321.6400000000001,1501.0
5.067507028579712,161,84,0.0058823529411764705,1507.0,1494.0,1322.02,1501.0
5.090832948684692,161,84,0.0058823529411764705,1508.0,1494.0,1322.4000000000001,1501.0
5.114208936691284,161,84,0.0058823529411764705,1509.0,1494.0,1322.4000000000001,1501.0
5.13758111000061,161,84,0.0058823529411764705,1510.0,1494.0,1322.4000000000001,1501.0
5.160933971405029,162,84,0.0058823529411764705,1514.0,1494.0,1322.4000000000001,1502.0
5.184276103973389,162,84,0.0058823529411764705,1516.0,1494.0,1322.4000000000001,1502.0
5.207586050033569,163,84,0.007142857142857143,1520,1494.0,1322.4000000000001,1503.0
5.2308571338653564,162,85,0.006535947712418301,1519.0,1494.0,1320.78,1502.0
5.254204988479614,163,85,0.007936507936507936,1520,1494.0,1320.3599999999999,1503.0
5.277492046356201,162,85,0.0058823529411764705,1520,1494.0,1319.9400000000001,1502.0
5.300764083862305,160,85,0.007142857142857143,1517.0,1494.0,1319.52,1500.0
5.324079990386963,162,85,0.00909090909090909,1520,1494.0,1319.0999999999999,1502.0
5.347370147705078,161,85,0.011111111111111112,1520.0,1494.0,1319.48,1501.0
5.370728015899658,161,85,0.011111111111111112,1520.0,1494.0,1319.8599999999999,1501.0
5.394093036651611,161,85,0.011111111111111112,1519.0,1494.0,1320.24,1501.0
5.417477130889893,161,85,0.011111111111111112,1518.0,1494.0,1320.6199999999999,1501.0
5.440835952758789,162,85,0.006535947712418301,1519.0,1494.0,1321.0,1502.0
5.464178085327148,162,84,0.0058823529411764705,1519.0,1494.0,1322.6199999999999,1502.0
5.487561941146851,162,84,0.006535947712418301,1518.0,1494.0,1323.04,1502.0
5.510931015014648,162,84,0.006535947712418301,1518.0,1494.0,1323.46,1502.0
5.534271001815796,160,84,0.007936507936507936,1514.0,1494.0,1323.8800000000001,1500.0
5.557621002197266,162,84,0.006535947712418301,1518.0,1494.0,1324.3,1502.0
5.580984115600586,162,84,0.006535947712418301,1519.0,1494.0,1323.9200000000001,1502.0
5.604337930679321,160,83,0.007936507936507936,1514.0,1494.0,1325.1600000000001,1500.0
5.627707004547119,160,83,0.007936507936507936,1513.0,1494.0,1325.2,1500.0
5.651031017303467,160,83,0.007936507936507936,1512.0,1494.0,1325.24,1500.0
5.674361944198608,160,83,0.007936507936507936,1510.0,1494.0,1325.28,1500.0
5.697679042816162,160,82,0.007142857142857143,1508.0,1494.0,1327.3199999999999,1500.0
5.721006155014038,162,82,0.011111111111111112,1512.0,1494.0,1327.3599999999999,1502.0
5.7443931102752686,162,82,0.011111111111111112,1512.0,1494.0,1327.4000000000001,1502.0
5.768047094345093,162,82,0.011111111111111112,1514.0,1494.0,1327.4400000000001,1502.0
5.791386127471924,162,81,0.011111111111111112,1514.0,1494.0,1329.0999999999999,1502.0
5.81472110748291,162,81,0.011111111111111112,1514.0,1494.0,1328.76,1502.0
5.838073968887329,162,81,0.011111111111111112,1516.0,1494.0,1328.8,1502.0
5.861420154571533,163,80,0.008333333333333333,1520,1494.0,1330.46,1503.0
5.884706974029541,161,80,0.006666666666666667,1518.0,1494.0,1330.9200000000001,1501.0
5.907998085021973,162,80,0.006535947712418301,1520,1494.0,1330.5799999999999,1502.0
5.93128514289856,160,80,0.007936507936507936,1518.0,1494.0,1330.6199999999999,1500.0
5.954689025878906,161,80,0.011111111111111112,1519.0,1494.0,1330.6600000000001,1501.0
5.978034973144531,161,80,0.006535947712418301,1518.0,1494.0,1329.9000000000001,1501.0
6.001485109329224,160,80,0.011111111111111112,1514.0,1494.0,1329.1400000000001,1500.0
6.024991035461426,159,80,0.007936507936507936,1509.0,1494.0,1328.76,1499.0
6.04836893081665,159,79,0.006666666666666667,1506.0,1494.0,1330.0,1499.0
6.07166314125061,160,79,0.006535947712418301,1506.0,1494.0,1330.04,1500.0
6.095118045806885,158,79,0.007936507936507936,1497.0,1494.0,1330.46,1498.0
6.118457078933716,158,79,0.007936507936507936,1494.0,1494.0,1330.8800000000001,1498.0
6.141770124435425,158,78,0.007142857142857143,1490.0,1494.0,1332.9200000000001,1498.0
6.165233135223389,158,78,0.007936507936507936,1488.0,1494.0,1332.96,1498.0
6.188567161560059,160,78,0.010101010101010102,1491.0,1494.0,1333.0,1500.0
6.211836099624634,158,78,0.007936507936507936,1484.0,1494.0,1333.04,1498.0
6.235404968261719,160,78,0.011111111111111112,1488.0,1494.0,1333.0799999999999,1500.0
6.258734941482544,160,78,0.011111111111111112,1489.0,1494.0,1332.3199999999999,1500.0
6.2820961475372314,160,78,0.011111111111111112,1490.0,1494.0,1331.9400000000001,1500.0
6.305562973022461,159,78,0.007936507936507936,1487.0,1494.0,1331.5599999999999,1499.0
6.328887939453125,159,77,0.007936507936507936,1488.0,1494.0,1332.8,1499.0
6.35227108001709,159,77,0.007936507936507936,1489.0,1494.0,1332.8399999999999,1499.0
6.375649929046631,160,77,0.011111111111111112,1493.0,1494.0,1333.26,1500.0
6.398970127105713,160,77,0.011111111111111112,1495.0,1494.0,1333.6800000000001,1500.0
6.422325134277344,160,76,0.0125,1495.0,1494.0,1335.72,1500.0
6.445711135864258,160,76,0.011111111111111112,1497.0,1494.0,1335.76,1500.0
6.469078063964844,158,76,0.007936507936507936,1491.0,1494.0,1335.8,1498.0
6.492457151412964,158,76,0.007936507936507936,1489.0,1494.0,1335.8399999999999,1498.0
6.515877962112427,158,76,0.007936507936507936,1487.0,1494.0,1335.8800000000001,1498.0
6.539216995239258,159,76,0.011111111111111112,1489.0,1494.0,1335.1199999999999,1499.0
6.562613010406494,159,76,0.0125,1489.0,1494.0,1334.74,1499.0
6.585989952087402,159,77,0.011111111111111112,1489.0,1494.0,1332.74,1499.0
6.6093151569366455,158,77,0.007936507936507936,1485.0,1494.0,1331.9400000000001,1498.0
6.632723093032837,159,77,0.011111111111111112,1486.0,1494.0,1331.1400000000001,1499.0
6.656227111816406,159,76,0.0125,1485.0,1494.0,1332.3399999999999,1499.0
6.679772138595581,157,76,0.008928571428571428,1480,1494.0,1332.3399999999999,1497.0
6.7031049728393555,157,76,0.007936507936507936,1480,1494.0,1333.1400000000001,1497.0
6.726431131362915,157,76,0.007936507936507936,1480,1494.0,1333.9400000000001,1497.0
6.749706029891968,157,76,0.007936507936507936,1480,1494.0,1334.74,1497.0
6.773015022277832,157,76,0.007936507936507936,1480,1494.0,1334.74,1497.0
6.796327114105225,158,76,0.007407407407407408,1480,1494.0,1334.74,1498.0
6.819579124450684,159,75,0.011111111111111112,1480,1494.0,1335.98,1499.0
6.8429319858551025,158,75,0.007936507936507936,1480,1494.0,1336.02,1498.0
6.866335153579712,158,75,0.007936507936507936,1480,1494.0,1336.0599999999999,1498.0
6.889614105224609,158,75,0.007936507936507936,1480,1494.0,1336.48,1498.0
6.912981986999512,158,75,0.007936507936507936,1480,1494.0,1336.9000000000001,1498.0
6.936408996582031,160,75,0.010101010101010102,1480.0,1494.0,1336.52,1500.0
6.960025072097778,159,75,0.007936507936507936,1480.0,1494.0,1336.1400000000001,1499.0
6.983406066894531,160,74,0.011111111111111112,1485.0,1494.0,1337.3800000000001,1500.0
7.006755113601685,160,74,0.011111111111111112,1488.0,1494.0,1337.4200000000001,1500.0
7.030122995376587,160,74,0.007407407407407408,1490.0,1494.0,1337.46,1500.0
7.053447961807251,159,73,0.007936507936507936,1488.0,1494.0,1339.5,1499.0
7.076750993728638,159,73,0.007936507936507936,1489.0,1494.0,1340.3399999999999,1499.0
7.1001060009002686,159,73,0.007936507936507936,1490.0,1494.0,1340.3800000000001,1499.0
7.123453140258789,159,73,0.007936507936507936,1491.0,1494.0,1340.4200000000001,1499.0
7.146805047988892,159,73,0.007936507936507936,1492.0,1494.0,1340.46,1499.0
7.170112133026123,159,73,0.007936507936507936,1491.0,1494.0,1339.7,1499.0
7.193426132202148,159,73,0.007936507936507936,1491.0,1494.0,1338.9400000000001,1499.0
7.216771125793457,159,73,0.007936507936507936,1490.0,1494.0,1338.5599999999999,1499.0
7.240108966827393,159,73,0.007936507936507936,1489.0,1494.0,1338.1800000000001,1499.0
7.263463973999023,160,73,0.011111111111111112,1491.0,1494.0,1337.8,1500.0
7.286816120147705,160,73,0.011111111111111112,1492.0,1494.0,1337.8,1500.0
7.310127019882202,159,73,0.007936507936507936,1490.0,1494.0,1337.8,1499.0
7.333452939987183,159,73,0.008928571428571428,1490.0,1494.0,1337.8,1499.0
7.356779098510742,159,74,0.007936507936507936,1490.0,1494.0,1336.1800000000001,1499.0
7.380099058151245,159,74,0.007936507936507936,1490.0,1494.0,1335.76,1499.0
7.403408050537109,159,74,0.008928571428571428,1490.0,1494.0,1335.3399999999999,1499.0
7.426727056503296,160,75,0.011111111111111112,1493.0,1494.0,1333.3,1500.0
7.45009708404541,160,75,0.011111111111111112,1494.0,1494.0,1332.46,1500.0
7.473437070846558,159,75,0.008928571428571428,1492.0,1494.0,1332.4200000000001,1499.0
7.4967851638793945,159,76,0.007936507936507936,1491.0,1494.0,1330.76,1499.0
7.52012300491333,160,76,0.0125,1493.0,1494.0,1330.3,1500.0
7.543410062789917,160,76,0.0125,1494.0,1494.0,1330.6400000000001,1500.0
7.566724061965942,160,76,0.0125,1495.0,1494.0,1330.98,1500.0
7.590023994445801,159,77,0.007936507936507936,1493.0,1494.0,1329.3199999999999,1499.0
7.613392114639282,159,77,0.007936507936507936,1493.0,1494.0,1329.6600000000001,1499.0
7.636747121810913,159,77,0.007936507936507936,1493.0,1494.0,1330.0,1499.0
7.660064935684204,161,78,0.009259259259259259,1498.0,1494.0,1328.3399999999999,1501.0
7.683422088623047,159,78,0.007936507936507936,1493.0,1494.0,1327.8800000000001,1499.0
7.7067711353302,160,79,0.007407407407407408,1496.0,1494.0,1326.5999999999999,1500.0
7.730082988739014,159,79,0.007936507936507936,1494.0,1494.0,1326.1400000000001,1499.0
7.753425121307373,159,79,0.007936507936507936,1493.0,1494.0,1325.6800000000001,1499.0
7.776737928390503,159,79,0.007936507936507936,1492.0,1494.0,1326.02,1499.0
7.800061941146851,161,79,0.010101010101010102,1497.0,1494.0,1326.3599999999999,1501.0
7.8233771324157715,161,79,0.011111111111111112,1499.0,1494.0,1327.1199999999999,1501.0
7.846740007400513,160,79,0.007936507936507936,1498.0,1494.0,1327.8800000000001,1500.0
7.870084047317505,160,79,0.007936507936507936,1499.0,1494.0,1328.6400000000001,1500.0
7.8934149742126465,160,79,0.008928571428571428,1498.0,1494.0,1329.02,1500.0
7.916741132736206,162,80,0.009259259259259259,1505.0,1494.0,1327.78,1502.0
7.940109968185425,161,80,0.011111111111111112,1504.0,1494.0,1327.3599999999999,1501.0
7.963447093963623,160,80,0.008928571428571428,1503.0,1494.0,1326.9400000000001,1500.0
7.9868011474609375,161,81,0.011111111111111112,1507.0,1494.0,1324.9000000000001,1501.0
8.010167121887207,160,82,0.007407407407407408,1506.0,1494.0,1322.4400000000001,1500.0
8.033529043197632,160,82,0.007407407407407408,1505.0,1494.0,1321.98,1500.0
8.056861162185669,160,81,0.0125,1504.0,1494.0,1323.1400000000001,1500.0
8.08017110824585,160,81,0.0125,1504.0,1494.0,1323.0999999999999,1500.0
8.10346007347107,160,81,0.0125,1504.0,1494.0,1323.8599999999999,1500.0
8.126737117767334,160,81,0.007407407407407408,1504.0,1494.0,1325.4200000000001,1500.0
8.15037202835083,159,80,0.008928571428571428,1499.0,1494.0,1328.22,1499.0
8.173716068267822,159,80,0.008928571428571428,1497.0,1494.0,1329.02,1499.0
