time,frame,x,y,size_inv,roll,pitch,thrust,yaw
6.389617919921875e-05,1,,,,1500.0,1500.0,1250.0,1500
0.021028995513916016,2,,,,1500.0,1500.0,1250.0,1500
0.04226398468017578,3,,,,1500.0,1500.0,1250.0,1500
0.06342601776123047,4,,,,1500.0,1500.0,1250.0,1500
0.08447694778442383,5,,,,1500.0,1500.0,1250.0,1500
0.10546088218688965,6,,,,1500.0,1500.0,1250.0,1500
0.1267099380493164,7,,,,1500.0,1500.0,1250.0,1500
0.14792299270629883,8,,,,1500.0,1500.0,1250.0,1500
0.16931390762329102,9,,,,1500.0,1500.0,1250.0,1500
0.1905229091644287,10,,,,1500.0,1500.0,1250.0,1500
0.21188688278198242,11,221,7,0.027777777777777776,1506.1,1520,1300,1500
0.23334503173828125,12,,,,1500.0,1500.0,1250.0,1500
0.25460100173950195,13,,,,1500.0,1500.0,1250.0,1500
0.27594900131225586,14,225,9,0.047619047619047616,1506.5,1520,1300,1500
0.2972908020019531,15,,,,1500.0,1500.0,1250.0,1500
0.3186919689178467,16,,,,1500.0,1500.0,1250.0,1500
0.33991289138793945,17,,,,1500.0,1500.0,1250.0,1500
0.36137986183166504,18,,,,1500.0,1500.0,1250.0,1500
0.38262486457824707,19,,,,1500.0,1500.0,1250.0,1500
0.4038419723510742,20,,,,1500.0,1500.0,1250.0,1500
0.4250519275665283,21,,,,1500.0,1500.0,1250.0,1500
0.4462599754333496,22,,,,1500.0,1500.0,1250.0,1500
0.4674708843231201,23,,,,1500.0,1500.0,1250.0,1500
0.4888298511505127,24,,,,1500.0,1500.0,1250.0,1500
0.5100359916687012,25,,,,1500.0,1500.0,1250.0,1500
0.5313999652862549,26,225,9,0.02,1506.5,1520,1300,1500
0.552750825881958,27,,,,1500.0,1500.0,1250.0,1500
0.5740740299224854,28,224,8,0.017857142857142856,1506.4,1520,1300,1500
0.5954878330230713,29,222,12,0.02040816326530612,1506.2,1520,1300,1500
0.6169028282165527,30,221,11,0.004545454545454545,1506.1,1520,1300,1500
0.638455867767334,31,224,13,0.008928571428571428,1506.4,1520,1300,1500
0.6598739624023438,32,225,11,0.003952569169960474,1506.5,1514.5256916996047,1300,1500
0.6815478801727295,33,223,12,0.0035714285714285713,1506.3,1510.7142857142858,1300,1500
0.7030389308929443,34,224,13,0.003205128205128205,1506.4,1507.051282051282,1300,1500
0.7245149612426758,35,225,13,0.0027472527472527475,1506.5,1502.4725274725274,1300,1500
0.7459938526153564,36,223,13,0.002976190476190476,1506.3,1504.7619047619048,1300,1500
0.767448902130127,37,221,14,0.0018148820326678765,1506.1,1493.1488203266788,1300,1500
0.7890639305114746,38,222,14,0.0013157894736842105,1506.2,1488.157894736842,1300,1500
0.8105180263519287,39,222,14,0.001388888888888889,1506.2,1488.888888888889,1300,1500
0.8319838047027588,40,222,16,0.0012531328320802004,1506.2,1487.531328320802,1300,1500
0.8534488677978516,41,223,17,0.001287001287001287,1506.3,1487.870012870013,1300,1500
0.8749358654022217,42,222,18,0.0012285012285012285,1506.2,1487.2850122850123,1300,1500
0.8963890075683594,43,220,20,0.0011961722488038277,1506.0,1486.9617224880383,1300,1500
0.91786789894104,44,220,19,0.0010121457489878543,1506.0,1485.1214574898786,1300,1500
0.9394819736480713,45,221,23,0.0010604453870625664,1506.1,1485.6044538706258,1300,1500
0.960974931716919,46,221,21,0.0008210180623973727,1506.1,1483.2101806239737,1300,1500
0.9824309349060059,47,221,23,0.0008503401360544217,1506.1,1483.503401360544,1300,1500
1.0038869380950928,48,221,24,0.0008019246190858059,1506.1,1483.019246190858,1300,1500
1.0253338813781738,49,221,25,0.0008305647840531562,1506.1,1483.3056478405315,1300,1500
1.0467989444732666,50,221,26,0.0007936507936507937,1506.1,1482.936507936508,1300,1500
1.0682909488677979,51,221,27,0.0007936507936507937,1506.1,1482.936507936508,1300,1500
1.0899229049682617,52,221,29,0.0008019246190858059,1506.1,1483.019246190858,1300,1500
1.1114330291748047,53,221,31,0.0008019246190858059,1506.1,1483.019246190858,1300,1500
1.132910966873169,54,221,31,0.0007751937984496124,1506.1,1482.7519379844962,1300,1500
1.1544508934020996,55,220,33,0.0007680491551459293,1506.0,1482.6804915514592,1300,1500
1.1759488582611084,56,221,34,0.0007751937984496124,1506.1,1482.7519379844962,1300,1500
1.1973989009857178,57,221,36,0.0007936507936507937,1506.1,1482.936507936508,1300,1500
1.2189970016479492,58,221,38,0.0007621951219512195,1506.1,1482.621951219512,1300,1500
1.2406589984893799,59,221,43,0.0007501875468867217,1506.1,1482.5018754688672,1300,1500
1.2621898651123047,60,220,44,0.0007267441860465116,1506.0,1482.2674418604652,1300,1500
1.2836499214172363,61,221,46,0.0006587615283267457,1506.1,1481.5876152832675,1300,1500
1.3051140308380127,62,221,48,0.0006944444444444445,1506.1,1481.9444444444443,1300,1500
1.326136827468872,63,221,50,0.0006734006734006734,1506.1,1481.7340067340067,1300,1500
1.3471269607543945,64,220,52,0.0006793478260869565,1506.0,1481.7934782608695,1300,1500
1.3681018352508545,65,220,56,0.0006587615283267457,1506.0,1481.5876152832675,1300,1500
1.3890538215637207,66,219,57,0.0006793478260869565,1505.9,1481.7934782608695,1300,1500
1.410024881362915,67,219,59,0.0006793478260869565,1505.9,1481.7934782608695,1300,1500
1.431527853012085,68,218,62,0.0006793478260869565,1505.8,1481.7934782608695,1300,1500
1.4528088569641113,69,218,64,0.0007012622720897616,1505.8,1482.0126227208975,1300,1500
1.4740660190582275,70,218,65,0.0006793478260869565,1505.8,1481.7934782608695,1300,1500
1.4953079223632812,71,217,68,0.0007331378299120235,1505.7,1482.3313782991202,1300,1500
1.5165719985961914,72,217,70,0.0007501875468867217,1505.7,1482.5018754688672,1300,1500
1.5378308296203613,73,216,71,0.000744047619047619,1505.6,1482.4404761904761,1300,1500
1.5590720176696777,74,215,74,0.0007680491551459293,1505.5,1482.6804915514592,1300,1500
1.580322027206421,75,216,76,0.0007331378299120235,1505.6,1482.3313782991202,1298.0,1500
1.6016058921813965,76,215,77,0.0007012622720897616,1505.5,1482.0126227208975,1296.0,1500
1.6228888034820557,77,214,79,0.0007092198581560284,1505.4,1482.0921985815603,1292.0,1500
1.644176959991455,78,214,81,0.0007575757575757576,1505.4,1482.5757575757575,1288.0,1500
1.6654508113861084,79,212,83,0.0006944444444444445,1505.2,1481.9444444444443,1284.0,1500
1.6867308616638184,80,211,84,0.0006944444444444445,1505.1,1481.9444444444443,1282.0,1500
1.708021879196167,81,212,87,0.0007575757575757576,1505.2,1482.5757575757575,1276.0,1500
1.7293148040771484,82,210,90,0.0007336757153338225,1505.0,1482.336757153338,1270.0,1500
1.7506029605865479,83,209,92,0.0007496251874062968,1504.9,1482.4962518740629,1266.0,1500
1.7718980312347412,84,209,94,0.0007496251874062968,1504.9,1482.4962518740629,1262.0,1500
1.7932028770446777,85,208,96,0.0007496251874062968,1504.8,1482.4962518740629,1258.0,1500
1.8144919872283936,86,208,97,0.0007336757153338225,1504.8,1482.336757153338,1256.0,1500
1.8357768058776855,87,208,98,0.0007183908045977011,1504.8,1482.183908045977,1254.0,1500
1.8570618629455566,88,207,100,0.0006944444444444445,1504.7,1481.9444444444443,1250.0,1500
1.8783478736877441,89,206,101,0.0006944444444444445,1504.6,1481.9444444444443,1248.0,1500
1.8996260166168213,90,206,101,0.0007183908045977011,1504.6,1482.183908045977,1248.0,1500
1.920893907546997,91,206,99,0.0007598784194528875,1504.6,1482.598784194529,1252.0,1500
1.942188024520874,92,206,97,0.0007598784194528875,1504.6,1482.598784194529,1256.0,1500
1.9634699821472168,93,206,95,0.0007763975155279503,1504.6,1482.7639751552795,1260.0,1500
1.984766960144043,94,207,95,0.0007336757153338225,1504.7,1482.336757153338,1260.0,1500
2.006052017211914,95,207,95,0.0007598784194528875,1504.7,1482.598784194529,1260.0,1500
2.027352809906006,96,207,97,0.0007183908045977011,1504.7,1482.183908045977,1256.0,1500
2.0486598014831543,97,207,98,0.0007092198581560284,1504.7,1482.0921985815603,1254.0,1500
2.070096015930176,98,207,100,0.0007336757153338225,1504.7,1482.336757153338,1250.0,1500
2.0924878120422363,99,207,101,0.0007092198581560284,1504.7,1482.0921985815603,1248.0,1500
2.114717960357666,100,206,102,0.0007092198581560284,1504.6,1482.0921985815603,1246.0,1500
2.1369688510894775,101,205,102,0.0006944444444444445,1504.5,1481.9444444444443,1246.0,1500
2.159247875213623,102,205,102,0.0007496251874062968,1504.5,1482.4962518740629,1246.0,1500
2.1815009117126465,103,205,101,0.0007092198581560284,1504.5,1482.0921985815603,1248.0,1500
2.203758955001831,104,204,101,0.0007336757153338225,1504.4,1482.336757153338,1248.0,1500
2.226257801055908,105,203,100,0.0006944444444444445,1504.3,1481.9444444444443,1250.0,1500
2.2485430240631104,106,201,98,0.0006944444444444445,1504.1,1481.9444444444443,1254.0,1500
2.270824909210205,107,201,99,0.0006720430107526882,1504.1,1481.720430107527,1252.0,1500
2.293076992034912,108,200,100,0.0006720430107526882,1504.0,1481.720430107527,1250.0,1500
2.315290927886963,109,199,101,0.0006720430107526882,1503.9,1481.720430107527,1248.0,1500
2.3375608921051025,110,198,102,0.0006793478260869565,1503.8,1481.7934782608695,1246.0,1500
2.359790802001953,111,199,104,0.0007168458781362007,1503.9,1482.168458781362,1242.0,1500
2.3822598457336426,112,196,105,0.0007012622720897616,1503.6,1482.0126227208975,1240.0,1500
2.4045279026031494,113,195,106,0.0006720430107526882,1503.5,1481.720430107527,1238.0,1500
2.4267618656158447,114,194,106,0.0006720430107526882,1503.4,1481.720430107527,1238.0,1500
2.4489879608154297,115,193,105,0.0006510416666666666,1503.3,1481.5104166666667,1240.0,1500
2.4711899757385254,116,193,105,0.0006184291898577613,1503.3,1481.1842918985776,1240.0,1500
2.493436813354492,117,191,104,0.0006510416666666666,1503.1,1481.5104166666667,1242.0,1500
2.5156898498535156,118,190,105,0.0006184291898577613,1503.0,1481.1842918985776,1240.0,1500
2.537954807281494,119,188,105,0.0006184291898577613,1502.8,1481.1842918985776,1240.0,1500
2.5602869987487793,120,188,106,0.0006184291898577613,1502.8,1481.1842918985776,1238.0,1500
2.582650899887085,121,187,106,0.0006060606060606061,1502.7,1481.060606060606,1238.0,1500
2.6049118041992188,122,186,107,0.0006313131313131314,1502.6,1481.3131313131314,1236.0,1500
2.627161979675293,123,185,107,0.0006313131313131314,1502.5,1481.3131313131314,1236.0,1500
2.6493899822235107,124,186,107,0.0006447453255963894,1502.6,1481.4474532559639,1236.0,1500
2.671738862991333,125,185,106,0.0006648936170212766,1502.5,1481.6489361702127,1238.0,1500
2.6939988136291504,126,182,106,0.0006447453255963894,1502.2,1481.4474532559639,1238.0,1500
2.7162489891052246,127,183,106,0.0006447453255963894,1502.3,1481.4474532559639,1238.0,1500
2.738471031188965,128,181,105,0.0006060606060606061,1502.1,1481.060606060606,1240.0,1500
2.760680913925171,129,181,105,0.0006184291898577613,1502.1,1481.1842918985776,1240.0,1500
2.7829298973083496,130,178,105,0.0006648936170212766,1501.8,1481.6489361702127,1240.0,1500
2.8051788806915283,131,178,105,0.0006257822277847309,1501.8,1481.2578222778473,1240.0,1500
2.8274219036102295,132,176,105,0.0006313131313131314,1501.6,1481.3131313131314,1240.0,1500
2.8497188091278076,133,177,105,0.0006060606060606061,1501.7,1481.060606060606,1240.0,1500
2.8724539279937744,134,177,105,0.0006184291898577613,1501.7,1481.1842918985776,1240.0,1500
2.894765853881836,135,176,104,0.000588235294117647,1501.6,1480.8823529411766,1242.0,1500
2.9170069694519043,136,175,104,0.0006257822277847309,1501.5,1481.2578222778473,1242.0,1500
2.9392478466033936,137,176,105,0.0006257822277847309,1501.6,1481.2578222778473,1240.0,1500
2.96147084236145,138,176,105,0.0006002400960384153,1501.6,1481.0024009603842,1240.0,1500
2.983719825744629,139,174,106,0.0006127450980392157,1501.4,1481.127450980392,1238.0,1500
3.0059518814086914,140,176,106,0.0006002400960384153,1501.6,1481.0024009603842,1238.0,1500
3.0281519889831543,141,174,107,0.0006127450980392157,1501.4,1481.127450980392,1236.0,1500
3.0503859519958496,142,176,107,0.0006447453255963894,1501.6,1481.4474532559639,1236.0,1500
3.072614908218384,143,176,106,0.0006127450980392157,1501.6,1481.127450980392,1238.0,1500
3.094871997833252,144,177,105,0.0006127450980392157,1501.7,1481.127450980392,1240.0,1500
3.1170878410339355,145,180,105,0.0006393861892583121,1502.0,1481.3938618925831,1240.0,1500
3.138810873031616,146,181,106,0.0006587615283267457,1502.1,1481.5876152832675,1238.0,1500
3.1617069244384766,147,182,106,0.0006648936170212766,1502.2,1481.6489361702127,1238.0,1500
3.184393882751465,148,183,107,0.0006793478260869565,1502.3,1481.7934782608695,1236.0,1500
3.2071268558502197,149,185,108,0.0006447453255963894,1502.5,1481.4474532559639,1234.0,1500
3.23008394241333,150,187,109,0.0006863417982155113,1502.7,1481.8634179821552,1232.0,1500
3.2528939247131348,151,189,108,0.0006863417982155113,1502.9,1481.8634179821552,1234.0,1500
3.2755439281463623,152,192,108,0.0007496251874062968,1503.2,1482.4962518740629,1234.0,1500
3.2981889247894287,153,195,107,0.0007662835249042146,1503.5,1482.6628352490422,1236.0,1500
3.3210208415985107,154,198,107,0.0007836990595611285,1503.8,1482.8369905956113,1236.0,1500
3.343622922897339,155,199,106,0.0007763975155279503,1503.9,1482.7639751552795,1238.0,1500
3.3662269115448,156,202,106,0.0007496251874062968,1504.2,1482.4962518740629,1238.0,1500
3.3888349533081055,157,205,105,0.0007836990595611285,1504.5,1482.8369905956113,1240.0,1500
3.411686897277832,158,208,104,0.0007575757575757576,1504.8,1482.5757575757575,1242.0,1500
3.434283971786499,159,211,105,0.0007168458781362007,1505.1,1482.168458781362,1240.0,1500
3.4568638801574707,160,213,105,0.0006648936170212766,1505.3,1481.6489361702127,1240.0,1500
3.479437828063965,161,214,106,0.0006313131313131314,1505.4,1481.3131313131314,1238.0,1500
3.5024359226226807,162,219,105,0.0006127450980392157,1505.9,1481.127450980392,1240.0,1500
3.525028944015503,163,222,105,0.0006257822277847309,1506.2,1481.2578222778473,1240.0,1500
3.547621011734009,164,224,104,0.0006127450980392157,1506.4,1481.127450980392,1242.0,1500
3.570272922515869,165,228,104,0.0006493506493506494,1506.8,1481.4935064935064,1242.0,1500
3.5929558277130127,166,231,103,0.0006349206349206349,1507.1,1481.3492063492063,1244.0,1500
3.6155529022216797,167,233,103,0.0006349206349206349,1507.3,1481.3492063492063,1244.0,1500
3.6381609439849854,168,234,102,0.0006775067750677507,1507.4,1481.7750677506774,1246.0,1500
3.6610209941864014,169,235,102,0.0006119951040391676,1507.5,1481.1199510403917,1246.0,1500
3.6836609840393066,170,237,103,0.0006435006435006435,1507.7,1481.4350064350065,1244.0,1500
3.7063050270080566,171,238,102,0.0006006006006006006,1507.8,1481.006006006006,1246.0,1500
3.7289299964904785,172,239,104,0.0005875440658049354,1507.9,1480.8754406580495,1242.0,1500
3.751807928085327,173,240,104,0.0005875440658049354,1508.0,1480.8754406580495,1242.0,1500
3.7744088172912598,174,240,103,0.0006211180124223603,1508.0,1481.2111801242236,1244.0,1500
3.797017812728882,175,241,103,0.0005875440658049354,1508.1,1480.8754406580495,1244.0,1500
3.81961989402771,176,241,103,0.0006142506142506142,1508.1,1481.1425061425061,1244.0,1500
3.8426198959350586,177,242,103,0.0006006006006006006,1508.2,1481.006006006006,1244.0,1500
3.8652379512786865,178,242,103,0.0005875440658049354,1508.2,1480.8754406580495,1244.0,1500
3.8878560066223145,179,242,103,0.0005875440658049354,1508.2,1480.8754406580495,1244.0,1500
3.91045880317688,180,242,103,0.0006006006006006006,1508.2,1481.006006006006,1244.0,1500
3.9330339431762695,181,241,104,0.0006211180124223603,1508.1,1481.2111801242236,1242.0,1500
3.955631971359253,182,240,104,0.0006493506493506494,1508.0,1481.4935064935064,1242.0,1500
3.978214979171753,183,240,105,0.0006006006006006006,1508.0,1481.006006006006,1240.0,1500
4.00108790397644,184,239,105,0.0006313131313131314,1507.9,1481.3131313131314,1240.0,1500
4.023666858673096,185,238,106,0.0006285355122564425,1507.8,1481.2853551225644,1238.0,1500
4.04631495475769,186,237,106,0.0006613756613756613,1507.7,1481.6137566137565,1238.0,1500
4.069203853607178,187,235,107,0.0006802721088435374,1507.5,1481.8027210884354,1236.0,1500
4.092298984527588,188,234,107,0.0007173601147776184,1507.4,1482.1736011477763,1236.0,1500
4.115214824676514,189,232,107,0.0007173601147776184,1507.2,1482.1736011477763,1236.0,1500
4.137785911560059,190,231,106,0.0006684491978609625,1507.1,1481.6844919786097,1238.0,1500
4.160739898681641,191,225,106,0.0006127450980392157,1506.5,1481.127450980392,1238.0,1500
4.183341026306152,192,222,107,0.0006313131313131314,1506.2,1481.3131313131314,1236.0,1500
4.205966949462891,193,220,107,0.0006377551020408163,1506.0,1481.3775510204082,1236.0,1500
4.228543996810913,194,218,108,0.0006184291898577613,1505.8,1481.1842918985776,1234.0,1500
4.251693964004517,195,215,108,0.0006313131313131314,1505.5,1481.3131313131314,1234.0,1500
4.274631977081299,196,214,108,0.0006887052341597796,1505.4,1481.8870523415978,1234.0,1500
4.297250986099243,197,211,107,0.0007267441860465116,1505.1,1482.2674418604652,1236.0,1500
4.320268869400024,198,208,107,0.0007102272727272727,1504.8,1482.1022727272727,1236.0,1500
4.342980861663818,199,205,107,0.0007331378299120235,1504.5,1482.3313782991202,1236.0,1500
4.365617990493774,200,200,107,0.0007836990595611285,1504.0,1482.8369905956113,1236.0,1500
4.388511896133423,201,198,106,0.0007575757575757576,1503.8,1482.5757575757575,1238.0,1500
4.411120891571045,202,195,106,0.0007336757153338225,1503.5,1482.336757153338,1238.0,1500
4.433745861053467,203,193,106,0.0008019246190858059,1503.3,1483.019246190858,1238.0,1500
4.4563469886779785,204,190,106,0.0007575757575757576,1503.0,1482.5757575757575,1238.0,1500
4.4789159297943115,205,188,106,0.0007407407407407407,1502.8,1482.4074074074074,1238.0,1500
4.50179386138916,206,186,107,0.0007168458781362007,1502.6,1482.168458781362,1236.0,1500
4.524417877197266,207,183,107,0.0007331378299120235,1502.3,1482.3313782991202,1236.0,1500
4.547026872634888,208,182,107,0.0007012622720897616,1502.2,1482.0126227208975,1236.0,1500
4.5696258544921875,209,180,107,0.0007168458781362007,1502.0,1482.168458781362,1236.0,1500
4.5927019119262695,210,176,107,0.0006587615283267457,1501.6,1481.5876152832675,1236.0,1500
4.615279912948608,211,174,106,0.0006793478260869565,1501.4,1481.7934782608695,1238.0,1500
4.637889862060547,212,172,105,0.0006793478260869565,1501.2,1481.7934782608695,1240.0,1500
4.6605119705200195,213,172,105,0.0006648936170212766,1501.2,1481.6489361702127,1240.0,1500
4.6831300258636475,214,169,105,0.0006587615283267457,1500.9,1481.5876152832675,1240.0,1500
4.705751895904541,215,168,104,0.0006793478260869565,1500.8,1481.7934782608695,1242.0,1500
4.728372812271118,216,166,104,0.0006793478260869565,1500.6,1481.7934782608695,1242.0,1500
4.751252889633179,217,165,105,0.0006587615283267457,1500.5,1481.5876152832675,1240.0,1500
4.7738800048828125,218,164,105,0.0006587615283267457,1500.4,1481.5876152832675,1240.0,1500
4.796520948410034,219,160,107,0.0006211180124223603,1500.0,1481.2111801242236,1236.0,1500
4.819154977798462,220,158,107,0.0006079027355623101,1499.8,1481.079027355623,1236.0,1500
4.842172861099243,221,157,106,0.0006172839506172839,1499.7,1481.1728395061727,1238.0,1500
4.86478590965271,222,156,106,0.0006211180124223603,1499.6,1481.2111801242236,1238.0,1500
4.8873820304870605,223,154,104,0.0006038647342995169,1499.4,1481.038647342995,1242.0,1500
4.909976959228516,224,153,103,0.000591016548463357,1499.3,1480.9101654846336,1244.0,1500
4.932679891586304,225,150,103,0.0005630630630630631,1499.0,1480.6306306306305,1244.0,1500
4.955258846282959,226,149,102,0.0005720823798627002,1498.9,1480.720823798627,1246.0,1500
4.977856874465942,227,149,103,0.0005455537370430987,1498.9,1480.4555373704309,1244.0,1500
5.000741958618164,228,148,103,0.0005341880341880342,1498.8,1480.3418803418804,1244.0,1500
5.023332834243774,229,147,103,0.0005455537370430987,1498.7,1480.4555373704309,1244.0,1500
5.045938014984131,230,147,103,0.0005232862375719519,1498.7,1480.2328623757196,1244.0,1500
5.068554878234863,231,146,103,0.0005341880341880342,1498.6,1480.3418803418804,1244.0,1500
5.0914528369903564,232,145,103,0.0005698005698005698,1498.5,1480.6980056980058,1244.0,1500
5.114074945449829,233,143,103,0.0005341880341880342,1498.3,1480.3418803418804,1244.0,1500
5.136674880981445,234,144,102,0.0005574136008918618,1498.4,1480.5741360089187,1246.0,1500
5.1593029499053955,235,145,102,0.0005698005698005698,1498.5,1480.6980056980058,1246.0,1500
5.182416915893555,236,145,101,0.0005698005698005698,1498.5,1480.6980056980058,1248.0,1500
5.205032825469971,237,144,101,0.0005341880341880342,1498.4,1480.3418803418804,1248.0,1500
5.227607011795044,238,146,102,0.0005698005698005698,1498.6,1480.6980056980058,1246.0,1500
5.250463008880615,239,147,102,0.0005698005698005698,1498.7,1480.6980056980058,1246.0,1500
5.27335000038147,240,148,102,0.0005720823798627002,1498.8,1480.720823798627,1246.0,1500
5.295996904373169,241,149,103,0.0005847953216374269,1498.9,1480.8479532163742,1244.0,1500
5.3185999393463135,242,149,104,0.0005720823798627002,1498.9,1480.720823798627,1242.0,1500
5.341459035873413,243,151,105,0.0005847953216374269,1499.1,1480.8479532163742,1240.0,1500
5.364080905914307,244,152,106,0.0006006006006006006,1499.2,1481.006006006006,1238.0,1500
5.386725902557373,245,153,105,0.0006172839506172839,1499.3,1481.1728395061727,1240.0,1500
5.409313917160034,246,153,104,0.0006493506493506494,1499.3,1481.4935064935064,1242.0,1500
5.432284832000732,247,154,103,0.0007173601147776184,1499.4,1482.1736011477763,1244.0,1500
5.454888820648193,248,157,103,0.0006802721088435374,1499.7,1481.8027210884354,1244.0,1500
5.477479934692383,249,159,102,0.0007215007215007215,1499.9,1482.2150072150073,1246.0,1500
5.50008487701416,250,161,103,0.0007215007215007215,1500.1,1482.2150072150073,1244.0,1500
5.522779941558838,251,164,104,0.0007390983000739098,1500.4,1482.3909830007392,1242.0,1500
5.545368909835815,252,166,105,0.0007390983000739098,1500.6,1482.3909830007392,1240.0,1500
5.567952871322632,253,167,106,0.0007575757575757576,1500.7,1482.5757575757575,1238.0,1500
5.5908379554748535,254,169,106,0.0008012820512820513,1500.9,1483.0128205128206,1238.0,1500
5.613443851470947,255,171,106,0.0008012820512820513,1501.1,1483.0128205128206,1238.0,1500
5.636049032211304,256,173,106,0.0007267441860465116,1501.3,1482.2674418604652,1238.0,1500
5.65865683555603,257,176,106,0.0007867820613690008,1501.6,1482.86782061369,1238.0,1500
5.681537866592407,258,180,105,0.0008333333333333334,1502.0,1483.3333333333333,1240.0,1500
5.704157829284668,259,183,105,0.0007867820613690008,1502.3,1482.86782061369,1240.0,1500
5.726764917373657,260,184,105,0.0007751937984496124,1502.4,1482.7519379844962,1240.0,1500
5.749356031417847,261,186,105,0.0007936507936507937,1502.6,1482.936507936508,1240.0,1500
5.772356986999512,262,188,106,0.0008064516129032258,1502.8,1483.0645161290322,1238.0,1500
5.794968843460083,263,191,106,0.0008620689655172414,1503.1,1483.6206896551723,1238.0,1500
5.817554950714111,264,192,106,0.0007836990595611285,1503.2,1482.8369905956113,1238.0,1500
5.84046483039856,265,194,106,0.0007836990595611285,1503.4,1482.8369905956113,1238.0,1500
5.863090991973877,266,197,105,0.0008503401360544217,1503.7,1483.503401360544,1240.0,1500
5.885686874389648,267,200,105,0.0007662835249042146,1504.0,1482.6628352490422,1240.0,1500
5.908301830291748,268,202,105,0.0007662835249042146,1504.2,1482.6628352490422,1240.0,1500
5.931133985519409,269,205,105,0.0008019246190858059,1504.5,1483.019246190858,1240.0,1500
5.953709840774536,270,206,104,0.0007936507936507937,1504.6,1482.936507936508,1242.0,1500
5.976332902908325,271,208,104,0.0007662835249042146,1504.8,1482.6628352490422,1242.0,1500
5.999037027359009,272,211,104,0.0007751937984496124,1505.1,1482.7519379844962,1242.0,1500
6.022011995315552,273,212,104,0.0008019246190858059,1505.2,1483.019246190858,1242.0,1500
6.044596910476685,274,213,104,0.0007867820613690008,1505.3,1482.86782061369,1242.0,1500
6.067199945449829,275,215,103,0.0008130081300813008,1505.5,1483.1300813008131,1244.0,1500
6.089826822280884,276,217,103,0.0007012622720897616,1505.7,1482.0126227208975,1244.0,1500
6.112823009490967,277,221,103,0.0006648936170212766,1506.1,1481.6489361702127,1244.0,1500
6.135447978973389,278,222,102,0.0006510416666666666,1506.2,1481.5104166666667,1246.0,1500
6.158108949661255,279,224,103,0.0006313131313131314,1506.4,1481.3131313131314,1244.0,1500
6.180962800979614,280,226,102,0.0006510416666666666,1506.6,1481.5104166666667,1246.0,1500
6.203564882278442,281,228,102,0.0006313131313131314,1506.8,1481.3131313131314,1246.0,1500
6.2261528968811035,282,230,101,0.0006377551020408163,1507.0,1481.3775510204082,1248.0,1500
6.248723983764648,283,233,101,0.0006887052341597796,1507.3,1481.8870523415978,1248.0,1500
6.271570920944214,284,234,101,0.0006839945280437756,1507.4,1481.8399452804379,1248.0,1500
6.294473886489868,285,235,101,0.0007621951219512195,1507.5,1482.621951219512,1248.0,1500
6.317164897918701,286,236,100,0.0007002801120448179,1507.6,1482.002801120448,1250.0,1500
6.340418815612793,287,237,100,0.0006887052341597796,1507.7,1481.8870523415978,1250.0,1500
6.363034009933472,288,240,99,0.0007173601147776184,1508.0,1482.1736011477763,1252.0,1500
6.385639905929565,289,241,98,0.0007173601147776184,1508.1,1482.1736011477763,1254.0,1500
6.408231973648071,290,241,99,0.0006887052341597796,1508.1,1481.8870523415978,1252.0,1500
6.431078910827637,291,242,98,0.0006839945280437756,1508.2,1481.8399452804379,1254.0,1500
6.453662872314453,292,242,98,0.0006493506493506494,1508.2,1481.4935064935064,1254.0,1500
6.476264953613281,293,243,98,0.0006349206349206349,1508.3,1481.3492063492063,1254.0,1500
6.4988789558410645,294,244,98,0.00065359477124183,1508.4,1481.5359477124182,1254.0,1500
6.5217368602752686,295,244,99,0.0006349206349206349,1508.4,1481.3492063492063,1252.0,1500
6.5443549156188965,296,244,98,0.0006038647342995169,1508.4,1481.038647342995,1254.0,1500
6.566987991333008,297,245,98,0.0006349206349206349,1508.5,1481.3492063492063,1254.0,1500
6.5896148681640625,298,245,98,0.0006349206349206349,1508.5,1481.3492063492063,1254.0,1500
6.612602949142456,299,245,98,0.0006349206349206349,1508.5,1481.3492063492063,1254.0,1500
6.63520884513855,300,245,96,0.0006038647342995169,1508.5,1481.038647342995,1258.0,1500
6.657806873321533,301,246,96,0.0006038647342995169,1508.6,1481.038647342995,1258.0,1500
6.680682897567749,302,246,96,0.0006211180124223603,1508.6,1481.2111801242236,1258.0,1500
6.70328688621521,303,247,96,0.0006257822277847309,1508.7,1481.2578222778473,1258.0,1500
6.725919961929321,304,246,96,0.0006211180124223603,1508.6,1481.2111801242236,1258.0,1500
6.748543977737427,305,246,96,0.0006211180124223603,1508.6,1481.2111801242236,1258.0,1500
6.771409034729004,306,247,95,0.0006127450980392157,1508.7,1481.127450980392,1260.0,1500
6.794057846069336,307,246,95,0.0005787037037037037,1508.6,1480.787037037037,1260.0,1500
6.816671848297119,308,246,96,0.0005830903790087463,1508.6,1480.8309037900874,1258.0,1500
6.839272975921631,309,245,95,0.0005668934240362812,1508.5,1480.668934240363,1260.0,1500
6.86228084564209,310,244,95,0.0005787037037037037,1508.4,1480.787037037037,1260.0,1500
6.884918928146362,311,244,94,0.0005830903790087463,1508.4,1480.8309037900874,1262.0,1500
6.907505035400391,312,243,94,0.0005830903790087463,1508.3,1480.8309037900874,1262.0,1500
6.929653882980347,313,243,93,0.0006184291898577613,1508.3,1481.1842918985776,1264.0,1500
6.951758861541748,314,242,91,0.0006002400960384153,1508.2,1481.0024009603842,1268.0,1500
6.973757982254028,315,241,91,0.0005952380952380953,1508.1,1480.952380952381,1268.0,1500
6.995751857757568,316,239,89,0.0006211180124223603,1507.9,1481.2111801242236,1272.0,1500
7.017751932144165,317,238,87,0.0006172839506172839,1507.8,1481.1728395061727,1276.0,1500
7.039816856384277,318,237,86,0.0006079027355623101,1507.7,1481.079027355623,1278.0,1500
7.061913967132568,319,234,85,0.0005668934240362812,1507.4,1480.668934240363,1280.0,1500
7.083950996398926,320,234,84,0.0006211180124223603,1507.4,1481.2111801242236,1282.0,1500
7.1059370040893555,321,232,82,0.0006038647342995169,1507.2,1481.038647342995,1286.0,1500
7.127926826477051,322,230,81,0.0005787037037037037,1507.0,1480.787037037037,1288.0,1500
7.1499879360198975,323,228,80,0.0005787037037037037,1506.8,1480.787037037037,1290.0,1500
7.172067880630493,324,226,80,0.0005630630630630631,1506.6,1480.6306306306305,1290.0,1500
7.194062948226929,325,225,79,0.0005668934240362812,1506.5,1480.668934240363,1292.0,1500
7.216048002243042,326,225,80,0.0006211180124223603,1506.5,1481.2111801242236,1290.0,1500
7.238029956817627,327,222,80,0.0005341880341880342,1506.2,1480.3418803418804,1290.0,1500
7.260098934173584,328,220,80,0.0005341880341880342,1506.0,1480.3418803418804,1290.0,1500
7.282286882400513,329,217,81,0.0005714285714285715,1505.7,1480.7142857142858,1288.0,1500
7.3042778968811035,330,214,79,0.0005494505494505495,1505.4,1480.4945054945056,1292.0,1500
7.326555967330933,331,212,79,0.0005494505494505495,1505.2,1480.4945054945056,1292.0,1500
7.348572015762329,332,210,79,0.0005494505494505495,1505.0,1480.4945054945056,1292.0,1500
7.370630979537964,333,208,79,0.0005494505494505495,1504.8,1480.4945054945056,1292.0,1500
7.392608880996704,334,206,80,0.0005602240896358543,1504.6,1480.6022408963586,1290.0,1500
7.41459584236145,335,204,80,0.0005494505494505495,1504.4,1480.4945054945056,1290.0,1500
7.436575889587402,336,202,79,0.0005656108597285068,1504.2,1480.656108597285,1292.0,1500
7.458559036254883,337,200,79,0.000588235294117647,1504.0,1480.8823529411766,1292.0,1500
7.480607986450195,338,199,79,0.0006184291898577613,1503.9,1481.1842918985776,1292.0,1500
7.502579927444458,339,196,78,0.0006684491978609625,1503.6,1481.6844919786097,1294.0,1500
7.524564027786255,340,193,78,0.0006587615283267457,1503.3,1481.5876152832675,1294.0,1500
7.546562910079956,341,192,77,0.00065359477124183,1503.2,1481.5359477124182,1296.0,1500
7.568535804748535,342,189,78,0.0006587615283267457,1502.9,1481.5876152832675,1294.0,1500
7.590619802474976,343,188,78,0.0007102272727272727,1502.8,1482.1022727272727,1294.0,1500
7.61259388923645,344,184,82,0.0007246376811594203,1502.4,1482.2463768115942,1286.0,1500
7.634598016738892,345,182,84,0.0007012622720897616,1502.2,1482.0126227208975,1282.0,1500
7.656579971313477,346,180,85,0.0007496251874062968,1502.0,1482.4962518740629,1280.0,1500
7.678570032119751,347,178,85,0.0007496251874062968,1501.8,1482.4962518740629,1280.0,1500
7.700628995895386,348,176,85,0.0007246376811594203,1501.6,1482.2463768115942,1280.0,1500
7.722601890563965,349,174,87,0.0007836990595611285,1501.4,1482.8369905956113,1276.0,1500
7.744576930999756,350,172,88,0.0007662835249042146,1501.2,1482.6628352490422,1274.0,1500
7.766580820083618,351,172,89,0.0008019246190858059,1501.2,1483.019246190858,1272.0,1500
7.788583993911743,352,170,89,0.0008305647840531562,1501.0,1483.3056478405315,1272.0,1500
7.810647010803223,353,168,89,0.0008818342151675485,1500.8,1483.8183421516756,1272.0,1500
7.832636833190918,354,165,89,0.0008417508417508417,1500.5,1483.4175084175083,1272.0,1500
7.854628801345825,355,164,89,0.0008116883116883117,1500.4,1483.1168831168832,1272.0,1500
7.8766138553619385,356,164,90,0.000925925925925926,1500.4,1484.2592592592594,1270.0,1500
7.89861798286438,357,162,92,0.0008613264427217916,1500.2,1483.613264427218,1266.0,1500
7.920660972595215,358,162,94,0.0009033423667570009,1500.2,1484.03342366757,1262.0,1500
7.942647933959961,359,160,95,0.000949667616334283,1500.0,1484.4966761633427,1260.0,1500
7.964627027511597,360,159,97,0.000949667616334283,1499.9,1484.4966761633427,1256.0,1500
7.986645936965942,361,156,97,0.0008818342151675485,1499.6,1483.8183421516756,1256.0,1500
8.008626937866211,362,156,97,0.000925925925925926,1499.6,1484.2592592592594,1256.0,1500
8.03067684173584,363,155,97,0.000925925925925926,1499.5,1484.2592592592594,1256.0,1500
8.05265498161316,364,154,97,0.0009615384615384616,1499.4,1484.6153846153845,1256.0,1500
8.074638843536377,365,152,97,0.0008944543828264759,1499.2,1483.9445438282648,1256.0,1500
8.096654891967773,366,152,98,0.000925925925925926,1499.2,1484.2592592592594,1254.0,1500
8.118711948394775,367,151,98,0.0009033423667570009,1499.1,1484.03342366757,1254.0,1500
8.140766859054565,368,150,98,0.0009615384615384616,1499.0,1484.6153846153845,1254.0,1500
8.162791013717651,369,149,99,0.0009033423667570009,1498.9,1484.03342366757,1252.0,1500
8.184768915176392,370,150,98,0.0009861932938856016,1499.0,1484.861932938856,1254.0,1500
8.206740856170654,371,151,100,0.000949667616334283,1499.1,1484.4966761633427,1250.0,1500
8.228787899017334,372,151,101,0.0009861932938856016,1499.1,1484.861932938856,1248.0,1500
8.250769853591919,373,150,104,0.0009861932938856016,1499.0,1484.861932938856,1242.0,1500
8.272763013839722,374,149,103,0.0009380863039399625,1498.9,1484.3808630393996,1244.0,1500
8.294770002365112,375,149,103,0.0009033423667570009,1498.9,1484.03342366757,1244.0,1500
8.317026853561401,376,150,101,0.0009157509157509158,1499.0,1484.1575091575091,1248.0,1500
8.33912181854248,377,149,101,0.0009033423667570009,1498.9,1484.03342366757,1248.0,1500
8.361095905303955,378,149,100,0.0008710801393728223,1498.9,1483.7108013937282,1250.0,1500
8.383002996444702,379,149,100,0.0008503401360544217,1498.9,1483.503401360544,1250.0,1500
8.404950857162476,380,150,101,0.0008710801393728223,1499.0,1483.7108013937282,1248.0,1500
8.426900863647461,381,150,101,0.0009398496240601503,1499.0,1484.3984962406016,1248.0,1500
8.448933839797974,382,149,102,0.0009398496240601503,1498.9,1484.3984962406016,1246.0,1500
8.470898866653442,383,149,103,0.0009746588693957114,1498.9,1484.7465886939572,1244.0,1500
8.49287486076355,384,148,104,0.00102880658436214,1498.8,1485.2880658436213,1242.0,1500
8.514827966690063,385,147,104,0.000925925925925926,1498.7,1484.2592592592594,1242.0,1500
8.536787033081055,386,148,104,0.0009157509157509158,1498.8,1484.1575091575091,1242.0,1500
8.558837890625,387,147,103,0.0008818342151675485,1498.7,1483.8183421516756,1244.0,1500
8.580792903900146,388,147,101,0.0009157509157509158,1498.7,1484.1575091575091,1248.0,1500
8.60277795791626,389,146,100,0.0009157509157509158,1498.6,1484.1575091575091,1250.0,1500
8.624686002731323,390,146,101,0.0008841732979664014,1498.6,1483.841732979664,1248.0,1500
8.646683931350708,391,146,100,0.0008503401360544217,1498.6,1483.503401360544,1250.0,1500
8.668757915496826,392,145,100,0.0009157509157509158,1498.5,1484.1575091575091,1250.0,1500
8.690806865692139,393,146,101,0.0008841732979664014,1498.6,1483.841732979664,1248.0,1500
8.712776899337769,394,146,101,0.0009157509157509158,1498.6,1484.1575091575091,1248.0,1500
8.734763860702515,395,146,102,0.0009746588693957114,1498.6,1484.7465886939572,1246.0,1500
8.756731986999512,396,147,103,0.0009074410163339383,1498.7,1484.0744101633393,1244.0,1500
8.778733015060425,397,147,103,0.0010121457489878543,1498.7,1485.1214574898786,1244.0,1500
8.800796031951904,398,146,103,0.0009746588693957114,1498.6,1484.7465886939572,1244.0,1500
8.822767972946167,399,147,102,0.001001001001001001,1498.7,1485.01001001001,1246.0,1500
8.844753980636597,400,146,102,0.000949667616334283,1498.6,1484.4966761633427,1246.0,1500
8.866751909255981,401,148,100,0.0009746588693957114,1498.8,1484.7465886939572,1250.0,1500
8.888833999633789,402,149,99,0.000949667616334283,1498.9,1484.4966761633427,1252.0,1500
8.910813808441162,403,150,98,0.001001001001001001,1499.0,1485.01001001001,1254.0,1500
8.932770013809204,404,151,98,0.00102880658436214,1499.1,1485.2880658436213,1254.0,1500
8.95474886894226,405,151,98,0.0009746588693957114,1499.1,1484.7465886939572,1254.0,1500
8.97672700881958,406,152,99,0.0009615384615384616,1499.2,1484.6153846153845,1252.0,1500
8.99872088432312,407,153,99,0.0010683760683760685,1499.3,1485.6837606837607,1252.0,1500
9.020771980285645,408,153,100,0.0009861932938856016,1499.3,1484.861932938856,1250.0,1500
9.042752027511597,409,153,100,0.0010121457489878543,1499.3,1485.1214574898786,1250.0,1500
9.064738988876343,410,154,100,0.0010121457489878543,1499.4,1485.1214574898786,1250.0,1500
9.086764812469482,411,155,100,0.0010526315789473684,1499.5,1485.5263157894738,1250.0,1500
9.108757972717285,412,155,99,0.0010526315789473684,1499.5,1485.5263157894738,1252.0,1500
9.130827903747559,413,158,98,0.001,1499.8,1485.0,1254.0,1500
9.152781963348389,414,160,97,0.001142857142857143,1500.0,1486.4285714285713,1256.0,1500
9.174710988998413,415,162,96,0.001,1500.2,1485.0,1258.0,1500
9.196663856506348,416,164,95,0.000975609756097561,1500.4,1484.7560975609756,1260.0,1500
9.218726873397827,417,165,95,0.001,1500.5,1485.0,1260.0,1500
9.240649938583374,418,167,94,0.0009380863039399625,1500.7,1484.3808630393996,1262.0,1500
9.26266598701477,419,168,94,0.0009615384615384616,1500.8,1484.6153846153845,1262.0,1500
9.284595966339111,420,171,95,0.000949667616334283,1501.1,1484.4966761633427,1260.0,1500
9.306567907333374,421,171,95,0.0010121457489878543,1501.1,1485.1214574898786,1260.0,1500
9.328619003295898,422,172,95,0.0008928571428571428,1501.2,1483.9285714285713,1260.0,1500
9.358210802078247,423,173,95,0.0008818342151675485,1501.3,1483.8183421516756,1260.0,1500
9.380403995513916,424,175,94,0.0008503401360544217,1501.5,1483.503401360544,1262.0,1500
9.402468919754028,425,177,94,0.0008019246190858059,1501.7,1483.019246190858,1262.0,1500
9.424444913864136,426,177,93,0.0008116883116883117,1501.7,1483.1168831168832,1264.0,1500
9.446408033370972,427,178,93,0.0007836990595611285,1501.8,1482.8369905956113,1264.0,1500
9.468462944030762,428,179,92,0.0007575757575757576,1501.9,1482.5757575757575,1266.0,1500
9.490449905395508,429,181,92,0.0008019246190858059,1502.1,1483.019246190858,1266.0,1500
9.512415885925293,430,182,91,0.0007662835249042146,1502.2,1482.6628352490422,1268.0,1500
9.534415006637573,431,183,90,0.0007662835249042146,1502.3,1482.6628352490422,1270.0,1500
9.556394815444946,432,184,90,0.0007407407407407407,1502.4,1482.4074074074074,1270.0,1500
9.578375816345215,433,185,90,0.0007407407407407407,1502.5,1482.4074074074074,1270.0,1500
9.6004319190979,434,186,90,0.0007407407407407407,1502.6,1482.4074074074074,1270.0,1500
9.622416973114014,435,186,90,0.0007575757575757576,1502.6,1482.5757575757575,1270.0,1500
9.644404888153076,436,189,90,0.0008130081300813008,1502.9,1483.1300813008131,1270.0,1500
9.666401863098145,437,190,90,0.0007867820613690008,1503.0,1482.86782061369,1270.0,1500
9.68837285041809,438,190,90,0.0007331378299120235,1503.0,1482.3313782991202,1270.0,1500
9.710415840148926,439,191,90,0.0007680491551459293,1503.1,1482.6804915514592,1270.0,1500
9.732383012771606,440,192,89,0.0007751937984496124,1503.2,1482.7519379844962,1272.0,1500
9.754364013671875,441,191,89,0.0007331378299120235,1503.1,1482.3313782991202,1272.0,1500
9.776340961456299,442,192,89,0.0007680491551459293,1503.2,1482.6804915514592,1272.0,1500
9.79833984375,443,193,89,0.0007680491551459293,1503.3,1482.6804915514592,1272.0,1500
9.820387840270996,444,192,88,0.0007575757575757576,1503.2,1482.5757575757575,1274.0,1500
9.842363834381104,445,192,89,0.0007331378299120235,1503.2,1482.3313782991202,1272.0,1500
9.8643479347229,446,194,89,0.0007867820613690008,1503.4,1482.86782061369,1272.0,1500
9.886343955993652,447,192,89,0.0007331378299120235,1503.2,1482.3313782991202,1272.0,1500
9.908336877822876,448,192,89,0.0007331378299120235,1503.2,1482.3313782991202,1272.0,1500
9.930436849594116,449,192,89,0.0007501875468867217,1503.2,1482.5018754688672,1272.0,1500
9.95242691040039,450,191,89,0.0007751937984496124,1503.1,1482.7519379844962,1272.0,1500
9.974411964416504,451,191,89,0.0007751937984496124,1503.1,1482.7519379844962,1272.0,1500
9.996409893035889,452,191,90,0.0008333333333333334,1503.1,1483.3333333333333,1270.0,1500
10.018476009368896,453,189,89,0.0008305647840531562,1502.9,1483.3056478405315,1272.0,1500
10.040467023849487,454,190,89,0.0008410428931875525,1503.0,1483.4104289318755,1272.0,1500
10.062466859817505,455,188,88,0.0007751937984496124,1502.8,1482.7519379844962,1274.0,1500
10.084501028060913,456,186,89,0.0007836990595611285,1502.6,1482.8369905956113,1272.0,1500
10.106505870819092,457,185,89,0.0008116883116883117,1502.5,1483.1168831168832,1272.0,1500
10.128487825393677,458,184,90,0.0007936507936507937,1502.4,1482.936507936508,1270.0,1500
10.15058183670044,459,183,91,0.0007836990595611285,1502.3,1482.8369905956113,1268.0,1500
10.172571897506714,460,182,92,0.0007662835249042146,1502.2,1482.6628352490422,1266.0,1500
10.194571018218994,461,181,92,0.0007836990595611285,1502.1,1482.8369905956113,1266.0,1500
10.216537952423096,462,180,91,0.0008305647840531562,1502.0,1483.3056478405315,1268.0,1500
10.238572835922241,463,178,91,0.0008116883116883117,1501.8,1483.1168831168832,1268.0,1500
10.260550022125244,464,177,91,0.0007836990595611285,1501.7,1482.8369905956113,1268.0,1500
10.282588005065918,465,176,91,0.0008116883116883117,1501.6,1483.1168831168832,1268.0,1500
10.304564952850342,466,174,90,0.0008116883116883117,1501.4,1483.1168831168832,1270.0,1500
10.326566934585571,467,173,90,0.0008503401360544217,1501.3,1483.503401360544,1270.0,1500
10.348817825317383,468,171,90,0.0008818342151675485,1501.1,1483.8183421516756,1270.0,1500
10.370900869369507,469,172,91,0.000949667616334283,1501.2,1484.4966761633427,1268.0,1500
10.392911911010742,470,169,91,0.0008818342151675485,1500.9,1483.8183421516756,1268.0,1500
10.41488790512085,471,168,91,0.0008818342151675485,1500.8,1483.8183421516756,1268.0,1500
10.436888933181763,472,168,91,0.0009861932938856016,1500.8,1484.861932938856,1268.0,1500
10.458846807479858,473,167,91,0.0009861932938856016,1500.7,1484.861932938856,1268.0,1500
10.480885982513428,474,164,92,0.0009157509157509158,1500.4,1484.1575091575091,1266.0,1500
10.502872943878174,475,163,92,0.0009157509157509158,1500.3,1484.1575091575091,1266.0,1500
10.524868965148926,476,163,92,0.0009861932938856016,1500.3,1484.861932938856,1266.0,1500
10.546849012374878,477,162,93,0.0010256410256410256,1500.2,1485.2564102564102,1264.0,1500
10.568837881088257,478,159,92,0.0009157509157509158,1499.9,1484.1575091575091,1266.0,1500
10.590924978256226,479,160,92,0.0009861932938856016,1500.0,1484.861932938856,1266.0,1500
10.612931966781616,480,157,92,0.0009157509157509158,1499.7,1484.1575091575091,1266.0,1500
10.634929895401001,481,157,92,0.000949667616334283,1499.7,1484.4966761633427,1266.0,1500
10.656932830810547,482,155,91,0.0009380863039399625,1499.5,1484.3808630393996,1268.0,1500
10.678905010223389,483,154,91,0.0009157509157509158,1499.4,1484.1575091575091,1268.0,1500
10.700989961624146,484,153,91,0.000925925925925926,1499.3,1484.2592592592594,1268.0,1500
10.722980976104736,485,152,91,0.0009157509157509158,1499.2,1484.1575091575091,1268.0,1500
10.744978904724121,486,152,91,0.0009033423667570009,1499.2,1484.03342366757,1268.0,1500
10.766968011856079,487,151,91,0.0009380863039399625,1499.1,1484.3808630393996,1268.0,1500
10.788973808288574,488,149,92,0.0008818342151675485,1498.9,1483.8183421516756,1266.0,1500
10.811031818389893,489,148,92,0.0009157509157509158,1498.8,1484.1575091575091,1266.0,1500
10.833017826080322,490,148,93,0.0009380863039399625,1498.8,1484.3808630393996,1264.0,1500
10.854995965957642,491,147,94,0.0009033423667570009,1498.7,1484.03342366757,1262.0,1500
10.876994848251343,492,145,94,0.0008818342151675485,1498.5,1483.8183421516756,1262.0,1500
10.899067878723145,493,145,93,0.0009033423667570009,1498.5,1484.03342366757,1264.0,1500
10.92105484008789,494,145,93,0.0009033423667570009,1498.5,1484.03342366757,1264.0,1500
10.94304895401001,495,142,92,0.000925925925925926,1498.2,1484.2592592592594,1266.0,1500
10.965047836303711,496,142,92,0.000925925925925926,1498.2,1484.2592592592594,1266.0,1500
10.987026929855347,497,141,91,0.0008710801393728223,1498.1,1483.7108013937282,1268.0,1500
11.009076833724976,498,141,92,0.0008841732979664014,1498.1,1483.841732979664,1266.0,1500
11.031032800674438,499,138,92,0.0009033423667570009,1497.8,1484.03342366757,1266.0,1500
11.053038835525513,500,138,92,0.0008710801393728223,1497.8,1483.7108013937282,1266.0,1500
11.075021982192993,501,136,93,0.0008620689655172414,1497.6,1483.6206896551723,1264.0,1500
11.0970458984375,502,135,93,0.0008841732979664014,1497.5,1483.841732979664,1264.0,1500
11.11908483505249,503,136,93,0.0009398496240601503,1497.6,1484.3984962406016,1264.0,1500
11.14114785194397,504,134,94,0.000925925925925926,1497.4,1484.2592592592594,1262.0,1500
11.163164854049683,505,135,93,0.0008710801393728223,1497.5,1483.7108013937282,1264.0,1500
11.185170888900757,506,133,93,0.0008928571428571428,1497.3,1483.9285714285713,1264.0,1500
11.207139015197754,507,133,94,0.000949667616334283,1497.3,1484.4966761633427,1262.0,1500
11.229197978973389,508,133,93,0.000992063492063492,1497.3,1484.920634920635,1264.0,1500
11.251179933547974,509,132,94,0.0008841732979664014,1497.2,1483.841732979664,1262.0,1500
11.273188829421997,510,132,94,0.0009398496240601503,1497.2,1484.3984962406016,1262.0,1500
11.295172929763794,511,131,94,0.0008841732979664014,1497.1,1483.841732979664,1262.0,1500
11.31716799736023,512,131,93,0.0008928571428571428,1497.1,1483.9285714285713,1264.0,1500
11.339159965515137,513,132,93,0.0009009009009009009,1497.2,1484.009009009009,1264.0,1500
11.361485004425049,514,132,93,0.0008130081300813008,1497.2,1483.1300813008131,1264.0,1500
11.383493900299072,515,131,94,0.0009615384615384616,1497.1,1484.6153846153845,1262.0,1500
11.405454874038696,516,133,94,0.0008841732979664014,1497.3,1483.841732979664,1262.0,1500
11.427496910095215,517,132,94,0.0009398496240601503,1497.2,1484.3984962406016,1262.0,1500
11.449450016021729,518,134,94,0.000949667616334283,1497.4,1484.4966761633427,1262.0,1500
11.471662998199463,519,133,95,0.0008620689655172414,1497.3,1483.6206896551723,1260.0,1500
11.493669033050537,520,135,95,0.0008710801393728223,1497.5,1483.7108013937282,1260.0,1500
11.515650033950806,521,135,95,0.0009033423667570009,1497.5,1484.03342366757,1260.0,1500
11.537608861923218,522,135,94,0.0008928571428571428,1497.5,1483.9285714285713,1262.0,1500
11.559669017791748,523,137,94,0.0009746588693957114,1497.7,1484.7465886939572,1262.0,1500
11.581851959228516,524,139,94,0.000925925925925926,1497.9,1484.2592592592594,1262.0,1500
11.603843927383423,525,139,95,0.0010256410256410256,1497.9,1485.2564102564102,1260.0,1500
11.625825881958008,526,140,94,0.00102880658436214,1498.0,1485.2880658436213,1262.0,1500
11.64779782295227,527,141,94,0.0009861932938856016,1498.1,1484.861932938856,1262.0,1500
11.669814825057983,528,142,94,0.0009861932938856016,1498.2,1484.861932938856,1262.0,1500
11.69184398651123,529,144,94,0.0010256410256410256,1498.4,1485.2564102564102,1262.0,1500
11.713820934295654,530,146,94,0.0011111111111111111,1498.6,1486.111111111111,1262.0,1500
11.735805988311768,531,147,93,0.0010256410256410256,1498.7,1485.2564102564102,1264.0,1500
11.757762908935547,532,149,92,0.0009861932938856016,1498.9,1484.861932938856,1266.0,1500
11.779803991317749,533,152,92,0.0011111111111111111,1499.2,1486.111111111111,1266.0,1500
11.8019859790802,534,153,91,0.0010526315789473684,1499.3,1485.5263157894738,1268.0,1500
11.823966026306152,535,156,90,0.0010526315789473684,1499.6,1485.5263157894738,1270.0,1500
11.845937013626099,536,158,89,0.0010121457489878543,1499.8,1485.1214574898786,1272.0,1500
11.86799693107605,537,166,87,0.0009157509157509158,1500.6,1484.1575091575091,1276.0,1500
11.889959812164307,538,167,87,0.0009319664492078285,1500.7,1484.3196644920783,1276.0,1500
11.91203498840332,539,169,86,0.0009319664492078285,1500.9,1484.3196644920783,1278.0,1500
11.934000015258789,540,173,85,0.0008130081300813008,1501.3,1483.1300813008131,1280.0,1500
11.95597791671753,541,173,84,0.0007836990595611285,1501.3,1482.8369905956113,1282.0,1500
11.97794795036316,542,176,83,0.0007662835249042146,1501.6,1482.6628352490422,1284.0,1500
12.000033855438232,543,179,81,0.0007751937984496124,1501.9,1482.7519379844962,1288.0,1500
12.022084951400757,544,182,80,0.0008333333333333334,1502.2,1483.3333333333333,1290.0,1500
12.044044971466064,545,185,79,0.0008410428931875525,1502.5,1483.4104289318755,1292.0,1500
12.066020965576172,546,187,77,0.0008130081300813008,1502.7,1483.1300813008131,1296.0,1500
12.088032007217407,547,189,76,0.0007867820613690008,1502.9,1482.86782061369,1298.0,1500
12.110069036483765,548,189,75,0.0006887052341597796,1502.9,1481.8870523415978,1300.0,1500
12.132131814956665,549,190,74,0.0006887052341597796,1503.0,1481.8870523415978,1300,1500
12.154062986373901,550,193,73,0.0007575757575757576,1503.3,1482.5757575757575,1300,1500
12.176007986068726,551,196,71,0.0007390983000739098,1503.6,1482.3909830007392,1300,1500
12.197932004928589,552,197,68,0.0007215007215007215,1503.7,1482.2150072150073,1300,1500
12.219918966293335,553,199,66,0.0007047216349541931,1503.9,1482.047216349542,1300,1500
12.241904973983765,554,200,66,0.0007002801120448179,1504.0,1482.002801120448,1300,1500
12.263861894607544,555,198,66,0.0006493506493506494,1503.8,1481.4935064935064,1300,1500
12.28578495979309,556,201,65,0.0007002801120448179,1504.1,1482.002801120448,1300,1500
12.307699918746948,557,199,64,0.0006613756613756613,1503.9,1481.6137566137565,1300,1500
12.329685926437378,558,202,63,0.0006459948320413437,1504.2,1481.4599483204133,1300,1500
12.351984024047852,559,202,62,0.0007122507122507123,1504.2,1482.1225071225072,1300,1500
12.37393593788147,560,203,62,0.0006613756613756613,1504.3,1481.6137566137565,1300,1500
12.395902872085571,561,202,62,0.0006775067750677507,1504.2,1481.7750677506774,1300,1500
12.417922019958496,562,202,63,0.0006435006435006435,1504.2,1481.4350064350065,1300,1500
12.439832925796509,563,202,63,0.0006459948320413437,1504.2,1481.4599483204133,1300,1500
12.46189284324646,564,201,64,0.0006435006435006435,1504.1,1481.4350064350065,1300,1500
12.483832836151123,565,200,64,0.0006591957811470006,1504.0,1481.59195781147,1300,1500
12.505733966827393,566,197,64,0.0006142506142506142,1503.7,1481.1425061425061,1300,1500
12.527634859085083,567,197,64,0.0006313131313131314,1503.7,1481.3131313131314,1300,1500
12.549614906311035,568,197,66,0.0007002801120448179,1503.7,1482.002801120448,1300,1500
12.571614027023315,569,195,66,0.0006313131313131314,1503.5,1481.3131313131314,1300,1500
12.593560934066772,570,193,68,0.0006038647342995169,1503.3,1481.038647342995,1300,1500
12.615456819534302,571,193,70,0.00065359477124183,1503.3,1481.5359477124182,1300,1500
12.6373929977417,572,191,71,0.0006038647342995169,1503.1,1481.038647342995,1300,1500
12.659289836883545,573,190,74,0.0006079027355623101,1503.0,1481.079027355623,1300,1500
12.681277990341187,574,188,74,0.0006038647342995169,1502.8,1481.038647342995,1300,1500
12.703197002410889,575,186,76,0.0006435006435006435,1502.6,1481.4350064350065,1298.0,1500
12.725198030471802,576,186,76,0.0007173601147776184,1502.6,1482.1736011477763,1298.0,1500
12.747176885604858,577,184,79,0.0007002801120448179,1502.4,1482.002801120448,1292.0,1500
12.769160985946655,578,182,80,0.0007142857142857143,1502.2,1482.142857142857,1290.0,1500
12.791229963302612,579,181,82,0.0007390983000739098,1502.1,1482.3909830007392,1286.0,1500
12.813227891921997,580,177,83,0.0007390983000739098,1501.7,1482.3909830007392,1284.0,1500
12.835219860076904,581,175,84,0.0008064516129032258,1501.5,1483.0645161290322,1282.0,1500
12.857224941253662,582,174,84,0.0008130081300813008,1501.4,1483.1300813008131,1282.0,1500
12.879189014434814,583,171,85,0.0007168458781362007,1501.1,1482.168458781362,1280.0,1500
12.90125298500061,584,169,86,0.0007836990595611285,1500.9,1482.8369905956113,1278.0,1500
12.923233032226562,585,168,87,0.0008305647840531562,1500.8,1483.3056478405315,1276.0,1500
12.94521188735962,586,166,89,0.0008410428931875525,1500.6,1483.4104289318755,1272.0,1500
12.967176914215088,587,165,90,0.0009033423667570009,1500.5,1484.03342366757,1270.0,1500
12.989142894744873,588,163,90,0.000925925925925926,1500.3,1484.2592592592594,1270.0,1500
13.01117992401123,589,161,90,0.0009615384615384616,1500.1,1484.6153846153845,1270.0,1500
13.033154010772705,590,161,90,0.0009615384615384616,1500.1,1484.6153846153845,1270.0,1500
13.055154800415039,591,160,90,0.000949667616334283,1500.0,1484.4966761633427,1270.0,1500
13.077148914337158,592,159,89,0.0010683760683760685,1499.9,1485.6837606837607,1272.0,1500
13.099151849746704,593,157,89,0.0009861932938856016,1499.7,1484.861932938856,1272.0,1500
13.121196031570435,594,154,90,0.0009861932938856016,1499.4,1484.861932938856,1270.0,1500
13.143187999725342,595,152,91,0.001,1499.2,1485.0,1268.0,1500
13.165159940719604,596,151,92,0.0010256410256410256,1499.1,1485.2564102564102,1266.0,1500
13.187155961990356,597,149,92,0.0010416666666666667,1498.9,1485.4166666666667,1266.0,1500
13.209125995635986,598,147,93,0.0010526315789473684,1498.7,1485.5263157894738,1264.0,1500
13.23098087310791,599,146,94,0.0010256410256410256,1498.6,1485.2564102564102,1262.0,1500
13.252734899520874,600,144,94,0.0010526315789473684,1498.4,1485.5263157894738,1262.0,1500
13.274531841278076,601,143,94,0.001142857142857143,1498.3,1486.4285714285713,1262.0,1500
13.296324968338013,602,141,93,0.0010526315789473684,1498.1,1485.5263157894738,1264.0,1500
13.318063020706177,603,139,92,0.0010121457489878543,1497.9,1485.1214574898786,1266.0,1500
13.339799880981445,604,140,92,0.0010395010395010396,1498.0,1485.3950103950103,1266.0,1500
13.361965894699097,605,137,92,0.0009157509157509158,1497.7,1484.1575091575091,1266.0,1500
13.383749961853027,606,136,93,0.0009157509157509158,1497.6,1484.1575091575091,1264.0,1500
13.405520915985107,607,134,95,0.0008928571428571428,1497.4,1483.9285714285713,1260.0,1500
13.427264928817749,608,133,94,0.0009157509157509158,1497.3,1484.1575091575091,1262.0,1500
13.449018955230713,609,131,95,0.0008928571428571428,1497.1,1483.9285714285713,1260.0,1500
13.470791816711426,610,129,95,0.0008928571428571428,1496.9,1483.9285714285713,1260.0,1500
13.49255895614624,611,128,96,0.0009746588693957114,1496.8,1484.7465886939572,1258.0,1500
13.514310836791992,612,127,96,0.0010256410256410256,1496.7,1485.2564102564102,1258.0,1500
13.5360689163208,613,127,94,0.0008718395815170009,1496.7,1483.71839581517,1262.0,1500
13.557798862457275,614,126,94,0.0009578544061302681,1496.6,1484.5785440613026,1262.0,1500
13.579537868499756,615,125,95,0.0009319664492078285,1496.5,1484.3196644920783,1260.0,1500
13.601444005966187,616,124,94,0.000925925925925926,1496.4,1484.2592592592594,1262.0,1500
13.623219966888428,617,123,93,0.0008771929824561404,1496.3,1483.7719298245613,1264.0,1500
13.644965887069702,618,123,93,0.0008718395815170009,1496.3,1483.71839581517,1264.0,1500
13.66673493385315,619,123,93,0.0008488964346349745,1496.3,1483.4889643463498,1264.0,1500
13.68849492073059,620,122,93,0.0008488964346349745,1496.2,1483.4889643463498,1264.0,1500
13.710287809371948,621,121,94,0.0008620689655172414,1496.1,1483.6206896551723,1262.0,1500
13.732086896896362,622,121,94,0.0008333333333333334,1496.1,1483.3333333333333,1262.0,1500
13.753835916519165,623,121,94,0.0008064516129032258,1496.1,1483.0645161290322,1262.0,1500
13.775573968887329,624,123,94,0.0009009009009009009,1496.3,1484.009009009009,1262.0,1500
13.797317028045654,625,122,93,0.0008620689655172414,1496.2,1483.6206896551723,1264.0,1500
13.819084882736206,626,124,95,0.001001001001001001,1496.4,1485.01001001001,1260.0,1500
13.840845823287964,627,125,94,0.0008771929824561404,1496.5,1483.7719298245613,1262.0,1500
13.862612009048462,628,125,93,0.0008333333333333334,1496.5,1483.3333333333333,1264.0,1500
13.884385824203491,629,127,93,0.0009157509157509158,1496.7,1484.1575091575091,1264.0,1500
13.906121969223022,630,129,93,0.0009319664492078285,1496.9,1484.3196644920783,1264.0,1500
13.92785382270813,631,131,93,0.0009319664492078285,1497.1,1484.3196644920783,1264.0,1500
13.949602842330933,632,131,94,0.000925925925925926,1497.1,1484.2592592592594,1262.0,1500
13.971499919891357,633,134,95,0.001001001001001001,1497.4,1485.01001001001,1260.0,1500
13.993254899978638,634,135,94,0.00102880658436214,1497.5,1485.2880658436213,1262.0,1500
14.015010833740234,635,137,94,0.000949667616334283,1497.7,1484.4966761633427,1262.0,1500
14.036775827407837,636,138,94,0.0010526315789473684,1497.8,1485.5263157894738,1262.0,1500
14.058537006378174,637,140,94,0.0010526315789473684,1498.0,1485.5263157894738,1262.0,1500
14.080327987670898,638,143,94,0.0011111111111111111,1498.3,1486.111111111111,1262.0,1500
14.1021568775177,639,144,93,0.0011261261261261261,1498.4,1486.2612612612613,1264.0,1500
14.12389588356018,640,148,92,0.0011904761904761906,1498.8,1486.904761904762,1266.0,1500
14.145634889602661,641,148,92,0.0010526315789473684,1498.8,1485.5263157894738,1266.0,1500
14.16744089126587,642,151,91,0.0011261261261261261,1499.1,1486.2612612612613,1268.0,1500
14.189212799072266,643,153,90,0.0010395010395010396,1499.3,1485.3950103950103,1270.0,1500
14.210961818695068,644,157,90,0.000949667616334283,1499.7,1484.4966761633427,1270.0,1500
14.232733964920044,645,159,89,0.0009157509157509158,1499.9,1484.1575091575091,1272.0,1500
14.254483938217163,646,160,89,0.0009398496240601503,1500.0,1484.3984962406016,1272.0,1500
14.276229858398438,647,161,89,0.0008928571428571428,1500.1,1483.9285714285713,1272.0,1500
14.297977924346924,648,163,89,0.0008333333333333334,1500.3,1483.3333333333333,1272.0,1500
14.319726943969727,649,165,89,0.0008210180623973727,1500.5,1483.2101806239737,1272.0,1500
14.341827869415283,650,167,89,0.0008410428931875525,1500.7,1483.4104289318755,1272.0,1500
14.369105815887451,651,169,88,0.0008410428931875525,1500.9,1483.4104289318755,1274.0,1500
14.391244888305664,652,172,86,0.0007575757575757576,1501.2,1482.5757575757575,1278.0,1500
14.413237810134888,653,176,85,0.0008064516129032258,1501.6,1483.0645161290322,1280.0,1500
14.435237884521484,654,178,83,0.0007621951219512195,1501.8,1482.621951219512,1284.0,1500
14.457211971282959,655,181,82,0.0007390983000739098,1502.1,1482.3909830007392,1286.0,1500
14.479197978973389,656,182,82,0.0007575757575757576,1502.2,1482.5757575757575,1286.0,1500
14.501272916793823,657,183,81,0.0006839945280437756,1502.3,1481.8399452804379,1288.0,1500
14.523267030715942,658,185,80,0.0006775067750677507,1502.5,1481.7750677506774,1290.0,1500
14.54524302482605,659,185,80,0.0006802721088435374,1502.5,1481.8027210884354,1290.0,1500
14.567225933074951,660,185,77,0.0006613756613756613,1502.5,1481.6137566137565,1296.0,1500
14.589295864105225,661,187,77,0.0006211180124223603,1502.7,1481.2111801242236,1296.0,1500
14.611289024353027,662,188,75,0.0006038647342995169,1502.8,1481.038647342995,1300.0,1500
14.633255004882812,663,189,74,0.0006313131313131314,1502.9,1481.3131313131314,1300,1500
14.655192852020264,664,191,73,0.0006006006006006006,1503.1,1481.006006006006,1300,1500
14.677109956741333,665,191,71,0.0006349206349206349,1503.1,1481.3492063492063,1300,1500
14.69906997680664,666,193,70,0.0006775067750677507,1503.3,1481.7750677506774,1300,1500
14.721091032028198,667,192,69,0.0006313131313131314,1503.2,1481.3131313131314,1300,1500
14.743024826049805,668,193,68,0.0006802721088435374,1503.3,1481.8027210884354,1300,1500
14.764947891235352,669,195,67,0.0006968641114982578,1503.5,1481.9686411149826,1300,1500
14.786886930465698,670,195,64,0.0006968641114982578,1503.5,1481.9686411149826,1300,1500
14.808809995651245,671,195,64,0.0007173601147776184,1503.5,1482.1736011477763,1300,1500
14.83079195022583,672,195,64,0.0006802721088435374,1503.5,1481.8027210884354,1300,1500
14.852725982666016,673,194,63,0.0007621951219512195,1503.4,1482.621951219512,1300,1500
14.874639987945557,674,194,64,0.0006802721088435374,1503.4,1481.8027210884354,1300,1500
14.896589994430542,675,193,63,0.0006887052341597796,1503.3,1481.8870523415978,1300,1500
14.918495893478394,676,193,62,0.0006313131313131314,1503.3,1481.3131313131314,1300,1500
14.9405038356781,677,192,62,0.0006684491978609625,1503.2,1481.6844919786097,1300,1500
14.962425947189331,678,190,62,0.0006211180124223603,1503.0,1481.2111801242236,1300,1500
