time,x,y,size_inv,roll,pitch,thrust,yaw
0.0007069110870361328,152,53.0,5962.276075459773,1480,1495.0,1350,1492.0
0.02295708656311035,151,52.953,5886.8042264033202,1480,1495.0,1350,1491.0
0.04489302635192871,152,52.953,5811.3323773468674,1480,1495.0,1350,1492.0
0.06679105758666992,152,52.953,5735.8605282904155,1480,1495.0,1350,1492.0
0.08867788314819336,151,52.953,5660.3886792339626,1480,1495.0,1350,1491.0
0.11054301261901855,151,52.953,5584.9168301775098,1480,1495.0,1350,1491.0
0.1325080394744873,151,52.953,5584.9168301775098,1480,1495.0,1350,1491.0
0.1544189453125,151,52.953,5509.444981121057,1480,1495.0,1350,1491.0
0.17638802528381348,152,52.953,5433.9731320646042,1480,1495.0,1350,1492.0
0.19832801818847656,151,52.953,5358.5012830081523,1480,1495.0,1350,1491.0
0.22041797637939453,151,52.953,5358.5012830081523,1480,1495.0,1350,1491.0
0.24265193939208984,152,52.9765,5358.5012830081523,1480,1495.0,1350,1492.0
0.2648940086364746,152,52.953,5358.5012830081523,1480,1495.0,1350,1492.0
0.28711509704589844,153,52.953,5433.9731320646042,1480,1495.0,1350,1493.0
0.3093290328979492,153,52.953,5509.444981121057,1480,1495.0,1350,1493.0
0.33156704902648926,154,52.953,5509.444981121057,1480,1495.0,1350,1494.0
0.3538060188293457,155,52.953,5433.9731320646042,1480,1495.0,1350,1495.0
0.37603092193603516,159,55.094,5509.444981121057,1480,1495.0,1350,1499.0
0.39826488494873047,161,58.2115,5509.444981121057,1480,1495.0,1350,1501.0
0.42051196098327637,162,60.3055,5509.444981121057,1480,1495.0,1345.24128,1502.0
0.44287991523742676,163,62.376,5509.444981121057,1480,1495.0,1329.1875600000001,1503.0
0.46518611907958984,164,64.4465,5509.444981121057,1484.0,1495.0,1310.1203600000001,1504.0
0.4875309467315674,165,65.4465,5509.444981121057,1499.0,1495.0,1296.92452,1505.0
0.5098569393157959,165,65.4465,5433.9731320646042,1511.0,1495.0,1293.65768,1505.0
0.5321750640869141,166,66.423,5358.5012830081523,1520,1495.0,1293.67608,1506.0
0.5544641017913818,167,66.3995,5358.5012830081523,1520,1495.0,1300.7257199999999,1507.0
0.5767509937286377,167,66.3525,5358.5012830081523,1520,1495.0,1313.6686399999999,1507.0
0.5990428924560547,167,66.329,5283.0294339516995,1520,1495.0,1326.5054399999999,1507.0
0.6213839054107666,166,66.329,5283.0294339516995,1520,1495.0,1335.0742399999999,1506.0
0.6437320709228516,165,67.329,5283.0294339516995,1520,1495.0,1340.8894000000003,1505.0
0.6660358905792236,165,68.376,5283.0294339516995,1520,1495.0,1342.2587999999998,1505.0
0.6883409023284912,164,69.3995,5283.0294339516995,1520,1495.0,1339.2350800000002,1504.0
0.7106490135192871,164,70.4465,5283.0294339516995,1520,1495.0,1333.2496800000001,1504.0
0.7330739498138428,163,71.47,5358.5012830081523,1520,1495.0,1325.81864,1503.0
0.7553739547729492,163,72.4935,5433.9731320646042,1520,1495.0,1318.38572,1503.0
0.7776689529418945,163,73.47,5433.9731320646042,1520,1495.0,1312.5666000000001,1503.0
0.7999720573425293,162,73.423,5433.9731320646042,1520,1495.0,1310.97308,1502.0
0.8223080635070801,162,73.376,5433.9731320646042,1520,1495.0,1312.4107999999999,1502.0
0.8446130752563477,162,72.329,5433.9731320646042,1520,1495.0,1319.422,1502.0
0.8668971061706543,161,72.282,5433.9731320646042,1520,1495.0,1326.8066799999999,1501.0
0.8891570568084717,160,72.282,5509.444981121057,1520,1495.0,1335.44524,1500.0
0.9114489555358887,160,73.282,5509.444981121057,1520.0,1495.0,1339.9202399999999,1500.0
0.9338130950927734,160,73.2585,5509.444981121057,1516.0,1495.0,1344.10176,1500.0
0.9561450481414795,159,74.235,5433.9731320646042,1510.0,1495.0,1341.35356,1499.0
0.9784629344940186,159,74.235,5358.5012830081523,1506.0,1495.0,1338.2536,1499.0
1.000777006149292,159,74.235,5358.5012830081523,1502.0,1495.0,1333.8255999999999,1499.0
1.0231928825378418,159,75.235,5358.5012830081523,1499.0,1495.0,1329.6215199999999,1499.0
1.0455288887023926,159,75.235,5358.5012830081523,1496.0,1495.0,1326.61556,1499.0
1.0678648948669434,159,76.235,5358.5012830081523,1493.0,1495.0,1325.12772,1499.0
1.090198040008545,159,76.235,5299.8009559642442,1491.0,1495.0,1324.9038,1499.0
1.1125290393829346,159,77.2115,5224.3291069077914,1490.0,1495.0,1322.1019199999998,1499.0
1.1351211071014404,159,77.2115,5224.3291069077914,1489.0,1495.0,1321.91184,1499.0
1.157499074935913,159,78.2115,5224.3291069077914,1488.0,1495.0,1319.1137199999998,1499.0
1.179819107055664,159,78.2115,5224.3291069077914,1488.0,1495.0,1318.98756,1499.0
1.2021501064300537,158,79.188,5224.3291069077914,1485.0,1495.0,1316.2834399999999,1498.0
1.224510908126831,158,79.188,5224.3291069077914,1484.0,1495.0,1317.48532,1498.0
1.2468390464782715,158,79.1645,5224.3291069077914,1483.0,1495.0,1317.38924,1498.0
1.2691810131072998,158,80.1645,5224.3291069077914,1482.0,1495.0,1317.4249600000001,1498.0
1.2915570735931396,158,80.1645,5224.3291069077914,1481.0,1495.0,1317.3006800000001,1498.0
1.3139379024505615,158,80.1645,5358.5012830081523,1480.0,1495.0,1319.9105999999999,1498.0
1.3362829685211182,158,81.1645,5358.5012830081523,1480,1495.0,1318.5524800000001,1498.0
1.3585870265960693,158,81.1645,5433.9731320646051,1480,1495.0,1318.3285599999999,1498.0
1.3809289932250977,158,82.1645,5433.9731320646051,1480,1495.0,1316.90464,1498.0
1.4033119678497314,159,83.1645,5433.9731320646051,1480,1495.0,1314.04072,1499.0
1.4256300926208496,158,84.188,5433.9731320646051,1480,1495.0,1308.34672,1498.0
1.447930097579956,158,84.2115,5509.4449811210579,1480,1495.0,1306.61888,1498.0
1.4702301025390625,158,85.2115,5509.4449811210579,1480,1495.0,1302.3112000000001,1498.0
1.4925110340118408,158,86.235,5509.4449811210579,1480,1495.0,1297.94148,1498.0
1.51478910446167,157,86.235,5509.4449811210579,1480,1495.0,1297.59996,1497.0
1.537086009979248,157,86.235,5433.9731320646051,1480,1495.0,1300.1242400000001,1497.0
1.559386968612671,157,86.2115,5433.9731320646051,1480,1495.0,1301.4163599999999,1497.0
1.581686019897461,157,86.188,5358.5012830081523,1480,1495.0,1305.54232,1497.0
1.6039800643920898,157,86.188,5358.5012830081523,1480,1495.0,1311.14588,1497.0
1.6262741088867188,157,86.188,5358.5012830081523,1480,1495.0,1315.3894399999999,1497.0
1.6485860347747803,157,86.188,5358.5012830081523,1480,1495.0,1318.2410400000001,1497.0
1.6709380149841309,157,87.2115,5283.0294339517004,1480,1495.0,1318.2928400000001,1497.0
1.694014072418213,157,88.2115,5283.0294339517004,1480,1495.0,1315.50704,1497.0
1.718238115310669,158,88.235,5283.0294339517004,1480,1495.0,1312.4672399999999,1498.0
1.7424309253692627,157,89.2585,5283.0294339517004,1480,1495.0,1306.7536,1497.0
1.766611099243164,157,89.282,5283.0294339517004,1480,1495.0,1302.2061200000001,1497.0
1.790930986404419,157,89.282,5224.3291069077923,1480,1495.0,1300.5846000000001,1497.0
1.8153090476989746,157,90.282,5224.3291069077923,1480,1495.0,1299.1550400000001,1497.0
1.8395099639892578,157,90.282,5224.3291069077923,1480,1495.0,1298.99128,1497.0
1.8637080192565918,157,90.282,5224.3291069077923,1480,1495.0,1301.6933200000001,1497.0
1.8879048824310303,157,90.2585,5224.3291069077923,1480,1495.0,1304.5232000000001,1497.0
1.9121620655059814,157,90.2585,5224.3291069077923,1480,1495.0,1305.93292,1497.0
1.9364509582519531,158,89.235,5165.628779863885,1480,1495.0,1311.48468,1498.0
1.9606499671936035,158,90.2585,5165.628779863885,1480,1495.0,1313.0742399999999,1498.0
1.9849910736083984,158,90.2585,5165.628779863885,1480,1495.0,1314.5000399999999,1498.0
2.009200096130371,159,90.282,5106.9284528199769,1480,1495.0,1315.76604,1499.0
2.033400058746338,158,91.3055,5165.628779863885,1480,1495.0,1314.3581999999999,1498.0
2.057605028152466,158,91.329,5165.628779863885,1480,1495.0,1309.8907200000001,1498.0
2.081840991973877,159,91.329,5106.9284528199769,1480,1495.0,1308.3172400000001,1499.0
2.1061339378356934,159,92.3525,5106.9284528199769,1480,1495.0,1304.0417199999999,1499.0
2.130389928817749,159,92.3525,5106.9284528199769,1481.0,1495.0,1301.0921599999999,1499.0
2.1548259258270264,159,91.329,5048.2281257760696,1483.0,1495.0,1303.7104400000001,1499.0
2.17910099029541,159,91.329,5106.9284528199769,1484.0,1495.0,1306.55828,1499.0
2.2033939361572266,160,91.3055,5106.9284528199769,1488.0,1495.0,1308.0762,1500.0
2.227694034576416,160,90.3055,5106.9284528199769,1490.0,1495.0,1315.0717199999999,1500.0
2.2523250579833984,160,90.282,5165.628779863885,1491.0,1495.0,1320.89732,1500.0
2.2766759395599365,160,90.282,5165.628779863885,1493.0,1495.0,1322.43696,1500.0
2.301081895828247,160,90.282,5165.628779863885,1495.0,1495.0,1323.9446399999999,1500.0
2.325546979904175,160,90.3055,5224.3291069077923,1496.0,1495.0,1325.32448,1500.0
2.349816083908081,160,90.3055,5224.3291069077923,1497.0,1495.0,1322.5405599999999,1500.0
2.374098062515259,161,90.329,5224.3291069077923,1501.0,1495.0,1319.6288,1501.0
2.398360013961792,160,90.3525,5283.0294339517004,1500.0,1495.0,1318.0751599999999,1500.0
2.42262601852417,160,90.3525,5283.0294339517004,1501.0,1495.0,1316.54972,1500.0
2.4468960762023926,160,90.3525,5283.0294339517004,1501.0,1495.0,1315.12204,1500.0
2.4712419509887695,160,89.3525,5283.0294339517004,1501.0,1495.0,1317.69436,1500.0
2.4956159591674805,160,89.3525,5283.0294339517004,1501.0,1495.0,1319.16444,1500.0
2.519874095916748,161,88.3525,5283.0294339517004,1504.0,1495.0,1323.34032,1501.0
2.544128894805908,161,88.329,5283.0294339517004,1505.0,1495.0,1326.37824,1501.0
2.568389892578125,161,87.329,5283.0294339517004,1506.0,1495.0,1331.9960000000001,1501.0
2.592628002166748,161,87.329,5283.0294339517004,1507.0,1495.0,1333.61376,1501.0
2.616895914077759,161,86.329,5358.5012830081523,1507.0,1495.0,1337.8395600000001,1501.0
2.6412301063537598,161,86.329,5358.5012830081523,1508.0,1495.0,1338.0334,1501.0
2.665605068206787,161,86.3525,5358.5012830081523,1509.0,1495.0,1338.0994000000001,1501.0
2.6898980140686035,161,86.3525,5358.5012830081523,1510.0,1495.0,1335.3936000000001,1501.0
2.7141950130462646,161,86.3525,5358.5012830081523,1511.0,1495.0,1334.0478000000001,1501.0
2.7385149002075195,160,85.3525,5433.9731320646051,1509.0,1495.0,1332.5419999999999,1500.0
2.7628049850463867,160,85.376,5433.9731320646051,1508.0,1495.0,1331.1341599999998,1500.0
2.787108898162842,161,85.376,5433.9731320646051,1510.0,1495.0,1329.8522799999998,1501.0
2.8114728927612305,160,84.376,5509.4449811210579,1507.0,1495.0,1332.5703999999998,1500.0
2.8358330726623535,160,84.376,5509.4449811210579,1506.0,1495.0,1334.08852,1500.0
2.860102891921997,160,84.376,5433.9731320646051,1505.0,1495.0,1334.1666399999999,1500.0
2.884377956390381,160,84.376,5433.9731320646051,1504.0,1495.0,1334.3105599999999,1500.0
2.9086530208587646,161,84.376,5433.9731320646051,1506.0,1495.0,1334.4225200000001,1501.0
2.932935953140259,160,83.376,5509.4449811210579,1503.0,1495.0,1334.3744799999999,1500.0
2.957206964492798,161,83.376,5509.4449811210579,1505.0,1495.0,1333.12644,1501.0
2.9815590381622314,161,83.3525,5433.9731320646051,1506.0,1495.0,1333.30044,1501.0
3.0059549808502197,161,82.329,5433.9731320646051,1507.0,1495.0,1336.1163200000001,1501.0
3.0302560329437256,161,82.329,5433.9731320646051,1507.0,1495.0,1337.704,1501.0
3.054677963256836,161,81.329,5433.9731320646051,1508.0,1495.0,1340.4916800000001,1501.0
3.0789530277252197,161,81.329,5509.4449811210579,1509.0,1495.0,1342.0793600000002,1501.0
3.103256940841675,161,81.3525,5584.9168301775107,1510.0,1495.0,1343.5392000000002,1501.0
3.1276090145111084,161,81.3525,5660.3886792339636,1511.0,1495.0,1342.1614400000001,1501.0
3.151966094970703,161,81.3525,5735.8605282904155,1511.0,1495.0,1340.78368,1501.0
3.1763219833374023,161,81.376,5735.8605282904155,1512.0,1495.0,1337.9038799999998,1501.0
3.2005999088287354,161,82.376,5735.8605282904155,1512.0,1495.0,1332.41228,1501.0
3.2250540256500244,160,82.3995,5735.8605282904155,1509.0,1495.0,1328.1563999999998,1500.0
3.249356985092163,160,82.3995,5735.8605282904155,1508.0,1495.0,1325.32068,1500.0
3.2736289501190186,160,81.3995,5811.3323773468683,1507.0,1495.0,1325.1249600000001,1500.0
3.297914981842041,160,81.376,5811.3323773468683,1506.0,1495.0,1325.2170799999999,1500.0
3.322248935699463,160,81.376,5735.8605282904155,1505.0,1495.0,1328.0809999999999,1500.0
3.346590042114258,160,81.3525,5660.3886792339636,1504.0,1495.0,1331.0408,1500.0
3.3709259033203125,160,80.329,5660.3886792339636,1503.0,1495.0,1336.67444,1500.0
3.3955929279327393,160,80.329,5584.9168301775107,1502.0,1495.0,1338.27988,1500.0
3.4200479984283447,160,79.329,5584.9168301775107,1501.0,1495.0,1342.4275600000001,1500.0
3.444572925567627,160,79.329,5660.3886792339636,1500.0,1495.0,1344.0152400000002,1500.0
3.4688620567321777,160,79.3525,5735.8605282904155,1500.0,1495.0,1345.4431200000001,1500.0
3.4931368827819824,160,79.3525,5811.3323773468683,1500.0,1495.0,1344.0334,1500.0
3.5174291133880615,160,79.376,5811.3323773468683,1500.0,1495.0,1343.92164,1500.0
3.5416970252990723,160,80.376,5735.8605282904155,1500.0,1495.0,1338.43004,1500.0
3.566011905670166,160,80.376,5735.8605282904155,1500.0,1495.0,1334.1384399999999,1500.0
3.5902678966522217,160,80.376,5735.8605282904155,1500.0,1495.0,1329.9445999999998,1500.0
3.614758014678955,161,80.3995,5660.3886792339636,1503.0,1495.0,1327.08068,1501.0
3.6390459537506104,160,79.376,5735.8605282904155,1501.0,1495.0,1327.0128,1500.0
3.663330078125,160,79.376,5735.8605282904155,1501.0,1495.0,1329.87672,1500.0
3.6876049041748047,160,79.3525,5660.3886792339636,1501.0,1495.0,1332.80268,1500.0
3.7119269371032715,160,78.329,5660.3886792339636,1501.0,1495.0,1338.3705200000002,1500.0
3.7363009452819824,161,78.3055,5660.3886792339636,1504.0,1495.0,1342.838,1501.0
3.760535955429077,161,78.3055,5584.9168301775107,1505.0,1495.0,1344.37952,1501.0
3.784970998764038,161,78.3055,5584.9168301775107,1506.0,1495.0,1344.56104,1501.0
3.809293031692505,161,78.3055,5584.9168301775107,1507.0,1495.0,1344.6767600000001,1501.0
3.833591938018799,161,78.329,5660.3886792339636,1508.0,1495.0,1341.86464,1501.0
3.857866048812866,161,78.329,5735.8605282904155,1508.0,1495.0,1338.98296,1501.0
3.8821940422058105,160,78.329,5735.8605282904155,1506.0,1495.0,1337.49324,1500.0
3.9065260887145996,160,78.329,5735.8605282904155,1506.0,1495.0,1336.00352,1500.0
3.930788040161133,160,78.329,5811.3323773468683,1506.0,1495.0,1334.54576,1500.0
3.9552199840545654,160,78.329,5811.3323773468683,1506.0,1495.0,1334.54576,1500.0
3.9795029163360596,160,78.3055,5811.3323773468683,1505.0,1495.0,1334.63976,1500.0
4.003777980804443,160,78.282,5886.8042264033211,1504.0,1495.0,1334.7675999999999,1500.0
4.028045892715454,160,78.282,5962.2760754597739,1503.0,1495.0,1334.8672399999998,1500.0
4.05231499671936,160,78.2585,6037.7479245162267,1502.0,1495.0,1335.02892,1500.0
4.076564073562622,160,78.2585,5962.2760754597739,1501.0,1495.0,1335.1304399999999,1500.0
4.100922107696533,161,78.2585,5962.2760754597739,1503.0,1495.0,1335.16616,1501.0
4.125339984893799,160,78.282,5962.2760754597739,1501.0,1495.0,1335.07404,1500.0
4.149631977081299,160,78.282,5962.2760754597739,1501.0,1495.0,1335.0101199999999,1500.0
4.173904895782471,161,79.282,5886.8042264033211,1504.0,1495.0,1332.2403999999999,1501.0
4.198188066482544,160,79.282,5811.3323773468683,1502.0,1495.0,1330.6706799999999,1500.0
4.22248911857605,160,79.3055,5811.3323773468683,1502.0,1495.0,1329.07088,1500.0
4.246762990951538,160,79.3055,5811.3323773468683,1502.0,1495.0,1327.5970400000001,1500.0
4.271092891693115,160,79.3055,5811.3323773468683,1502.0,1495.0,1326.1232,1500.0
4.295456886291504,160,79.282,5811.3323773468683,1502.0,1495.0,1327.5433600000001,1500.0
4.319744110107422,160,79.282,5886.8042264033211,1502.0,1495.0,1328.93532,1500.0
4.344007968902588,159,79.282,5811.3323773468683,1498.0,1495.0,1330.3930800000001,1499.0
4.3682780265808105,159,79.282,5735.8605282904155,1497.0,1495.0,1331.81888,1499.0
4.392565011978149,159,78.2585,5735.8605282904155,1496.0,1495.0,1335.9467199999999,1499.0
4.41684103012085,159,78.2585,5811.3323773468683,1494.0,1495.0,1337.42056,1499.0
4.441152095794678,158,78.2585,5886.8042264033211,1490.0,1495.0,1338.8943999999999,1498.0
4.465517997741699,158,78.2585,5886.8042264033211,1488.0,1495.0,1340.33628,1498.0
4.489809036254883,158,79.282,5886.8042264033211,1486.0,1495.0,1339.0761199999999,1498.0
4.514082908630371,158,79.3055,5886.8042264033211,1484.0,1495.0,1336.1163200000001,1498.0
4.5383570194244385,158,80.329,5811.3323773468683,1482.0,1495.0,1330.5146400000001,1498.0
4.562923908233643,158,80.329,5811.3323773468683,1480.0,1495.0,1326.1411599999999,1498.0
4.587220907211304,158,80.3525,5886.8042264033211,1480,1495.0,1321.7056399999999,1498.0
4.61151909828186,159,80.3525,5962.2760754597739,1481.0,1495.0,1320.1641199999999,1499.0
4.635922908782959,159,80.329,5962.2760754597739,1481.0,1495.0,1320.1424,1499.0
4.660206079483032,159,80.3055,5962.2760754597739,1481.0,1495.0,1323.0203200000001,1499.0
4.684576988220215,159,80.3055,5962.2760754597739,1482.0,1495.0,1325.87004,1499.0
4.70885705947876,159,80.3055,5962.2760754597739,1483.0,1495.0,1328.78556,1499.0
4.733191013336182,159,81.3055,5886.8042264033211,1484.0,1495.0,1327.66912,1499.0
4.7574989795684814,159,81.329,5811.3323773468683,1485.0,1495.0,1327.5928799999999,1499.0
4.781850099563599,159,81.329,5886.8042264033211,1486.0,1495.0,1326.08708,1499.0
4.806212902069092,159,82.329,5811.3323773468683,1487.0,1495.0,1321.94128,1499.0
4.830483913421631,159,82.329,5735.8605282904155,1488.0,1495.0,1318.96352,1499.0
4.854902029037476,159,82.329,5660.3886792339636,1488.0,1495.0,1318.78576,1499.0
4.879199028015137,159,82.3055,5584.9168301775107,1488.0,1495.0,1318.7678000000001,1499.0
4.9034669399261475,159,82.3055,5509.4449811210579,1488.0,1495.0,1318.7536,1499.0
4.927741050720215,159,82.3055,5433.9731320646051,1488.0,1495.0,1321.5394000000001,1499.0
4.952061891555786,159,82.3055,5358.5012830081523,1488.0,1495.0,1324.3252,1499.0
4.976434946060181,159,82.3055,5358.5012830081523,1488.0,1495.0,1325.751,1499.0
5.000727891921997,159,82.3055,5433.9731320646051,1488.0,1495.0,1327.0790400000001,1499.0
5.025182008743286,159,82.329,5433.9731320646051,1488.0,1495.0,1328.3450399999999,1499.0
5.04946494102478,159,82.329,5509.4449811210579,1488.0,1495.0,1328.2792400000001,1499.0
5.073746919631958,159,82.329,5584.9168301775107,1488.0,1495.0,1328.21344,1499.0
5.0980329513549805,159,82.329,5660.3886792339636,1488.0,1495.0,1328.1476399999999,1499.0
5.122364044189453,159,82.329,5735.8605282904155,1488.0,1495.0,1328.1138000000001,1499.0
5.146661996841431,159,82.3525,5811.3323773468683,1488.0,1495.0,1328.0837200000001,1499.0
5.171004056930542,159,83.3525,5811.3323773468683,1488.0,1495.0,1325.44184,1499.0
5.195353031158447,159,82.3525,5886.8042264033211,1488.0,1495.0,1326.63996,1499.0
5.219649076461792,159,83.376,5886.8042264033211,1488.0,1495.0,1323.9360399999998,1499.0
5.243943929672241,159,83.376,5811.3323773468683,1488.0,1495.0,1322.4603199999999,1499.0
5.268234968185425,160,83.3995,5735.8605282904155,1491.0,1495.0,1320.9563999999998,1500.0
5.292514085769653,160,83.3995,5660.3886792339636,1492.0,1495.0,1322.2806799999998,1500.0
5.316793918609619,160,83.3995,5584.9168301775107,1493.0,1495.0,1320.8049599999999,1500.0
5.341125965118408,160,82.376,5584.9168301775107,1494.0,1495.0,1324.89708,1500.0
5.365494012832642,161,82.376,5509.4449811210579,1498.0,1495.0,1327.761,1501.0
5.389734983444214,161,82.376,5433.9731320646051,1500.0,1495.0,1330.65876,1501.0
5.413928031921387,161,81.376,5509.4449811210579,1502.0,1495.0,1334.8365200000001,1501.0
5.438164949417114,161,81.329,5433.9731320646051,1504.0,1495.0,1339.29836,1501.0
5.4624409675598145,162,81.3525,5433.9731320646051,1509.0,1495.0,1339.384,1502.0
5.486711025238037,162,81.3525,5509.4449811210579,1512.0,1495.0,1339.49784,1502.0
5.511070966720581,162,81.376,5584.9168301775107,1514.0,1495.0,1339.5176799999999,1502.0
5.535459995269775,162,81.376,5660.3886792339636,1516.0,1495.0,1336.7657200000001,1502.0
5.5597569942474365,162,82.376,5660.3886792339636,1518.0,1495.0,1331.24216,1502.0
5.584033966064453,161,81.376,5660.3886792339636,1517.0,1495.0,1331.0163599999998,1501.0
5.608309984207153,161,81.376,5735.8605282904155,1517.0,1495.0,1329.5905599999999,1501.0
5.632591962814331,161,81.376,5811.3323773468683,1517.0,1495.0,1328.23056,1501.0
5.656902074813843,161,81.376,5811.3323773468683,1517.0,1495.0,1328.23056,1501.0
5.6812310218811035,161,81.376,5886.8042264033211,1517.0,1495.0,1331.09448,1501.0
5.705617904663086,161,81.376,5962.2760754597739,1516.0,1495.0,1331.12644,1501.0
5.729926109313965,161,81.376,5962.2760754597739,1515.0,1495.0,1331.1584,1501.0
5.7544989585876465,161,81.376,5962.2760754597739,1514.0,1495.0,1331.1584,1501.0
5.778804063796997,161,81.376,5962.2760754597739,1513.0,1495.0,1331.1584,1501.0
5.803106069564819,161,81.376,6037.7479245162267,1512.0,1495.0,1329.7983999999999,1501.0
5.827409029006958,161,81.376,6037.7479245162267,1512.0,1495.0,1329.7983999999999,1501.0
5.851726055145264,161,80.3525,6037.7479245162267,1512.0,1495.0,1332.50044,1501.0
5.876070022583008,161,80.3525,6037.7479245162267,1512.0,1495.0,1333.9742799999999,1501.0
5.9003589153289795,161,80.329,6037.7479245162267,1512.0,1495.0,1335.51016,1501.0
5.924817085266113,161,80.329,6037.7479245162267,1512.0,1495.0,1337.01784,1501.0
5.949103116989136,160,80.329,5962.2760754597739,1509.0,1495.0,1338.5255199999999,1500.0
5.973351001739502,160,79.3055,5962.2760754597739,1508.0,1495.0,1339.8694399999999,1500.0
5.997606039047241,160,79.282,5962.2760754597739,1507.0,1495.0,1340.0472,1500.0
6.021939992904663,160,79.282,5886.8042264033211,1506.0,1495.0,1340.13096,1500.0
6.0462870597839355,160,78.2585,5886.8042264033211,1505.0,1495.0,1342.9167600000001,1500.0
6.070554971694946,160,78.235,5811.3323773468683,1504.0,1495.0,1344.5364,1500.0
6.094995021820068,160,77.2585,5811.3323773468683,1503.0,1495.0,1347.2319600000001,1500.0
6.119301080703735,160,77.2585,5811.3323773468683,1502.0,1495.0,1348.68992,1500.0
6.143560886383057,160,77.282,5811.3323773468683,1501.0,1495.0,1350,1500.0
6.167745113372803,160,77.282,5811.3323773468683,1500.0,1495.0,1348.7080799999999,1500.0
6.1921470165252686,160,77.282,5886.8042264033211,1500.0,1495.0,1347.2325600000001,1500.0
6.216584920883179,160,76.2585,5886.8042264033211,1500.0,1495.0,1347.1168399999999,1500.0
6.240911960601807,160,76.235,5811.3323773468683,1500.0,1495.0,1345.8669199999999,1500.0
6.265253067016602,160,75.235,5886.8042264033211,1500.0,1495.0,1347.2945999999999,1500.0
6.289521932601929,160,75.235,5886.8042264033211,1500.0,1495.0,1348.9142400000001,1500.0
6.313798904418945,160,75.235,5886.8042264033211,1500.0,1495.0,1350,1500.0
6.338007926940918,159,75.235,5811.3323773468683,1497.0,1495.0,1350,1499.0
6.362252950668335,159,75.2585,5811.3323773468683,1496.0,1495.0,1350,1499.0
6.386488914489746,159,75.282,5811.3323773468683,1495.0,1495.0,1347.7858800000001,1499.0
6.410770893096924,159,76.3055,5735.8605282904155,1494.0,1495.0,1342.23224,1499.0
6.435199975967407,159,76.282,5660.3886792339636,1493.0,1495.0,1337.96884,1499.0
6.45948600769043,159,75.2585,5660.3886792339636,1492.0,1495.0,1337.77124,1499.0
6.483748912811279,158,74.235,5735.8605282904155,1488.0,1495.0,1339.1452400000001,1498.0
6.508017063140869,158,74.188,5735.8605282904155,1486.0,1495.0,1340.8409199999999,1498.0
6.532299041748047,158,74.188,5660.3886792339636,1484.0,1495.0,1345.346,1498.0
6.556565046310425,158,74.1645,5660.3886792339636,1482.0,1495.0,1349.8473199999999,1498.0
6.580889940261841,158,74.1645,5660.3886792339636,1481.0,1495.0,1350,1498.0
6.605299949645996,159,74.141,5584.9168301775107,1483.0,1495.0,1350,1499.0
6.629692077636719,159,74.141,5509.4449811210579,1483.0,1495.0,1348.8060799999998,1499.0
6.654011964797974,159,74.1645,5509.4449811210579,1483.0,1495.0,1345.93192,1499.0
6.67830491065979,159,75.188,5509.4449811210579,1483.0,1495.0,1340.3500799999999,1499.0
6.702600002288818,159,75.2115,5433.9731320646051,1483.0,1495.0,1337.32636,1499.0
6.726932048797607,159,77.235,5358.5012830081523,1484.0,1495.0,1330.3149599999999,1499.0
6.751270055770874,159,77.282,5283.0294339517004,1485.0,1495.0,1325.6716000000001,1499.0
6.775619983673096,159,78.282,5283.0294339517004,1486.0,1495.0,1318.51044,1499.0
6.79990291595459,159,78.282,5283.0294339517004,1487.0,1495.0,1315.44704,1499.0
6.824198961257935,159,78.2585,5283.0294339517004,1488.0,1495.0,1312.5114800000001,1499.0
6.84848690032959,159,78.2585,5283.0294339517004,1488.0,1495.0,1315.24548,1499.0
6.872776985168457,159,78.235,5283.0294339517004,1488.0,1495.0,1318.1731199999999,1499.0
6.897044897079468,160,78.2115,5283.0294339517004,1491.0,1495.0,1323.90264,1500.0
6.921700954437256,160,78.2115,5283.0294339517004,1492.0,1495.0,1328.212,1500.0
6.946101903915405,160,78.2115,5283.0294339517004,1493.0,1495.0,1332.4236000000001,1500.0
6.970421075820923,160,78.235,5358.5012830081523,1494.0,1495.0,1333.8212000000001,1500.0
6.994863033294678,160,79.235,5358.5012830081523,1495.0,1495.0,1332.4772800000001,1500.0
7.019160032272339,160,79.235,5358.5012830081523,1496.0,1495.0,1330.9075599999999,1500.0
7.043426036834717,160,80.2585,5358.5012830081523,1497.0,1495.0,1326.6358,1500.0
7.067687034606934,160,80.2585,5358.5012830081523,1498.0,1495.0,1323.6242,1500.0
7.09208607673645,160,80.282,5358.5012830081523,1499.0,1495.0,1320.61636,1500.0
7.116534948348999,160,80.282,5358.5012830081523,1500.0,1495.0,1320.4686799999999,1500.0
7.141036033630371,161,81.282,5358.5012830081523,1503.0,1495.0,1317.7129600000001,1501.0
7.165631055831909,160,81.282,5358.5012830081523,1501.0,1495.0,1319.02304,1500.0
7.189946889877319,161,81.3055,5358.5012830081523,1504.0,1495.0,1320.27108,1501.0
7.21426796913147,160,82.3055,5283.0294339517004,1502.0,1495.0,1318.9411600000001,1500.0
7.2385780811309814,160,82.329,5283.0294339517004,1502.0,1495.0,1317.3892000000001,1500.0
7.262861013412476,160,82.329,5358.5012830081523,1502.0,1495.0,1318.66544,1500.0
7.287148952484131,159,83.3525,5358.5012830081523,1499.0,1495.0,1315.8476799999999,1499.0
7.311492919921875,159,83.3525,5358.5012830081523,1498.0,1495.0,1314.32392,1499.0
7.335859060287476,159,83.3525,5358.5012830081523,1497.0,1495.0,1315.5681999999999,1499.0
7.360127925872803,159,83.3525,5358.5012830081523,1496.0,1495.0,1316.8782799999999,1499.0
7.3844099044799805,159,82.3525,5433.9731320646051,1494.0,1495.0,1319.4683599999998,1499.0
7.408705949783325,159,82.329,5509.4449811210579,1493.0,1495.0,1323.78628,1499.0
7.432982921600342,159,82.329,5509.4449811210579,1491.0,1495.0,1328.04404,1499.0
7.457256078720093,159,82.3525,5584.9168301775107,1490.0,1495.0,1330.87976,1499.0
7.4815919399261475,159,82.376,5660.3886792339636,1489.0,1495.0,1333.64968,1499.0
7.505980968475342,159,83.376,5584.9168301775107,1488.0,1495.0,1331.0078000000001,1499.0
7.5302770137786865,158,83.3995,5584.9168301775107,1485.0,1495.0,1328.04612,1498.0
7.554681062698364,158,83.3995,5584.9168301775107,1484.0,1495.0,1325.1126400000001,1498.0
7.578947067260742,158,83.3995,5584.9168301775107,1483.0,1495.0,1322.24496,1498.0
7.603219985961914,158,83.3995,5584.9168301775107,1482.0,1495.0,1319.44308,1498.0
7.627509117126465,158,82.376,5584.9168301775107,1481.0,1495.0,1323.50324,1498.0
7.6518309116363525,158,82.376,5509.4449811210579,1480.0,1495.0,1326.4329600000001,1498.0
7.6761980056762695,159,82.376,5509.4449811210579,1482.0,1495.0,1329.36268,1499.0
7.700489044189453,159,82.376,5433.9731320646051,1482.0,1495.0,1332.26044,1499.0
7.724940061569214,159,82.376,5358.5012830081523,1482.0,1495.0,1335.1262400000001,1499.0
7.749228000640869,159,82.376,5358.5012830081523,1482.0,1495.0,1333.7662399999999,1499.0
7.773492097854614,159,82.376,5358.5012830081523,1483.0,1495.0,1332.37428,1499.0
7.797811985015869,159,81.376,5299.8009559642451,1484.0,1495.0,1333.6223199999999,1499.0
7.822177886962891,159,81.376,5299.8009559642451,1485.0,1495.0,1333.6703600000001,1499.0
7.846508026123047,159,81.376,5299.8009559642451,1486.0,1495.0,1333.7184,1499.0
7.8707709312438965,159,81.3525,5224.3291069077923,1487.0,1495.0,1335.2204400000001,1499.0
7.895198106765747,159,81.3525,5224.3291069077923,1488.0,1495.0,1336.6942799999999,1499.0
7.919504880905151,159,80.3525,5224.3291069077923,1488.0,1495.0,1338.00812,1499.0
7.9437971115112305,159,80.329,5224.3291069077923,1488.0,1495.0,1338.184,1499.0
7.968064069747925,159,80.329,5224.3291069077923,1488.0,1495.0,1338.33168,1499.0
7.992340087890625,159,79.329,5165.628779863885,1488.0,1495.0,1341.0535600000001,1499.0
8.016642093658447,159,79.3055,5106.9284528199769,1488.0,1495.0,1342.6374800000001,1499.0
8.040992021560669,159,79.3055,5106.9284528199769,1488.0,1495.0,1342.7532000000001,1499.0
8.06536602973938,159,79.3055,5106.9284528199769,1488.0,1495.0,1342.80312,1499.0
8.089932918548584,159,79.3055,5106.9284528199769,1488.0,1495.0,1342.85304,1499.0
8.114229917526245,159,79.3055,5048.2281257760696,1488.0,1495.0,1340.13492,1499.0
8.138509035110474,159,79.3055,4989.5277987321624,1488.0,1495.0,1337.3510000000001,1499.0
8.162765979766846,159,79.3055,4930.8274716882543,1488.0,1495.0,1335.9270799999999,1499.0
8.187036037445068,159,79.3055,4930.8274716882543,1488.0,1495.0,1334.53512,1499.0
8.211381912231445,160,79.329,4872.127144644347,1491.0,1495.0,1333.0811200000001,1500.0
8.235749006271362,159,80.329,4930.8274716882543,1489.0,1495.0,1330.3753200000001,1499.0
8.260029077529907,160,80.3525,4989.5277987321624,1492.0,1495.0,1328.83944,1500.0
8.284297943115234,160,80.3525,5048.2281257760696,1493.0,1495.0,1327.33176,1500.0
8.308564901351929,160,80.3525,5048.2281257760696,1494.0,1495.0,1325.8240799999999,1500.0
8.332844972610474,160,80.329,5048.2281257760696,1495.0,1495.0,1324.44424,1500.0
8.357094049453735,160,79.329,5048.2281257760696,1496.0,1495.0,1328.4761999999998,1500.0
8.381408929824829,160,79.3055,5048.2281257760696,1497.0,1495.0,1331.4359999999999,1500.0
8.405771017074585,160,79.3055,5106.9284528199769,1498.0,1495.0,1334.3676,1500.0
8.43005895614624,161,79.282,5106.9284528199769,1502.0,1495.0,1337.36124,1501.0
8.454332113265991,161,78.2585,5106.9284528199769,1503.0,1495.0,1342.9309599999999,1501.0
8.47862195968628,160,78.2585,5106.9284528199769,1502.0,1495.0,1343.11248,1500.0
8.502888917922974,160,78.235,5106.9284528199769,1502.0,1495.0,1343.25828,1500.0
8.527175903320312,161,78.235,5106.9284528199769,1505.0,1495.0,1343.3758800000001,1501.0
8.551501035690308,160,77.235,5048.2281257760696,1503.0,1495.0,1346.0676800000001,1500.0
8.575844049453735,161,77.2585,4989.5277987321624,1506.0,1495.0,1344.6636000000001,1501.0
8.60014295578003,161,78.282,5048.2281257760696,1507.0,1495.0,1341.94568,1501.0
8.624419927597046,161,78.3055,5106.9284528199769,1508.0,1495.0,1340.3600799999999,1501.0
8.648706912994385,161,79.3055,5106.9284528199769,1509.0,1495.0,1336.1626799999999,1501.0
8.673048973083496,162,79.329,5106.9284528199769,1512.0,1495.0,1330.3352,1502.0
8.69750690460205,162,79.329,5165.628779863885,1513.0,1495.0,1325.99368,1502.0
8.721966981887817,162,79.3055,5165.628779863885,1515.0,1495.0,1324.5799999999999,1502.0
8.746340990066528,162,79.3055,5165.628779863885,1517.0,1495.0,1323.2358800000002,1502.0
8.770617961883545,162,78.282,5165.628779863885,1518.0,1495.0,1327.3938000000001,1502.0
8.7950599193573,162,78.2585,5224.3291069077923,1520.0,1495.0,1331.8113599999999,1502.0
8.8193519115448,162,78.2585,5283.0294339517004,1520,1495.0,1336.16876,1502.0
8.843523025512695,163,78.2585,5283.0294339517004,1520,1495.0,1339.0684000000001,1503.0
8.86772108078003,162,78.282,5283.0294339517004,1520,1495.0,1341.8740399999999,1502.0
8.892014980316162,162,78.3055,5283.0294339517004,1520,1495.0,1340.42004,1502.0
8.916352987289429,162,78.3055,5283.0294339517004,1520,1495.0,1338.8964799999999,1502.0
8.940540075302124,162,78.3055,5283.0294339517004,1520,1495.0,1337.37292,1502.0
8.964884042739868,162,78.282,5283.0294339517004,1520,1495.0,1335.94336,1502.0
8.98909306526184,161,77.282,5224.3291069077923,1520,1495.0,1337.1913999999999,1501.0
9.013314008712769,161,77.2585,5224.3291069077923,1520,1495.0,1338.7592400000001,1501.0
9.037540912628174,161,77.235,5224.3291069077923,1520.0,1495.0,1340.3928799999999,1501.0
9.06187391281128,161,76.235,5224.3291069077923,1519.0,1495.0,1344.63832,1501.0
9.086215019226074,160,76.235,5224.3291069077923,1514.0,1495.0,1347.61796,1500.0
9.110517024993896,160,76.2585,5224.3291069077923,1512.0,1495.0,1347.7036000000001,1500.0
9.134990930557251,160,76.282,5165.628779863885,1510.0,1495.0,1347.6576399999999,1500.0
9.159276008605957,160,77.282,5165.628779863885,1508.0,1495.0,1344.93408,1500.0
9.183557033538818,160,77.3055,5165.628779863885,1506.0,1495.0,1340.5484799999999,1500.0
9.20784592628479,160,77.3055,5165.628779863885,1504.0,1495.0,1336.2230400000001,1500.0
9.232199907302856,159,77.282,5224.3291069077923,1500.0,1495.0,1333.38544,1499.0
9.256870985031128,159,76.2585,5224.3291069077923,1498.0,1495.0,1333.31944,1499.0
9.281215906143188,159,75.2585,5224.3291069077923,1496.0,1495.0,1337.4972,1499.0
9.30558705329895,159,75.235,5224.3291069077923,1494.0,1495.0,1341.9628,1499.0
9.329854965209961,159,75.235,5224.3291069077923,1493.0,1495.0,1346.4002,1499.0
9.354105949401855,159,75.235,5224.3291069077923,1492.0,1495.0,1350,1499.0
9.378289937973022,159,74.235,5224.3291069077923,1491.0,1495.0,1350,1499.0
9.402472019195557,159,74.235,5224.3291069077923,1490.0,1495.0,1350,1499.0
9.426655054092407,159,74.235,5224.3291069077923,1489.0,1495.0,1350,1499.0
9.450892925262451,159,73.235,5165.628779863885,1488.0,1495.0,1350,1499.0
9.47517204284668,159,73.235,5106.9284528199769,1488.0,1495.0,1350,1499.0
9.499367952346802,159,73.2115,5106.9284528199769,1488.0,1495.0,1350,1499.0
9.523559093475342,159,72.2115,5048.2281257760696,1488.0,1495.0,1350,1499.0
9.547734022140503,160,72.2115,5048.2281257760696,1491.0,1495.0,1350,1500.0
9.57195496559143,160,72.2115,5048.2281257760696,1492.0,1495.0,1350,1500.0
9.596210956573486,160,72.2115,4989.5277987321624,1493.0,1495.0,1350,1500.0
9.620412111282349,160,72.235,4989.5277987321624,1494.0,1495.0,1350,1500.0
9.644747972488403,159,73.2585,4989.5277987321624,1492.0,1495.0,1348.5595599999999,1499.0
9.669049978256226,159,74.282,4989.5277987321624,1492.0,1495.0,1341.59788,1499.0
9.693351030349731,159,74.282,5048.2281257760696,1492.0,1495.0,1337.2244000000001,1499.0
9.717650890350342,159,74.2585,5106.9284528199769,1492.0,1495.0,1332.9129600000001,1499.0
9.741976976394653,159,74.2585,5106.9284528199769,1492.0,1495.0,1328.6710800000001,1499.0
9.766340970993042,158,74.2585,5165.628779863885,1489.0,1495.0,1328.655,1498.0
9.790641069412231,158,74.235,5165.628779863885,1487.0,1495.0,1331.5667599999999,1498.0
9.815226078033447,158,74.2585,5165.628779863885,1485.0,1495.0,1334.3882800000001,1498.0
9.839520931243896,158,74.2585,5165.628779863885,1483.0,1495.0,1337.1722,1498.0
9.863796949386597,159,74.282,5165.628779863885,1484.0,1495.0,1339.86212,1499.0
9.888050079345703,158,75.3055,5165.628779863885,1481.0,1495.0,1338.48624,1498.0
9.912336111068726,159,75.3055,5106.9284528199769,1483.0,1495.0,1336.8807999999999,1499.0
9.936656951904297,159,75.3055,5048.2281257760696,1483.0,1495.0,1335.3411599999999,1499.0
9.96099591255188,159,75.3055,4989.5277987321624,1483.0,1495.0,1333.83348,1499.0
9.985338926315308,160,75.329,4930.8274716882543,1486.0,1495.0,1332.3295599999999,1500.0
10.009615898132324,160,75.329,4872.127144644347,1488.0,1495.0,1333.71964,1500.0
10.033891916275024,160,75.329,4813.4268176004389,1490.0,1495.0,1335.1416800000002,1500.0
10.05817699432373,160,75.329,4754.7264905565316,1492.0,1495.0,1336.5317600000001,1500.0
10.082446098327637,160,75.3055,4813.4268176004389,1494.0,1495.0,1337.98388,1500.0
10.106730937957764,160,75.3055,4872.127144644347,1495.0,1495.0,1339.44164,1500.0
10.131091117858887,160,75.282,4872.127144644347,1497.0,1495.0,1339.5694799999999,1500.0
10.155455112457275,160,75.282,4930.8274716882543,1498.0,1495.0,1339.66912,1500.0
10.17972207069397,160,75.282,4989.5277987321624,1499.0,1495.0,1339.7687599999999,1500.0
10.204004049301147,161,75.3055,4989.5277987321624,1503.0,1495.0,1339.74056,1501.0
10.228300094604492,160,75.3055,4989.5277987321624,1501.0,1495.0,1339.7085999999999,1500.0
10.252554893493652,160,76.329,5048.2281257760696,1501.0,1495.0,1336.9087999999999,1500.0
10.27681589126587,160,76.329,5048.2281257760696,1501.0,1495.0,1335.3371999999999,1500.0
10.30114197731018,160,76.329,5048.2281257760696,1501.0,1495.0,1333.7655999999999,1500.0
10.325510025024414,160,77.3525,5048.2281257760696,1501.0,1495.0,1329.5897199999999,1500.0
10.349798917770386,160,77.3525,4989.5277987321624,1501.0,1495.0,1326.64204,1500.0
10.374069929122925,161,77.3525,4930.8274716882543,1504.0,1495.0,1326.59212,1501.0
10.39834189414978,161,77.3525,4872.127144644347,1505.0,1495.0,1326.5421999999999,1501.0
10.422632932662964,161,78.329,4872.127144644347,1506.0,1495.0,1323.9143199999999,1501.0
10.44723105430603,161,78.329,4930.8274716882543,1506.0,1495.0,1325.2920799999999,1501.0
10.471585988998413,161,78.329,4989.5277987321624,1507.0,1495.0,1326.66984,1501.0
10.495939016342163,161,78.3055,4989.5277987321624,1508.0,1495.0,1326.71768,1501.0
10.520226001739502,161,77.3055,4989.5277987321624,1509.0,1495.0,1329.3773200000001,1501.0
10.544616937637329,161,78.3055,5048.2281257760696,1510.0,1495.0,1330.9311600000001,1501.0
10.568902015686035,161,78.3055,5048.2281257760696,1511.0,1495.0,1332.29304,1501.0
10.59319806098938,160,77.3055,5048.2281257760696,1509.0,1495.0,1336.29492,1500.0
10.617469072341919,160,77.3055,5048.2281257760696,1508.0,1495.0,1339.0309999999999,1500.0
10.641798973083496,160,77.3055,5048.2281257760696,1507.0,1495.0,1338.9670799999999,1500.0
10.666177034378052,159,77.3055,4989.5277987321624,1503.0,1495.0,1340.3751200000002,1499.0
10.690491914749146,160,77.3055,4930.8274716882543,1504.0,1495.0,1341.78316,1500.0
10.715079069137573,159,77.3055,4872.127144644347,1500.0,1495.0,1340.3912,1499.0
10.739378929138184,158,78.329,4872.127144644347,1495.0,1495.0,1336.32916,1498.0
10.763653039932251,159,78.376,4872.127144644347,1495.0,1495.0,1334.7312400000001,1499.0
10.787950038909912,158,79.376,4872.127144644347,1490.0,1495.0,1329.1897200000001,1498.0
10.8123300075531,158,79.3995,4813.4268176004389,1487.0,1495.0,1324.7861599999999,1498.0
10.836700916290283,158,79.376,4813.4268176004389,1485.0,1495.0,1321.83284,1498.0
10.861061096191406,159,78.3525,4813.4268176004389,1486.0,1495.0,1324.4191599999999,1499.0
10.885443925857544,159,78.3055,4813.4268176004389,1485.0,1495.0,1326.03296,1499.0
10.909722089767456,159,77.282,4813.4268176004389,1485.0,1495.0,1333.0924,1499.0
10.934015035629272,160,77.2585,4813.4268176004389,1487.0,1495.0,1339.0514800000001,1500.0
10.958338022232056,160,77.2585,4872.127144644347,1488.0,1495.0,1344.9165600000001,1500.0
10.982614994049072,160,76.235,4813.4268176004389,1490.0,1495.0,1349.2259200000001,1500.0
11.006884098052979,160,76.235,4813.4268176004389,1491.0,1495.0,1350,1500.0
11.031111001968384,160,76.235,4754.7264905565316,1493.0,1495.0,1350,1500.0
11.055387020111084,160,77.235,4813.4268176004389,1495.0,1495.0,1346.6934799999999,1500.0
11.079658031463623,160,77.235,4813.4268176004389,1497.0,1495.0,1343.84752,1500.0
11.103935956954956,160,77.235,4813.4268176004389,1498.0,1495.0,1339.52772,1500.0
11.128243923187256,161,77.235,4813.4268176004389,1502.0,1495.0,1335.2718399999999,1501.0
11.152506113052368,160,77.235,4813.4268176004389,1501.0,1495.0,1332.4079200000001,1500.0
11.176753997802734,160,77.235,4813.4268176004389,1501.0,1495.0,1332.3759600000001,1500.0
11.201081991195679,160,77.2115,4707.7662289214049,1501.0,1495.0,1332.4060400000001,1500.0
11.22546100616455,159,76.2115,4707.7662289214049,1498.0,1495.0,1336.4398799999999,1499.0
11.249741077423096,159,76.2115,4707.7662289214049,1497.0,1495.0,1339.2737199999999,1499.0
11.274003028869629,159,76.188,4707.7662289214049,1496.0,1495.0,1342.1695999999999,1499.0
11.298285007476807,159,76.188,4602.105640242371,1495.0,1495.0,1343.6772800000001,1499.0
11.322576999664307,159,75.188,4602.105640242371,1494.0,1495.0,1347.7591600000001,1499.0
11.346842050552368,159,75.2115,4602.105640242371,1493.0,1495.0,1347.779,1499.0
11.371171951293945,159,75.2115,4602.105640242371,1491.0,1495.0,1347.8270400000001,1499.0
11.395582914352417,158,75.2115,4555.1453786072452,1487.0,1495.0,1347.8092799999999,1498.0
11.41989803314209,158,75.2115,4508.1851169721194,1485.0,1495.0,1347.79152,1498.0
11.444194078445435,158,75.2115,4508.1851169721194,1483.0,1495.0,1345.0057200000001,1498.0
11.468471050262451,158,74.235,4508.1851169721194,1482.0,1495.0,1346.2236800000001,1498.0
11.492755889892578,158,74.235,4508.1851169721194,1481.0,1495.0,1346.2698400000002,1498.0
11.517019987106323,159,75.2585,4461.2248553369936,1483.0,1495.0,1343.6459199999999,1499.0
11.541361093521118,160,75.282,4508.1851169721194,1486.0,1495.0,1342.1881599999999,1500.0
11.565721035003662,161,75.3055,4508.1851169721194,1490.0,1495.0,1342.05656,1501.0
11.589997053146362,161,76.3055,4461.2248553369936,1492.0,1495.0,1336.547,1501.0
11.614569902420044,161,76.3055,4461.2248553369936,1494.0,1495.0,1332.2374399999999,1501.0
11.638911008834839,161,76.3055,4461.2248553369936,1497.0,1495.0,1330.79368,1501.0
11.663219928741455,161,76.3055,4461.2248553369936,1500.0,1495.0,1329.4157200000002,1501.0
11.687480926513672,160,76.282,4461.2248553369936,1500.0,1495.0,1328.1656,1500.0
11.711796998977661,160,76.2585,4414.2645937018679,1502.0,1495.0,1331.07736,1500.0
11.7361741065979,160,75.2585,4414.2645937018679,1504.0,1495.0,1336.6009200000001,1500.0
11.760453939437866,158,75.2585,4461.2248553369936,1499.0,1495.0,1339.53252,1498.0
11.784915924072266,159,75.2585,4461.2248553369936,1500.0,1495.0,1342.4321600000001,1499.0
11.809237957000732,159,75.2585,4461.2248553369936,1498.0,1495.0,1345.23404,1499.0
11.833509922027588,159,76.2585,4461.2248553369936,1496.0,1495.0,1343.97012,1499.0
11.857781887054443,159,76.282,4461.2248553369936,1494.0,1495.0,1341.0441600000001,1499.0
11.882108926773071,159,76.282,4508.1851169721194,1492.0,1495.0,1338.1464000000001,1499.0
11.906477928161621,159,77.3055,4508.1851169721194,1490.0,1495.0,1332.5466000000001,1499.0
11.930768966674805,160,77.329,4555.1453786072452,1492.0,1495.0,1328.14492,1500.0
11.95519495010376,160,77.329,4602.105640242371,1492.0,1495.0,1326.6034,1500.0
11.979464054107666,160,77.329,4602.105640242371,1492.0,1495.0,1326.48768,1500.0
12.003726959228516,160,77.329,4602.105640242371,1494.0,1495.0,1326.3719599999999,1500.0
12.028011083602905,161,77.3055,4602.105640242371,1498.0,1495.0,1329.18408,1501.0
12.052335023880005,161,77.3055,4602.105640242371,1500.0,1495.0,1332.0337999999999,1501.0
12.076611042022705,162,77.3055,4649.0659018774968,1505.0,1495.0,1333.52352,1502.0
12.100948095321655,162,77.3055,4649.0659018774968,1508.0,1495.0,1334.98128,1502.0
12.125346899032593,162,77.282,4649.0659018774968,1511.0,1495.0,1336.50108,1502.0
12.149627923965454,162,77.282,4696.0261635126226,1514.0,1495.0,1336.5349200000001,1502.0
12.17391300201416,162,77.282,4696.0261635126226,1516.0,1495.0,1336.5368000000001,1502.0
12.198184967041016,161,77.3055,4649.0659018774968,1515.0,1495.0,1336.4766400000001,1501.0
12.222476959228516,161,77.282,4602.105640242371,1516.0,1495.0,1336.5067199999999,1501.0
12.246748924255371,161,77.282,4555.1453786072452,1517.0,1495.0,1336.4428,1501.0
12.271075010299683,161,77.282,4508.1851169721194,1517.0,1495.0,1336.41084,1501.0
12.295443058013916,160,77.2585,4461.2248553369936,1514.0,1495.0,1336.44092,1500.0
12.319725036621094,160,76.2585,4461.2248553369936,1512.0,1495.0,1339.1486,1500.0
12.343985080718994,160,76.235,4414.2645937018679,1510.0,1495.0,1340.6525200000001,1500.0
12.368238925933838,160,76.2585,4414.2645937018679,1508.0,1495.0,1342.09816,1500.0
12.392491102218628,160,76.2585,4414.2645937018679,1506.0,1495.0,1343.5720000000001,1500.0
12.416769981384277,160,77.2585,4367.3043320667421,1504.0,1495.0,1342.34004,1500.0
12.441102981567383,160,77.282,4367.3043320667421,1503.0,1495.0,1339.41408,1500.0
12.465461015701294,159,78.3055,4367.3043320667421,1499.0,1495.0,1333.78044,1499.0
12.489731073379517,159,78.3055,4367.3043320667421,1497.0,1495.0,1329.4408000000001,1499.0
12.51400899887085,159,78.329,4367.3043320667421,1495.0,1495.0,1325.0391200000001,1499.0
12.53826904296875,160,78.329,4328.8822998198211,1497.0,1495.0,1323.4976000000001,1500.0
12.562539100646973,159,79.329,4281.9220381846944,1494.0,1495.0,1320.74188,1499.0
12.586817979812622,159,78.3055,4243.5000059377726,1493.0,1495.0,1324.7859599999999,1499.0
12.611156940460205,159,78.282,4158.117712055725,1492.0,1495.0,1327.63192,1499.0
12.6355299949646,158,79.282,4111.1574504205983,1488.0,1495.0,1327.8754800000002,1498.0
12.659818887710571,158,79.2585,4111.1574504205983,1486.0,1495.0,1328.02108,1498.0
12.684109926223755,158,79.2585,4111.1574504205983,1484.0,1495.0,1330.90652,1498.0
12.70839810371399,158,79.2585,4111.1574504205983,1483.0,1495.0,1329.5342000000001,1498.0
12.732768058776855,158,79.2585,4111.1574504205983,1482.0,1495.0,1328.09608,1498.0
12.75736403465271,158,80.282,4111.1574504205983,1481.0,1495.0,1326.72396,1498.0
12.781716108322144,158,80.3055,4149.5794826675201,1480,1495.0,1326.4521999999999,1498.0
12.80604100227356,158,80.3055,4111.1574504205983,1480,1495.0,1324.8486399999999,1498.0
12.830281972885132,158,81.3055,4149.5794826675201,1480,1495.0,1321.99704,1498.0
12.854662895202637,158,81.329,4188.001514914441,1480,1495.0,1320.3153600000001,1498.0
12.878859043121338,158,80.3055,4149.5794826675201,1480,1495.0,1322.8697200000001,1498.0
12.90305209159851,159,80.3055,4149.5794826675201,1480,1495.0,1324.2936400000001,1499.0
12.92724895477295,159,80.282,4149.5794826675201,1480.0,1495.0,1325.7796000000001,1499.0
12.951560020446777,159,80.282,4149.5794826675201,1481.0,1495.0,1330.03736,1499.0
12.975872039794922,160,79.282,4149.5794826675201,1485.0,1495.0,1337.00092,1500.0
13.00011396408081,160,79.2585,4149.5794826675201,1487.0,1495.0,1338.5687599999999,1500.0
13.02438497543335,160,79.2585,4149.5794826675201,1489.0,1495.0,1340.07644,1500.0
13.04862904548645,160,79.282,4188.001514914441,1491.0,1495.0,1341.4562800000001,1500.0
13.072880029678345,160,79.282,4188.001514914441,1493.0,1495.0,1341.50432,1500.0
13.097177028656006,160,79.282,4188.001514914441,1495.0,1495.0,1338.7203999999999,1500.0
13.121614933013916,161,78.282,4188.001514914441,1500.0,1495.0,1339.90264,1501.0
13.146025896072388,161,78.282,4149.5794826675201,1502.0,1495.0,1339.8848799999998,1501.0
13.170306921005249,161,78.282,4111.1574504205983,1504.0,1495.0,1339.96488,1501.0
13.194703102111816,161,78.3055,4072.7354181736773,1506.0,1495.0,1339.9828399999999,1501.0
13.219021081924438,160,78.3055,4034.3133859267559,1504.0,1495.0,1341.3890000000001,1500.0
13.243295907974243,161,78.3055,3995.8913536798345,1507.0,1495.0,1340.02712,1501.0
13.26757001876831,160,78.3055,3995.8913536798345,1505.0,1495.0,1338.66524,1500.0
13.29193902015686,160,78.3055,3995.8913536798345,1505.0,1495.0,1337.2714000000001,1500.0
13.316343069076538,160,78.3055,3995.8913536798345,1505.0,1495.0,1335.94336,1500.0
13.340611934661865,161,78.3055,3995.8913536798345,1508.0,1495.0,1334.6153199999999,1501.0
13.365035057067871,160,78.3055,4034.3133859267559,1505.0,1495.0,1334.6472799999999,1500.0
13.38932204246521,160,78.3055,4072.7354181736773,1504.0,1495.0,1334.6792399999999,1500.0
13.413580894470215,160,78.3055,4111.1574504205983,1503.0,1495.0,1334.7112,1500.0
13.43787693977356,160,78.3055,4111.1574504205983,1502.0,1495.0,1334.7112,1500.0
13.462208032608032,160,78.3055,4111.1574504205983,1502.0,1495.0,1334.7112,1500.0
13.486548900604248,160,78.3055,4111.1574504205983,1501.0,1495.0,1334.7112,1500.0
13.510883092880249,161,78.3055,4072.7354181736773,1504.0,1495.0,1334.7112,1501.0
13.535240888595581,161,78.3055,4034.3133859267559,1505.0,1495.0,1334.7112,1501.0
13.55951189994812,161,78.329,3995.8913536798345,1506.0,1495.0,1334.6491599999999,1501.0
13.583774089813232,161,79.329,3995.8913536798345,1506.0,1495.0,1331.97532,1501.0
13.60804009437561,161,79.329,3995.8913536798345,1507.0,1495.0,1330.5014799999999,1501.0
13.632359981536865,161,79.329,3995.8913536798345,1508.0,1495.0,1329.02764,1501.0
13.65661096572876,161,78.329,3957.4693214329136,1509.0,1495.0,1330.1938,1501.0
13.680785894393921,161,78.329,3995.8913536798345,1510.0,1495.0,1330.22576,1501.0
13.705121040344238,160,77.329,3995.8913536798345,1508.0,1495.0,1335.6977199999999,1500.0
13.72939395904541,160,77.282,3995.8913536798345,1508.0,1495.0,1340.09376,1500.0
13.753659963607788,160,77.2585,3995.8913536798345,1507.0,1495.0,1344.4954399999999,1500.0
13.777934074401855,160,76.2585,3995.8913536798345,1506.0,1495.0,1348.70892,1500.0
13.802284002304077,160,76.235,3995.8913536798345,1505.0,1495.0,1350,1500.0
13.826558113098145,160,76.235,3957.4693214329136,1504.0,1495.0,1350,1500.0
13.850745916366577,160,76.2585,3919.0472891859922,1503.0,1495.0,1349.26956,1500.0
13.875175952911377,160,76.282,3880.6252569390708,1502.0,1495.0,1347.8316400000001,1500.0
13.899463891983032,160,77.282,3880.6252569390708,1501.0,1495.0,1342.3419200000001,1500.0
13.924038887023926,160,77.3055,3842.2032246921494,1500.0,1495.0,1337.92436,1500.0
13.948328971862793,160,78.3055,3842.2032246921494,1500.0,1495.0,1332.2550000000001,1500.0
13.972596883773804,160,78.3055,3842.2032246921494,1500.0,1495.0,1327.91536,1500.0
13.996877908706665,160,78.282,3842.2032246921494,1500.0,1495.0,1323.73552,1500.0
14.021225929260254,160,77.2585,3842.2032246921494,1500.0,1495.0,1326.3895199999999,1500.0
14.045584917068481,160,77.235,3842.2032246921494,1500.0,1495.0,1327.9751200000001,1500.0
14.06987190246582,160,77.235,3842.2032246921494,1500.0,1495.0,1332.3325199999999,1500.0
14.094155073165894,159,77.235,3842.2032246921494,1497.0,1495.0,1336.65796,1499.0
14.11843490600586,159,78.2585,3880.6252569390708,1496.0,1495.0,1338.1836000000001,1499.0
14.142700910568237,159,78.282,3880.6252569390708,1495.0,1495.0,1336.6496,1499.0
14.16698408126831,159,78.282,3880.6252569390708,1494.0,1495.0,1335.0460399999999,1499.0
14.191378116607666,159,79.3055,3880.6252569390708,1493.0,1495.0,1329.3804399999999,1499.0
14.21583604812622,159,79.3055,3880.6252569390708,1492.0,1495.0,1324.9430400000001,1499.0
14.240145921707153,159,79.3055,3880.6252569390708,1491.0,1495.0,1323.4033999999999,1499.0
14.26447606086731,160,79.3055,3880.6252569390708,1493.0,1495.0,1323.32152,1500.0
14.288763999938965,159,79.3055,3919.0472891859922,1490.0,1495.0,1323.2716,1499.0
14.313056945800781,160,78.282,3919.0472891859922,1492.0,1495.0,1328.78952,1500.0
14.337328910827637,160,78.2585,3957.4693214329136,1493.0,1495.0,1333.1412800000001,1500.0
14.361654996871948,160,77.2585,3919.0472891859922,1494.0,1495.0,1338.71288,1500.0
14.385996103286743,160,77.2585,3919.0472891859922,1495.0,1495.0,1343.05252,1500.0
14.41026496887207,160,77.2585,3957.4693214329136,1496.0,1495.0,1347.3921600000001,1500.0
14.434694051742554,160,77.282,3995.8913536798345,1497.0,1495.0,1347.412,1500.0
14.458977937698364,160,77.3055,3995.8913536798345,1498.0,1495.0,1347.3322000000001,1500.0
14.483246088027954,160,77.329,3995.8913536798345,1499.0,1495.0,1344.4185600000001,1500.0
14.507496118545532,160,77.329,3995.8913536798345,1499.0,1495.0,1341.5331200000001,1500.0
14.531845092773438,159,77.329,3995.8913536798345,1497.0,1495.0,1338.64768,1499.0
14.55621600151062,159,76.3055,3995.8913536798345,1496.0,1495.0,1339.9220399999999,1499.0
14.580498933792114,159,75.282,3957.4693214329136,1495.0,1495.0,1342.768,1499.0
14.604931116104126,159,75.2585,3957.4693214329136,1494.0,1495.0,1345.8736000000001,1499.0
14.629229068756104,159,75.2585,3995.8913536798345,1493.0,1495.0,1348.951,1499.0
14.653964042663574,159,75.2585,3995.8913536798345,1492.0,1495.0,1350,1499.0
14.678783893585205,159,74.2585,3957.4693214329136,1491.0,1495.0,1350,1499.0
14.70302700996399,159,75.282,3957.4693214329136,1490.0,1495.0,1350,1499.0
14.7272469997406,159,75.3055,3957.4693214329136,1489.0,1495.0,1347.9561200000001,1499.0
14.751583099365234,159,76.3055,3957.4693214329136,1488.0,1495.0,1342.43256,1499.0
14.7759530544281,159,76.3055,3919.0472891859922,1488.0,1495.0,1338.1089999999999,1499.0
14.8002610206604,159,76.3055,3919.0472891859922,1488.0,1495.0,1332.3774000000001,1499.0
14.82470703125,159,76.282,3919.0472891859922,1488.0,1495.0,1330.9656,1499.0
14.849003076553345,159,76.2585,3919.0472891859922,1488.0,1495.0,1329.6854000000001,1499.0
14.873275995254517,159,76.2585,3848.6068967333026,1488.0,1495.0,1331.1769999999999,1499.0
14.897552967071533,159,76.235,3810.1848644863812,1488.0,1495.0,1332.73064,1499.0
14.921895980834961,159,76.235,3848.6068967333026,1488.0,1495.0,1335.61608,1499.0
14.9462571144104,160,75.235,3848.6068967333026,1491.0,1495.0,1339.6837599999999,1500.0
14.970541954040527,160,76.235,3848.6068967333026,1492.0,1495.0,1339.81368,1500.0
14.994977951049805,159,76.2585,3848.6068967333026,1490.0,1495.0,1339.72156,1499.0
15.01927900314331,160,76.2585,3848.6068967333026,1493.0,1495.0,1339.59184,1500.0
15.043545007705688,160,76.2585,3848.6068967333026,1494.0,1495.0,1339.4621199999999,1500.0
15.067825078964233,160,76.2585,3848.6068967333026,1495.0,1495.0,1336.5643600000001,1500.0
15.092452049255371,159,76.2585,3848.6068967333026,1493.0,1495.0,1336.49856,1499.0
15.116786003112793,160,76.2585,3880.6252569390708,1496.0,1495.0,1336.49856,1500.0
15.141109943389893,161,76.2585,3880.6252569390708,1500.0,1495.0,1336.53052,1501.0
15.165453910827637,160,77.2585,3810.1848644863812,1499.0,1495.0,1333.92248,1500.0
15.189733028411865,161,77.2585,3810.1848644863812,1502.0,1495.0,1333.87444,1501.0
15.214047908782959,160,77.2585,3810.1848644863812,1500.0,1495.0,1332.4664,1500.0
15.238341093063354,160,78.282,3810.1848644863812,1501.0,1495.0,1328.3243600000001,1500.0
15.262609958648682,161,79.282,3778.1665042806135,1504.0,1495.0,1322.77052,1501.0
15.286899089813232,160,79.282,3778.1665042806135,1502.0,1495.0,1321.21668,1500.0
15.311299085617065,160,79.2585,3778.1665042806135,1502.0,1495.0,1319.72488,1500.0
15.335738897323608,160,79.235,3778.1665042806135,1503.0,1495.0,1318.26692,1500.0
15.36003589630127,159,79.2115,3778.1665042806135,1500.0,1495.0,1319.7085999999999,1499.0
15.384324073791504,159,79.188,3778.1665042806135,1498.0,1495.0,1323.9841199999998,1499.0
15.40861201286316,159,79.1645,3810.1848644863812,1497.0,1495.0,1326.9334799999999,1499.0
15.432908058166504,159,79.1645,3810.1848644863812,1495.0,1495.0,1329.7888399999999,1499.0
15.457199096679688,159,80.188,3810.1848644863812,1494.0,1495.0,1329.87636,1499.0
15.481547117233276,159,81.2115,3778.1665042806135,1493.0,1495.0,1327.0322799999999,1499.0
15.505953073501587,158,82.235,3810.1848644863812,1488.0,1495.0,1321.28856,1498.0
15.530241012573242,158,82.2585,3810.1848644863812,1486.0,1495.0,1316.6451999999999,1498.0
15.554651975631714,158,83.282,3810.1848644863812,1484.0,1495.0,1309.35996,1498.0
15.578927993774414,158,84.329,3810.1848644863812,1482.0,1495.0,1303.4366,1498.0
15.603240966796875,158,84.3525,3810.1848644863812,1481.0,1495.0,1301.60536,1498.0
15.627526998519897,160,85.3525,3810.1848644863812,1486.0,1495.0,1300.0600800000002,1500.0
15.651850938796997,160,85.3525,3778.1665042806135,1487.0,1495.0,1299.8125599999998,1500.0
15.676207065582275,160,85.329,3746.1481440748453,1488.0,1495.0,1302.49288,1500.0
15.700498104095459,160,84.3055,3746.1481440748453,1489.0,1495.0,1309.3866799999998,1500.0
15.724931955337524,161,84.282,3746.1481440748453,1493.0,1495.0,1313.7881600000001,1501.0
15.74921989440918,162,84.282,3714.1297838690771,1499.0,1495.0,1319.5694800000001,1502.0
15.773502111434937,162,83.282,3714.1297838690771,1503.0,1495.0,1327.95884,1502.0
15.797801971435547,162,83.3055,3714.1297838690771,1507.0,1495.0,1333.6284000000001,1502.0
15.82216191291809,162,83.329,3714.1297838690771,1511.0,1495.0,1334.9744000000001,1502.0
15.846503973007202,162,83.329,3714.1297838690771,1515.0,1495.0,1336.2508400000002,1502.0
15.870790004730225,163,83.329,3682.1114236633089,1520.0,1495.0,1336.1672800000001,1503.0
15.895205974578857,163,82.329,3714.1297838690771,1520,1495.0,1335.92372,1503.0
15.919392108917236,163,82.329,3714.1297838690771,1520,1495.0,1334.5779199999999,1503.0
15.943588018417358,164,81.329,3714.1297838690771,1520,1495.0,1337.32988,1504.0
15.96777892112732,163,81.3055,3714.1297838690771,1520,1495.0,1338.9758400000001,1503.0
15.992079973220825,163,80.3055,3746.1481440748453,1520,1495.0,1343.2336,1503.0
16.016407012939453,163,80.329,3714.1297838690771,1520,1495.0,1344.7893200000001,1503.0
16.040597915649414,163,80.3525,3682.1114236633089,1520,1495.0,1346.2792400000001,1503.0
16.06490993499756,162,80.376,3650.0930634575407,1520,1495.0,1344.90336,1502.0
16.089107990264893,162,80.3995,3618.0747032517729,1520,1495.0,1343.4278400000001,1502.0
16.113301992416382,162,79.3995,3590.9822446161224,1520,1495.0,1341.82052,1502.0
16.137523889541626,162,79.3995,3558.9638844103547,1520,1495.0,1340.4389999999999,1502.0
16.161778926849365,161,78.376,3558.9638844103547,1520,1495.0,1341.8253199999999,1501.0
16.186048984527588,161,77.3525,3499.8530655689369,1520,1495.0,1346.1112799999999,1501.0
16.21024489402771,161,76.329,3472.7606069332878,1520,1495.0,1350,1501.0
16.234445095062256,161,76.3055,3440.7422467275196,1520.0,1495.0,1350,1501.0
16.25897192955017,161,75.3055,3390.4276806898843,1518.0,1495.0,1350,1501.0
16.283305883407593,160,75.282,3390.4276806898843,1513.0,1495.0,1350,1500.0
16.30772590637207,160,73.282,3363.3352220542351,1511.0,1495.0,1350,1500.0
16.332011938095093,160,73.2585,3336.2427634185851,1509.0,1495.0,1350,1500.0
16.35629105567932,160,73.282,3336.2427634185851,1507.0,1495.0,1350,1500.0
16.380465030670166,160,72.282,3309.1503047829347,1505.0,1495.0,1350,1500.0
16.40479803085327,160,72.282,3282.0578461472846,1504.0,1495.0,1350,1500.0
16.42899203300476,160,71.2585,3282.0578461472846,1503.0,1495.0,1350,1500.0
16.453169107437134,160,71.2585,3258.8357387452993,1502.0,1495.0,1350,1500.0
16.477349042892456,160,71.2585,3208.5211727076644,1501.0,1495.0,1350,1500.0
16.501571893692017,160,71.2585,3231.7432801096497,1500.0,1495.0,1350,1500.0
16.525826930999756,160,71.282,3204.6508214739997,1500.0,1495.0,1350,1500.0
16.55000901222229,160,71.282,3204.6508214739997,1500.0,1495.0,1350,1500.0
16.57420802116394,160,71.282,3204.6508214739997,1500.0,1495.0,1350,1500.0
16.59838604927063,160,71.3055,3181.4287140720144,1500.0,1495.0,1348.5447200000001,1500.0
16.622668027877808,160,71.282,3158.206606670029,1500.0,1495.0,1347.1471200000001,1500.0
16.64695405960083,160,71.2585,3158.206606670029,1500.0,1495.0,1345.84916,1500.0
16.671292066574097,160,71.2585,3158.206606670029,1500.0,1495.0,1345.9149600000001,1500.0
16.69568395614624,160,70.235,3181.4287140720144,1500.0,1495.0,1348.6828,1500.0
16.72011089324951,160,70.2115,3181.4287140720144,1500.0,1495.0,1350,1500.0
16.744508028030396,160,70.188,3181.4287140720144,1500.0,1495.0,1350,1500.0
16.768739938735962,160,70.188,3158.206606670029,1500.0,1495.0,1350,1500.0
16.79296588897705,160,70.188,3134.9844992680437,1500.0,1495.0,1350,1500.0
16.81719207763672,159,70.188,3134.9844992680437,1497.0,1495.0,1350,1499.0
16.84143900871277,159,70.188,3134.9844992680437,1496.0,1495.0,1350,1499.0
16.865700006484985,159,70.188,3158.206606670029,1495.0,1495.0,1350,1499.0
16.889893054962158,159,71.2115,3185.2990653056791,1494.0,1495.0,1346.5489200000002,1499.0
16.914191007614136,158,70.2115,3185.2990653056791,1490.0,1495.0,1346.2592000000002,1498.0
16.93848991394043,158,71.2115,3162.0769579036937,1488.0,1495.0,1343.5214400000002,1498.0
16.962785005569458,158,71.235,3185.2990653056791,1486.0,1495.0,1341.9536000000001,1498.0
16.98709201812744,159,71.2585,3185.2990653056791,1487.0,1495.0,1340.3838800000001,1499.0
17.01144289970398,159,71.2585,3208.5211727076644,1486.0,1495.0,1341.7081599999999,1499.0
