time,x,y,size_inv,roll,pitch,thrust,yaw
0.0007839202880859375,243,52,0.007407407407407408,1520,1502.0,1350,1520
0.023808002471923828,243,52,0.007407407407407408,1520,1502.0,1350,1520
0.04635000228881836,243,52,0.007407407407407408,1520,1502.0,1350,1520
0.0687711238861084,243,52,0.007407407407407408,1520,1502.0,1350,1520
0.09138202667236328,243,52,0.007407407407407408,1520,1502.0,1350,1520
0.11385512351989746,243,52,0.007407407407407408,1520,1502.0,1350,1520
0.1363201141357422,243,52,0.007407407407407408,1520,1502.0,1350,1520
0.15875506401062012,243,52,0.007407407407407408,1520,1502.0,1350,1520
0.18139290809631348,243,52,0.007407407407407408,1520,1502.0,1350,1520
0.20388412475585938,243,52,0.007407407407407408,1520,1502.0,1350,1520
0.22665905952453613,243,52,0.007407407407407408,1520,1502.0,1350,1520
0.24982810020446777,242,52,0.006944444444444444,1520,1502.0,1350,1520
0.27297091484069824,242,52,0.007407407407407408,1520,1502.0,1350,1520
0.2960660457611084,241,51,0.006666666666666667,1520,1502.0,1350,1520
0.31913208961486816,239,51,0.00625,1520,1502.0,1350,1520
0.34259510040283203,238,50,0.007407407407407408,1520,1502.0,1350,1520
0.3656959533691406,236,48,0.008333333333333333,1520,1502.0,1350,1520
0.3887810707092285,232,47,0.007936507936507936,1520,1502.0,1350,1520
0.4120969772338867,227,45,0.006666666666666667,1520,1502.0,1350,1520
0.4351999759674072,224,44,0.006666666666666667,1520,1502.0,1350,1520
0.45831894874572754,220,44,0.007142857142857143,1520,1502.0,1350,1520
0.48141908645629883,218,44,0.006666666666666667,1520,1502.0,1350,1520
0.5045380592346191,214,44,0.007142857142857143,1520,1502.0,1350,1520
0.5276970863342285,212,45,0.006666666666666667,1520,1502.0,1350,1520
0.5508251190185547,209,46,0.006666666666666667,1520,1502.0,1350,1520
0.573962926864624,203,48,0.006666666666666667,1520,1502.0,1350,1520
0.5970349311828613,201,50,0.006060606060606061,1520,1502.0,1350,1520
0.6202590465545654,196,51,0.006493506493506494,1520,1502.0,1350,1520
0.6435139179229736,194,52,0.006993006993006993,1520,1502.0,1342.48,1520
0.6667101383209229,194,52,0.006993006993006993,1520,1502.0,1336.5599999999999,1520
0.690047025680542,187,54,0.006493506493506494,1520,1502.0,1330.96,1520
0.713407039642334,185,55,0.006666666666666667,1520,1502.0,1330.72,1520
0.7366170883178711,179,58,0.006666666666666667,1520,1502.0,1326.5599999999999,1519.0
0.7600889205932617,175,60,0.006060606060606061,1520,1502.0,1322.1600000000001,1515.0
0.7835390567779541,172,61,0.00625,1520,1502.0,1316.1600000000001,1512.0
0.8068521022796631,172,61,0.00625,1520,1502.0,1314.24,1512.0
0.8302810192108154,166,64,0.006666666666666667,1520,1502.0,1304.48,1506.0
0.8537111282348633,163,66,0.006493506493506494,1520,1502.0,1300.0799999999999,1503.0
0.8770029544830322,163,66,0.006493506493506494,1520,1502.0,1302.3199999999999,1503.0
0.9002411365509033,158,69,0.007142857142857143,1520,1502.0,1299.4400000000001,1498.0
0.9235451221466064,155,73,0.005555555555555556,1520,1502.0,1286.8800000000001,1495.0
0.9468450546264648,155,73,0.005555555555555556,1520,1502.0,1286.1600000000001,1495.0
0.9702739715576172,151,77,0.005681818181818182,1512.0,1502.0,1276.4000000000001,1491.0
0.9938371181488037,150,79,0.006060606060606061,1485.0,1502.0,1263.4400000000001,1490.0
1.0172369480133057,150,80,0.0053475935828877,1480,1502.0,1257.28,1490.0
1.0405800342559814,150,80,0.0053475935828877,1480,1502.0,1263.52,1490.0
1.0638539791107178,149,83,0.0058823529411764705,1480,1502.0,1257.76,1489.0
1.0871391296386719,149,86,0.0053475935828877,1480,1502.0,1256.1600000000001,1489.0
1.1104419231414795,149,86,0.0053475935828877,1480,1502.0,1263.76,1489.0
1.1337249279022217,149,88,0.0053475935828877,1480,1502.0,1264.8,1489.0
1.1569929122924805,149,88,0.006666666666666667,1480,1502.0,1262.8,1489.0
1.180325984954834,149,88,0.006666666666666667,1480,1502.0,1269.2,1489.0
1.2036619186401367,150,90,0.0058823529411764705,1480,1502.0,1273.28,1490.0
1.226978063583374,150,92,0.0058823529411764705,1480,1502.0,1271.76,1490.0
1.2502639293670654,149,93,0.006666666666666667,1480,1502.0,1274.24,1489.0
1.2739109992980957,150,95,0.0058823529411764705,1480,1502.0,1272.6400000000001,1490.0
1.297224998474121,149,96,0.006666666666666667,1480,1502.0,1266.72,1489.0
1.3205161094665527,150,97,0.0058823529411764705,1480,1502.0,1260.8800000000001,1490.0
1.343825101852417,150,97,0.0058823529411764705,1480,1502.0,1261.8399999999999,1490.0
1.367124080657959,150,98,0.006666666666666667,1480,1502.0,1260.24,1490.0
1.3903839588165283,150,99,0.006060606060606061,1480,1502.0,1262.8,1490.0
1.4136989116668701,150,99,0.006060606060606061,1480,1502.0,1269.3599999999999,1490.0
1.4369909763336182,150,100,0.006060606060606061,1480,1502.0,1273.3599999999999,1490.0
1.4602861404418945,150,100,0.006666666666666667,1480,1502.0,1275.8399999999999,1490.0
1.4835879802703857,150,101,0.005681818181818182,1480,1502.0,1277.1199999999999,1490.0
1.506946086883545,150,101,0.005681818181818182,1480,1502.0,1279.6800000000001,1490.0
1.5303349494934082,150,102,0.005681818181818182,1480,1502.0,1278.24,1490.0
1.5537071228027344,151,102,0.0053475935828877,1480,1502.0,1279.4400000000001,1491.0
1.5771031379699707,151,102,0.0053475935828877,1480,1502.0,1280.6400000000001,1491.0
1.6003789901733398,150,103,0.005681818181818182,1480,1502.0,1280.6400000000001,1490.0
1.6237170696258545,150,103,0.005681818181818182,1480,1502.0,1280.48,1490.0
1.6470520496368408,150,103,0.005681818181818182,1480,1502.0,1283.1199999999999,1490.0
1.6703729629516602,151,103,0.004901960784313725,1480,1502.0,1284.4000000000001,1491.0
1.693721055984497,151,103,0.004901960784313725,1480,1502.0,1285.6800000000001,1491.0
1.7170391082763672,150,104,0.005681818181818182,1480,1502.0,1285.76,1490.0
1.7403769493103027,150,104,0.005681818181818182,1480,1502.0,1287.04,1490.0
1.763688087463379,151,104,0.005555555555555556,1480,1502.0,1286.96,1491.0
1.787013053894043,151,104,0.006060606060606061,1480,1502.0,1286.8800000000001,1491.0
1.8103539943695068,151,104,0.006060606060606061,1480,1502.0,1286.8,1491.0
1.8336961269378662,151,104,0.006060606060606061,1480,1502.0,1288.1600000000001,1491.0
1.8569869995117188,151,103,0.005555555555555556,1480,1502.0,1292.1600000000001,1491.0
1.8803191184997559,150,103,0.005208333333333333,1480,1502.0,1294.96,1490.0
1.9036519527435303,151,103,0.005555555555555556,1480,1502.0,1297.76,1491.0
1.927030086517334,151,103,0.005555555555555556,1480,1502.0,1300.5599999999999,1491.0
1.9503629207611084,151,104,0.005555555555555556,1480,1502.0,1299.3599999999999,1491.0
1.973686933517456,151,104,0.005555555555555556,1480,1502.0,1296.5599999999999,1491.0
1.9970309734344482,151,104,0.005555555555555556,1480,1502.0,1293.76,1491.0
2.0203521251678467,151,104,0.005555555555555556,1480,1502.0,1290.96,1491.0
2.0436930656433105,151,104,0.005208333333333333,1480,1502.0,1288.1600000000001,1491.0
2.0670289993286133,151,104,0.005208333333333333,1480,1502.0,1288.1600000000001,1491.0
2.0903480052948,151,104,0.005555555555555556,1480,1502.0,1289.52,1491.0
2.113676071166992,151,103,0.005555555555555556,1480,1502.0,1293.52,1491.0
2.1370270252227783,151,103,0.005208333333333333,1480,1502.0,1296.3199999999999,1491.0
2.1603589057922363,151,103,0.005208333333333333,1480,1502.0,1299.1199999999999,1491.0
2.183666944503784,151,102,0.005208333333333333,1480,1502.0,1303.2,1491.0
2.207000970840454,151,102,0.005208333333333333,1480,1502.0,1306.0799999999999,1491.0
2.230325937271118,152,102,0.005555555555555556,1480,1502.0,1306.1600000000001,1492.0
2.2536330223083496,153,102,0.005555555555555556,1480,1502.0,1306.24,1493.0
2.27697491645813,153,102,0.005555555555555556,1480,1502.0,1306.3199999999999,1493.0
2.300663948059082,153,101,0.005555555555555556,1480,1502.0,1306.24,1493.0
2.324186086654663,153,101,0.005555555555555556,1480,1502.0,1304.96,1493.0
2.347527027130127,153,101,0.005208333333333333,1480,1502.0,1305.04,1493.0
2.3708319664001465,153,101,0.005208333333333333,1480,1502.0,1305.1199999999999,1493.0
2.3941810131073,154,100,0.005555555555555556,1480,1502.0,1307.8399999999999,1494.0
2.4175069332122803,154,100,0.005555555555555556,1480,1502.0,1307.9200000000001,1494.0
2.4411399364471436,154,99,0.005555555555555556,1480,1502.0,1310.6400000000001,1494.0
2.4645631313323975,154,99,0.005208333333333333,1480,1502.0,1312.1600000000001,1494.0
2.487924098968506,154,99,0.005208333333333333,1480,1502.0,1313.6800000000001,1494.0
2.5113019943237305,155,99,0.005208333333333333,1480,1502.0,1312.4000000000001,1495.0
2.534698009490967,155,99,0.005208333333333333,1480,1502.0,1312.48,1495.0
2.55804705619812,156,99,0.005555555555555556,1480,1502.0,1309.76,1496.0
2.5814149379730225,156,99,0.005555555555555556,1480,1502.0,1307.04,1496.0
2.6047589778900146,157,99,0.005555555555555556,1480,1502.0,1304.3199999999999,1497.0
2.6281161308288574,157,98,0.005555555555555556,1480,1502.0,1305.5999999999999,1497.0
2.651458978652954,157,98,0.005555555555555556,1480,1502.0,1305.6800000000001,1497.0
2.674783945083618,157,96,0.006060606060606061,1480,1502.0,1312.4000000000001,1497.0
2.698122024536133,157,95,0.005208333333333333,1480,1502.0,1319.3599999999999,1497.0
2.721457004547119,158,94,0.005555555555555556,1480,1502.0,1327.76,1498.0
2.7448039054870605,158,94,0.005555555555555556,1480,1502.0,1332.1600000000001,1498.0
2.7681169509887695,158,94,0.004807692307692308,1480,1502.0,1336.5599999999999,1498.0
2.7914700508117676,158,94,0.005555555555555556,1480,1502.0,1335.3599999999999,1498.0
2.8150761127471924,158,95,0.004807692307692308,1480,1502.0,1328.72,1498.0
2.8386220932006836,158,95,0.005208333333333333,1480,1502.0,1320.48,1498.0
2.8624699115753174,158,96,0.004807692307692308,1480,1502.0,1310.96,1498.0
2.886075973510742,158,95,0.005208333333333333,1480,1502.0,1305.28,1498.0
2.909809112548828,158,95,0.005208333333333333,1480,1502.0,1301.1199999999999,1498.0
2.933574914932251,158,94,0.005208333333333333,1480,1502.0,1303.76,1498.0
2.9571900367736816,159,93,0.005555555555555556,1480,1502.0,1309.2,1499.0
2.980781078338623,159,93,0.005555555555555556,1480.0,1502.0,1316.24,1499.0
3.0044429302215576,159,93,0.004807692307692308,1481.0,1502.0,1320.48,1499.0
3.0280959606170654,159,94,0.004807692307692308,1482.0,1502.0,1322.0799999999999,1499.0
3.0518410205841064,159,94,0.005208333333333333,1483.0,1502.0,1320.72,1499.0
3.0755181312561035,159,95,0.004807692307692308,1484.0,1502.0,1313.9200000000001,1499.0
3.0993521213531494,159,95,0.004807692307692308,1485.0,1502.0,1306.96,1499.0
3.123134136199951,161,95,0.004524886877828055,1492.0,1502.0,1301.3599999999999,1501.0
3.1468100547790527,160,94,0.005555555555555556,1492.0,1502.0,1301.2,1500.0
3.170474052429199,160,94,0.005555555555555556,1494.0,1502.0,1301.2,1500.0
3.194139003753662,161,92,0.005208333333333333,1498.0,1502.0,1310.6400000000001,1501.0
3.217802047729492,162,92,0.004524886877828055,1503.0,1502.0,1317.6800000000001,1502.0
3.2414910793304443,161,91,0.004807692307692308,1503.0,1502.0,1327.3599999999999,1501.0
3.265187978744507,162,90,0.004807692307692308,1508.0,1502.0,1334.3199999999999,1502.0
3.2888450622558594,162,90,0.004807692307692308,1511.0,1502.0,1340.0799999999999,1502.0
3.312847137451172,162,89,0.005208333333333333,1514.0,1502.0,1341.52,1502.0
3.336519956588745,162,89,0.005208333333333333,1517.0,1502.0,1341.76,1502.0
3.3604910373687744,164,89,0.004629629629629629,1520,1502.0,1339.2,1504.0
3.3841049671173096,164,89,0.004629629629629629,1520,1502.0,1335.2,1504.0
3.407824993133545,163,90,0.004807692307692308,1520,1502.0,1328.5599999999999,1503.0
3.431554079055786,164,90,0.004629629629629629,1520,1502.0,1323.04,1504.0
3.4549400806427,164,91,0.005128205128205128,1520,1502.0,1314.8800000000001,1504.0
3.478286027908325,164,91,0.005555555555555556,1520,1502.0,1309.28,1504.0
3.5016520023345947,164,91,0.005555555555555556,1520,1502.0,1305.04,1504.0
3.5250039100646973,165,90,0.004629629629629629,1520,1502.0,1306.24,1505.0
3.5483620166778564,165,90,0.004629629629629629,1520,1502.0,1307.5999999999999,1505.0
3.5717129707336426,165,89,0.004629629629629629,1520,1502.0,1314.4000000000001,1505.0
3.595050096511841,166,89,0.004524886877828055,1520,1502.0,1320.0,1506.0
3.6183559894561768,165,88,0.005555555555555556,1520,1502.0,1328.24,1505.0
3.6423869132995605,166,88,0.004629629629629629,1520,1502.0,1331.1199999999999,1506.0
3.6659021377563477,166,88,0.004629629629629629,1520,1502.0,1334.0,1506.0
3.689368963241577,166,88,0.004629629629629629,1520,1502.0,1332.72,1506.0
3.7129030227661133,166,88,0.004524886877828055,1520,1502.0,1331.4400000000001,1506.0
3.7362489700317383,166,87,0.004629629629629629,1520,1502.0,1330.0,1506.0
3.759680986404419,166,87,0.004629629629629629,1520,1502.0,1328.72,1506.0
3.7832369804382324,166,86,0.004629629629629629,1520,1502.0,1330.0799999999999,1506.0
3.8067851066589355,166,86,0.004629629629629629,1520,1502.0,1331.5999999999999,1506.0
3.8301780223846436,166,86,0.004629629629629629,1520,1502.0,1333.1199999999999,1506.0
3.853533983230591,166,86,0.004629629629629629,1520,1502.0,1333.2,1506.0
3.8768739700317383,165,86,0.004629629629629629,1520,1502.0,1333.28,1505.0
3.900275945663452,165,87,0.004273504273504274,1520,1502.0,1327.9200000000001,1505.0
3.9236199855804443,165,86,0.004629629629629629,1520,1502.0,1326.4000000000001,1505.0
3.946927070617676,165,86,0.004048582995951417,1520,1502.0,1323.6800000000001,1505.0
3.9702820777893066,165,86,0.004048582995951417,1520,1502.0,1322.3199999999999,1505.0
3.993618965148926,165,86,0.004048582995951417,1520,1502.0,1320.96,1505.0
4.0169289112091064,164,86,0.004273504273504274,1520,1502.0,1323.76,1504.0
4.040295124053955,164,86,0.004273504273504274,1520,1502.0,1323.76,1504.0
4.063632011413574,164,86,0.004273504273504274,1520,1502.0,1323.76,1504.0
4.0869410037994385,164,86,0.0037593984962406013,1520,1502.0,1323.76,1504.0
4.1102869510650635,164,86,0.004048582995951417,1520,1502.0,1323.76,1504.0
4.133630037307739,164,86,0.004048582995951417,1520,1502.0,1322.4000000000001,1504.0
4.156922101974487,164,86,0.0037593984962406013,1520,1502.0,1322.4000000000001,1504.0
4.180299997329712,163,86,0.003968253968253968,1520,1502.0,1322.4000000000001,1503.0
4.203721046447754,163,87,0.004048582995951417,1520,1502.0,1319.76,1503.0
4.227054119110107,163,87,0.004048582995951417,1520,1502.0,1318.3199999999999,1503.0
4.250378131866455,163,87,0.0037593984962406013,1520,1502.0,1316.8800000000001,1503.0
4.273689031600952,162,88,0.004048582995951417,1520,1502.0,1312.8,1502.0
4.297044992446899,162,88,0.004048582995951417,1520,1502.0,1309.9200000000001,1502.0
4.320336103439331,162,88,0.004048582995951417,1520,1502.0,1309.8399999999999,1502.0
4.343635082244873,161,88,0.0035714285714285713,1520,1502.0,1309.76,1501.0
4.366960048675537,161,88,0.0035714285714285713,1520,1502.0,1309.6800000000001,1501.0
4.390293121337891,161,88,0.0037593984962406013,1520,1502.0,1312.4000000000001,1501.0
4.413667917251587,160,89,0.0038461538461538464,1518.0,1502.0,1312.48,1500.0
4.43707013130188,160,89,0.0038461538461538464,1515.0,1502.0,1312.4000000000001,1500.0
4.460497140884399,160,89,0.004048582995951417,1512.0,1502.0,1312.3199999999999,1500.0
4.483931064605713,159,89,0.004273504273504274,1506.0,1502.0,1312.24,1499.0
4.507339954376221,159,89,0.0037593984962406013,1503.0,1502.0,1310.8,1499.0
4.530791997909546,159,89,0.0037593984962406013,1500.0,1502.0,1312.1600000000001,1499.0
4.554224014282227,159,89,0.0035714285714285713,1497.0,1502.0,1313.52,1499.0
4.5776450634002686,159,90,0.0037593984962406013,1495.0,1502.0,1312.24,1499.0
4.601102113723755,158,90,0.003968253968253968,1490.0,1502.0,1312.1600000000001,1498.0
4.624488115310669,159,91,0.0037593984962406013,1490.0,1502.0,1309.4400000000001,1499.0
4.647881984710693,158,91,0.0035714285714285713,1486.0,1502.0,1306.5599999999999,1498.0
4.67133903503418,158,91,0.0035714285714285713,1484.0,1502.0,1303.6800000000001,1498.0
4.694760084152222,158,91,0.0035714285714285713,1482.0,1502.0,1303.5999999999999,1498.0
4.718173980712891,158,91,0.0037593984962406013,1481.0,1502.0,1303.52,1498.0
4.741590976715088,158,91,0.004048582995951417,1480.0,1502.0,1306.24,1498.0
4.764984130859375,158,91,0.004048582995951417,1480,1502.0,1308.96,1498.0
4.788321018218994,158,91,0.004048582995951417,1480,1502.0,1311.6800000000001,1498.0
4.811645984649658,158,91,0.004048582995951417,1480,1502.0,1313.04,1498.0
4.835259914398193,158,91,0.004048582995951417,1480,1502.0,1314.4000000000001,1498.0
4.858572959899902,158,91,0.004048582995951417,1480,1502.0,1314.4000000000001,1498.0
4.8821189403533936,158,91,0.004048582995951417,1480,1502.0,1314.4000000000001,1498.0
4.905470132827759,157,91,0.0035714285714285713,1480,1502.0,1314.4000000000001,1497.0
4.92902398109436,157,91,0.0035714285714285713,1480,1502.0,1314.4000000000001,1497.0
4.952893972396851,157,92,0.004048582995951417,1480,1502.0,1311.76,1497.0
4.976723909378052,157,92,0.0035714285714285713,1480,1502.0,1310.3199999999999,1497.0
5.001167058944702,156,92,0.0038461538461538464,1480,1502.0,1308.8800000000001,1496.0
5.024763107299805,156,92,0.0038461538461538464,1480,1502.0,1307.4400000000001,1496.0
5.048340082168579,156,92,0.0035714285714285713,1480,1502.0,1306.0,1496.0
5.071985960006714,156,92,0.0035714285714285713,1480,1502.0,1307.3599999999999,1496.0
5.095613956451416,156,92,0.0035714285714285713,1480,1502.0,1308.72,1496.0
5.11934494972229,156,92,0.0035714285714285713,1480,1502.0,1310.0799999999999,1496.0
5.142974138259888,156,92,0.0035714285714285713,1480,1502.0,1311.4400000000001,1496.0
5.166590929031372,157,92,0.0035087719298245615,1480,1502.0,1312.8,1497.0
5.190298080444336,157,92,0.0035087719298245615,1480,1502.0,1312.8,1497.0
5.2139410972595215,157,92,0.0033333333333333335,1480,1502.0,1312.8,1497.0
5.237622976303101,157,92,0.0033333333333333335,1480,1502.0,1312.8,1497.0
5.26127290725708,158,92,0.0035087719298245615,1480,1502.0,1312.8,1498.0
5.284922122955322,158,92,0.0035087719298245615,1480,1502.0,1312.8,1498.0
5.308506965637207,158,92,0.0033333333333333335,1480,1502.0,1312.8,1498.0
5.332382917404175,158,92,0.0033333333333333335,1480,1502.0,1312.8,1498.0
5.355962038040161,158,92,0.0035087719298245615,1480,1502.0,1312.8,1498.0
5.379734039306641,158,92,0.0035087719298245615,1480,1502.0,1312.8,1498.0
5.403532028198242,158,92,0.0033333333333333335,1480,1502.0,1312.8,1498.0
5.427123069763184,158,92,0.0033333333333333335,1480,1502.0,1312.8,1498.0
5.450719118118286,159,92,0.002976190476190476,1480,1502.0,1312.8,1499.0
5.474345922470093,158,92,0.003125,1480,1502.0,1312.8,1498.0
5.497945070266724,158,92,0.003125,1480,1502.0,1312.8,1498.0
5.521544933319092,159,93,0.0031746031746031746,1480.0,1502.0,1310.1600000000001,1499.0
