time,x,y,size_inv,roll,pitch,thrust,yaw
0.0012710094451904297,150,44.0,4226.4235471613583,1497.7,1497.0,1350,1499.96
0.02522110939025879,150,44.282,4226.4235471613583,1497.4000000000001,1497.0,1350,1499.96
0.04886817932128906,150,44.282,4226.4235471613583,1497.0999999999999,1497.0,1350,1499.96
0.07243919372558594,150,44.282,4226.4235471613583,1496.8,1497.0,1350,1499.96
0.0959620475769043,150,44.282,4226.4235471613583,1496.5,1497.0,1350,1499.96
0.11944699287414551,150,44.282,4226.4235471613583,1496.2,1497.0,1350,1499.96
0.14302706718444824,150,44.282,4226.4235471613583,1495.9000000000001,1497.0,1350,1499.96
0.1666250228881836,150,44.282,4226.4235471613583,1495.5999999999999,1497.0,1350,1499.96
0.19020700454711914,150,44.282,4226.4235471613583,1495.3,1497.0,1350,1499.96
0.21378016471862793,150,44.282,4226.4235471613583,1495.0,1497.0,1350,1499.96
0.2377471923828125,150,44.3055,4226.4235471613583,1495.0,1497.0,1350,1499.96
0.26210713386535645,150,44.3055,4226.4235471613583,1495.0,1497.0,1350,1499.96
0.28632020950317383,150,44.3055,4226.4235471613583,1495.0,1497.0,1350,1499.96
0.31051111221313477,150,44.3055,4226.4235471613583,1495.0,1497.0,1350,1499.96
0.33469414710998535,150,44.3055,4226.4235471613583,1495.0,1497.0,1350,1499.96
0.3589611053466797,151,44.329,4188.0015149144365,1497.4300000000001,1497.0,1350,1499.9639999999999
0.383289098739624,151,45.3995,4188.0015149144365,1499.6600000000001,1497.0,1350,1499.9639999999999
0.4074990749359131,152,48.423,4188.0015149144365,1504.3199999999999,1497.0,1350,1499.9680000000001
0.4318540096282959,152,48.4465,4149.5794826675155,1508.78,1497.0,1350,1499.9680000000001
0.45607519149780273,152,49.423,4149.5794826675155,1513.24,1497.0,1350,1499.9680000000001
0.48029518127441406,153,49.3995,4111.1574504205946,1515.73,1497.0,1350,1499.972
0.5045130252838135,153,49.376,4072.7354181736728,1518.02,1497.0,1350,1499.972
0.5288021564483643,154,50.329,4072.7354181736728,1518.3399999999999,1497.0,1350,1499.9760000000001
0.5531032085418701,155,50.3055,4034.3133859267518,1520,1497.0,1350,1499.98
0.5772130489349365,155,51.282,4034.3133859267518,1520,1497.0,1350,1499.98
0.6014389991760254,155,52.282,4072.7354181736728,1520,1497.0,1350,1499.98
0.6255199909210205,155,53.282,4034.3133859267518,1520,1497.0,1350,1499.98
0.649604082107544,154,54.282,3995.8913536798304,1518.9400000000001,1497.0,1350,1499.9760000000001
0.6738271713256836,154,55.3055,3995.8913536798304,1510.2,1497.0,1348.38204,1499.9760000000001
0.6982131004333496,154,58.282,3995.8913536798304,1501.46,1497.0,1337.25848,1499.9760000000001
0.7226049900054932,153,59.282,3995.8913536798304,1492.46,1497.0,1329.89868,1499.972
0.7469010353088379,154,59.235,3995.8913536798304,1486.0899999999999,1497.0,1326.6949199999999,1499.9760000000001
0.7711989879608154,154,60.188,3957.4693214329091,1486.0899999999999,1497.0,1322.4227599999999,1499.9760000000001
0.7954990863800049,154,61.1645,3925.4509612271409,1488.26,1497.0,1319.614,1499.9760000000001
0.8197782039642334,154,62.1175,3887.0289289802195,1490.4300000000001,1497.0,1322.4672800000001,1499.9760000000001
0.8440670967102051,155,63.094,3848.6068967332985,1499.4300000000001,1497.0,1325.3262,1499.98
0.8684639930725098,155,64.094,3848.6068967332985,1503.8299999999999,1497.0,1325.22532,1499.98
0.8929471969604492,155,65.0705,3848.6068967332985,1506.0599999999999,1497.0,1325.0548799999999,1499.98
0.9173049926757812,156,66.0705,3848.6068967332985,1510.72,1497.0,1324.75848,1499.9839999999999
0.9417819976806641,154,69.0705,3810.1848644863771,1510.3199999999999,1497.0,1316.3624399999999,1499.9760000000001
0.9661250114440918,155,70.0705,3810.1848644863771,1506.1800000000001,1497.0,1310.3006000000003,1499.98
0.9904270172119141,155,72.094,3810.1848644863771,1504.01,1497.0,1302.96064,1499.98
1.0147252082824707,154,73.094,3810.1848644863771,1499.4100000000001,1497.0,1296.8470000000002,1499.9760000000001
1.039133071899414,154,75.094,3810.1848644863771,1490.6099999999999,1497.0,1288.1253200000001,1499.9760000000001
1.0635950565338135,153,76.094,3810.1848644863771,1488.1800000000001,1497.0,1286.2675600000002,1499.972
1.0883090496063232,153,79.094,3778.1665042806089,1483.72,1497.0,1279.16176,1499.972
1.1126999855041504,153,80.0705,3746.1481440748407,1480,1497.0,1277.3837999999998,1499.972
1.1369080543518066,152,81.0705,3714.1297838690725,1480,1497.0,1275.6096,1499.9680000000001
1.1611201763153076,154,82.047,3682.1114236633048,1481.51,1497.0,1276.6974399999999,1499.9760000000001
1.1854350566864014,152,82.0235,3682.1114236633048,1481.05,1497.0,1277.73912,1499.9680000000001
1.20973801612854,152,84.0,3682.1114236633048,1483.1600000000001,1497.0,1280.57464,1499.9680000000001
1.234039068222046,153,85.0,3682.1114236633048,1487.7,1497.0,1283.1242,1499.972
1.258404016494751,153,86.0,3682.1114236633048,1494.27,1497.0,1285.6737600000001,1499.972
1.282783031463623,151,87.0,3714.1297838690725,1487.1800000000001,1497.0,1286.7975199999998,1499.9639999999999
1.3070859909057617,151,88.0235,3714.1297838690725,1487.1199999999999,1497.0,1284.99344,1499.9639999999999
1.3315441608428955,151,90.0235,3714.1297838690725,1487.0599999999999,1497.0,1280.59176,1499.9639999999999
1.3558721542358398,149,92.047,3714.1297838690725,1480,1497.0,1274.72,1499.9559999999999
1.3801100254058838,149,93.047,3714.1297838690725,1480,1497.0,1270.07644,1499.9559999999999
1.404358148574829,149,94.0705,3714.1297838690725,1480,1497.0,1265.4028000000001,1499.9559999999999
1.4286561012268066,149,95.047,3682.1114236633048,1480,1497.0,1262.2771600000001,1499.9559999999999
1.4529881477355957,148,95.047,3650.0930634575366,1480,1497.0,1263.2352800000001,1499.952
1.4772272109985352,147,96.047,3650.0930634575366,1480,1497.0,1265.8592000000001,1499.9480000000001
1.5015881061553955,147,97.047,3618.0747032517684,1480,1497.0,1268.4831200000001,1499.9480000000001
1.525799036026001,146,97.047,3586.0563430460002,1480,1497.0,1273.8128400000001,1499.944
1.5500102043151855,146,98.047,3554.037982840232,1480,1497.0,1277.8448000000001,1499.944
1.5742111206054688,145,98.047,3554.037982840232,1480,1497.0,1280.3567599999999,1499.9400000000001
1.5984950065612793,145,99.0705,3554.037982840232,1480,1497.0,1280.2147199999999,1499.9400000000001
1.6227970123291016,144,100.0705,3554.037982840232,1480,1497.0,1280.10088,1499.9359999999999
1.6470041275024414,144,100.0705,3554.037982840232,1480,1497.0,1279.7950800000001,1499.9359999999999
1.6712150573730469,143,100.0705,3554.037982840232,1480,1497.0,1280.9612400000001,1499.932
1.695404052734375,143,100.0705,3586.0563430460002,1480,1497.0,1282.1274000000001,1499.932
1.7196002006530762,143,101.0705,3554.037982840232,1480,1497.0,1282.1593600000001,1499.932
1.7437961101531982,142,101.0705,3554.037982840232,1480,1497.0,1284.83132,1499.9280000000001
1.7680602073669434,141,101.094,3554.037982840232,1480,1497.0,1287.4412400000001,1499.924
1.7923669815063477,141,101.094,3554.037982840232,1480,1497.0,1288.7193600000001,1499.924
1.8165740966796875,140,101.094,3554.037982840232,1480,1497.0,1289.99748,1499.9200000000001
1.8407690525054932,140,101.1175,3554.037982840232,1480,1497.0,1292.6215999999999,1499.9200000000001
1.8649780750274658,140,101.1175,3554.037982840232,1480,1497.0,1293.91392,1499.9200000000001
1.8892021179199219,139,101.1175,3526.9455242045819,1480,1497.0,1295.2720399999998,1499.9159999999999
1.9134340286254883,140,101.141,3526.9455242045819,1480,1497.0,1296.5681199999999,1499.9200000000001
1.9376280307769775,139,101.141,3494.9271639988137,1480,1497.0,1297.8924,1499.9159999999999
1.962130069732666,139,100.1175,3494.9271639988137,1480,1497.0,1300.6245199999998,1499.9159999999999
1.9863550662994385,139,100.141,3494.9271639988137,1480,1497.0,1302.0663999999999,1499.9159999999999
2.010564088821411,139,100.141,3467.8347053631646,1480.8800000000001,1497.0,1303.50452,1499.9159999999999
2.034865140914917,139,100.141,3467.8347053631646,1480.8199999999999,1497.0,1305.0084400000001,1499.9159999999999
2.0592031478881836,139,99.141,3440.7422467275146,1482.99,1497.0,1309.15236,1499.9159999999999
2.083491086959839,139,99.1645,3413.6497880918641,1485.1600000000001,1497.0,1309.1364799999999,1499.9159999999999
2.108139991760254,139,99.1645,3386.5573294562141,1487.3299999999999,1497.0,1309.2146,1499.9159999999999
2.1325740814208984,139,99.1645,3413.6497880918641,1487.3299999999999,1497.0,1309.2927199999999,1499.9159999999999
2.1569020748138428,139,98.1645,3386.5573294562141,1489.5,1497.0,1311.9788800000001,1499.9159999999999
2.1812100410461426,139,98.1645,3359.4648708205641,1489.5,1497.0,1310.6650400000001,1499.9159999999999
2.205515146255493,139,98.188,3359.4648708205641,1489.5,1497.0,1310.74692,1499.9159999999999
2.2298262119293213,139,98.188,3332.3724121849141,1489.5,1497.0,1310.8250399999999,1499.9159999999999
2.25412917137146,139,98.188,3309.1503047829283,1489.5,1497.0,1310.9031600000001,1499.9159999999999
2.278489112854004,139,97.188,3282.0578461472787,1489.5,1497.0,1310.8212800000001,1499.9159999999999
2.302899122238159,139,97.188,3282.0578461472787,1489.5,1497.0,1310.8994,1499.9159999999999
2.327176094055176,139,96.188,3282.0578461472787,1489.5,1497.0,1313.6513600000001,1499.9159999999999
2.351602077484131,140,96.188,3282.0578461472787,1491.9300000000001,1497.0,1315.2033200000001,1499.9200000000001
2.375908136367798,140,96.188,3254.9653875116292,1494.1600000000001,1497.0,1316.7552800000001,1499.9200000000001
2.4001991748809814,140,95.188,3254.9653875116292,1496.3900000000001,1497.0,1319.5072399999999,1499.9200000000001
2.424485206604004,140,95.2115,3254.9653875116292,1498.6199999999999,1497.0,1320.9971599999999,1499.9200000000001
2.4488461017608643,141,95.2115,3227.8729288759796,1503.28,1497.0,1319.6833200000001,1499.924
2.4732320308685303,141,94.2115,3227.8729288759796,1503.3399999999999,1497.0,1321.0094799999999,1499.924
2.497545003890991,141,94.2115,3251.0950362779649,1503.4000000000001,1497.0,1321.13564,1499.924
2.521944046020508,141,94.2115,3278.1874949136145,1503.46,1497.0,1319.8217999999999,1499.924
2.546227216720581,142,93.2115,3278.1874949136145,1505.95,1497.0,1321.2137600000001,1499.9280000000001
2.570552110671997,142,92.188,3278.1874949136145,1503.8399999999999,1497.0,1325.46776,1499.9280000000001
2.594856023788452,142,92.188,3278.1874949136145,1503.9000000000001,1497.0,1325.6935599999999,1499.9280000000001
2.619152069091797,143,92.188,3305.2799535492641,1506.3900000000001,1497.0,1325.9193600000001,1499.932
2.643447160720825,143,91.1645,3305.2799535492641,1508.6800000000001,1497.0,1330.2072000000001,1499.932
2.6678202152252197,144,91.1645,3305.2799535492641,1509.0,1497.0,1330.43488,1499.9359999999999
2.692216157913208,145,91.1645,3332.3724121849141,1513.72,1497.0,1327.7967599999999,1499.9400000000001
2.7165000438690186,146,90.1645,3332.3724121849141,1520,1497.0,1329.1586399999999,1499.944
2.740715980529785,146,90.1645,3332.3724121849141,1520,1497.0,1329.32052,1499.944
2.764914035797119,146,90.1645,3305.2799535492641,1520,1497.0,1326.6166000000001,1499.944
2.789137125015259,147,90.1645,3305.2799535492641,1520,1497.0,1325.27268,1499.9480000000001
2.8133351802825928,147,90.1645,3305.2799535492641,1520,1497.0,1325.3207199999999,1499.9480000000001
2.8375229835510254,148,90.188,3305.2799535492641,1520,1497.0,1322.5067200000001,1499.952
2.862039089202881,148,90.188,3278.1874949136136,1519.8,1497.0,1319.72092,1499.952
2.8864150047302246,148,90.188,3278.1874949136136,1517.75,1497.0,1318.32708,1499.952
2.910757064819336,149,90.2115,3278.1874949136136,1515.9000000000001,1497.0,1316.8712,1499.9559999999999
2.9351041316986084,150,90.2115,3251.095036277964,1518.45,1497.0,1315.44352,1499.96
2.959411144256592,150,90.2115,3278.1874949136136,1518.5699999999999,1497.0,1315.44164,1499.96
2.9837241172790527,150,90.188,3305.2799535492641,1518.6900000000001,1497.0,1315.5018,1499.96
3.008024215698242,150,89.188,3305.2799535492641,1518.8099999999999,1497.0,1318.1737599999999,1499.96
3.03239107131958,150,89.188,3305.2799535492641,1516.7,1497.0,1319.7115200000001,1499.96
3.056727170944214,150,89.1645,3332.3724121849141,1510.1900000000001,1497.0,1321.31132,1499.96
3.0810511112213135,151,88.1645,3332.3724121849141,1508.28,1497.0,1325.4909600000001,1499.9639999999999
3.105354070663452,151,88.141,3359.4648708205641,1506.1700000000001,1497.0,1328.46684,1499.9639999999999
3.129958152770996,151,87.141,3359.4648708205641,1504.0599999999999,1497.0,1331.25452,1499.9639999999999
3.154292106628418,151,87.1645,3359.4648708205641,1504.1199999999999,1497.0,1332.7482,1499.9639999999999
3.178676128387451,151,87.1645,3359.4648708205641,1506.3499999999999,1497.0,1334.2042799999999,1499.9639999999999
3.2030692100524902,151,87.1645,3332.3724121849141,1504.1800000000001,1497.0,1332.8603599999999,1499.9639999999999
3.227382183074951,151,87.1645,3305.2799535492641,1502.01,1497.0,1331.4826,1499.9639999999999
3.2518560886383057,152,87.1645,3305.2799535492641,1502.27,1497.0,1328.6648399999999,1499.9680000000001
3.276196002960205,152,87.1645,3305.2799535492641,1502.3299999999999,1497.0,1325.9128800000001,1499.9680000000001
3.3005130290985107,152,87.1645,3278.1874949136136,1502.3900000000001,1497.0,1323.1928800000001,1499.9680000000001
3.324855089187622,152,86.141,3278.1874949136136,1504.6199999999999,1497.0,1324.5349200000001,1499.9680000000001
3.34919810295105,152,86.141,3251.095036277964,1506.8499999999999,1497.0,1324.6807200000001,1499.9680000000001
3.3735392093658447,152,86.141,3251.095036277964,1504.6800000000001,1497.0,1326.18652,1499.9680000000001
3.397907018661499,152,86.141,3251.095036277964,1502.51,1497.0,1327.6603600000001,1499.9680000000001
3.4222981929779053,152,87.141,3227.8729288759787,1500.3399999999999,1497.0,1326.4942000000001,1499.9680000000001
3.446639060974121,152,86.1175,3227.8729288759787,1498.1700000000001,1497.0,1326.36428,1499.9680000000001
3.470968008041382,152,86.1175,3227.8729288759787,1496.0,1497.0,1325.0061599999999,1499.9680000000001
3.4952762126922607,152,86.1175,3227.8729288759787,1496.0,1497.0,1323.64804,1499.9680000000001
3.5195631980895996,152,86.1175,3227.8729288759787,1496.0,1497.0,1322.2899199999999,1499.9680000000001
3.543868064880371,152,86.1175,3227.8729288759787,1496.0,1497.0,1323.7318,1499.9680000000001
3.568235158920288,152,87.1175,3204.6508214739933,1496.0,1497.0,1321.0598399999999,1499.9680000000001
3.5926661491394043,151,87.1175,3204.6508214739933,1493.5699999999999,1497.0,1319.58788,1499.9639999999999
3.617000102996826,152,87.1175,3204.6508214739933,1493.77,1497.0,1318.11592,1499.9680000000001
3.6413321495056152,152,87.1175,3204.6508214739933,1493.77,1497.0,1316.6439599999999,1499.9680000000001
3.6656980514526367,152,87.1175,3227.8729288759787,1493.77,1497.0,1313.8119999999999,1499.9680000000001
3.690040111541748,151,87.094,3227.8729288759787,1491.3399999999999,1497.0,1315.23404,1499.9639999999999
3.714379072189331,151,87.094,3227.8729288759787,1493.51,1497.0,1316.62788,1499.9639999999999
3.7388131618499756,152,87.094,3227.8729288759787,1493.71,1497.0,1318.02172,1499.9680000000001
3.7632720470428467,152,87.0705,3227.8729288759787,1493.71,1497.0,1319.4776000000002,1499.9680000000001
3.787593126296997,152,87.0705,3227.8729288759787,1493.71,1497.0,1320.9052800000002,1499.9680000000001
3.81205415725708,151,87.094,3251.095036277964,1495.6800000000001,1497.0,1320.8451200000002,1499.9639999999999
3.8363940715789795,152,87.094,3251.095036277964,1498.1099999999999,1497.0,1320.8131600000002,1499.9680000000001
3.860732078552246,152,88.1175,3227.8729288759787,1498.1099999999999,1497.0,1318.07916,1499.9680000000001
3.885087013244629,153,88.1175,3227.8729288759787,1500.54,1497.0,1316.50756,1499.972
3.909414052963257,152,88.141,3227.8729288759787,1500.3399999999999,1497.0,1314.87392,1499.9680000000001
3.9337241649627686,152,89.141,3204.6508214739933,1502.5699999999999,1497.0,1310.72624,1499.9680000000001
3.958120107650757,153,89.141,3181.428714072008,1502.8299999999999,1497.0,1307.77856,1499.972
3.9827380180358887,153,89.141,3158.2066066700227,1505.0599999999999,1497.0,1307.69668,1499.972
4.0071940422058105,154,89.1175,3158.2066066700227,1505.3199999999999,1497.0,1307.7087999999999,1499.9760000000001
4.031697988510132,153,89.1175,3158.2066066700227,1507.3499999999999,1497.0,1307.7585199999999,1499.972
4.056068181991577,153,90.094,3134.9844992680373,1507.4100000000001,1497.0,1307.9983199999999,1499.972
4.080738067626953,153,90.094,3111.762391866052,1505.24,1497.0,1309.4099200000001,1499.972
4.105081081390381,155,90.0705,3111.762391866052,1507.9300000000001,1497.0,1309.4916000000001,1499.98
4.1294050216674805,155,90.0705,3088.5402844640666,1507.99,1497.0,1309.47928,1499.98
4.153714179992676,154,90.0705,3065.3181770620813,1507.8499999999999,1497.0,1309.4350000000002,1499.9760000000001
4.178094148635864,154,91.094,3065.3181770620813,1507.9100000000001,1497.0,1308.0628800000002,1499.9760000000001
4.202506065368652,154,91.1175,3065.3181770620813,1510.1400000000001,1497.0,1307.8569199999999,1499.9760000000001
4.226814031600952,154,92.1175,3065.3181770620813,1503.5699999999999,1497.0,1304.97336,1499.9760000000001
4.251138210296631,154,92.1175,3042.096069660096,1499.1700000000001,1497.0,1303.32176,1499.9760000000001
4.275447130203247,155,92.094,3018.8739622581106,1499.4300000000001,1497.0,1301.7321999999999,1499.98
4.299722194671631,155,91.047,3018.8739622581106,1499.49,1497.0,1304.4162799999999,1499.98
4.323998212814331,155,91.0,3018.8739622581106,1499.55,1497.0,1306.0338400000001,1499.98
4.3483521938323975,153,89.9765,3018.8739622581106,1499.0899999999999,1497.0,1313.1289999999999,1499.972
4.372812986373901,153,89.9765,3018.8739622581106,1499.03,1497.0,1318.99596,1499.972
4.39714503288269,153,91.0,3018.8739622581106,1492.4000000000001,1497.0,1322.0950800000001,1499.972
4.421595096588135,155,91.0235,2998.7481358430568,1490.6300000000001,1497.0,1322.0368000000001,1499.98
4.445849180221558,155,92.0235,2998.7481358430568,1488.46,1497.0,1319.20316,1499.98
4.4701011180877686,154,93.1175,2998.7481358430568,1492.6600000000001,1497.0,1310.4555599999999,1499.9760000000001
4.494413137435913,155,94.141,2998.7481358430568,1499.49,1497.0,1300.31872,1499.98
4.518750190734863,154,94.1645,2998.7481358430568,1505.8599999999999,1497.0,1294.2457999999999,1499.9760000000001
4.543150186538696,154,94.141,2998.7481358430568,1503.6300000000001,1497.0,1289.7528399999999,1499.9760000000001
4.567389011383057,154,94.141,2998.7481358430568,1501.4000000000001,1497.0,1288.0955999999999,1499.9760000000001
4.591795206069946,154,93.1175,2998.7481358430568,1499.23,1497.0,1293.59556,1499.9760000000001
4.616108179092407,154,93.094,2998.7481358430568,1492.6600000000001,1497.0,1300.7951599999999,1499.9760000000001
4.640413045883179,154,92.0705,2998.7481358430568,1490.49,1497.0,1309.3424400000001,1499.9760000000001
4.664718151092529,153,91.0705,2998.7481358430568,1490.23,1497.0,1319.2037600000001,1499.972
4.689052104949951,153,91.0705,2978.6223094280026,1490.1700000000001,1497.0,1326.5050800000001,1499.972
4.713414192199707,153,91.0705,2978.6223094280026,1487.9400000000001,1497.0,1329.4527600000001,1499.972
4.737819194793701,153,91.094,2958.4964830129488,1487.8800000000001,1497.0,1330.8806400000001,1499.972
4.762290000915527,152,91.094,2938.3706565978946,1483.22,1497.0,1329.43896,1499.9680000000001
4.7865941524505615,152,91.1175,2918.2448301828408,1483.1600000000001,1497.0,1325.1672000000001,1499.9680000000001
4.8109071254730225,151,91.141,2898.119003767787,1480.6700000000001,1497.0,1320.8616,1499.9639999999999
4.8351991176605225,151,92.1645,2860.3830792395606,1480,1497.0,1315.27412,1499.9639999999999
4.859426021575928,151,92.1645,2840.2572528245064,1480,1497.0,1311.0126,1499.9639999999999
4.883645057678223,151,92.1645,2802.5213282962804,1480,1497.0,1308.1430399999999,1499.9639999999999
4.907937049865723,150,91.1645,2802.5213282962804,1480,1497.0,1309.3392799999999,1499.96
4.932242155075073,150,91.141,2802.5213282962804,1480,1497.0,1309.46336,1499.96
4.956467151641846,149,90.1175,2782.3955018812262,1480,1497.0,1315.12708,1499.9559999999999
4.980715036392212,149,90.094,2782.3955018812262,1480,1497.0,1319.59268,1499.9559999999999
5.004928112030029,149,90.0705,2782.3955018812262,1480,1497.0,1324.09212,1499.9559999999999
5.029160022735596,148,90.0705,2764.785403768054,1480,1497.0,1325.7314000000001,1499.952
5.053409099578857,147,90.0705,2747.1753056548814,1480,1497.0,1327.2729200000001,1499.9480000000001
5.078005075454712,147,90.094,2747.1753056548814,1480,1497.0,1324.4946400000001,1499.9480000000001
5.102325201034546,147,90.094,2729.5652075417092,1480,1497.0,1321.67876,1499.9480000000001
5.126507997512817,147,90.094,2729.5652075417092,1480,1497.0,1318.7970800000001,1499.9480000000001
5.150705099105835,146,90.094,2711.9551094285371,1480,1497.0,1317.2754,1499.944
5.17492413520813,146,90.094,2694.3450113153644,1480,1497.0,1315.78568,1499.944
5.199153184890747,146,90.094,2676.7349132021923,1480,1497.0,1315.7537199999999,1499.944
5.2233781814575195,146,90.1175,2659.1248150890196,1480,1497.0,1315.6916799999999,1499.944
5.2475972175598145,147,89.1175,2625.9763951112836,1482.4100000000001,1497.0,1318.3298,1499.9480000000001
5.2720630168914795,147,89.1175,2610.4380732467198,1488.98,1497.0,1319.76792,1499.9480000000001
5.296378135681152,146,89.1175,2594.899751382156,1490.95,1497.0,1321.20604,1499.944
5.3206751346588135,146,88.094,2579.3614295175921,1493.1199999999999,1497.0,1325.3142399999999,1499.944
5.345000982284546,146,88.0705,2563.8231076530283,1495.29,1497.0,1328.3220799999999,1499.944
5.369335174560547,147,88.0705,2548.2847857884644,1495.49,1497.0,1328.50172,1499.9480000000001
5.393634080886841,147,88.047,2518.9346222665108,1493.3199999999999,1497.0,1328.7434000000001,1499.9480000000001
5.418032169342041,147,87.047,2503.396300401947,1495.55,1497.0,1331.5968800000001,1499.9480000000001
5.44249415397644,147,88.047,2474.0461368799929,1497.78,1497.0,1327.7445600000001,1499.9480000000001
5.466825008392334,147,88.0705,2444.6959733580393,1500.01,1497.0,1324.93244,1499.9480000000001
5.491124153137207,147,88.0705,2444.6959733580393,1500.01,1497.0,1323.5085200000001,1499.9480000000001
5.515417098999023,147,88.0705,2444.6959733580393,1500.01,1497.0,1322.0188000000001,1499.9480000000001
5.539728164672852,147,89.094,2430.884131700649,1497.8399999999999,1497.0,1315.0270399999999,1499.9480000000001
5.564050197601318,147,89.094,2417.0722900432593,1495.6700000000001,1497.0,1313.45544,1499.9480000000001
5.588419198989868,148,90.1175,2403.2604483858695,1495.9300000000001,1497.0,1309.2795599999999,1499.952
5.61283016204834,148,90.1175,2389.4486067284793,1498.1600000000001,1497.0,1306.33188,1499.952
5.637148141860962,148,90.1175,2389.4486067284793,1500.3900000000001,1497.0,1303.41616,1499.952
5.661704063415527,148,90.094,2375.6367650710895,1502.6199999999999,1497.0,1304.78828,1499.952
5.6860411167144775,148,90.0705,2375.6367650710895,1504.8499999999999,1497.0,1304.8342399999999,1499.952
5.71037220954895,149,90.0705,2375.6367650710895,1505.1099999999999,1497.0,1307.6858400000001,1499.9559999999999
5.734701156616211,150,90.047,2361.8249234136993,1507.5999999999999,1497.0,1310.5994800000001,1499.96
5.75905704498291,150,90.047,2348.0130817563095,1509.8900000000001,1497.0,1313.4849200000001,1499.96
5.78341817855835,150,90.0235,2348.0130817563095,1512.1800000000001,1497.0,1314.9746400000001,1499.96
5.807759046554565,151,90.047,2348.0130817563095,1516.9000000000001,1497.0,1316.3083200000001,1499.9639999999999
5.8321850299835205,151,90.047,2335.6551181681184,1519.1900000000001,1497.0,1316.2782400000001,1499.9639999999999
5.856537103652954,152,91.047,2335.6551181681184,1519.51,1497.0,1313.5423599999999,1499.9680000000001
5.880886077880859,153,91.047,2323.2971545799273,1520,1497.0,1312.00648,1499.972
5.905054092407227,153,92.047,2323.2971545799273,1520,1497.0,1307.7967599999999,1499.972
5.929214000701904,154,92.0705,2323.2971545799273,1520,1497.0,1304.82276,1499.9760000000001
5.953453063964844,154,92.0705,2310.9391909917367,1520,1497.0,1301.8769600000001,1499.9760000000001
5.97776198387146,156,93.0705,2298.5812274035457,1520,1497.0,1299.12312,1499.9839999999999
6.0020751953125,156,93.0705,2286.2232638153546,1520,1497.0,1297.5692799999999,1499.9839999999999
6.026298999786377,157,94.0705,2262.7431329977917,1520,1497.0,1296.2074,1499.9880000000001
6.050532102584839,157,94.0705,2239.2630021802288,1520,1497.0,1296.07936,1499.9880000000001
6.074756145477295,157,94.047,2228.140834950857,1520,1497.0,1296.0133599999999,1499.9880000000001
6.099292039871216,158,94.047,2204.6607041332936,1520,1497.0,1297.35916,1499.992
6.123532056808472,159,93.0235,2204.6607041332936,1520,1497.0,1301.4069999999999,1499.9960000000001
6.147823095321655,159,93.0235,2192.3027405451026,1520,1497.0,1305.6666399999999,1499.9960000000001
6.172134160995483,160,93.047,2158.7596965200128,1520,1497.0,1309.8322800000001,1500.0
6.196314096450806,160,93.047,2137.5746160831136,1520,1497.0,1313.9603199999999,1500.0
6.220494031906128,160,93.047,2116.3895356462144,1520,1497.0,1316.7283600000001,1500.0
6.244672060012817,160,93.0705,2095.2044552093153,1520,1497.0,1316.5685599999999,1500.0
6.268918991088867,160,93.0705,2085.1415420017884,1520,1497.0,1315.0769600000001,1500.0
6.293199062347412,160,93.094,2075.078628794261,1515.1900000000001,1497.0,1313.5891200000001,1500.0
6.31748104095459,160,93.1175,2065.0157155867337,1508.6800000000001,1497.0,1312.0994000000001,1500.0
6.341944217681885,160,93.1175,2054.9528023792068,1504.3399999999999,1497.0,1310.63788,1500.0
6.366295099258423,160,93.1175,2024.619619026374,1502.1700000000001,1497.0,1310.6341199999999,1500.0
6.3905980587005615,159,93.1175,1994.2864356735415,1497.5699999999999,1497.0,1310.6303599999999,1499.9960000000001
6.414919137954712,159,93.1175,1985.1383327576077,1495.3399999999999,1497.0,1310.6604399999999,1499.9960000000001
6.439237117767334,159,93.094,1975.9902298416739,1493.1099999999999,1497.0,1310.81836,1499.9960000000001
6.463560104370117,158,93.094,1966.8421269257401,1488.45,1497.0,1310.9480799999999,1499.992
6.487950086593628,158,93.094,1957.6940240098061,1483.99,1497.0,1311.04584,1499.992
6.512371063232422,157,92.094,1957.6940240098061,1481.5,1497.0,1313.7836,1499.9880000000001
6.536647081375122,157,92.094,1957.6940240098061,1480,1497.0,1315.2894000000001,1499.9880000000001
6.560851097106934,157,93.094,1948.5459210938723,1480,1497.0,1314.05744,1499.9880000000001
6.585065126419067,156,93.094,1939.3978181779385,1480,1497.0,1314.02548,1499.9839999999999
6.609273195266724,156,93.094,1939.3978181779385,1480,1497.0,1313.99352,1499.9839999999999
6.633474111557007,156,93.0705,1939.3978181779385,1480,1497.0,1311.2236,1499.9839999999999
6.657793998718262,155,93.0705,1939.3978181779385,1480,1497.0,1308.4254800000001,1499.98
6.682126045227051,154,93.0705,1939.3978181779385,1480,1497.0,1308.4593199999999,1499.9760000000001
6.70637321472168,154,93.094,1939.3978181779385,1480,1497.0,1308.43112,1499.9760000000001
6.730627059936523,154,93.0705,1939.3978181779385,1480,1497.0,1308.49316,1499.9760000000001
6.754868030548096,153,93.0705,1930.2497152620047,1480,1497.0,1309.8212000000001,1499.972
6.779161214828491,153,92.0705,1930.2497152620047,1480,1497.0,1313.7892400000001,1499.972
6.803451061248779,151,91.047,1939.3978181779385,1480,1497.0,1317.89932,1499.9639999999999
6.827702045440674,152,91.047,1948.5459210938723,1480,1497.0,1320.847,1499.9680000000001
6.852009057998657,151,91.047,1948.5459210938723,1480,1497.0,1323.7288799999999,1499.9639999999999
6.876260995864868,151,90.047,1957.6940240098061,1480,1497.0,1329.2827199999999,1499.9639999999999
6.900508165359497,151,90.047,1957.6940240098061,1480,1497.0,1330.83656,1499.9639999999999
6.924753189086914,150,90.047,1957.6940240098061,1480,1497.0,1329.5246,1499.96
6.949026107788086,150,89.0705,1957.6940240098061,1480,1497.0,1330.75864,1499.96
6.973333120346069,150,89.0705,1957.6940240098061,1480,1497.0,1330.85284,1499.96
6.997547149658203,150,89.094,1957.6940240098061,1480,1497.0,1328.085,1499.96
7.02190899848938,150,89.094,1948.5459210938723,1481.98,1497.0,1326.7053599999999,1499.96
7.046260118484497,149,89.1175,1931.045202472086,1481.72,1497.0,1326.6556399999999,1499.9559999999999
7.070602178573608,149,90.141,1921.8970995561526,1483.8299999999999,1497.0,1321.1978799999999,1499.9559999999999
7.094901084899902,149,90.141,1921.8970995561526,1483.77,1497.0,1316.9683199999999,1499.9559999999999
7.119206190109253,149,90.141,1912.7489966402186,1483.71,1497.0,1314.1645599999999,1499.9559999999999
7.14350700378418,149,90.1175,1904.3963809343663,1483.6500000000001,1497.0,1311.42284,1499.9559999999999
7.168193101882935,149,90.1175,1896.0437652285138,1485.8199999999999,1497.0,1308.7187199999998,1499.9559999999999
7.192660093307495,151,90.094,1880.0345851256297,1492.8499999999999,1497.0,1310.2704799999999,1499.9639999999999
7.216978073120117,151,90.0705,1864.0254050227456,1499.48,1497.0,1311.85608,1499.9639999999999
7.241288185119629,152,91.0705,1848.0162249198615,1508.54,1497.0,1310.74152,1499.9680000000001
7.265631198883057,152,91.047,1832.0070448169777,1517.4000000000001,1497.0,1310.8232,1499.9680000000001
7.289914131164551,152,91.0235,1824.3504804199461,1520,1497.0,1310.9067600000001,1499.9680000000001
7.31411600112915,153,92.0235,1808.341300317062,1520,1497.0,1306.86436,1499.972
7.338443994522095,153,92.0235,1785.2880809689091,1520,1497.0,1303.95616,1499.972
7.362834215164185,154,92.0235,1762.234861620756,1520,1497.0,1303.8479600000001,1499.9760000000001
7.387037992477417,154,92.0235,1747.5342579784556,1520,1497.0,1303.7059200000001,1499.9760000000001
7.411326169967651,154,92.0235,1732.8336543361552,1518.5799999999999,1497.0,1303.4980800000001,1499.9760000000001
7.43564510345459,155,92.0235,1725.7896150908862,1518.9000000000001,1497.0,1306.1222,1499.98
7.459968090057373,155,91.0,1706.2228394095837,1519.02,1497.0,1311.4803199999999,1499.98
7.484277009963989,155,90.9765,1686.6560637282812,1516.9100000000001,1497.0,1314.3122800000001,1499.98
7.508653163909912,156,89.9765,1667.0892880469787,1517.23,1497.0,1319.788,1499.9839999999999
7.533044099807739,156,89.9765,1641.932005028161,1517.3499999999999,1497.0,1324.0956799999999,1499.9839999999999
7.557394981384277,157,90.0235,1606.7118088018165,1517.6700000000001,1497.0,1326.9192800000001,1499.9880000000001
7.5818681716918945,157,91.0705,1578.5356518207407,1517.79,1497.0,1324.1694,1499.9880000000001
7.6061320304870605,156,91.0705,1550.3594948396651,1517.6500000000001,1497.0,1322.6101200000001,1499.9839999999999
7.6303980350494385,156,91.1175,1517.6387964100288,1513.3099999999999,1497.0,1318.1267600000001,1499.9839999999999
7.6547181606292725,156,91.141,1484.9180979803925,1508.97,1497.0,1313.6377600000001,1499.9839999999999
7.679086208343506,156,91.1175,1452.1973995507562,1502.4000000000001,1497.0,1309.3706,1499.9839999999999
7.703467130661011,157,91.1175,1431.9994375571537,1498.26,1497.0,1309.3987999999999,1499.9880000000001
7.7278501987457275,157,91.094,1411.8014755635509,1498.3199999999999,1497.0,1309.521,1499.9880000000001
7.752251148223877,158,92.0705,1387.3430059619227,1502.98,1497.0,1308.52864,1499.992
7.776571989059448,158,92.0705,1368.4750436978097,1507.4400000000001,1497.0,1308.77388,1499.992
7.800904035568237,158,92.047,1359.6699946412234,1514.0699999999999,1497.0,1308.95144,1499.992
7.825218200683594,158,92.0235,1350.8649455846373,1516.3,1497.0,1307.73892,1499.992
7.84954309463501,157,92.0235,1338.0576015023303,1513.9300000000001,1497.0,1306.4324000000001,1499.9880000000001
7.873861074447632,157,92.0,1329.7947988685835,1507.3599999999999,1497.0,1307.8582000000001,1499.9880000000001
7.898226022720337,157,92.0,1321.5319962348372,1500.79,1497.0,1309.2238400000001,1499.9880000000001
7.922640085220337,157,93.0235,1313.2691936010906,1494.22,1497.0,1307.8535999999999,1499.9880000000001
7.946962118148804,157,94.047,1305.006390967344,1489.8199999999999,1497.0,1304.94372,1499.9880000000001
7.97130012512207,156,95.0705,1296.7435883335977,1487.3900000000001,1497.0,1300.59196,1499.9839999999999
7.995603084564209,156,96.0705,1288.9744274013158,1487.3299999999999,1497.0,1293.4345599999999,1499.9839999999999
8.019901037216187,155,95.0705,1284.9721323755948,1484.8399999999999,1497.0,1290.11716,1499.98
8.044197082519531,154,95.047,1280.9698373498738,1480.1199999999999,1497.0,1288.5595599999999,1499.9760000000001
8.06857705116272,154,94.0,1276.9675423241529,1480,1497.0,1292.6356000000001,1499.9760000000001
8.092849016189575,153,93.9765,1273.2006764175919,1480,1497.0,1298.3830800000001,1499.972
8.117067098617554,153,91.953,1265.8821940848452,1480,1497.0,1312.2763600000001,1499.972
8.141736030578613,152,91.953,1255.2094073495891,1480,1497.0,1320.9414400000001,1499.9680000000001
8.165971040725708,151,90.9765,1241.3636299633113,1480,1497.0,1330.7267199999999,1499.9639999999999
8.190191984176636,150,90.9765,1224.5118614339597,1480,1497.0,1335.0166400000001,1499.96
8.214410066604614,149,90.0,1204.8082551534872,1480,1497.0,1340.4267600000001,1499.9559999999999
8.238710165023804,150,90.0235,1186.1622689160106,1480,1497.0,1337.5772400000001,1499.96
8.26305103302002,150,89.0235,1163.7494167719731,1480,1497.0,1338.7559200000001,1499.96
8.287240028381348,149,88.0235,1138.7594770991786,1480,1497.0,1338.67236,1499.9559999999999
8.311568021774292,149,88.047,1111.3151683513777,1480,1497.0,1338.7506800000001,1499.9559999999999
8.335760116577148,149,88.0705,1087.6377255101374,1480,1497.0,1336.09292,1499.9559999999999
8.359975099563599,150,88.094,1065.1716867212399,1483.97,1497.0,1336.2190800000001,1499.96
8.384303092956543,150,90.094,1043.826113250728,1488.3099999999999,1497.0,1328.2934400000001,1499.96
8.408638000488281,149,91.0705,1025.6535304312381,1492.45,1497.0,1318.7178799999999,1499.9559999999999
8.433007001876831,149,92.0705,1010.4869387548218,1494.6199999999999,1497.0,1307.73992,1499.9559999999999
8.457334995269775,149,93.0705,998.17218482952649,1494.6199999999999,1497.0,1296.7157999999999,1499.9559999999999
8.481855154037476,149,94.0705,986.43211942074481,1492.3900000000001,1497.0,1284.2855199999999,1499.9559999999999
8.506187200546265,150,96.047,970.69543600046325,1492.5899999999999,1497.0,1274.79728,1499.96
8.530497074127197,150,97.0235,957.53584010893849,1494.8199999999999,1497.0,1269.1970799999999,1499.96
8.554787158966064,150,98.0,944.95719859952965,1497.05,1497.0,1264.95876,1499.96
