time,x,y,size_inv,roll,pitch,thrust,yaw
0.007133960723876953,168,147.6085,578.96212974813147,1501.8399999999999,1496.2953295838665,1250,1500.0
0.0358428955078125,170,148.6085,578.96212974813147,1502.54,1496.2953295838665,1250,1500.0
0.05788397789001465,170,149.632,579.76624381722604,1502.8399999999999,1496.2989480971776,1250,1500.0
0.07985997200012207,171,150.632,580.57035788632061,1503.3699999999999,1496.3025666104884,1250,1500.0
0.10176801681518555,172,150.632,581.37447195541529,1503.9300000000001,1496.3061851237994,1250,1500.0
0.12366700172424316,172,150.632,583.00535119414235,1504.29,1496.3135240803736,1250,1500.0
0.14585089683532715,173,150.632,584.63623043286952,1504.8800000000001,1496.3208630369479,1250,1500.0
0.16781306266784668,174,150.632,586.2671096715967,1505.5,1496.3282019935223,1250,1500.0
0.1898670196533203,175,150.632,588.74837594194582,1506.1500000000001,1496.3393676917387,1250,1500.0
0.21197199821472168,175,150.632,591.22964221229506,1506.5999999999999,1496.3505333899552,1250,1500.0
0.23418402671813965,175,149.632,595.48671669573719,1520,1497.6503758357271,1250,1500.0
0.25646305084228516,175,148.632,598.84301889717574,1520,1497.9214598290205,1250,1500.0
0.27878594398498535,175,148.491,602.29597931152318,1520,1498.2228382644519,1250,1500.0
0.3011460304260254,174,147.4675,605.74893972587074,1520,1498.5030529581654,1250,1500.0
0.3234548568725586,172,147.444,609.20190014021819,1511.0,1498.7621039101614,1250,1500.0
0.3458080291748047,171,146.4205,612.75575639177282,1495.3699999999999,1498.9217264891265,1250,1500.0
0.36817097663879395,170,146.397,616.30961264332757,1480,1499.0355130007138,1250,1500.0
0.3904688358306885,169,147.397,620.81924084132299,1480,1499.1306380843009,1250,1500.0
0.41283488273620605,169,147.397,625.46366232171999,1480,1499.2329627453205,1250,1500.0
0.4351198673248291,169,148.397,631.12405100095407,1480,1499.3769312823615,1250,1500.0
0.4573860168457031,171,149.397,635.00863146709503,1480,1499.5439269558378,1250,1500.0
0.4796788692474365,172,149.491,639.79398421523967,1480,1499.7459943779772,1250,1500.0
0.5019969940185547,173,150.5145,643.67856468138064,1501.5,1499.8935568593827,1250,1500.0
0.5243358612060547,174,150.538,648.61136527330564,1520,1500.0187438727182,1250,1500.0
0.5466320514678955,174,150.538,653.54416586523064,1520,1500.0558803954882,1250,1500.0
0.5689659118652344,174,150.538,656.50108532453191,1520,1500.0463738965184,1250,1500.0
0.5913200378417969,174,150.5145,659.4580047838333,1520,1499.9450695039857,1250,1500.0
0.6136269569396973,174,149.491,661.45915229669367,1520,1499.8017125810513,1250,1500.0
0.6359288692474365,173,149.4675,662.47511949553063,1520,1499.5277659715653,1250,1500.0
0.65824294090271,173,148.397,662.47511949553063,1515.3599999999999,1499.123091134546,1250,1500.0
0.6805698871612549,172,147.397,662.47511949553063,1504.1900000000001,1498.6575385439528,1250,1500.0
0.7028820514678955,171,146.397,663.52333962131468,1492.96,1498.1942949625854,1250,1500.0
0.7251949310302734,171,145.397,664.57155974709872,1484.0999999999999,1497.7589665482042,1250,1500.0
0.7475099563598633,172,144.397,664.57155974709872,1484.24,1497.4059471290846,1253.4118400000002,1500.0
0.7699258327484131,172,144.2325,665.65359342532747,1484.1800000000001,1497.2382418896216,1256.6943600000002,1500.0
0.7923898696899414,173,143.209,667.78384722934027,1490.95,1497.2278688386239,1259.6815200000001,1500.0
0.8148179054260254,173,142.1855,669.91410103335306,1501.9200000000001,1497.3072177779786,1261.3744800000002,1500.0
0.8372199535369873,174,141.1385,673.16186502963478,1515.3199999999999,1497.4861696509258,1263.1952799999999,1500.0
0.859839916229248,174,140.068,677.56438955792794,1520,1497.832872698081,1263.8177599999999,1500.0
0.8826520442962646,175,137.9975,680.81215355420977,1520,1498.2068902220367,1269.6170399999999,1500.0
0.9055569171905518,176,136.927,685.21467808250281,1520,1498.5903646759948,1274.2520400000001,1500.0
0.92830491065979,176,134.8095,688.56898248501182,1520,1498.9733826469947,1281.6868400000001,1500.0
0.951185941696167,177,130.645,691.92328688752082,1520,1499.2936105140664,1296.00332,1500.0
0.9844779968261719,177,128.645,695.27759129002993,1520,1499.4503160415159,1308.9649999999999,1500.0
1.0073130130767822,177,126.41,697.54986201431018,1520,1499.5079157097116,1319.8534,1500.0
1.030045986175537,177,124.316,699.82213273859054,1520,1499.4334396420588,1331.9825199999998,1500.0
1.052778959274292,178,120.222,702.09440346287079,1520,1499.2897810461041,1347.86996,1500.0
1.0754990577697754,178,118.128,703.24916399488211,1520,1499.0719111259823,1350,1500.0
1.0981619358062744,179,116.034,703.24916399488211,1520,1498.7796622551648,1350,1500.0
1.1209259033203125,179,113.9635,704.40392452689343,1520,1498.4883492991335,1350,1500.0
1.143678903579712,179,111.8695,704.40392452689343,1520,1498.1875794130997,1350,1500.0
1.1664519309997559,179,109.799,704.40392452689343,1520,1497.8511024156846,1350,1500.0
1.1892359256744385,179,108.752,704.40392452689343,1520,1497.5459689184243,1350,1500.0
1.212026834487915,179,107.705,704.40392452689343,1520,1497.3414645532389,1350,1500.0
1.2347090244293213,179,105.6345,703.24916399488211,1518.1800000000001,1497.0960034395071,1350,1500.0
1.2574050426483154,179,104.6345,702.09440346287079,1513.8399999999999,1496.8840676315433,1350,1500.0
1.2801179885864258,180,102.6345,700.93964293085958,1514.0999999999999,1496.7056571293474,1349.4793199999999,1500.0
1.302846908569336,180,101.6345,699.78488239884825,1514.1600000000001,1496.5272466271517,1348.17716,1500.0
1.325571060180664,180,100.6345,699.78488239884825,1516.3900000000001,1496.35403254735,1348.2312400000001,1500.0
1.3482959270477295,180,99.6345,699.78488239884825,1518.6199999999999,1496.2847469154294,1346.7438,1500.0
1.3711130619049072,180,97.6345,699.78488239884825,1520,1496.2847469154294,1349.3842,1500.0
1.393799066543579,180,95.6345,699.78488239884825,1518.6800000000001,1496.35403254735,1350,1500.0
1.4165139198303223,180,93.141,700.9787873556736,1516.51,1496.5337935322018,1350,1500.0
1.4393248558044434,180,92.094,702.17269231249884,1514.3399999999999,1496.7493716657584,1350,1500.0
1.4621469974517822,179,92.0705,705.75643189460288,1509.74,1497.0485734266315,1350,1500.0
1.4848768711090088,180,91.0235,709.34017147670693,1507.77,1497.4206445590075,1350,1500.0
1.5076169967651367,180,90.0,712.92391105881097,1507.77,1497.8655850628861,1350,1500.0
1.5303268432617188,181,89.9765,716.50765064091502,1510.2,1498.3117606408582,1350,1500.0
1.5530478954315186,182,88.953,717.70155559774025,1514.8599999999999,1498.7113648143115,1350,1500.0
1.5757808685302734,182,88.9295,718.8954605545656,1520,1498.9317617615436,1346.8751199999999,1500.0
1.5985069274902344,183,88.9295,720.08936551139084,1520,1498.972951482554,1340.8995199999999,1500.0
1.6213178634643555,184,88.906,721.28327046821619,1520,1498.8349339773431,1334.84016,1500.0
1.6440229415893555,185,88.8355,720.08936551139084,1520,1498.4711469525944,1332.2640799999999,1500.0
1.6667358875274658,185,87.765,720.08936551139084,1520,1498.0769153514466,1330.9876400000001,1500.0
1.6894519329071045,186,86.765,718.85429141812335,1520,1497.6759515841347,1331.0327600000001,1500.0
1.7121570110321045,185,84.765,717.61921732485587,1520,1497.2738134840786,1336.5817999999999,1500.0
1.7348730564117432,185,84.577,716.38414323158838,1520,1496.8705010512779,1341.55332,1500.0
1.7575750350952148,186,83.53,715.1490691383209,1520,1496.6092828805517,1348.89788,1500.0
1.780277967453003,186,83.5065,715.1490691383209,1520,1496.38943969195,1350,1500.0
1.8029448986053467,186,83.483,716.38414323158838,1520,1496.322128153867,1350,1500.0
1.8263609409332275,185,83.483,717.61921732485587,1519.1900000000001,1496.4017904328828,1350,1500.0
1.851388931274414,185,83.4595,718.85429141812335,1517.02,1496.6284265289974,1347.18552,1500.0
1.8764228820800781,185,84.483,721.28327046821619,1512.6199999999999,1496.9715918658117,1337.36952,1500.0
1.901425838470459,185,85.53,722.51834456148367,1508.22,1497.3464368531183,1327.4077199999999,1500.0
1.926419973373413,184,86.624,723.75341865475116,1503.5599999999999,1497.647177394829,1317.1083599999999,1500.0
1.9514248371124268,183,87.6475,724.98849274801864,1498.9000000000001,1497.8738134909436,1308.13976,1500.0
1.9767298698425293,183,88.671,726.22356684128613,1494.4400000000001,1498.0263451414621,1297.8872000000001,1500.0
2.001786947250366,183,87.624,727.45864093455361,1492.1500000000001,1498.0331380489752,1295.9166400000001,1500.0
2.0267858505249023,183,85.577,729.97212505418565,1489.8599999999999,1498.0469838795996,1301.0573200000001,1500.0
2.0517890453338623,183,84.483,729.97212505418565,1491.97,1498.0124668088879,1309.7249199999999,1500.0
2.076798915863037,182,83.436,729.97212505418565,1493.8800000000001,1497.9408975153779,1322.7095999999999,1500.0
2.1017909049987793,180,84.483,729.97212505418565,1491.1300000000001,1497.8322759990701,1334.5715599999999,1500.0
2.1268069744110107,178,86.577,729.97212505418565,1483.9200000000001,1497.7224194086689,1337.8381999999999,1500.0
2.15179705619812,177,88.718,731.25053508055021,1480,1497.5429111397973,1330.80988,1500.0
2.1766889095306396,176,90.7885,732.52894510691488,1480,1497.4388073945149,1316.3335999999999,1500.0
2.201645851135254,175,91.8355,733.80735513327943,1480,1497.4101081728213,1297.2542800000001,1500.0
2.2265920639038086,173,93.859,736.40983268695027,1480,1497.5024938044089,1275.62896,1500.0
2.2514989376068115,171,93.8825,739.0123102406211,1480,1497.7100059854045,1263.6569200000001,1500.0
2.2764580249786377,170,94.906,740.33637776792727,1480,1497.9501872691076,1257.7897600000001,1500.0
2.301400899887085,169,93.8825,744.31107075898819,1480,1498.2448325555479,1263.1380800000002,1500.0
2.326335906982422,167,92.812,748.285763750049,1480,1498.5820140301378,1274.43984,1500.0
2.35127592086792,163,92.7885,750.88824130371984,1480,1498.8349462086494,1288.7609199999999,1500.0
2.3761699199676514,161,91.7415,753.49071885739068,1480,1499.009804060551,1303.03584,1500.0
2.401080846786499,160,89.624,756.18700182208693,1480,1499.2248807748956,1321.5986,1500.0
2.4259698390960693,160,87.53,758.88328478678318,1480,1499.3207166995085,1337.46684,1500.0
2.450885057449341,159,86.4595,760.20735231408946,1480,1499.2499704017994,1349.2270799999999,1500.0
2.47579288482666,161,85.4125,760.20735231408946,1480,1499.0951914736074,1350,1500.0
2.5005898475646973,163,85.436,758.88328478678318,1480,1498.8166578891132,1350,1500.0
2.5254130363464355,165,86.483,757.55921725947701,1480,1498.3763473267372,1350,1500.0
2.550266981124878,167,88.577,753.58452426841609,1510.98,1497.7623319718928,1349.2122400000001,1500.0
2.575247049331665,169,91.6475,749.60983127735528,1520,1497.0688725654097,1329.41752,1500.0
2.6001858711242676,170,91.6945,745.77227963041696,1520,1496.3389780721773,1310.28368,1500.0
2.62514591217041,169,92.6945,741.93472798347864,1520,1495.651475407785,1290.0559599999999,1500.0
2.650106906890869,168,92.671,735.53105594232511,1520,1494.9206475809635,1276.9016799999999,1500.0
2.6750588417053223,168,91.6005,727.97262336916026,1520,1494.2772404229577,1275.2563600000001,1500.0
2.700011968612671,165,90.5535,721.78640623338538,1520,1493.7326253256297,1285.1438000000001,1500.0
2.724977970123291,164,90.53,715.60018909761061,1502.8399999999999,1493.2326768130447,1295.3924,1500.0
2.7500078678131104,162,92.577,711.89280002115322,1480,1492.8231924274298,1302.97676,1500.0
2.7749710083007812,160,94.7415,707.03065041268451,1480,1492.6071454278172,1305.8135199999999,1500.0
2.799962043762207,158,101.1175,704.60167136259179,1480,1492.6634434888724,1288.5698,1500.0
2.824970006942749,161,109.282,705.88008138895634,1480,1493.0267093399771,1250.3155200000001,1500.0
2.849936008453369,163,111.3995,708.39356550858849,1480,1493.7269840268291,1250,1500.0
2.874811887741089,164,113.47,712.23111715552682,1480,1494.6556603621411,1250,1500.0
2.8996520042419434,164,114.564,715.93850623198409,1481.8699999999999,1495.7945914534534,1250,1500.0
2.924654006958008,163,117.658,720.80065584045281,1514.52,1497.0035692212246,1250,1500.0
2.9495890140533447,163,117.658,725.6628054489214,1520,1498.0961203615943,1250,1500.0
2.97442889213562,163,117.6345,731.84902258469629,1520,1499.0438207586594,1250,1500.0
2.999258041381836,164,116.611,735.55641166115367,1520,1499.7501133306409,1250,1500.0
3.024435043334961,164,116.564,741.74262879692856,1517.01,1500.2848393101212,1250,1500.0
3.0494680404663086,163,113.517,745.45001787338583,1505.96,1500.5550338876176,1255.9898800000001,1500.0
3.074570894241333,162,111.3995,745.45001787338583,1499.1900000000001,1500.5551685385526,1278.9344799999999,1500.0
3.0996358394622803,162,109.282,745.45001787338583,1496.96,1500.25953468493,1301.9826800000001,1500.0
3.1247189044952393,163,107.1645,742.84754031971511,1494.9300000000001,1499.7667985605265,1322.3984,1500.0
3.149777889251709,163,106.141,741.56913029335044,1492.7,1498.9817170833521,1341.35572,1500.0
3.1748428344726562,166,108.2115,736.70698068488184,1499.99,1497.9580654334709,1340.8792799999999,1500.0
3.199903964996338,168,112.4935,731.84483107641313,1515.9400000000001,1496.9344137835897,1325.6539600000001,1500.0
3.224976062774658,170,117.7285,725.65861394063836,1520,1495.9048038298356,1295.8496,1500.0
3.249945878982544,173,123.0105,721.95122486418097,1520,1495.0424972555686,1253.84572,1500.0
3.274909019470215,176,124.0575,720.62715733687469,1520,1494.413484718109,1250,1500.0
3.2997498512268066,176,123.0105,721.95122486418097,1520,1494.2390614630158,1250,1500.0
3.3246009349823,176,120.8225,723.27529239148714,1520,1494.3960892102502,1250,1500.0
3.349431037902832,175,117.705,724.59935991879343,1520,1494.96401201145,1250,1500.0
3.374295949935913,173,114.611,728.57405290985423,1520,1495.807472434946,1250,1500.0
3.399163007736206,169,112.5875,731.17653046352507,1520,1496.7639239664313,1273.3964799999999,1500.0
3.4241559505462646,168,112.5875,737.36274759929995,1500.9200000000001,1497.6967803002169,1308.53224,1500.0
3.4492478370666504,167,111.611,742.22489720776855,1480,1498.5442342784913,1334.2960399999999,1500.0
3.474238872528076,167,111.564,747.08704681623726,1480,1499.2725221793082,1343.1635200000001,1500.0
3.499215841293335,167,109.47,750.79443589269454,1480,1499.7571320782672,1341.6560400000001,1500.0
3.524327039718628,166,108.47,752.11850342000082,1480,1500.0748683770348,1333.18604,1500.0
3.5494160652160645,165,108.47,752.11850342000082,1480,1500.0551953696022,1324.9399599999999,1500.0
3.5743470191955566,164,106.3055,753.4907188573909,1480,1499.8308568440707,1322.6496400000001,1500.0
3.5993168354034424,162,105.188,753.4907188573909,1480,1499.3483363983821,1324.82032,1500.0
3.624290943145752,158,100.047,752.11850342000082,1480,1498.7152719652477,1337.5668800000001,1500.0
3.6492769718170166,156,97.8355,752.11850342000082,1480,1498.0870127765534,1349.9345599999999,1500.0
3.6742758750915527,155,94.6945,752.11850342000082,1480,1497.6443401019324,1350,1500.0
3.6991958618164062,154,92.6005,753.44257094730699,1480,1497.3108793190142,1350,1500.0
3.724151849746704,154,91.624,754.76663847461327,1480,1497.1630050501692,1350,1500.0
3.749191999435425,154,93.671,754.76663847461327,1480,1497.2027270759884,1350,1500.0
3.7742419242858887,154,95.8355,753.44257094730699,1480,1497.2364907979347,1350,1500.0
3.7991418838500977,155,97.953,752.11850342000082,1480,1497.2305324940617,1348.7673199999999,1500.0
3.824131965637207,156,101.094,750.74628798261074,1480,1497.1449134729551,1314.12868,1500.0
3.8491249084472656,159,103.141,750.74628798261074,1500.6500000000001,1496.9860253696784,1276.64076,1500.0
3.8741860389709473,161,103.141,750.74628798261074,1520,1496.78597080328,1254.3326,1500.0
3.899294853210449,163,102.1175,749.42222045530457,1520,1496.6196799588276,1250,1500.0
3.9242348670959473,165,101.094,748.09815292799829,1520,1496.4931111401947,1250,1500.0
3.949143886566162,166,100.047,746.77408540069212,1520,1496.4488752478053,1259.24668,1500.0
3.9741370677948,169,99.0235,744.17160784702128,1520,1496.3605342095061,1282.0672,1500.0
3.9990768432617188,170,97.9765,744.17160784702128,1520,1496.2839043201984,1303.63968,1500.0
4.0240318775177,170,97.9765,744.17160784702128,1520,1496.2469964567101,1318.14624,1500.0
4.048969984054565,171,99.0,742.89319782065672,1520,1496.2057054731313,1324.20516,1500.0
4.073920965194702,172,100.094,740.29072026698589,1520,1496.1186594475862,1321.40076,1500.0
4.09919285774231,175,104.1645,737.68824271331505,1520,1496.1096877486511,1303.51332,1500.0
4.124345064163208,177,106.329,735.08576515964421,1520,1496.0226417231061,1281.8646000000001,1500.0
4.149535894393921,179,108.423,735.08576515964421,1520,1495.9075848207331,1258.6770799999999,1500.0
4.174499988555908,181,110.517,735.08576515964421,1520,1495.829510494123,1250,1500.0
4.199352025985718,182,113.611,736.40983268695049,1520,1495.9135431246059,1250,1500.0
4.224248886108398,183,113.6345,737.68824271331505,1520,1496.1137969237359,1250,1500.0
4.249089956283569,183,113.5875,739.01231024062122,1520,1496.5101268606593,1250,1500.0
4.273931980133057,184,111.47,739.01231024062122,1520,1496.9004984937098,1250,1500.0
4.2987730503082275,184,110.3995,740.29072026698589,1520,1497.2966229718793,1250,1500.0
4.323668003082275,185,108.329,739.0556461737184,1520,1497.4868661704636,1265.8602000000001,1500.0
4.348562002182007,186,108.282,739.0556461737184,1520,1497.5278882742757,1286.5034000000001,1500.0
4.373561859130859,186,108.2585,736.62666712362557,1520,1497.3275922226112,1304.07692,1500.0
4.398437976837158,186,108.235,732.91927804716829,1520,1497.0103216535342,1312.90744,1500.0
4.4234960079193115,186,107.235,728.05712843869958,1520,1496.4652855722272,1318.50452,1500.0
4.448412895202637,185,107.235,721.8709113029247,1520,1495.8425311443893,1312.89636,1500.0
4.4734368324279785,185,107.235,717.0087616944561,1520,1495.1182228329615,1307.12464,1500.0
4.498340845108032,184,107.235,711.97730509069265,1514.53,1494.4276697107664,1301.35104,1500.0
4.523517847061157,183,107.2585,708.26991601423526,1503.3,1493.8542965647378,1298.3294000000001,1500.0
4.548517942428589,182,107.2585,706.9915059878706,1489.8399999999999,1493.5835828009428,1293.9918399999999,1500.0
4.5736329555511475,182,106.235,708.22658008113808,1483.1500000000001,1493.6953527438327,1295.1722,1500.0
4.598608016967773,181,105.1645,709.50499010750275,1480,1494.1373989757208,1298.0144,1500.0
4.623628854751587,180,104.1175,713.21237918396014,1480,1494.9306153103507,1302.3680400000001,1500.0
4.648555040359497,179,102.047,716.91976826041741,1480,1495.9462749895683,1311.02916,1500.0
4.673692941665649,176,101.0,720.50350784252146,1480,1496.9997305468521,1321.3297600000001,1500.0
4.6985979080200195,175,100.9765,724.0872474246255,1480,1497.9010073319298,1327.5701999999999,1500.0
4.723646879196167,173,101.0,725.24200795663683,1480,1498.6034274374065,1330.723,1500.0
4.748553037643433,172,102.047,725.24200795663683,1480,1498.9272640777888,1328.20832,1500.0
4.773637056350708,172,102.094,724.0872474246255,1480,1498.8775964629356,1320.9965999999999,1500.0
4.798588037490845,172,104.141,720.50350784252146,1480,1498.4561095791764,1305.5056,1500.0
4.82363486289978,172,105.188,716.91976826041741,1480,1497.7491383558263,1291.0330799999999,1500.0
4.8485729694366455,172,106.282,712.05761865194881,1480,1496.8596164679734,1276.45048,1500.0
4.873625040054321,172,107.329,707.19546904348022,1480,1495.9354517641602,1264.7721200000001,1500.0
4.898545026779175,170,109.3525,702.3333194350115,1483.78,1495.0459298763076,1251.9556,1500.0
4.9237060546875,169,109.376,698.74957985290746,1485.5699999999999,1494.3771852084997,1250,1500.0
4.9486000537872314,168,110.3525,696.32060080281474,1482.96,1493.9633041539723,1250,1500.0
4.973614931106567,167,109.329,697.51450575963997,1480,1493.9279150186494,1250,1500.0
4.998640060424805,166,108.282,698.70841071646532,1480,1494.2200720085395,1256.8713600000001,1500.0
5.024028062820435,164,107.188,702.29215029856937,1480,1494.8875816022542,1271.1726000000001,1500.0
5.049113035202026,164,106.141,705.87588988067341,1480,1495.7701155708949,1284.2069999999999,1500.0
5.074142932891846,163,104.0705,710.73803948914201,1480,1496.842493428451,1302.7614000000001,1500.0
5.099112033843994,162,104.0235,714.32177907124606,1480,1497.7991318426878,1314.6016400000001,1500.0
5.124115943908691,163,101.953,717.9055186533501,1480,1498.6457836587244,1327.4960799999999,1500.0
5.14910888671875,163,100.9295,720.25418414218666,1480,1499.1964487428259,1334.7927999999999,1500.0
5.174353837966919,163,100.8825,722.60284963102322,1480,1499.4950372292033,1338.0218400000001,1500.0
5.199368000030518,163,100.8825,722.60284963102322,1480,1499.4184583728697,1334.0690400000001,1500.0
5.224401950836182,163,100.8825,721.40894467419798,1492.8199999999999,1499.1214825693044,1331.3766000000001,1500.0
5.249475955963135,163,101.9295,720.21503971737263,1499.3299999999999,1498.6094823908129,1321.5466000000001,1500.0
5.27453088760376,163,102.953,717.78606066727991,1501.5,1497.9856472655317,1308.893,1500.0
5.299599885940552,162,102.953,715.35708161718708,1501.24,1497.2555350268808,1298.75992,1500.0
5.324667930603027,161,102.953,710.49493200871848,1496.5799999999999,1496.514473520717,1291.44272,1500.0
5.349746942520142,159,103.953,708.06595295862576,1485.0899999999999,1495.8906383954359,1281.54944,1500.0
5.37481689453125,158,103.953,705.63697390853292,1480,1495.3730803835247,1278.60364,1500.0
5.399751901626587,157,103.953,704.44306895170769,1480,1495.041461763999,1279.9156,1500.0
5.42472505569458,156,102.953,702.09440346287113,1480,1494.8503854650849,1283.93148,1500.0
5.449676990509033,154,102.953,700.9396429308598,1480,1494.9217678990242,1286.7473600000001,1500.0
5.474653005599976,151,103.953,698.66737220657956,1480,1495.0298750096706,1289.72324,1500.0
5.499596834182739,151,103.953,696.3951014822992,1480,1495.1797355928895,1292.4752000000001,1500.0
5.52454686164856,151,103.9765,694.12283075801884,1480,1495.2601929802868,1293.77316,1500.0
5.549486875534058,152,103.9765,692.96807022600763,1480,1495.3790869054162,1292.2993200000001,1500.0
5.5744569301605225,152,103.953,692.96807022600763,1480,1495.4265983966066,1290.88752,1500.0
5.599462032318115,153,102.9295,691.8133096939963,1480,1495.4977375213964,1293.5895599999999,1500.0
5.624430894851685,153,102.9295,691.8133096939963,1480,1495.6375399405342,1295.0634,1500.0
5.649390935897827,153,102.9295,691.8133096939963,1496.3800000000001,1495.8778614544242,1296.60304,1500.0
5.674447059631348,153,102.9295,692.96807022600763,1507.29,1496.1568478739243,1299.5026800000001,1500.0
5.6995110511779785,154,101.9295,695.31673571484419,1516.29,1496.4770240144346,1304.9765199999999,1500.0
5.724588871002197,154,101.9295,698.78291139594967,1514.1800000000001,1496.9073317314358,1305.0245600000001,1500.0
5.749632835388184,154,101.9295,702.24908707705515,1512.0699999999999,1497.3734565971415,1305.0726,1500.0
5.774682998657227,155,101.906,705.71526275816063,1512.3900000000001,1497.8753986115521,1305.1507200000001,1500.0
5.799753904342651,156,101.906,709.29900234026468,1517.1099999999999,1498.3814534030994,1305.20064,1500.0
5.824872970581055,157,100.8825,711.64766782910124,1519.6600000000001,1498.8114903965618,1305.1845599999999,1500.0
5.850064039230347,157,99.8355,713.9963333179378,1520,1499.0693739978624,1308.0963200000001,1500.0
5.875226020812988,157,99.812,713.9963333179378,1520,1499.1087180635973,1309.8137200000001,1500.0
5.900184869766235,157,98.7885,715.19023827476315,1520,1498.9812813094761,1314.1391599999999,1500.0
5.9251708984375,158,98.7885,715.19023827476315,1520,1498.6680904240834,1317.2364,1500.0
5.950173854827881,158,98.765,713.9963333179378,1520,1498.243249853015,1318.8898799999999,1500.0
5.975131988525391,158,97.765,712.80242836111256,1518.4100000000001,1497.7456574743449,1320.2235599999999,1500.0
6.000166893005371,158,97.7415,711.60852340428733,1514.1300000000001,1497.3162332174031,1320.35348,1500.0
6.0252580642700195,157,97.718,710.41461844746198,1509.5899999999999,1496.8833427847803,1317.6833999999999,1500.0
6.050288915634155,156,96.6945,707.98563939736925,1500.5899999999999,1496.4795373346981,1317.6871599999999,1500.0
6.07527494430542,156,95.671,707.98563939736925,1493.96,1496.2287565524159,1320.49092,1500.0
6.100251913070679,156,95.671,707.98563939736925,1487.3299999999999,1496.1200700322086,1320.6904,1500.0
6.125396966934204,155,95.6945,709.17954435419449,1480,1496.1242075304208,1320.7939999999999,1500.0
6.150465965270996,155,95.718,709.17954435419449,1480,1496.230423902442,1322.18992,1500.0
6.179255962371826,155,96.7415,710.37344931101984,1480,1496.5235687384788,1318.0462,1500.0
6.204396963119507,155,96.7415,711.56735426784508,1480,1496.8167135745159,1312.29684,1500.0
6.229104042053223,155,96.7415,713.9963333179378,1480.1400000000001,1497.1524684667706,1307.9074800000001,1500.0
6.253912925720215,156,95.7415,717.70372239439519,1489.0799999999999,1497.4977464303236,1306.2558799999999,1500.0
6.278645992279053,157,94.6945,721.41111147085257,1498.0799999999999,1497.9184289174655,1306.26612,1500.0
6.303472995758057,156,93.6005,725.11850054730996,1502.28,1498.3058294079888,1312.16588,1500.0
6.32817006111145,157,92.5535,727.631984666942,1509.1099999999999,1498.6916275523856,1320.90888,1500.0
6.353024005889893,157,92.53,731.46953631388033,1515.74,1499.0527718070582,1328.4575199999999,1500.0
6.377827882766724,157,92.53,735.30708796081865,1515.8,1499.3424164152559,1333.146,1500.0
6.402521848678589,157,93.577,739.14463960775697,1511.46,1499.5247442282746,1332.1068399999999,1500.0
6.42725396156311,157,94.624,742.98219125469518,1511.52,1499.6355723948188,1325.10484,1500.0
6.4519829750061035,158,95.671,746.8197429016335,1509.6099999999999,1499.7465352122977,1313.66356,1500.0
6.476701974868774,158,95.671,750.79443589269431,1507.5,1499.8199722282436,1303.4128800000001,1500.0
6.501500844955444,157,94.6475,753.49071885739056,1505.1300000000001,1499.8495134614893,1297.22424,1500.0
6.52661395072937,157,93.624,756.18700182208681,1505.1300000000001,1499.8409117571532,1296.8649600000001,1500.0
6.551599025726318,156,92.5535,758.88328478678318,1500.53,1499.7941671152353,1302.52304,1500.0
6.576310873031616,154,92.5535,761.57956775147943,1489.04,1499.6734623870311,1311.2520400000001,1500.0
6.601043939590454,153,92.6005,762.95178318886951,1480,1499.4646107880203,1319.8889200000001,1500.0
6.625885963439941,151,95.6475,765.74703685762699,1480,1499.2993700426396,1317.6723200000001,1500.0
6.651214838027954,150,96.718,768.54229052638448,1480,1499.1713364788479,1311.9962800000001,1500.0
6.676030874252319,150,97.812,772.81428198241008,1480,1499.1314575503063,1300.2953600000001,1500.0
6.7006988525390625,149,99.8825,777.08627343843568,1480,1499.1730879369718,1283.0172,1500.0
6.725409030914307,150,100.9295,779.98604945707132,1480,1499.3324444982163,1265.5911599999999,1500.0
6.7502360343933105,150,101.953,782.88582547570684,1480,1499.4919676088355,1256.6430399999999,1500.0
6.7749269008636475,151,101.9295,785.78560149434247,1480,1499.6516572688292,1253.3745200000001,1500.0
6.799653053283691,151,101.8825,790.21891290744884,1480.0699999999999,1499.7758161820705,1254.7209600000001,1500.0
6.824467897415161,151,100.859,793.11868892608436,1495.3800000000001,1499.8046364681752,1264.51044,1500.0
6.849395990371704,151,99.812,796.01846494471988,1504.1199999999999,1499.7876299368424,1278.7034799999999,1500.0
6.874215841293335,149,99.812,799.02873812645873,1503.6600000000001,1499.7712998871405,1290.3620000000001,1500.0
6.899010896682739,149,99.812,802.03901130819759,1497.03,1499.7551490818353,1300.49884,1500.0
6.923811912536621,148,100.859,803.57254670266832,1487.97,1499.6405200772158,1306.25216,1500.0
6.9485039710998535,148,100.9295,805.10608209713905,1480,1499.5260703169931,1307.39408,1500.0
6.973288059234619,146,101.953,808.23329152900089,1480,1499.4256150923354,1301.56304,1500.0
6.997920989990234,145,100.953,811.36050096086274,1480,1499.3253530402883,1298.2082399999999,1500.0
7.022754907608032,144,99.8355,816.14513139161147,1480,1499.2824651853134,1296.6356000000001,1500.0
7.047384977340698,143,96.765,817.73880542900258,1480,1499.3140154664152,1304.8235999999999,1500.0
7.072077989578247,143,94.671,824.24850669532736,1480,1499.5579600649276,1316.44452,1500.0
7.096717834472656,143,92.6475,829.03313712607599,1480,1499.8370414722499,1335.1844000000001,1500.0
7.121312856674194,143,92.6475,832.28423216235387,1480,1500.1094304509256,1348.6960799999999,1500.0
7.146352052688599,144,92.6475,835.53532719863176,1480,1500.2825826502972,1350,1500.0
7.171283960342407,145,92.718,840.51149307048581,1480,1500.5631682641749,1350,1500.0
7.196135997772217,146,93.7415,843.7625881067637,1492.46,1500.5889478962356,1350,1500.0
7.220855951309204,147,92.718,847.14507994122653,1508.0899999999999,1500.5235320260331,1339.32392,1500.0
7.245584964752197,147,92.718,848.8025009401133,1520,1500.398826547816,1327.9269199999999,1500.0
7.270230054855347,146,91.6475,848.8025009401133,1520,1500.2151358858498,1320.8758399999999,1500.0
7.294867992401123,146,90.6005,850.4599219390002,1520,1499.8378665171558,1319.67752,1500.0
7.319633960723877,145,89.53,848.73485110342403,1514.5599999999999,1499.3938491459523,1325.7625599999999,1500.0
7.344507932662964,146,86.483,850.4599219390002,1503.8499999999999,1498.9576989401912,1338.49324,1500.0
7.369714975357056,147,86.436,850.4599219390002,1495.3699999999999,1498.5118735068249,1347.6916000000001,1500.0
7.39556097984314,148,86.436,850.4599219390002,1495.6900000000001,1498.1635809245472,1350,1500.0
7.420331954956055,150,86.483,847.07743010453737,1502.8399999999999,1497.7484320902029,1350,1500.0
7.444654941558838,150,88.5535,843.82633506825948,1516.1600000000001,1497.4373787915847,1350,1500.0
7.469053030014038,150,90.624,840.44384323379677,1520,1497.0222299572404,1333.09584,1500.0
7.493470907211304,150,91.6945,838.78642223490988,1520,1496.6148439416561,1315.6954800000001,1500.0
7.517660856246948,150,92.765,837.12900123602299,1520,1496.1577352961051,1298.20948,1500.0
7.541790008544922,150,93.765,833.8779061997451,1520,1495.848594406332,1280.9236000000001,1500.0
7.565985918045044,150,93.7885,830.62681116346721,1514.53,1495.5852342425799,1272.0289600000001,1500.0
7.590292930603027,149,92.765,827.24431932900438,1503.4200000000001,1495.4745096733373,1275.8058800000001,1500.0
7.614626884460449,149,91.6945,825.58689833011761,1494.6800000000001,1495.4212705528212,1284.2420400000001,1500.0
7.6390979290008545,149,90.6475,820.80226789936899,1488.1099999999999,1495.3098653368725,1297.15508,1500.0
7.66363000869751,149,90.6005,819.20859386197776,1485.8800000000001,1495.258600150715,1311.6718800000001,1500.0
7.687953948974609,150,89.6005,817.67505846750703,1486.0799999999999,1495.2591323777049,1326.0222000000001,1500.0
7.71226692199707,151,90.624,814.54784903564519,1492.9100000000001,1495.2601515436045,1330.7888,1500.0
7.736572027206421,152,92.671,809.94390181651511,1501.97,1495.166129602854,1326.92624,1500.0
7.7608819007873535,151,92.7415,806.81669238465327,1508.4000000000001,1495.2222918950688,1320.9464800000001,1500.0
7.7852089405059814,150,93.765,805.28315699018253,1512.5999999999999,1495.2377072497729,1310.8576800000001,1500.0
7.809700965881348,149,94.812,802.27288380844379,1510.1700000000001,1495.1506483615619,1296.40104,1500.0
7.834238052368164,147,94.812,799.14567437658184,1496.51,1495.0554047881474,1287.45856,1500.0
7.858603000640869,145,93.812,796.01846494471999,1480,1495.0928591349582,1288.34356,1500.0
7.883196830749512,145,93.7885,796.01846494471999,1480,1495.1884795772016,1289.71192,1500.0
7.907433986663818,145,93.765,793.00819176298114,1480,1495.2244474972217,1294.04384,1500.0
7.9316630363464355,145,93.7415,791.53145397571302,1480,1495.357624521969,1302.7012,1500.0
7.955916881561279,145,93.7415,790.0547161884449,1480,1495.540315696054,1309.9384,1500.0
7.980254888534546,145,92.7415,788.6316779570775,1480,1495.7300715205374,1314.2316799999999,1500.0
8.004551887512207,145,93.7415,784.3596865010519,1480,1495.6850310288733,1314.5232799999999,1500.0
8.028930902481079,144,94.7885,780.08769504502629,1480,1495.6464411225986,1311.79304,1500.0
8.053369998931885,144,95.8355,777.2924413762687,1483.5,1495.5289349980878,1306.0654,1500.0
8.077682971954346,143,96.9295,773.0204499202431,1483.1800000000001,1495.2714117941337,1298.7059999999999,1500.0
8.102010011672974,142,97.9765,770.12067390160757,1480,1494.9246362900151,1288.45532,1500.0
8.126245975494385,141,99.0,767.22089788297194,1480,1494.7471869926987,1279.59096,1500.0
8.150441884994507,141,100.0235,765.79785965160454,1480,1494.6997031603937,1272.21632,1500.0
8.17462706565857,141,100.047,764.37482142023714,1480,1494.732941267655,1268.9713999999999,1500.0
8.199275970458984,141,100.047,764.37482142023714,1480,1494.9846004007009,1268.8178800000001,1500.0
8.223753929138184,141,100.0235,765.79785965160454,1480,1495.4166497669059,1273.018,1500.0
8.248000860214233,142,99.0,768.59311332036202,1480,1495.9845585300795,1281.3977600000001,1500.0
8.272219896316528,143,99.0,771.3883669891195,1484.5699999999999,1496.593547453517,1289.9911999999999,1500.0
8.296522855758667,144,98.9765,774.1836206578771,1497.97,1497.2879186708365,1297.28856,1500.0
8.32082986831665,144,97.953,776.97887432663458,1509.0,1497.937987754538,1305.7719199999999,1500.0
8.345139980316162,145,97.953,778.40191255800198,1520,1498.4521974412712,1311.53736,1500.0
8.369518041610718,145,96.9295,781.30168857663762,1520,1498.8053372279217,1315.7470799999999,1500.0
8.39395785331726,146,96.906,782.72472680800502,1520,1498.9841164744039,1317.39868,1500.0
8.418160915374756,147,95.8825,784.14776503937242,1520,1498.9951805007606,1321.62636,1500.0
8.442621946334839,148,95.859,784.14776503937242,1520,1498.8321256349509,1321.8220799999999,1500.0
8.466856002807617,148,94.8355,784.14776503937242,1520,1498.6263796222001,1324.7236,1500.0
8.491076946258545,149,93.7885,785.62450282664054,1520,1498.3814521120546,1327.6871599999999,1500.0
8.515281915664673,149,92.7415,785.62450282664054,1520,1498.1283545980471,1332.0925999999999,1500.0
8.539680004119873,149,91.718,785.62450282664054,1520,1497.8737324002204,1335.1098400000001,1500.0
8.564097881317139,150,91.6945,785.62450282664054,1520,1497.7029678124563,1338.2870800000001,1500.0
8.58831000328064,150,91.718,785.62450282664054,1520,1497.5748943716333,1338.50828,1500.0
8.612735986709595,150,92.7415,784.14776503937242,1516.5799999999999,1497.3942624904723,1334.5160000000001,1500.0
8.637125968933105,151,92.765,784.14776503937242,1514.73,1497.2629670762951,1328.79024,1500.0
8.661494970321655,151,93.7885,784.14776503937242,1514.8499999999999,1497.1743628090592,1318.9168,1500.0
8.685807943344116,151,93.7885,784.14776503937242,1512.74,1497.085758541823,1310.2377200000001,1500.0
8.71016001701355,151,93.7885,784.14776503937242,1510.6300000000001,1496.997154274587,1303.0164,1500.0
8.734534978866577,151,93.7885,782.6710272521043,1510.6900000000001,1496.9905089545443,1300.0848000000001,1500.0
8.758939027786255,151,93.7885,782.6710272521043,1506.3499999999999,1496.9905089545443,1298.64292,1500.0
8.783345937728882,151,93.7885,782.6710272521043,1502.01,1496.9905089545443,1301.4588000000001,1500.0
8.807677030563354,151,92.765,782.6710272521043,1499.8399999999999,1496.9905089545443,1307.0086799999999,1500.0
8.832016944885254,151,91.718,784.14776503937242,1497.6700000000001,1497.041456408205,1314.0624800000001,1500.0
8.856374979019165,152,91.6945,784.14776503937242,1497.9300000000001,1497.130060675441,1318.5299600000001,1500.0
8.880688905715942,152,91.6945,784.14776503937242,1500.1600000000001,1497.2186649426772,1322.9372799999999,1500.0
8.905021905899048,152,90.671,785.62450282664054,1502.3900000000001,1497.358216663574,1328.6546799999999,1500.0
8.929508924484253,152,90.671,787.10124061390866,1504.6199999999999,1497.5420705180888,1330.27808,1500.0
8.954048871994019,152,90.671,788.57797840117678,1506.8499999999999,1497.6816222389857,1328.9698799999999,1500.0
8.978375911712646,152,90.671,788.57797840117678,1504.6800000000001,1497.7702265062219,1327.5958799999999,1500.0
9.003111839294434,152,90.671,788.57797840117678,1502.51,1497.8588307734578,1326.2218800000001,1500.0
9.027441024780273,152,90.671,788.57797840117678,1500.3399999999999,1497.8588307734578,1321.98208,1500.0
9.051738977432251,152,90.671,788.57797840117678,1498.1700000000001,1497.7702265062219,1319.1342400000001,1500.0
9.075959920883179,152,90.671,787.10124061390866,1496.0,1497.5863726517068,1317.7103199999999,1500.0
9.100260019302368,152,90.671,788.57797840117678,1496.0,1497.4601115708954,1316.31836,1500.0
9.124554872512817,152,90.6475,790.0547161884449,1496.0,1497.3781526237021,1314.9884400000001,1500.0
9.14904499053955,152,90.6475,788.57797840117678,1496.0,1497.2829030364235,1315.0222800000001,1500.0
9.173866987228394,152,90.6475,787.10124061390866,1496.0,1497.1876534491446,1315.05612,1500.0
9.19822096824646,152,90.6475,785.62450282664054,1496.0,1497.1810081291019,1315.08996,1500.0
9.222732067108154,152,90.671,785.62450282664054,1496.0,1497.0924038618657,1315.06176,1500.0
9.246971845626831,152,90.671,787.10124061390866,1496.0,1496.9661427810543,1314.99596,1500.0
9.271251916885376,152,91.6945,787.10124061390866,1496.0,1496.9218406474363,1312.22812,1500.0
9.295568943023682,151,91.6945,787.10124061390866,1493.5699999999999,1496.9661427810543,1310.68848,1500.0
9.320068836212158,151,91.718,788.57797840117678,1491.3399999999999,1497.1056945019511,1309.0868,1500.0
9.344591856002808,151,91.718,788.57797840117678,1489.1099999999999,1497.2829030364232,1307.5791199999999,1500.0
9.369071960449219,151,92.718,787.10124061390866,1486.8800000000001,1497.3648619836167,1303.4633999999999,1500.0
9.393625020980835,151,92.718,787.10124061390866,1484.6500000000001,1497.4091641172347,1303.4134799999999,1500.0
9.417954921722412,151,92.718,787.10124061390866,1486.8199999999999,1497.4091641172347,1303.36356,1500.0
9.442283868789673,152,92.7415,787.10124061390866,1491.4200000000001,1497.2762577163805,1303.3173999999999,1500.0
9.466598987579346,151,93.7415,787.10124061390866,1493.3900000000001,1497.1433513155264,1300.6274800000001,1500.0
9.490900993347168,152,93.765,785.62450282664054,1497.99,1497.0924038618657,1301.8755200000001,1500.0
9.5151948928833,152,94.7885,785.62450282664054,1502.3900000000001,1497.0481017282477,1299.0577599999999,1500.0
9.539676904678345,152,94.7885,785.62450282664054,1504.6199999999999,1497.0037995946298,1297.4682,1500.0
9.564188003540039,152,94.7885,784.14776503937242,1502.45,1496.9528521409688,1295.91248,1500.0
9.588510990142822,152,94.7885,782.6710272521043,1504.6800000000001,1496.8576025536902,1297.1567600000001,1500.0
9.61321496963501,152,94.7885,782.6710272521043,1502.51,1496.813300420072,1297.1068399999999,1500.0
9.637563943862915,152,94.7885,782.6710272521043,1500.3399999999999,1496.768998286454,1299.92272,1500.0
9.66187596321106,152,94.7885,782.6710272521043,1498.1700000000001,1496.724696152836,1302.7385999999999,1500.0
9.68619704246521,152,94.765,782.6710272521043,1498.1700000000001,1496.768998286454,1305.58456,1500.0
9.710495948791504,152,93.7415,782.6710272521043,1496.0,1496.9019046873082,1309.7443599999999,1500.0
9.734784841537476,152,92.718,782.6710272521043,1496.0,1496.9905089545443,1315.3460399999999,1500.0
9.759273052215576,152,92.718,782.6710272521043,1496.0,1497.0791132217803,1318.3275599999999,1500.0
9.78383994102478,152,92.718,782.6710272521043,1496.0,1497.1677174890165,1321.30908,1500.0
9.808169841766357,152,92.7415,782.6710272521043,1496.0,1497.2120196226344,1324.1627599999999,1500.0
9.832701921463013,152,93.7415,782.6710272521043,1496.0,1497.2120196226344,1321.5388399999999,1500.0
9.857046842575073,151,94.765,782.6710272521043,1493.5699999999999,1497.2120196226344,1314.5470800000001,1500.0
9.881403923034668,151,94.812,782.6710272521043,1491.3399999999999,1497.2120196226344,1308.6594399999999,1500.0
9.905726909637451,151,95.859,782.6710272521043,1489.1099999999999,1497.2120196226344,1300.06412,1500.0
9.93022084236145,150,96.8825,782.6710272521043,1484.45,1497.2120196226344,1290.1209200000001,1500.0
9.954700946807861,150,97.906,782.6710272521043,1480,1497.2120196226344,1282.8958400000001,1500.0
9.979024887084961,150,97.906,782.6710272521043,1480,1497.2120196226344,1281.15672,1500.0
10.003391981124878,150,96.8825,784.14776503937242,1480,1497.2629670762951,1282.2512400000001,1500.0
10.027612924575806,150,96.8825,785.62450282664054,1480,1497.358216663574,1285.04916,1500.0
10.05184006690979,150,97.8825,785.62450282664054,1484.1500000000001,1497.44682093081,1288.0409199999999,1500.0
10.07616901397705,150,97.906,785.62450282664054,1488.49,1497.5354251980461,1293.67644,1500.0
10.10050106048584,150,97.9295,787.10124061390866,1490.6600000000001,1497.674976918943,1297.88616,1500.0
10.124814987182617,149,97.9295,788.57797840117678,1490.4000000000001,1497.7702265062219,1299.19436,1500.0
10.149592876434326,149,97.9295,790.0547161884449,1490.3399999999999,1497.8211739598826,1299.07864,1500.0
10.174146890640259,149,97.9295,791.53145397571302,1488.1099999999999,1497.9164235471615,1300.37096,1500.0
10.198487997055054,150,97.9295,793.00819176298114,1488.3099999999999,1498.0559752680583,1300.3371199999999,1500.0
10.223217010498047,150,97.9295,793.00819176298114,1488.3099999999999,1498.1002774016763,1300.3690799999999,1500.0
10.247562885284424,150,97.906,791.53145397571302,1492.71,1498.0493299480156,1301.8550399999999,1500.0
10.27186393737793,150,96.8825,791.53145397571302,1497.1099999999999,1497.9607256807794,1306.01484,1500.0
10.296169996261597,150,96.8825,793.00819176298114,1501.51,1497.834464599968,1307.58644,1500.0
10.320512056350708,150,96.906,794.48492955024926,1501.51,1497.6639013855386,1309.06404,1500.0
10.34484601020813,150,97.9295,793.00819176298114,1501.51,1497.4800475310237,1307.83584,1500.0
10.369323015213013,150,97.9295,793.00819176298114,1499.3399999999999,1497.4357453974055,1307.7700400000001,1500.0
10.393841981887817,151,98.953,791.53145397571302,1499.5999999999999,1497.3847979437448,1302.1364000000001,1500.0
10.418154001235962,150,98.953,790.0547161884449,1497.23,1497.245246222848,1297.7309599999999,1500.0
10.442715883255005,149,98.953,788.57797840117678,1494.8,1497.0170902347152,1293.39132,1500.0
10.467054843902588,149,98.9765,788.57797840117678,1492.5699999999999,1496.884183833861,1291.85544,1500.0
10.49140191078186,149,98.9765,788.57797840117678,1490.3399999999999,1496.7069752993887,1290.3797199999999,1500.0
10.515717029571533,149,98.9765,787.10124061390866,1483.71,1496.567423578492,1293.16176,1500.0
10.540178060531616,150,98.9765,785.62450282664054,1483.9100000000001,1496.5164761248311,1295.9438,1500.0
10.564671993255615,150,99.0,782.72472680800502,1488.3099999999999,1496.5050381194244,1298.63184,1500.0
10.589011907577515,150,100.0,782.72472680800502,1492.71,1496.4623469724834,1297.38192,1500.0
10.61337399482727,150,100.047,779.8249507893695,1497.1099999999999,1496.3196135528995,1297.2079200000001,1500.0
10.637691974639893,151,100.047,778.40191255800198,1506.1099999999999,1496.1851364400352,1295.6983600000001,1500.0
10.662018060684204,152,100.0705,776.97887432663458,1510.77,1496.0522703138479,1294.1267600000001,1500.0
10.686332941055298,153,101.0705,775.55583609526707,1515.49,1496.0063974682198,1290.0091600000001,1500.0
10.71064805984497,154,101.094,774.13279786389967,1520,1495.9178334756507,1289.79756,1500.0
10.734863996505737,156,102.1175,771.33754419514219,1520,1495.9132234646686,1287.0437200000001,1500.0
10.759263038635254,157,102.141,769.91450596377467,1520,1495.9131774364778,1285.45604,1500.0
10.78370189666748,158,102.141,768.49146773240727,1520,1495.91152042161,1283.96236,1500.0
10.807914018630981,158,102.141,768.49146773240727,1520,1495.9146560921065,1285.2367199999999,1500.0
10.83213996887207,158,102.141,768.49146773240727,1520,1496.0031740564848,1285.2168799999999,1500.0
10.856384992599487,157,101.1175,768.49146773240727,1520,1496.1724139604296,1290.7009599999999,1500.0
10.880598068237305,157,101.094,769.91450596377467,1520,1496.4334398302976,1295.0846799999999,1500.0
10.904783010482788,158,100.094,769.91450596377467,1520,1496.7307531750653,1302.0482400000001,1500.0
10.929165840148926,159,100.094,769.91450596377467,1512.1600000000001,1496.9853753728921,1306.4518,1500.0
10.953695058822632,160,100.1175,769.91450596377467,1508.1400000000001,1497.1973064237779,1310.76136,1500.0
10.978034973144531,161,101.1645,771.28672140116475,1515.0899999999999,1497.372721297191,1308.07728,1500.0
11.002488851547241,162,102.188,771.28672140116475,1520,1497.4138877603127,1303.8498,1500.0
11.026701927185059,162,102.2115,771.28672140116475,1520,1497.4123630764934,1297.98848,1500.0
11.050909042358398,163,102.188,771.28672140116475,1520,1497.4108383926741,1292.2174,1500.0
11.075109958648682,163,102.1645,769.86368316979735,1520,1497.3602188898726,1286.5459599999999,1500.0
11.099478960037231,164,102.188,769.86368316979735,1520,1497.2336701328688,1285.1078399999999,1500.0
11.12421989440918,164,102.188,769.86368316979735,1520,1497.1498125228061,1286.5956799999999,1500.0
11.148503065109253,164,103.2115,771.28672140116475,1520,1497.1150497317255,1286.80728,1500.0
11.173089027404785,163,103.2585,774.18649741980039,1520,1497.1739255412467,1288.0572,1500.0
11.197334051132202,163,104.3055,778.61980883290676,1516.8699999999999,1497.4580838963184,1286.5016800000001,1500.0
11.22169303894043,163,104.329,781.51958485154228,1508.1300000000001,1497.8635010857956,1284.7824000000001,1500.0
11.246041059494019,162,104.3525,784.4193608701778,1499.1300000000001,1498.3559115558319,1281.63732,1500.0
11.270350933074951,158,104.329,788.85267228328416,1480.6099999999999,1498.9028399836545,1281.41632,1500.0
11.29465103149414,156,103.3055,791.75244830191969,1480,1499.3558742216428,1284.0327200000002,1500.0
11.31903886795044,154,102.235,793.17548653328708,1480,1499.5362644548022,1291.2106000000001,1500.0
11.343490839004517,152,100.1645,796.07526255192272,1480,1499.6363067274451,1302.60384,1500.0
11.367709875106812,151,98.0705,797.55200033919084,1480,1499.6002609005468,1317.10644,1500.0
11.391917943954468,150,95.953,799.02873812645896,1480,1499.3852096694211,1333.2286799999999,1500.0
11.416136026382446,148,90.8355,799.02873812645896,1480,1499.0765198376937,1350,1500.0
11.44039797782898,147,88.7415,796.01846494472011,1480,1498.7115926297074,1350,1500.0
