time,x,y,size_inv,roll,pitch,thrust,yaw
0.0012979507446289062,153,35.0,2113.2117735806792,1498.3900000000001,1502.0,1350,1500.0
0.025394916534423828,153,34.953,2113.2117735806792,1498.1800000000001,1502.0,1350,1500.0
0.04898691177368164,153,34.953,2113.2117735806792,1497.97,1502.0,1350,1500.0
0.07265400886535645,153,34.953,2113.2117735806792,1497.76,1502.0,1350,1500.0
0.09620499610900879,153,34.953,2113.2117735806792,1497.55,1502.0,1350,1500.0
0.11981606483459473,153,34.953,2113.2117735806792,1497.3399999999999,1502.0,1350,1500.0
0.14336490631103516,153,34.953,2113.2117735806792,1497.1300000000001,1502.0,1350,1500.0
0.16677498817443848,153,34.953,2113.2117735806792,1496.9200000000001,1502.0,1350,1500.0
0.1904439926147461,153,34.953,2113.2117735806792,1496.71,1502.0,1350,1500.0
0.2140789031982422,153,34.953,2113.2117735806792,1496.5,1502.0,1350,1500.0
0.23818397521972656,153,34.953,2113.2117735806792,1496.5,1502.0,1350,1500.0
0.2626810073852539,153,34.9765,2113.2117735806792,1496.5,1502.0,1350,1500.0
0.28716206550598145,154,35.0,2103.1488603731518,1498.9300000000001,1502.0,1350,1500.0
0.3116600513458252,154,36.0,2103.1488603731518,1501.1600000000001,1502.0,1350,1500.0
0.3361339569091797,154,36.0,2103.1488603731518,1503.3900000000001,1502.0,1350,1500.0
0.3606550693511963,155,36.0,2103.1488603731518,1508.05,1502.0,1350,1500.0
0.3851969242095947,154,37.0235,2103.1488603731518,1510.0799999999999,1502.0,1350,1500.0
0.40975308418273926,154,41.1645,2083.9378442496914,1507.9100000000001,1502.0,1350,1500.0
0.4343149662017822,154,44.282,2073.874931042164,1505.74,1502.0,1350,1500.0
0.45880889892578125,154,47.3525,2063.8120178346371,1503.5699999999999,1502.0,1347.4167199999999,1500.0
0.4835338592529297,154,50.423,2044.6010017111762,1497.0,1502.0,1324.3869199999999,1500.0
0.5081069469451904,155,52.3995,2025.3899855877157,1497.26,1502.0,1302.6576,1500.0
0.5327119827270508,154,55.3525,2016.2418826717817,1497.0599999999999,1502.0,1287.067,1500.0
0.5572879314422607,154,56.329,2006.1789694642546,1497.0599999999999,1502.0,1279.81104,1500.0
0.5820069313049316,154,58.3055,1986.9679533407939,1497.0599999999999,1502.0,1277.1063200000001,1500.0
0.6067900657653809,154,60.282,1967.7569372173334,1499.23,1502.0,1280.15284,1500.0
0.6313719749450684,154,62.282,1948.5459210938727,1494.8299999999999,1502.0,1284.4333999999999,1500.0
0.6559770107269287,154,66.2585,1948.5459210938727,1494.8299999999999,1502.0,1283.2526399999999,1500.0
0.6806159019470215,154,67.188,1939.3978181779391,1494.8299999999999,1502.0,1282.8842,1500.0
0.7052590847015381,154,68.141,1930.2497152620053,1494.8299999999999,1502.0,1282.4735599999999,1500.0
0.7298920154571533,154,69.0705,1930.2497152620053,1494.8299999999999,1502.0,1282.11096,1500.0
0.7545309066772461,154,70.047,1921.8970995561529,1497.0,1502.0,1283.19776,1500.0
0.7790830135345459,155,74.047,1921.8970995561529,1499.4300000000001,1502.0,1282.01448,1500.0
0.803778886795044,155,76.047,1912.7489966402195,1501.6600000000001,1502.0,1281.6257600000001,1500.0
0.8283419609069824,155,78.047,1912.7489966402195,1503.8900000000001,1502.0,1278.3374000000001,1500.0
0.8529820442199707,155,80.047,1912.7489966402195,1506.1199999999999,1502.0,1272.0836000000002,1500.0
0.8775639533996582,155,81.047,1904.396380934367,1508.3499999999999,1502.0,1265.604,1500.0
0.902209997177124,156,84.0235,1896.0437652285145,1508.6099999999999,1502.0,1258.2583999999999,1500.0
0.9267978668212891,156,86.0235,1896.0437652285145,1508.6700000000001,1502.0,1253.5404800000001,1500.0
0.9513709545135498,155,86.9765,1896.0437652285145,1506.3,1502.0,1253.0105599999999,1500.0
0.9759459495544434,155,87.9765,1896.0437652285145,1504.1300000000001,1502.0,1255.3201199999999,1500.0
1.0005970001220703,155,88.953,1904.396380934367,1501.96,1502.0,1257.7236800000001,1500.0
1.0252468585968018,155,89.953,1904.396380934367,1497.5599999999999,1502.0,1261.55324,1500.0
1.049893856048584,154,91.9295,1904.396380934367,1490.73,1502.0,1264.2448400000001,1500.0
1.0745139122009277,154,92.9295,1904.396380934367,1488.5,1502.0,1266.61664,1500.0
1.099073886871338,154,93.9295,1904.396380934367,1486.27,1502.0,1267.62844,1500.0
1.124237060546875,154,93.9295,1921.8970995561533,1484.04,1502.0,1271.21444,1500.0
1.148853063583374,154,94.9295,1930.2497152620058,1483.98,1502.0,1270.9123999999999,1500.0
1.1735599040985107,153,95.9295,1930.2497152620058,1485.8900000000001,1502.0,1271.9845599999999,1500.0
1.1981520652770996,153,95.9295,1939.3978181779391,1485.8299999999999,1502.0,1275.76064,1500.0
1.2228500843048096,153,95.9295,1948.5459210938729,1485.77,1502.0,1280.9767199999999,1500.0
1.2474770545959473,153,95.9295,1957.694024009807,1485.71,1502.0,1284.8647599999999,1500.0
1.2720820903778076,153,96.9295,1957.694024009807,1485.6500000000001,1502.0,1287.5527999999999,1500.0
1.2966740131378174,152,96.9295,1966.8421269257408,1485.3900000000001,1502.0,1291.5527999999999,1500.0
1.3212640285491943,152,96.9295,1975.9902298416746,1485.3299999999999,1502.0,1294.1928,1500.0
1.3458569049835205,152,96.953,1985.1383327576084,1485.27,1502.0,1295.41076,1500.0
1.3705780506134033,151,96.953,1985.1383327576084,1482.78,1502.0,1296.6569199999999,1500.0
1.3953158855438232,152,96.953,1994.2864356735422,1482.9200000000001,1502.0,1299.3430800000001,1500.0
1.4200239181518555,152,96.953,2003.4345385894762,1485.0899999999999,1502.0,1300.6692399999999,1500.0
1.4448368549346924,152,96.953,1994.2864356735422,1487.26,1502.0,1301.9954,1500.0
1.4693849086761475,151,95.953,1994.2864356735422,1487.0,1502.0,1306.02736,1500.0
1.494231939315796,152,95.953,1994.2864356735422,1493.77,1502.0,1308.85932,1500.0
1.5188329219818115,151,95.953,2003.4345385894762,1493.51,1502.0,1310.3312800000001,1500.0
1.543658971786499,151,95.953,2003.4345385894762,1491.28,1502.0,1311.80324,1500.0
1.568242073059082,151,95.9765,2003.4345385894762,1489.05,1502.0,1313.21316,1500.0
1.5928020477294922,151,96.0,1994.2864356735422,1491.22,1502.0,1311.75728,1500.0
1.6173410415649414,151,95.0235,1994.2864356735422,1486.8199999999999,1502.0,1312.9075600000001,1500.0
1.6420578956604004,151,95.0235,1994.2864356735422,1488.99,1502.0,1312.8860400000001,1500.0
1.666929006576538,151,94.0235,1994.2864356735422,1491.1600000000001,1502.0,1315.50452,1500.0
