time,x,y,size_inv,roll,pitch,thrust,yaw
0.0007569789886474609,265,49,0.004901960784313725,1520,1502.0,1350,1500.0
0.024296998977661133,265,49,0.004901960784313725,1520,1502.0,1350,1500.0
0.04848003387451172,265,49,0.004901960784313725,1520,1502.0,1350,1500.0
0.07171201705932617,265,49,0.004901960784313725,1520,1502.0,1350,1500.0
0.09526610374450684,265,49,0.004901960784313725,1520,1502.0,1350,1500.0
0.11876296997070312,265,49,0.004901960784313725,1520,1502.0,1350,1500.0
0.14228105545043945,265,49,0.004901960784313725,1520,1502.0,1350,1500.0
0.16606593132019043,264,49,0.005208333333333333,1520,1502.0,1350,1500.0
0.1895580291748047,265,49,0.004901960784313725,1520,1502.0,1350,1500.0
0.21304702758789062,264,49,0.004273504273504274,1520,1502.0,1350,1500.0
0.23688793182373047,264,49,0.004629629629629629,1520,1502.0,1350,1500.0
0.2614428997039795,265,49,0.004901960784313725,1520,1502.0,1350,1500.0
0.2856299877166748,265,49,0.0053475935828877,1520,1502.0,1350,1500.0
0.30979299545288086,265,48,0.004901960784313725,1520,1502.0,1350,1500.0
0.33396005630493164,263,47,0.005208333333333333,1520,1502.0,1350,1500.0
0.35816287994384766,264,45,0.0053475935828877,1520,1502.0,1350,1500.0
0.38239288330078125,264,43,0.0053475935828877,1520,1502.0,1350,1500.0
0.40654897689819336,264,43,0.0053475935828877,1520,1502.0,1350,1500.0
0.43119287490844727,262,42,0.005681818181818182,1520,1502.0,1350,1500.0
0.4553670883178711,261,42,0.006060606060606061,1520,1502.0,1350,1500.0
0.47957396507263184,261,43,0.005050505050505051,1520,1502.0,1350,1500.0
0.5037610530853271,261,44,0.0053475935828877,1518.8499999999999,1502.0,1350,1500.0
0.5280909538269043,261,45,0.005050505050505051,1515.99,1502.0,1350,1500.0
0.552372932434082,261,46,0.005050505050505051,1518.73,1502.0,1350,1500.0
0.5765810012817383,261,46,0.005050505050505051,1520,1502.0,1350,1500.0
0.6011779308319092,261,47,0.0053475935828877,1520,1502.0,1350,1500.0
0.6253690719604492,261,48,0.005050505050505051,1520,1502.0,1350,1500.0
0.6495230197906494,261,48,0.0053475935828877,1520,1502.0,1350,1500.0
0.6736440658569336,260,49,0.005050505050505051,1520,1502.0,1350,1500.0
0.6978740692138672,260,50,0.0053475935828877,1520,1502.0,1350,1500.0
0.7221269607543945,259,50,0.004629629629629629,1520,1502.0,1350,1500.0
0.7462770938873291,259,52,0.004784688995215311,1520,1502.0,1350,1500.0
0.7707250118255615,258,54,0.004629629629629629,1520,1502.0,1347.5999999999999,1500.0
0.7949669361114502,258,55,0.004784688995215311,1520,1502.0,1341.8399999999999,1500.0
0.819227933883667,257,56,0.004629629629629629,1517.51,1502.0,1337.4400000000001,1500.0
0.8436100482940674,257,58,0.004784688995215311,1517.45,1502.0,1327.5999999999999,1500.0
0.868027925491333,256,59,0.004784688995215311,1515.7750000000001,1502.0,1321.76,1500.0
0.892441987991333,254,61,0.005050505050505051,1513.8699999999999,1502.0,1317.4400000000001,1500.0
0.9168150424957275,254,62,0.004166666666666667,1510.98,1502.0,1314.3199999999999,1500.0
0.9415719509124756,254,63,0.0043859649122807015,1510.8900000000001,1502.0,1311.2,1500.0
0.965904951095581,253,64,0.0043859649122807015,1507.8,1502.0,1312.24,1500.0
0.9902548789978027,253,65,0.0043859649122807015,1507.71,1502.0,1311.9200000000001,1500.0
1.014643907546997,251,68,0.0043859649122807015,1508.605,1502.0,1307.76,1500.0
1.0390429496765137,251,69,0.0043859649122807015,1509.9000000000001,1502.0,1306.0,1500.0
1.0633978843688965,249,71,0.0038461538461538464,1506.5799999999999,1502.0,1301.5999999999999,1500.0
1.0878379344940186,249,72,0.0043859649122807015,1506.46,1502.0,1297.04,1500.0
1.1122550964355469,248,73,0.0043859649122807015,1503.3399999999999,1502.0,1292.48,1500.0
1.1366400718688965,247,74,0.0043859649122807015,1501.635,1502.0,1292.1600000000001,1500.0
1.1614360809326172,245,77,0.0043859649122807015,1496.9000000000001,1502.0,1286.5599999999999,1500.0
1.1858069896697998,244,79,0.004048582995951417,1496.55,1502.0,1283.52,1500.0
1.2101709842681885,242,81,0.0038461538461538464,1491.7850000000001,1502.0,1279.04,1500.0
1.2345550060272217,241,82,0.0038461538461538464,1488.605,1502.0,1275.76,1500.0
1.2592298984527588,240,84,0.004048582995951417,1484.04,1502.0,1267.1199999999999,1500.0
1.2836320400238037,238,86,0.0043859649122807015,1482.0450000000001,1502.0,1262.6400000000001,1500.0
1.308060884475708,236,88,0.0038461538461538464,1480,1502.0,1258.1600000000001,1500.0
1.33241605758667,236,89,0.003663003663003663,1480,1502.0,1257.6800000000001,1500.0
1.356644868850708,234,90,0.004048582995951417,1480,1502.0,1257.2,1500.0
1.381282091140747,234,90,0.004048582995951417,1480,1502.0,1262.1600000000001,1500.0
1.4058170318603516,230,93,0.004048582995951417,1480,1502.0,1260.72,1500.0
1.4300789833068848,229,94,0.004048582995951417,1480,1502.0,1263.1199999999999,1500.0
1.4543449878692627,228,95,0.003663003663003663,1480,1502.0,1264.1600000000001,1500.0
1.4786748886108398,227,95,0.003663003663003663,1480,1502.0,1267.8399999999999,1500.0
1.5029349327087402,225,96,0.003663003663003663,1480,1502.0,1266.1600000000001,1500.0
1.527198076248169,225,96,0.003663003663003663,1480,1502.0,1271.3599999999999,1500.0
1.551551103591919,220,97,0.003246753246753247,1480,1502.0,1274.0,1500.0
1.575537919998169,219,97,0.003401360544217687,1480,1502.0,1279.28,1500.0
1.5996699333190918,219,97,0.003401360544217687,1480,1502.0,1283.2,1500.0
1.6235709190368652,216,98,0.003105590062111801,1480,1502.0,1287.28,1500.0
1.6474270820617676,214,98,0.003246753246753247,1480,1502.0,1288.48,1500.0
1.671422004699707,214,98,0.003246753246753247,1480,1502.0,1291.1199999999999,1500.0
1.6952829360961914,210,97,0.003105590062111801,1480,1502.0,1295.04,1500.0
1.719141960144043,209,97,0.002898550724637681,1480,1502.0,1297.76,1500.0
1.7430009841918945,208,96,0.003105590062111801,1480,1502.0,1304.5599999999999,1500.0
1.7668499946594238,208,96,0.003105590062111801,1480,1502.0,1310.1600000000001,1500.0
1.790816068649292,205,96,0.002898550724637681,1480,1502.0,1314.4000000000001,1500.0
1.8146820068359375,203,96,0.002777777777777778,1480,1502.0,1315.8399999999999,1500.0
1.838576078414917,201,95,0.002898550724637681,1480,1502.0,1319.9200000000001,1500.0
1.862433910369873,201,95,0.002898550724637681,1480,1502.0,1318.6400000000001,1500.0
1.8862640857696533,198,94,0.002898550724637681,1480,1502.0,1320.0,1500.0
1.910132884979248,196,93,0.002898550724637681,1480,1502.0,1322.8,1500.0
1.9340250492095947,196,93,0.002898550724637681,1480,1502.0,1325.76,1500.0
1.957953929901123,193,92,0.002777777777777778,1480,1502.0,1328.5599999999999,1500.0
1.981877088546753,192,91,0.002898550724637681,1480,1502.0,1334.1600000000001,1500.0
2.005721092224121,189,89,0.0026041666666666665,1480,1502.0,1341.04,1500.0
2.029567003250122,188,89,0.002898550724637681,1480,1502.0,1342.72,1500.0
2.0534050464630127,186,88,0.0030303030303030303,1480,1502.0,1347.04,1500.0
2.077255964279175,186,88,0.0030303030303030303,1480,1502.0,1348.72,1500.0
2.1012020111083984,183,86,0.0026041666666666665,1480,1502.0,1350,1500.0
2.1249849796295166,183,85,0.0025,1480,1502.0,1350,1500.0
2.1487128734588623,181,85,0.002898550724637681,1480,1502.0,1350,1500.0
2.1724588871002197,179,83,0.0025,1480,1502.0,1350,1500.0
2.196168899536133,177,83,0.002898550724637681,1480,1502.0,1350,1500.0
2.219913959503174,177,83,0.002898550724637681,1480,1502.0,1350,1500.0
2.2436699867248535,174,82,0.002777777777777778,1480,1502.0,1350,1500.0
2.267427921295166,174,81,0.0026666666666666666,1480,1502.0,1350,1500.0
2.291332960128784,173,80,0.0026666666666666666,1480,1502.0,1350,1500.0
2.315099000930786,171,78,0.0026666666666666666,1480,1502.0,1350,1500.0
2.338840961456299,170,77,0.0025,1480,1502.0,1350,1500.0
2.3625879287719727,167,76,0.0026041666666666665,1480,1502.0,1350,1500.0
2.386357069015503,167,76,0.0026041666666666665,1480,1502.0,1350,1500.0
2.410130023956299,165,75,0.002403846153846154,1480,1502.0,1350,1500.0
2.433893918991089,165,75,0.0026666666666666666,1480,1502.0,1350,1500.0
2.457706928253174,163,73,0.0025,1480,1502.0,1350,1500.0
2.4815568923950195,161,72,0.002403846153846154,1480,1502.0,1350,1500.0
2.5057148933410645,160,72,0.002403846153846154,1480,1502.0,1350,1500.0
2.5298008918762207,160,72,0.002403846153846154,1480,1502.0,1350,1500.0
2.553576946258545,159,71,0.002403846153846154,1480,1502.0,1350,1500.0
2.5773251056671143,158,70,0.0025,1480,1502.0,1350,1500.0
2.601196050643921,156,70,0.002403846153846154,1480,1502.0,1350,1500.0
2.6249780654907227,155,69,0.002403846153846154,1480,1502.0,1350,1500.0
2.6487410068511963,154,69,0.002403846153846154,1480,1502.0,1350,1500.0
2.6724929809570312,153,69,0.002403846153846154,1480,1502.0,1350,1500.0
2.696259021759033,152,70,0.0022624434389140274,1480,1502.0,1350,1500.0
2.720017910003662,152,70,0.0022624434389140274,1480,1502.0,1350,1500.0
2.743764877319336,150,69,0.0023148148148148147,1480,1502.0,1350,1500.0
2.7675940990448,149,69,0.002352941176470588,1480,1502.0,1350,1500.0
2.791433095932007,148,69,0.002232142857142857,1480,1502.0,1349.4400000000001,1500.0
2.8153610229492188,148,69,0.002232142857142857,1480,1502.0,1350,1500.0
2.8391430377960205,148,70,0.0023148148148148147,1480,1502.0,1349.6800000000001,1500.0
2.8630220890045166,147,71,0.002178649237472767,1480,1502.0,1345.5999999999999,1500.0
2.8868770599365234,146,71,0.002178649237472767,1480,1502.0,1342.72,1500.0
2.9108569622039795,146,71,0.002178649237472767,1480,1502.0,1339.8399999999999,1500.0
2.9347240924835205,145,69,0.00205761316872428,1480,1502.0,1340.8800000000001,1500.0
2.9585750102996826,144,69,0.002178649237472767,1480,1502.0,1342.3199999999999,1500.0
2.982434034347534,144,69,0.002178649237472767,1480,1502.0,1347.9200000000001,1500.0
3.0062880516052246,144,69,0.002178649237472767,1480,1502.0,1350,1500.0
3.0294830799102783,143,69,0.002178649237472767,1480,1502.0,1350,1500.0
3.053257942199707,142,69,0.0021008403361344537,1480,1502.0,1350,1500.0
3.077406883239746,142,69,0.002178649237472767,1480,1502.0,1350,1500.0
3.10132098197937,141,69,0.0021008403361344537,1480,1502.0,1350,1500.0
3.1250898838043213,141,69,0.0021008403361344537,1480,1502.0,1350,1500.0
3.148838996887207,141,69,0.001984126984126984,1480,1502.0,1349.5999999999999,1500.0
3.1726999282836914,141,69,0.001984126984126984,1480,1502.0,1349.5999999999999,1500.0
3.196539878845215,140,70,0.001984126984126984,1480,1502.0,1346.96,1500.0
3.2203969955444336,140,70,0.001984126984126984,1480.625,1502.0,1345.52,1500.0
3.2443339824676514,140,70,0.0019157088122605363,1483.365,1502.0,1344.0799999999999,1500.0
3.268332004547119,140,70,0.0019157088122605363,1484.72,1502.0,1342.6400000000001,1500.0
3.2923359870910645,139,71,0.001984126984126984,1483.075,1502.0,1338.5599999999999,1500.0
3.3162739276885986,139,72,0.0018796992481203006,1484.4300000000001,1502.0,1335.8399999999999,1500.0
3.340261936187744,139,74,0.001949317738791423,1484.4000000000001,1502.0,1329.04,1500.0
3.364198923110962,139,74,0.001949317738791423,1484.3699999999999,1502.0,1324.6400000000001,1500.0
3.3881828784942627,139,75,0.001949317738791423,1484.3399999999999,1502.0,1317.5999999999999,1500.0
3.4122090339660645,139,75,0.0019157088122605363,1487.1099999999999,1502.0,1314.5599999999999,1500.0
3.436203956604004,138,76,0.0018796992481203006,1486.8800000000001,1502.0,1310.3199999999999,1500.0
3.4601709842681885,138,76,0.0018796992481203006,1486.8499999999999,1502.0,1312.8800000000001,1500.0
3.484170913696289,139,77,0.0017543859649122807,1488.4349999999999,1502.0,1312.8,1500.0
3.5081939697265625,139,78,0.001949317738791423,1489.8199999999999,1502.0,1314.0799999999999,1500.0
3.532233953475952,139,78,0.001949317738791423,1489.8199999999999,1502.0,1315.2,1500.0
3.556159019470215,140,79,0.0017241379310344827,1494.2349999999999,1502.0,1315.1199999999999,1500.0
3.5801079273223877,140,79,0.0016666666666666668,1498.45,1502.0,1313.52,1500.0
3.6040539741516113,140,80,0.0017241379310344827,1499.865,1502.0,1312.0799999999999,1500.0
3.6280689239501953,141,80,0.0016666666666666668,1502.895,1502.0,1313.28,1500.0
3.6520938873291016,141,80,0.0016129032258064516,1505.7249999999999,1502.0,1314.48,1500.0
3.6760470867156982,142,81,0.001697792869269949,1505.9849999999999,1502.0,1314.48,1500.0
3.6999878883361816,142,81,0.001697792869269949,1506.0450000000001,1502.0,1315.6800000000001,1500.0
3.72419810295105,143,81,0.0016129032258064516,1509.105,1502.0,1318.3199999999999,1500.0
3.748239040374756,143,82,0.0016129032258064516,1509.165,1502.0,1316.96,1500.0
3.7722599506378174,144,83,0.0016129032258064516,1510.8399999999999,1502.0,1314.1600000000001,1500.0
3.7961790561676025,144,83,0.0015625,1510.9000000000001,1502.0,1314.0,1500.0
3.8201029300689697,144,83,0.0015625,1510.96,1502.0,1313.8399999999999,1500.0
3.844022035598755,145,84,0.0015625,1509.835,1502.0,1309.6800000000001,1500.0
3.8679659366607666,146,84,0.0016129032258064516,1511.51,1502.0,1309.52,1500.0
3.892011880874634,146,84,0.0016129032258064516,1510.1849999999999,1502.0,1312.1600000000001,1500.0
3.915930986404419,147,85,0.001488095238095238,1511.8599999999999,1502.0,1310.8,1500.0
3.9398438930511475,147,85,0.001488095238095238,1513.335,1502.0,1310.6400000000001,1500.0
3.963789939880371,148,85,0.0015625,1515.01,1502.0,1313.28,1500.0
3.9877490997314453,148,85,0.0015625,1513.6849999999999,1502.0,1314.5599999999999,1500.0
4.011741876602173,150,86,0.001443001443001443,1516.9749999999999,1502.0,1311.8399999999999,1500.0
4.03515100479126,150,86,0.0015625,1517.0650000000001,1502.0,1313.1199999999999,1500.0
4.059097051620483,152,87,0.001443001443001443,1520,1502.0,1311.76,1500.0
4.0829079151153564,152,87,0.0014005602240896359,1520,1502.0,1310.24,1500.0
4.106729030609131,152,87,0.0014005602240896359,1520,1502.0,1308.72,1500.0
4.130668878555298,153,86,0.0014705882352941176,1520,1502.0,1312.6400000000001,1500.0
4.154474973678589,154,86,0.0014005602240896359,1520,1502.0,1314.0,1500.0
4.178313970565796,154,86,0.0014005602240896359,1520,1502.0,1318.1600000000001,1500.0
4.202159881591797,156,85,0.0014285714285714286,1520,1502.0,1324.96,1500.0
4.225981950759888,156,85,0.0014285714285714286,1520,1502.0,1330.5599999999999,1500.0
4.2497780323028564,158,85,0.0013605442176870747,1520,1502.0,1332.0,1500.0
4.273547887802124,158,85,0.0013605442176870747,1520,1502.0,1333.4400000000001,1500.0
4.297343969345093,158,85,0.0013605442176870747,1520,1502.0,1333.52,1500.0
4.321362018585205,159,85,0.0013605442176870747,1520,1502.0,1330.8,1500.0
4.345176935195923,159,84,0.0012626262626262627,1520,1502.0,1330.72,1500.0
4.368983030319214,161,83,0.0012285012285012285,1520,1502.0,1333.4400000000001,1500.0
4.392786026000977,161,83,0.0012285012285012285,1520,1502.0,1334.96,1500.0
4.416589021682739,161,83,0.0012285012285012285,1520,1502.0,1336.48,1500.0
4.4404380321502686,162,82,0.0011961722488038277,1520,1502.0,1342.0,1500.0
4.464262008666992,162,82,0.0011441647597254005,1520,1502.0,1343.52,1500.0
4.488192081451416,162,82,0.0011441647597254005,1518.645,1502.0,1342.24,1500.0
