time,x,y,size_inv,roll,pitch,thrust,yaw
0.00102996826171875,188,65,0.006666666666666667,1520,1500.0,1343.4000000000001,1520
0.024912118911743164,188,65,0.006060606060606061,1520,1500.0,1344.8,1520
0.04801297187805176,188,65,0.006060606060606061,1520,1500.0,1346.2,1520
0.07118511199951172,188,65,0.006666666666666667,1520,1500.0,1347.5999999999999,1520
0.09425592422485352,188,65,0.006666666666666667,1520,1500.0,1349.0,1520
0.11733794212341309,188,65,0.005681818181818182,1520,1500.0,1350,1520
0.14031696319580078,188,66,0.0078125,1520,1500.0,1350,1520
0.16336894035339355,188,65,0.00625,1520,1500.0,1350,1520
0.18633413314819336,188,65,0.005681818181818182,1520,1500.0,1350,1520
0.20969510078430176,188,64,0.00625,1520,1500.0,1350,1520
0.23341012001037598,188,65,0.007407407407407408,1520,1500.0,1350,1520
0.2571289539337158,188,65,0.006666666666666667,1520,1500.0,1350,1520
0.28116703033447266,187,64,0.006666666666666667,1520,1500.0,1350,1520
0.30522704124450684,186,64,0.005681818181818182,1520,1500.0,1350,1520
0.32939696311950684,184,62,0.005555555555555556,1520,1500.0,1350,1520
0.3535740375518799,182,61,0.0053475935828877,1520,1500.0,1350,1520
0.3778800964355469,179,59,0.006666666666666667,1520,1500.0,1350,1519.0
0.40210509300231934,177,59,0.0058823529411764705,1520,1500.0,1350,1517.0
0.426224946975708,174,58,0.0058823529411764705,1520,1500.0,1350,1514.0
0.4503319263458252,166,59,0.007407407407407408,1520,1500.0,1350,1506.0
0.4746980667114258,163,56,0.011111111111111112,1520,1500.0,1350,1503.0
0.49912095069885254,161,60,0.006535947712418301,1520,1500.0,1350,1501.0
0.5232789516448975,158,60,0.00625,1520,1500.0,1350,1498.0
0.54740309715271,157,61,0.005555555555555556,1520,1500.0,1350,1497.0
0.5715579986572266,154,62,0.00625,1520,1500.0,1350,1494.0
0.596606969833374,152,63,0.005555555555555556,1520,1500.0,1339.52,1492.0
0.620858907699585,151,64,0.00625,1495.0,1500.0,1333.9200000000001,1491.0
0.6452031135559082,150,66,0.006060606060606061,1480,1500.0,1324.24,1490.0
0.6695749759674072,150,67,0.0053475935828877,1480,1500.0,1318.48,1490.0
0.6939570903778076,148,68,0.007407407407407408,1480,1500.0,1312.72,1488.0
0.718440055847168,148,70,0.00625,1480,1500.0,1309.76,1488.0
0.7428240776062012,149,72,0.006060606060606061,1480,1500.0,1301.28,1489.0
0.7670691013336182,149,73,0.006666666666666667,1480,1500.0,1298.1600000000001,1489.0
0.7912890911102295,150,74,0.00625,1480,1500.0,1295.04,1490.0
0.8155801296234131,151,76,0.0053475935828877,1480,1500.0,1289.28,1491.0
0.8399069309234619,151,77,0.005681818181818182,1480,1500.0,1287.52,1491.0
0.864177942276001,152,79,0.0053475935828877,1480,1500.0,1285.9200000000001,1492.0
0.8884210586547852,152,80,0.006060606060606061,1480,1500.0,1284.1600000000001,1492.0
0.9130549430847168,152,80,0.006666666666666667,1480,1500.0,1285.04,1492.0
0.9372999668121338,152,81,0.006666666666666667,1480,1500.0,1287.52,1492.0
0.9615321159362793,153,82,0.006060606060606061,1480,1500.0,1288.6400000000001,1493.0
0.985759973526001,153,83,0.00625,1480,1500.0,1291.2,1493.0
1.0099830627441406,153,84,0.006060606060606061,1480,1500.0,1293.76,1493.0
1.034209966659546,155,84,0.0058823529411764705,1480,1500.0,1296.1600000000001,1495.0
1.0584609508514404,154,85,0.00625,1480,1500.0,1296.0,1494.0
1.0830729007720947,155,86,0.0058823529411764705,1480,1500.0,1295.8399999999999,1495.0
1.1073110103607178,155,87,0.0053475935828877,1480,1500.0,1294.3199999999999,1495.0
1.1315369606018066,154,88,0.005681818181818182,1480,1500.0,1292.8,1494.0
1.1557691097259521,154,88,0.005681818181818182,1480,1500.0,1292.48,1494.0
1.1800060272216797,154,89,0.005681818181818182,1480,1500.0,1290.96,1494.0
1.2042460441589355,153,89,0.006493506493506494,1480,1500.0,1292.0799999999999,1493.0
1.2284820079803467,154,89,0.005555555555555556,1480,1500.0,1294.6400000000001,1494.0
1.253114938735962,155,90,0.0053475935828877,1480,1500.0,1296.0,1495.0
1.277367115020752,154,91,0.007407407407407408,1480,1500.0,1295.9200000000001,1494.0
1.301882028579712,154,91,0.005208333333333333,1480,1500.0,1298.48,1494.0
1.3261051177978516,154,92,0.006060606060606061,1480,1500.0,1297.04,1494.0
1.3506450653076172,154,92,0.005681818181818182,1480,1500.0,1295.4400000000001,1494.0
1.374917984008789,154,94,0.005681818181818182,1480,1500.0,1290.0,1494.0
1.3995659351348877,155,94,0.005050505050505051,1480,1500.0,1289.76,1495.0
1.4239490032196045,155,94,0.004901960784313725,1480,1500.0,1288.1600000000001,1495.0
1.4481730461120605,155,95,0.0053475935828877,1480,1500.0,1286.72,1495.0
1.4728350639343262,154,95,0.005208333333333333,1480,1500.0,1286.48,1494.0
1.497081995010376,155,96,0.0053475935828877,1480,1500.0,1287.8399999999999,1495.0
1.5208349227905273,154,97,0.005681818181818182,1480,1500.0,1286.4000000000001,1494.0
1.5444250106811523,155,97,0.005681818181818182,1480,1500.0,1286.1600000000001,1495.0
1.5680019855499268,155,97,0.0053475935828877,1480,1500.0,1287.3599999999999,1495.0
1.5918009281158447,154,97,0.005681818181818182,1480,1500.0,1288.5599999999999,1494.0
1.6151530742645264,155,97,0.004901960784313725,1480,1500.0,1289.8399999999999,1495.0
1.638927936553955,156,98,0.0043859649122807015,1480,1500.0,1291.28,1496.0
1.6626880168914795,155,99,0.005050505050505051,1480,1500.0,1291.28,1495.0
1.6862480640411377,156,100,0.0053475935828877,1480,1500.0,1288.48,1496.0
1.7098619937896729,156,99,0.004629629629629629,1480,1500.0,1289.52,1496.0
1.7335329055786133,156,100,0.005050505050505051,1480,1500.0,1285.3599999999999,1496.0
1.7571029663085938,155,100,0.005208333333333333,1480,1500.0,1283.8399999999999,1495.0
1.7806649208068848,155,100,0.005681818181818182,1480,1500.0,1285.1199999999999,1495.0
1.8042271137237549,155,100,0.005208333333333333,1480,1500.0,1289.2,1495.0
1.8277831077575684,156,100,0.005208333333333333,1480,1500.0,1290.48,1496.0
1.8514399528503418,157,99,0.004629629629629629,1480,1500.0,1297.2,1497.0
1.8749821186065674,157,100,0.005050505050505051,1480,1500.0,1298.72,1497.0
1.898526906967163,157,99,0.004629629629629629,1480,1500.0,1302.72,1497.0
1.9223461151123047,158,99,0.004629629629629629,1480,1500.0,1304.1600000000001,1498.0
1.9459290504455566,158,99,0.004629629629629629,1480,1500.0,1306.96,1498.0
1.9696569442749023,158,99,0.0053475935828877,1480,1500.0,1305.5999999999999,1498.0
1.993372917175293,158,99,0.004629629629629629,1480,1500.0,1307.04,1498.0
2.016906976699829,160,99,0.004784688995215311,1480,1500.0,1305.6800000000001,1500.0
2.0404629707336426,158,99,0.005555555555555556,1480,1500.0,1304.3199999999999,1498.0
2.064069986343384,159,99,0.004629629629629629,1480,1500.0,1302.96,1499.0
2.0876331329345703,159,100,0.005050505050505051,1480.0,1500.0,1300.3199999999999,1499.0
2.1113250255584717,159,99,0.005050505050505051,1482.0,1500.0,1300.1600000000001,1499.0
2.1349411010742188,160,99,0.004629629629629629,1487.0,1500.0,1300.1600000000001,1500.0
2.1585710048675537,160,99,0.004629629629629629,1489.0,1500.0,1300.1600000000001,1500.0
2.182328939437866,160,98,0.004629629629629629,1491.0,1500.0,1302.8,1500.0
2.205949068069458,160,98,0.004629629629629629,1493.0,1500.0,1307.04,1500.0
2.2295989990234375,160,97,0.004629629629629629,1495.0,1500.0,1311.1199999999999,1500.0
2.2532660961151123,160,97,0.004629629629629629,1495.0,1500.0,1314.0,1500.0
2.276937961578369,160,97,0.005050505050505051,1497.0,1500.0,1316.8800000000001,1500.0
2.3005950450897217,161,97,0.004629629629629629,1501.0,1500.0,1316.96,1501.0
2.3242340087890625,160,96,0.004629629629629629,1500.0,1500.0,1318.3199999999999,1500.0
2.347862958908081,161,96,0.004901960784313725,1504.0,1500.0,1317.04,1501.0
2.371561050415039,162,96,0.0043859649122807015,1508.0,1500.0,1315.76,1502.0
2.3951809406280518,161,96,0.0053475935828877,1507.0,1500.0,1314.48,1501.0
2.418833017349243,161,95,0.005050505050505051,1508.0,1500.0,1317.2,1501.0
2.4425199031829834,161,95,0.004629629629629629,1509.0,1500.0,1315.9200000000001,1501.0
2.466247081756592,161,94,0.004629629629629629,1510.0,1500.0,1318.6400000000001,1501.0
2.4898550510406494,161,94,0.0053475935828877,1511.0,1500.0,1320.1600000000001,1501.0
2.5134799480438232,161,93,0.004629629629629629,1512.0,1500.0,1324.3199999999999,1501.0
2.537363052368164,161,93,0.004629629629629629,1512.0,1500.0,1324.48,1501.0
2.561000108718872,161,93,0.005050505050505051,1513.0,1500.0,1326.0,1501.0
2.5845999717712402,162,93,0.004545454545454545,1516.0,1500.0,1324.72,1502.0
2.608227014541626,162,92,0.005050505050505051,1516.0,1500.0,1326.0799999999999,1502.0
2.632066011428833,162,92,0.005050505050505051,1517.0,1500.0,1323.4400000000001,1502.0
2.6557230949401855,162,92,0.005050505050505051,1518.0,1500.0,1322.1600000000001,1502.0
2.6794750690460205,162,91,0.004629629629629629,1519.0,1500.0,1323.52,1502.0
2.703126907348633,162,91,0.005555555555555556,1520.0,1500.0,1325.04,1502.0
2.726933002471924,161,91,0.006060606060606061,1518.0,1500.0,1323.76,1501.0
2.7507450580596924,162,90,0.004629629629629629,1520,1500.0,1326.48,1502.0
2.7743000984191895,162,89,0.005555555555555556,1520,1500.0,1330.6400000000001,1502.0
2.7978360652923584,162,89,0.004784688995215311,1520,1500.0,1330.8,1502.0
2.8214659690856934,161,88,0.005555555555555556,1520.0,1500.0,1333.5999999999999,1501.0
2.8450989723205566,161,88,0.005050505050505051,1519.0,1500.0,1336.5599999999999,1501.0
2.869328022003174,162,87,0.005050505050505051,1520,1500.0,1339.3599999999999,1502.0
2.8929331302642822,162,87,0.004784688995215311,1520,1500.0,1338.1600000000001,1502.0
2.9164810180664062,161,87,0.005681818181818182,1518.0,1500.0,1338.3199999999999,1501.0
2.9401090145111084,162,87,0.0053475935828877,1520.0,1500.0,1335.6800000000001,1502.0
2.9637529850006104,161,86,0.005555555555555556,1518.0,1500.0,1335.6800000000001,1501.0
2.9874680042266846,161,86,0.005555555555555556,1517.0,1500.0,1333.04,1501.0
3.0110950469970703,162,86,0.005050505050505051,1519.0,1500.0,1331.76,1502.0
3.0347349643707275,162,86,0.004784688995215311,1519.0,1500.0,1330.48,1502.0
3.058385133743286,161,86,0.005050505050505051,1517.0,1500.0,1330.5599999999999,1501.0
3.0821220874786377,161,86,0.0053475935828877,1517.0,1500.0,1327.8399999999999,1501.0
3.1055359840393066,161,86,0.004784688995215311,1516.0,1500.0,1326.48,1501.0
3.128904104232788,160,85,0.005050505050505051,1512.0,1500.0,1327.76,1500.0
3.15231990814209,160,85,0.005050505050505051,1511.0,1500.0,1327.8399999999999,1500.0
3.1756770610809326,160,85,0.005050505050505051,1509.0,1500.0,1327.9200000000001,1500.0
3.1990880966186523,160,86,0.005050505050505051,1508.0,1500.0,1326.72,1500.0
3.22251296043396,160,86,0.0053475935828877,1507.0,1500.0,1326.72,1500.0
3.2458410263061523,159,86,0.005050505050505051,1502.0,1500.0,1323.9200000000001,1499.0
3.2692689895629883,159,86,0.005050505050505051,1499.0,1500.0,1321.1199999999999,1499.0
3.292736053466797,159,86,0.005050505050505051,1497.0,1500.0,1318.3199999999999,1499.0
3.3160810470581055,159,86,0.005050505050505051,1495.0,1500.0,1318.3199999999999,1499.0
3.339524984359741,160,86,0.004784688995215311,1496.0,1500.0,1318.3199999999999,1500.0
3.3629839420318604,159,86,0.005050505050505051,1493.0,1500.0,1319.6800000000001,1499.0
3.38633394241333,159,85,0.005050505050505051,1492.0,1500.0,1323.6800000000001,1499.0
3.4097421169281006,159,85,0.005050505050505051,1491.0,1500.0,1326.48,1499.0
3.433176040649414,159,85,0.005050505050505051,1490.0,1500.0,1327.9200000000001,1499.0
3.4565351009368896,159,85,0.005050505050505051,1489.0,1500.0,1329.3599999999999,1499.0
3.479910135269165,159,85,0.004545454545454545,1489.0,1500.0,1330.8,1499.0
3.5032401084899902,159,85,0.005555555555555556,1489.0,1500.0,1329.4400000000001,1499.0
3.526607036590576,158,85,0.004629629629629629,1486.0,1500.0,1328.0799999999999,1498.0
3.549959897994995,159,86,0.004545454545454545,1488.0,1500.0,1324.0799999999999,1499.0
3.5733189582824707,159,86,0.004784688995215311,1487.0,1500.0,1321.28,1499.0
3.596666097640991,159,86,0.004784688995215311,1487.0,1500.0,1318.48,1499.0
3.6200010776519775,159,86,0.004784688995215311,1487.0,1500.0,1317.04,1499.0
3.6433300971984863,158,86,0.005050505050505051,1484.0,1500.0,1315.5999999999999,1498.0
3.6666879653930664,158,85,0.004629629629629629,1483.0,1500.0,1319.5999999999999,1498.0
3.690048933029175,158,85,0.005050505050505051,1482.0,1500.0,1322.4000000000001,1498.0
3.7216720581054688,158,85,0.005050505050505051,1481.0,1500.0,1325.2,1498.0
3.7451679706573486,159,85,0.004784688995215311,1483.0,1500.0,1328.0,1499.0
3.768522024154663,158,85,0.004629629629629629,1481.0,1500.0,1330.8,1498.0
3.7920329570770264,159,85,0.0043859649122807015,1483.0,1500.0,1329.4400000000001,1499.0
3.815385103225708,158,86,0.005050505050505051,1480.0,1500.0,1325.4400000000001,1498.0
3.8388359546661377,158,86,0.005050505050505051,1480,1500.0,1322.6400000000001,1498.0
3.862257957458496,158,87,0.004545454545454545,1480,1500.0,1317.2,1498.0
3.885538101196289,158,86,0.0043859649122807015,1480,1500.0,1315.5999999999999,1498.0
3.9088380336761475,158,86,0.004166666666666667,1480,1500.0,1314.1600000000001,1498.0
3.9321460723876953,158,86,0.004629629629629629,1480,1500.0,1315.52,1498.0
3.955404043197632,158,86,0.004166666666666667,1480,1500.0,1316.8800000000001,1498.0
3.9786829948425293,158,86,0.004629629629629629,1480,1500.0,1321.04,1498.0
4.002101898193359,159,85,0.004166666666666667,1480.0,1500.0,1325.04,1499.0
4.025455951690674,159,86,0.004784688995215311,1480.0,1500.0,1325.2,1499.0
4.048864126205444,159,85,0.0043859649122807015,1481.0,1500.0,1327.8399999999999,1499.0
4.072356939315796,159,85,0.0043859649122807015,1482.0,1500.0,1329.28,1499.0
4.095729112625122,159,85,0.004166666666666667,1483.0,1500.0,1329.3599999999999,1499.0
4.119127988815308,159,85,0.004166666666666667,1484.0,1500.0,1328.0,1499.0
4.142539978027344,159,86,0.004048582995951417,1485.0,1500.0,1326.8,1499.0
4.165904998779297,159,86,0.0043859649122807015,1486.0,1500.0,1324.0,1499.0
4.189276933670044,159,86,0.004166666666666667,1487.0,1500.0,1321.2,1499.0
4.212707996368408,159,86,0.004629629629629629,1488.0,1500.0,1318.4000000000001,1499.0
4.2360451221466064,159,86,0.004166666666666667,1488.0,1500.0,1316.96,1499.0
4.259424924850464,160,87,0.004048582995951417,1491.0,1500.0,1314.3199999999999,1500.0
4.282848119735718,160,86,0.0043859649122807015,1492.0,1500.0,1316.8800000000001,1500.0
4.306242942810059,160,87,0.004545454545454545,1493.0,1500.0,1315.5999999999999,1500.0
4.329687118530273,160,86,0.0043859649122807015,1494.0,1500.0,1318.1600000000001,1500.0
4.353121995925903,160,86,0.004166666666666667,1495.0,1500.0,1319.52,1500.0
4.3764729499816895,160,87,0.0038461538461538464,1496.0,1500.0,1319.6800000000001,1500.0
4.399815082550049,161,87,0.003663003663003663,1500.0,1500.0,1318.24,1501.0
4.4231250286102295,161,87,0.0043859649122807015,1502.0,1500.0,1319.5999999999999,1501.0
4.446502923965454,160,87,0.004629629629629629,1501.0,1500.0,1318.1600000000001,1500.0
4.469851970672607,161,88,0.0038461538461538464,1505.0,1500.0,1314.0799999999999,1501.0
4.493195056915283,161,88,0.0038461538461538464,1506.0,1500.0,1312.6400000000001,1501.0
4.516528129577637,161,87,0.004166666666666667,1507.0,1500.0,1315.2,1501.0
4.539863109588623,161,87,0.004166666666666667,1508.0,1500.0,1315.2,1501.0
4.563214063644409,161,88,0.0038461538461538464,1509.0,1500.0,1313.9200000000001,1501.0
4.5865559577941895,162,88,0.004329004329004329,1513.0,1500.0,1316.6400000000001,1502.0
4.6099019050598145,161,87,0.004166666666666667,1512.0,1500.0,1320.6400000000001,1501.0
4.633224964141846,161,87,0.004166666666666667,1512.0,1500.0,1320.6400000000001,1501.0
4.6565680503845215,161,87,0.0043859649122807015,1512.0,1500.0,1320.6400000000001,1501.0
4.679919958114624,161,87,0.0043859649122807015,1513.0,1500.0,1323.4400000000001,1501.0
4.703269004821777,161,86,0.0043859649122807015,1513.0,1500.0,1327.52,1501.0
4.726633071899414,161,86,0.0043859649122807015,1513.0,1500.0,1327.5999999999999,1501.0
4.749975919723511,160,86,0.004629629629629629,1510.0,1500.0,1329.04,1500.0
4.773324966430664,161,86,0.0043859649122807015,1512.0,1500.0,1330.48,1501.0
4.7966530323028564,161,86,0.004166666666666667,1512.0,1500.0,1330.5599999999999,1501.0
4.8199989795684814,161,87,0.004784688995215311,1511.0,1500.0,1325.2,1501.0
4.84332013130188,161,87,0.0043859649122807015,1511.0,1500.0,1322.4000000000001,1501.0
4.866678953170776,160,87,0.004166666666666667,1508.0,1500.0,1319.5999999999999,1500.0
4.890330076217651,160,88,0.0043859649122807015,1507.0,1500.0,1314.1600000000001,1500.0
4.913708925247192,160,88,0.004784688995215311,1506.0,1500.0,1309.9200000000001,1500.0
4.937040090560913,160,88,0.004545454545454545,1505.0,1500.0,1309.8399999999999,1500.0
4.960365056991577,160,88,0.004784688995215311,1504.0,1500.0,1309.76,1500.0
4.983698129653931,160,88,0.0043859649122807015,1504.0,1500.0,1309.6800000000001,1500.0
5.007030963897705,160,88,0.004784688995215311,1503.0,1500.0,1312.4000000000001,1500.0
5.0303730964660645,159,87,0.004629629629629629,1499.0,1500.0,1317.76,1499.0
5.053797960281372,160,88,0.004545454545454545,1500.0,1500.0,1317.9200000000001,1500.0
5.077155113220215,160,88,0.004166666666666667,1499.0,1500.0,1319.28,1500.0
5.100659132003784,160,88,0.004166666666666667,1499.0,1500.0,1320.6400000000001,1500.0
5.124157905578613,160,88,0.0043859649122807015,1499.0,1500.0,1320.6400000000001,1500.0
5.14749813079834,160,89,0.004784688995215311,1499.0,1500.0,1315.2,1500.0
5.170856952667236,160,88,0.0043859649122807015,1499.0,1500.0,1316.4000000000001,1500.0
5.194188117980957,160,88,0.0043859649122807015,1499.0,1500.0,1316.4000000000001,1500.0
5.2175071239471436,160,88,0.0043859649122807015,1499.0,1500.0,1316.4000000000001,1500.0
5.240902900695801,160,88,0.004784688995215311,1499.0,1500.0,1316.4000000000001,1500.0
5.264249086380005,160,88,0.0043859649122807015,1500.0,1500.0,1320.5599999999999,1500.0
5.287642002105713,160,88,0.0043859649122807015,1500.0,1500.0,1320.5599999999999,1500.0
5.311043977737427,161,88,0.003968253968253968,1503.0,1500.0,1320.5599999999999,1501.0
5.334402084350586,160,88,0.0043859649122807015,1501.0,1500.0,1320.5599999999999,1500.0
5.357795000076294,160,88,0.0043859649122807015,1501.0,1500.0,1320.5599999999999,1500.0
5.381170034408569,160,88,0.0043859649122807015,1501.0,1500.0,1319.2,1500.0
5.404524087905884,160,89,0.004545454545454545,1501.0,1500.0,1316.5599999999999,1500.0
5.42789101600647,160,89,0.003663003663003663,1501.0,1500.0,1315.1199999999999,1500.0
5.4512529373168945,159,88,0.004166666666666667,1498.0,1500.0,1316.3199999999999,1499.0
5.474653959274292,159,89,0.004545454545454545,1497.0,1500.0,1313.6800000000001,1499.0
5.497996091842651,159,89,0.004784688995215311,1496.0,1500.0,1312.24,1499.0
5.521344900131226,158,88,0.004629629629629629,1492.0,1500.0,1316.24,1498.0
5.544704914093018,159,89,0.0043859649122807015,1492.0,1500.0,1316.4000000000001,1499.0
5.568079948425293,159,89,0.0043859649122807015,1491.0,1500.0,1314.96,1499.0
5.591592073440552,159,89,0.0043859649122807015,1490.0,1500.0,1316.3199999999999,1499.0
5.614964008331299,159,89,0.0043859649122807015,1489.0,1500.0,1317.6800000000001,1499.0
5.638312101364136,159,89,0.0043859649122807015,1488.0,1500.0,1314.8800000000001,1499.0
5.661946058273315,159,89,0.0043859649122807015,1487.0,1500.0,1314.8800000000001,1499.0
5.685297012329102,160,90,0.004329004329004329,1490.0,1500.0,1313.5999999999999,1500.0
5.708653926849365,159,89,0.0043859649122807015,1488.0,1500.0,1314.8,1499.0
5.73212194442749,159,89,0.0038461538461538464,1488.0,1500.0,1314.8,1499.0
5.755501985549927,160,89,0.003968253968253968,1492.0,1500.0,1316.1600000000001,1500.0
5.778968095779419,160,89,0.0043859649122807015,1493.0,1500.0,1316.1600000000001,1500.0
5.802380084991455,160,89,0.0038461538461538464,1494.0,1500.0,1318.96,1500.0
5.825721025466919,160,89,0.004048582995951417,1495.0,1500.0,1318.96,1500.0
5.849124908447266,160,89,0.003663003663003663,1496.0,1500.0,1318.96,1500.0
5.872550010681152,160,89,0.003663003663003663,1497.0,1500.0,1318.96,1500.0
5.89591908454895,159,89,0.004048582995951417,1495.0,1500.0,1318.96,1499.0
5.919328927993774,159,88,0.004166666666666667,1494.0,1500.0,1320.24,1499.0
5.9427618980407715,159,88,0.0043859649122807015,1494.0,1500.0,1321.6800000000001,1499.0
5.966154098510742,159,88,0.0043859649122807015,1494.0,1500.0,1323.1199999999999,1499.0
5.989567041397095,159,88,0.0038461538461538464,1493.0,1500.0,1324.5599999999999,1499.0
6.012985944747925,159,88,0.0038461538461538464,1492.0,1500.0,1326.0,1499.0
6.036633014678955,160,88,0.0038461538461538464,1494.0,1500.0,1324.6400000000001,1500.0
6.06002402305603,160,88,0.0038461538461538464,1494.0,1500.0,1323.28,1500.0
6.083430051803589,160,87,0.0038461538461538464,1494.0,1500.0,1324.5599999999999,1500.0
6.106797933578491,160,87,0.0038461538461538464,1494.0,1500.0,1324.6400000000001,1500.0
6.1301329135894775,161,87,0.003663003663003663,1498.0,1500.0,1324.72,1501.0
6.153468132019043,161,87,0.003663003663003663,1500.0,1500.0,1326.1600000000001,1501.0
6.1768059730529785,161,86,0.003968253968253968,1502.0,1500.0,1330.24,1501.0
6.200129985809326,161,86,0.0034965034965034965,1504.0,1500.0,1330.3199999999999,1501.0
6.223455905914307,162,85,0.003401360544217687,1509.0,1500.0,1333.04,1502.0
6.246791124343872,162,85,0.003968253968253968,1512.0,1500.0,1334.5599999999999,1502.0
6.270180940628052,161,85,0.0034965034965034965,1511.0,1500.0,1336.0799999999999,1501.0
6.293558120727539,162,84,0.003968253968253968,1515.0,1500.0,1337.4400000000001,1502.0
6.316901922225952,162,84,0.003968253968253968,1517.0,1500.0,1338.96,1502.0
6.340208053588867,160,87,0.007142857142857143,1513.0,1500.0,1329.76,1500.0
6.363554954528809,161,84,0.003968253968253968,1515.0,1500.0,1332.0799999999999,1501.0
6.386936902999878,161,85,0.003663003663003663,1515.0,1500.0,1328.1600000000001,1501.0
6.410269021987915,160,85,0.0035714285714285713,1512.0,1500.0,1324.0,1500.0
6.433600902557373,160,85,0.0034965034965034965,1511.0,1500.0,1319.8399999999999,1500.0
6.456934928894043,161,84,0.003968253968253968,1512.0,1500.0,1328.0799999999999,1501.0
6.480292081832886,160,84,0.004048582995951417,1508.0,1500.0,1326.72,1500.0
6.5036139488220215,160,83,0.003787878787878788,1507.0,1500.0,1330.8,1500.0
6.526947021484375,160,83,0.0038461538461538464,1505.0,1500.0,1335.04,1500.0
6.550295114517212,160,82,0.003968253968253968,1503.0,1500.0,1341.9200000000001,1500.0
6.573663949966431,160,82,0.0034965034965034965,1503.0,1500.0,1340.72,1500.0
6.597495079040527,160,84,0.005291005291005291,1502.0,1500.0,1338.3199999999999,1500.0
6.620883941650391,160,82,0.003968253968253968,1501.0,1500.0,1339.4400000000001,1500.0
6.644202947616577,160,83,0.003663003663003663,1501.0,1500.0,1335.52,1500.0
6.667551040649414,160,83,0.0034965034965034965,1501.0,1500.0,1330.0,1500.0
6.690890073776245,159,83,0.0038461538461538464,1497.0,1500.0,1325.8399999999999,1499.0
6.7142510414123535,160,83,0.003663003663003663,1499.0,1500.0,1327.28,1500.0
6.737567901611328,160,83,0.003968253968253968,1499.0,1500.0,1324.48,1500.0
6.7609169483184814,159,82,0.004166666666666667,1496.0,1500.0,1327.1199999999999,1499.0
6.784286022186279,160,82,0.003663003663003663,1498.0,1500.0,1329.9200000000001,1500.0
6.807615041732788,161,82,0.003663003663003663,1501.0,1500.0,1332.72,1501.0
6.830996036529541,160,81,0.003968253968253968,1499.0,1500.0,1335.4400000000001,1500.0
6.854326009750366,160,82,0.0034965034965034965,1499.0,1500.0,1337.04,1500.0
6.877691984176636,159,82,0.0038461538461538464,1496.0,1500.0,1335.6800000000001,1499.0
6.901087999343872,159,82,0.0043859649122807015,1495.0,1500.0,1334.3199999999999,1499.0
6.924453020095825,159,83,0.0034965034965034965,1495.0,1500.0,1330.3199999999999,1499.0
6.947822093963623,159,84,0.0038461538461538464,1494.0,1500.0,1322.0799999999999,1499.0
6.971185922622681,159,84,0.003663003663003663,1493.0,1500.0,1317.8399999999999,1499.0
6.994537115097046,159,84,0.0034965034965034965,1493.0,1500.0,1314.96,1499.0
7.017859935760498,158,84,0.0038461538461538464,1489.0,1500.0,1312.0799999999999,1498.0
7.041230916976929,158,85,0.004132231404958678,1486.0,1500.0,1309.3599999999999,1498.0
7.064657926559448,158,84,0.003663003663003663,1484.0,1500.0,1314.6400000000001,1498.0
7.087985992431641,158,84,0.003663003663003663,1482.0,1500.0,1317.3599999999999,1498.0
7.111340045928955,158,84,0.005291005291005291,1481.0,1500.0,1320.0799999999999,1498.0
7.13467001914978,158,86,0.004329004329004329,1480.0,1500.0,1317.52,1498.0
7.158010959625244,157,86,0.0034965034965034965,1480,1500.0,1318.8,1497.0
7.181697130203247,157,86,0.0034965034965034965,1480,1500.0,1315.9200000000001,1497.0
7.204986095428467,158,90,0.009523809523809525,1480,1500.0,1302.48,1498.0
7.2282280921936035,157,86,0.0034965034965034965,1480,1500.0,1304.4000000000001,1497.0
7.251617908477783,157,86,0.0034965034965034965,1480,1500.0,1307.1199999999999,1497.0
7.274914026260376,157,86,0.0034965034965034965,1480,1500.0,1308.48,1497.0
7.298228979110718,157,86,0.0034965034965034965,1480,1500.0,1311.2,1497.0
7.321619987487793,157,86,0.003246753246753247,1480,1500.0,1325.1199999999999,1497.0
7.344931125640869,157,87,0.003246753246753247,1480,1500.0,1325.2,1497.0
7.368199110031128,157,87,0.003246753246753247,1480,1500.0,1323.76,1497.0
7.391597032546997,158,88,0.0031746031746031746,1480,1500.0,1319.6800000000001,1498.0
7.414854049682617,158,88,0.003401360544217687,1480,1500.0,1316.8,1498.0
7.438117980957031,158,87,0.003105590062111801,1480,1500.0,1311.1199999999999,1498.0
7.4615960121154785,158,87,0.003246753246753247,1480,1500.0,1312.48,1498.0
7.4848949909210205,158,88,0.003246753246753247,1480,1500.0,1311.2,1498.0
7.508143901824951,159,88,0.003401360544217687,1480,1500.0,1313.9200000000001,1499.0
7.5315070152282715,159,87,0.002976190476190476,1480,1500.0,1319.28,1499.0
7.554765939712524,159,87,0.003205128205128205,1480,1500.0,1320.6400000000001,1499.0
7.578027963638306,160,88,0.003663003663003663,1484.0,1500.0,1318.0,1500.0
7.601361989974976,159,88,0.003787878787878788,1484.0,1500.0,1319.3599999999999,1499.0
7.624725103378296,160,87,0.0030303030303030303,1488.0,1500.0,1322.0,1500.0
7.6480419635772705,161,87,0.002898550724637681,1493.0,1500.0,1320.6400000000001,1501.0
7.6714019775390625,160,87,0.0031746031746031746,1493.0,1500.0,1320.6400000000001,1500.0
7.6947410106658936,160,87,0.003246753246753247,1495.0,1500.0,1323.4400000000001,1500.0
7.7181010246276855,160,87,0.003246753246753247,1497.0,1500.0,1324.8800000000001,1500.0
7.741545915603638,161,88,0.002898550724637681,1501.0,1500.0,1320.8800000000001,1501.0
7.764923095703125,160,86,0.003246753246753247,1500.0,1500.0,1324.72,1500.0
7.788245916366577,161,88,0.003105590062111801,1504.0,1500.0,1320.8800000000001,1501.0
7.811707019805908,161,89,0.004132231404958678,1505.0,1500.0,1315.4400000000001,1501.0
7.835066080093384,161,89,0.003787878787878788,1507.0,1500.0,1311.2,1501.0
7.858413934707642,162,87,0.003105590062111801,1511.0,1500.0,1316.4000000000001,1502.0
7.88186502456665,160,87,0.0035714285714285713,1506.0,1500.0,1313.5999999999999,1500.0
7.905219078063965,161,87,0.002840909090909091,1509.0,1500.0,1316.4000000000001,1501.0
7.9285359382629395,162,87,0.002976190476190476,1513.0,1500.0,1322.0,1502.0
7.952007055282593,161,89,0.004761904761904762,1512.0,1500.0,1322.3199999999999,1501.0
7.975358963012695,162,86,0.003246753246753247,1515.0,1500.0,1326.0,1502.0
7.998687028884888,162,87,0.003246753246753247,1517.0,1500.0,1326.1600000000001,1502.0
8.02212905883789,163,87,0.003105590062111801,1520,1500.0,1324.8,1503.0
8.045423030853271,161,90,0.005555555555555556,1517.0,1500.0,1314.1600000000001,1501.0
8.068912982940674,163,88,0.009523809523809525,1520,1500.0,1318.0,1503.0
8.092234134674072,162,89,0.003787878787878788,1520,1500.0,1311.1199999999999,1502.0
8.115514039993286,162,87,0.003246753246753247,1520,1500.0,1313.52,1502.0
8.138889074325562,163,85,0.005050505050505051,1520,1500.0,1318.8,1503.0
8.162300109863281,163,87,0.003105590062111801,1520,1500.0,1324.8,1503.0
8.185554027557373,162,90,0.005050505050505051,1520,1500.0,1316.96,1502.0
8.208852052688599,162,87,0.003246753246753247,1520,1500.0,1327.52,1502.0
8.232183933258057,163,88,0.0036231884057971015,1520,1500.0,1324.8800000000001,1503.0
8.255422115325928,163,87,0.003105590062111801,1520,1500.0,1320.48,1503.0
8.27869701385498,163,88,0.0033444816053511705,1520,1500.0,1313.76,1503.0
8.302105903625488,162,88,0.003401360544217687,1520,1500.0,1319.3599999999999,1502.0
8.325371026992798,162,88,0.003401360544217687,1520,1500.0,1315.2,1502.0
8.34860610961914,162,88,0.003246753246753247,1520,1500.0,1316.5599999999999,1502.0
8.37230896949768,162,89,0.0034965034965034965,1520,1500.0,1315.2,1502.0
8.39557409286499,163,88,0.0033444816053511705,1520,1500.0,1317.76,1503.0
8.418864965438843,163,87,0.003105590062111801,1520,1500.0,1317.6800000000001,1503.0
8.442209005355835,163,87,0.003968253968253968,1520,1500.0,1320.48,1503.0
8.4654541015625,162,85,0.004761904761904762,1520,1500.0,1327.2,1502.0
8.488771915435791,162,87,0.0033444816053511705,1520,1500.0,1330.4000000000001,1502.0
8.512108087539673,161,87,0.0034965034965034965,1520,1500.0,1331.8399999999999,1501.0
8.535365104675293,162,87,0.0033444816053511705,1520,1500.0,1330.48,1502.0
8.558593988418579,161,87,0.0034965034965034965,1520,1500.0,1329.1199999999999,1501.0
8.581984996795654,161,87,0.0033444816053511705,1520,1500.0,1322.1600000000001,1501.0
8.605262994766235,160,84,0.006802721088435374,1518.0,1500.0,1327.3599999999999,1500.0
8.628688097000122,160,85,0.004329004329004329,1515.0,1500.0,1327.6800000000001,1500.0
8.652360916137695,160,90,0.006493506493506494,1512.0,1500.0,1317.3599999999999,1500.0
8.675791025161743,160,86,0.003246753246753247,1509.0,1500.0,1323.5999999999999,1500.0
8.699230909347534,160,86,0.003105590062111801,1507.0,1500.0,1327.76,1500.0
8.722640037536621,159,87,0.0034965034965034965,1502.0,1500.0,1318.1600000000001,1499.0
8.74596905708313,160,87,0.0033444816053511705,1503.0,1500.0,1312.5599999999999,1500.0
8.76937198638916,159,84,0.005434782608695652,1498.0,1500.0,1328.8800000000001,1499.0
8.79279899597168,158,85,0.006493506493506494,1493.0,1500.0,1327.76,1498.0
8.816147089004517,158,85,0.0036231884057971015,1490.0,1500.0,1327.8399999999999,1498.0
8.839630126953125,158,86,0.003105590062111801,1488.0,1500.0,1332.1600000000001,1498.0
8.86313009262085,157,83,0.006802721088435374,1483.0,1500.0,1344.24,1497.0
8.886466026306152,158,86,0.003105590062111801,1483.0,1500.0,1329.5999999999999,1498.0
8.909801959991455,157,86,0.003246753246753247,1480,1500.0,1326.8,1497.0
8.933064937591553,157,87,0.0033444816053511705,1480,1500.0,1321.3599999999999,1497.0
8.956326961517334,157,88,0.0033444816053511705,1480,1500.0,1315.9200000000001,1497.0
8.979655027389526,157,88,0.0034965034965034965,1480,1500.0,1303.28,1497.0
9.002980947494507,156,89,0.004545454545454545,1480,1500.0,1300.48,1496.0
9.026288986206055,156,90,0.005555555555555556,1480,1500.0,1294.8800000000001,1496.0
9.049736022949219,156,87,0.003205128205128205,1480,1500.0,1301.2,1496.0
9.073086023330688,155,88,0.004132231404958678,1480,1500.0,1302.72,1495.0
9.096364974975586,156,86,0.0033444816053511705,1480,1500.0,1314.8,1496.0
9.119683027267456,156,85,0.0036231884057971015,1480,1500.0,1325.8399999999999,1496.0
9.143022060394287,156,86,0.003105590062111801,1480,1500.0,1335.8399999999999,1496.0
9.16632604598999,155,86,0.003663003663003663,1480,1500.0,1337.28,1495.0
9.189614057540894,155,85,0.003246753246753247,1480,1500.0,1342.8,1495.0
9.212969064712524,156,86,0.002898550724637681,1480,1500.0,1338.8800000000001,1496.0
9.236216068267822,156,86,0.003401360544217687,1480,1500.0,1332.0,1496.0
9.259493112564087,156,83,0.006493506493506494,1480,1500.0,1334.48,1496.0
9.282840967178345,155,89,0.005291005291005291,1480,1500.0,1321.5999999999999,1495.0
9.306198120117188,158,90,0.007352941176470588,1480,1500.0,1309.1199999999999,1498.0
9.329905033111572,155,86,0.0035714285714285713,1480,1500.0,1313.9200000000001,1495.0
9.353485107421875,155,86,0.003663003663003663,1480,1500.0,1315.28,1495.0
9.37703013420105,157,87,0.002898550724637681,1480,1500.0,1304.24,1497.0
9.400564908981323,157,87,0.0036231884057971015,1480,1500.0,1311.2,1497.0
9.424113035202026,157,85,0.004132231404958678,1480,1500.0,1327.5999999999999,1497.0
9.447675943374634,158,85,0.002898550724637681,1480,1500.0,1329.04,1498.0
9.471322059631348,157,83,0.003105590062111801,1480,1500.0,1335.76,1497.0
9.494858980178833,157,81,0.005681818181818182,1480,1500.0,1350,1497.0
9.518317937850952,158,82,0.003246753246753247,1480,1500.0,1350,1498.0
9.541933059692383,158,83,0.002717391304347826,1480,1500.0,1350,1498.0
9.565721988677979,159,84,0.002898550724637681,1480,1500.0,1349.28,1499.0
9.589350938796997,158,81,0.004761904761904762,1480,1500.0,1350,1498.0
9.612868070602417,159,84,0.003246753246753247,1480,1500.0,1335.5999999999999,1499.0
9.636452913284302,159,85,0.003105590062111801,1480,1500.0,1323.28,1499.0
9.660027027130127,155,86,0.008547008547008548,1480,1500.0,1315.04,1495.0
9.68359899520874,160,85,0.002976190476190476,1480.0,1500.0,1313.4400000000001,1500.0
9.70718502998352,158,84,0.0043859649122807015,1480,1500.0,1307.5999999999999,1498.0
9.730752944946289,158,81,0.006944444444444444,1480,1500.0,1319.5999999999999,1498.0
9.754321098327637,160,85,0.004329004329004329,1484.0,1500.0,1318.8800000000001,1500.0
9.777943134307861,161,85,0.003205128205128205,1489.0,1500.0,1324.4000000000001,1501.0
9.801788091659546,161,83,0.002898550724637681,1491.0,1500.0,1331.04,1501.0
9.825423955917358,160,83,0.0030303030303030303,1491.0,1500.0,1336.5599999999999,1500.0
9.849119901657104,162,83,0.002717391304347826,1498.0,1500.0,1329.5999999999999,1502.0
9.872812986373901,162,83,0.0026041666666666665,1501.0,1500.0,1332.48,1502.0
9.896440982818604,161,84,0.003787878787878788,1505.0,1500.0,1331.3599999999999,1501.0
9.920089960098267,162,82,0.003787878787878788,1509.0,1500.0,1332.48,1502.0
9.943712949752808,158,80,0.01020408163265306,1501.0,1500.0,1337.8399999999999,1498.0
9.96735692024231,159,82,0.004629629629629629,1504.0,1500.0,1339.5999999999999,1499.0
9.991014957427979,159,81,0.006944444444444444,1503.0,1500.0,1340.96,1499.0
10.014641046524048,160,88,0.005291005291005291,1504.0,1500.0,1325.4400000000001,1500.0
10.038249969482422,160,84,0.003246753246753247,1503.0,1500.0,1326.0,1500.0
10.062151908874512,158,84,0.006060606060606061,1497.0,1500.0,1316.1600000000001,1498.0
10.086067914962769,158,86,0.009259259259259259,1493.0,1500.0,1306.6400000000001,1498.0
10.10999608039856,160,88,0.005555555555555556,1495.0,1500.0,1291.4400000000001,1500.0
10.133610963821411,160,83,0.004545454545454545,1494.0,1500.0,1310.0799999999999,1500.0
10.157247066497803,158,89,0.006172839506172839,1486.0,1500.0,1298.4000000000001,1498.0
10.180978059768677,161,88,0.003952569169960474,1495.0,1500.0,1299.28,1501.0
10.204617977142334,161,88,0.004132231404958678,1497.0,1500.0,1301.8399999999999,1501.0
10.228346109390259,161,88,0.002777777777777778,1499.0,1500.0,1311.3599999999999,1501.0
10.252084016799927,160,87,0.0031746031746031746,1497.0,1500.0,1300.0,1500.0
10.275728940963745,160,86,0.005050505050505051,1497.0,1500.0,1312.3199999999999,1500.0
10.299443006515503,160,87,0.0031746031746031746,1499.0,1500.0,1318.0,1500.0
10.32309889793396,160,88,0.004329004329004329,1501.0,1500.0,1319.52,1500.0
10.346811056137085,160,86,0.0034965034965034965,1501.0,1500.0,1324.8,1500.0
10.370444059371948,160,86,0.0034965034965034965,1501.0,1500.0,1331.6800000000001,1500.0
10.394071102142334,158,85,0.008928571428571428,1497.0,1500.0,1330.24,1498.0
10.417686939239502,161,84,0.004761904761904762,1503.0,1500.0,1334.4000000000001,1501.0
10.44214391708374,162,86,0.005952380952380952,1506.0,1500.0,1334.8800000000001,1502.0
10.465820074081421,161,85,0.005847953216374269,1504.0,1500.0,1334.8,1501.0
10.489485025405884,162,87,0.002976190476190476,1508.0,1500.0,1329.5999999999999,1502.0
10.513175964355469,163,89,0.003952569169960474,1513.0,1500.0,1320.0799999999999,1503.0
10.536804914474487,161,89,0.003663003663003663,1510.0,1500.0,1308.8,1501.0
10.56053900718689,162,86,0.0034965034965034965,1514.0,1500.0,1309.6800000000001,1502.0
10.584185123443604,164,92,0.010416666666666666,1520,1500.0,1291.04,1504.0
10.607742071151733,163,87,0.0033444816053511705,1520,1500.0,1298.4000000000001,1503.0
10.63138198852539,161,84,0.005,1520,1500.0,1314.6400000000001,1501.0
10.654900074005127,157,90,0.011111111111111112,1510.0,1500.0,1312.8,1497.0
10.67855191230774,162,92,0.007936507936507936,1520.0,1500.0,1301.76,1502.0
10.702306985855103,161,87,0.0031746031746031746,1518.0,1500.0,1324.48,1501.0
10.7260000705719,162,87,0.003663003663003663,1520.0,1500.0,1324.48,1502.0
10.749948024749756,163,92,0.014705882352941176,1520,1500.0,1300.1600000000001,1503.0
10.77355694770813,159,86,0.003968253968253968,1512.0,1500.0,1314.48,1499.0
10.797181129455566,161,89,0.005050505050505051,1515.0,1500.0,1323.3599999999999,1501.0
10.820802927017212,161,87,0.003472222222222222,1512.0,1500.0,1318.96,1501.0
10.844440937042236,159,84,0.005,1504.0,1500.0,1326.8800000000001,1499.0
10.868060111999512,159,82,0.00625,1502.0,1500.0,1350,1499.0
10.891809940338135,162,83,0.005050505050505051,1513.0,1500.0,1350,1502.0
10.915342092514038,160,88,0.006493506493506494,1507.0,1500.0,1343.5999999999999,1500.0
10.939059972763062,161,86,0.004166666666666667,1509.0,1500.0,1347.4400000000001,1501.0
10.962804079055786,161,88,0.006493506493506494,1508.0,1500.0,1335.2,1501.0
10.986429929733276,162,84,0.004830917874396135,1509.0,1500.0,1323.52,1502.0
11.010082960128784,162,84,0.003952569169960474,1512.0,1500.0,1318.0,1502.0
11.033708095550537,165,89,0.01818181818181818,1520,1500.0,1309.2,1505.0
11.057276964187622,158,88,0.0078125,1505.0,1500.0,1306.1600000000001,1498.0
11.08096694946289,157,85,0.007407407407407408,1501.0,1500.0,1319.52,1497.0
11.104615926742554,163,92,0.008333333333333333,1517.0,1500.0,1302.3199999999999,1503.0
11.128247022628784,161,86,0.007246376811594203,1512.0,1500.0,1308.0,1501.0
11.152081966400146,161,86,0.0078125,1513.0,1500.0,1313.6800000000001,1501.0
11.17572808265686,161,93,0.006802721088435374,1513.0,1500.0,1300.8,1501.0
11.199420928955078,161,92,0.004830917874396135,1513.0,1500.0,1287.8399999999999,1501.0
11.223326921463013,161,91,0.007575757575757576,1512.0,1500.0,1301.3599999999999,1501.0
11.24714207649231,159,89,0.004545454545454545,1505.0,1500.0,1302.1600000000001,1499.0
11.270883083343506,160,89,0.004132231404958678,1502.0,1500.0,1293.76,1500.0
11.294559001922607,159,85,0.007142857142857143,1501.0,1500.0,1316.8800000000001,1499.0
11.318485021591187,161,89,0.005291005291005291,1509.0,1500.0,1325.9200000000001,1501.0
11.342631101608276,159,86,0.003663003663003663,1501.0,1500.0,1335.3599999999999,1499.0
11.366290092468262,160,84,0.004761904761904762,1502.0,1500.0,1349.04,1500.0
11.38990592956543,159,83,0.005555555555555556,1498.0,1500.0,1350,1499.0
11.413454055786133,156,83,0.008333333333333333,1487.0,1500.0,1350,1496.0
11.437005043029785,158,85,0.0125,1488.0,1500.0,1350,1498.0
11.4605131149292,160,83,0.006802721088435374,1491.0,1500.0,1350,1500.0
11.484101057052612,156,84,0.017857142857142856,1480.0,1500.0,1346.1600000000001,1496.0
11.50776195526123,160,91,0.013157894736842105,1488.0,1500.0,1318.0799999999999,1500.0
11.531495094299316,161,85,0.0033444816053511705,1492.0,1500.0,1319.6800000000001,1501.0
11.555552959442139,160,85,0.004048582995951417,1489.0,1500.0,1314.24,1500.0
11.579694032669067,159,88,0.004132231404958678,1487.0,1500.0,1299.3599999999999,1499.0
11.603368997573853,156,81,0.015384615384615385,1480,1500.0,1312.0799999999999,1496.0
11.626934051513672,160,84,0.004132231404958678,1486.0,1500.0,1329.4400000000001,1500.0
11.650633096694946,164,89,0.015384615384615385,1502.0,1500.0,1320.4000000000001,1504.0
11.67427396774292,160,83,0.005681818181818182,1496.0,1500.0,1330.48,1500.0
11.69796895980835,160,87,0.008403361344537815,1496.0,1500.0,1333.9200000000001,1500.0
11.721707105636597,160,84,0.003968253968253968,1500.0,1500.0,1329.1199999999999,1500.0
11.745353937149048,160,87,0.005681818181818182,1500.0,1500.0,1311.6800000000001,1500.0
11.769048929214478,157,84,0.006535947712418301,1490.0,1500.0,1327.9200000000001,1497.0
11.79275393486023,160,85,0.0030303030303030303,1496.0,1500.0,1321.1199999999999,1500.0
11.816489934921265,159,88,0.005555555555555556,1494.0,1500.0,1314.72,1499.0
11.840112924575806,159,91,0.01,1497.0,1500.0,1305.1199999999999,1499.0
11.863747119903564,162,88,0.004784688995215311,1505.0,1500.0,1311.3599999999999,1502.0
11.887388944625854,160,83,0.006493506493506494,1497.0,1500.0,1312.0,1500.0
11.911010026931763,164,89,0.013333333333333334,1509.0,1500.0,1301.76,1504.0
11.93463397026062,159,84,0.005263157894736842,1498.0,1500.0,1314.8800000000001,1499.0
11.958550930023193,164,92,0.016666666666666666,1512.0,1500.0,1313.3599999999999,1504.0
11.98236608505249,159,89,0.003952569169960474,1501.0,1500.0,1316.8800000000001,1499.0
12.006035089492798,159,85,0.004347826086956522,1503.0,1500.0,1317.4400000000001,1499.0
12.029719114303589,158,85,0.0033333333333333335,1499.0,1500.0,1328.6400000000001,1498.0
12.053432941436768,162,91,0.011904761904761904,1510.0,1500.0,1305.9200000000001,1502.0
12.077109098434448,157,88,0.003663003663003663,1498.0,1500.0,1316.6400000000001,1497.0
12.100829124450684,158,92,0.0125,1496.0,1500.0,1308.8800000000001,1498.0
12.124458074569702,157,92,0.011904761904761904,1491.0,1500.0,1301.52,1497.0
12.14810299873352,157,89,0.005050505050505051,1484.0,1500.0,1293.9200000000001,1497.0
12.171946048736572,157,88,0.003787878787878788,1482.0,1500.0,1308.96,1497.0
12.195553064346313,156,91,0.007518796992481203,1480,1500.0,1295.5999999999999,1496.0
12.219162940979004,159,88,0.0037593984962406013,1480,1500.0,1309.04,1499.0
12.242784976959229,156,87,0.015625,1480,1500.0,1326.96,1496.0
12.266484022140503,157,87,0.0030303030303030303,1480,1500.0,1335.28,1497.0
12.290205955505371,157,88,0.0030303030303030303,1480,1500.0,1330.0,1497.0
12.313751935958862,157,88,0.004545454545454545,1480,1500.0,1338.4000000000001,1497.0
12.33732008934021,160,90,0.0078125,1480,1500.0,1327.6800000000001,1500.0
12.360950946807861,157,90,0.008333333333333333,1480,1500.0,1316.5599999999999,1497.0
12.38451099395752,158,84,0.00980392156862745,1480,1500.0,1325.3599999999999,1498.0
12.408139944076538,159,89,0.005050505050505051,1480,1500.0,1317.9200000000001,1499.0
12.431822061538696,157,86,0.005847953216374269,1480,1500.0,1320.3199999999999,1497.0
12.455435037612915,158,87,0.0030303030303030303,1480,1500.0,1326.1600000000001,1498.0
12.479068994522095,159,85,0.003401360544217687,1480,1500.0,1339.8399999999999,1499.0
12.502669095993042,158,82,0.005,1480,1500.0,1342.24,1498.0
12.52618408203125,158,83,0.008333333333333333,1480,1500.0,1350,1498.0
12.54971194267273,158,82,0.004784688995215311,1480,1500.0,1350,1498.0
12.573375940322876,158,83,0.002976190476190476,1480,1500.0,1350,1498.0
12.596926927566528,158,83,0.0034965034965034965,1480,1500.0,1350,1498.0
12.620403051376343,158,84,0.0029411764705882353,1480,1500.0,1345.04,1498.0
12.643988132476807,159,83,0.0030303030303030303,1480,1500.0,1338.0799999999999,1499.0
12.667573928833008,159,83,0.005952380952380952,1481.0,1500.0,1331.2,1499.0
12.691270112991333,158,88,0.003787878787878788,1480,1500.0,1312.5599999999999,1498.0
12.714911937713623,160,81,0.004761904761904762,1484.0,1500.0,1321.1199999999999,1500.0
12.738522052764893,159,84,0.003401360544217687,1483.0,1500.0,1320.24,1499.0
12.762373924255371,160,86,0.004132231404958678,1487.0,1500.0,1313.52,1500.0
12.786044120788574,159,85,0.00267379679144385,1486.0,1500.0,1313.2,1499.0
12.809715986251831,158,82,0.008928571428571428,1484.0,1500.0,1332.24,1498.0
12.833477973937988,160,89,0.0034965034965034965,1490.0,1500.0,1309.5999999999999,1500.0
12.857104063034058,158,89,0.008771929824561403,1486.0,1500.0,1302.4000000000001,1498.0
12.880727052688599,161,81,0.00980392156862745,1494.0,1500.0,1323.28,1501.0
12.904345989227295,165,62,0.02040816326530612,1508.0,1500.0,1350,1505.0
12.927917003631592,164,64,0.016666666666666666,1512.0,1500.0,1350,1504.0
12.951723098754883,159,90,0.005681818181818182,1501.0,1500.0,1350,1499.0
12.975297927856445,160,87,0.0033444816053511705,1504.0,1500.0,1350,1500.0
12.998868942260742,158,87,0.004166666666666667,1498.0,1500.0,1350,1498.0
13.02247405052185,161,84,0.005291005291005291,1506.0,1500.0,1314.0,1501.0
13.046068906784058,158,89,0.00980392156862745,1500.0,1500.0,1250,1498.0
13.069682121276855,160,90,0.004761904761904762,1504.0,1500.0,1250,1500.0
13.093286991119385,159,90,0.005952380952380952,1503.0,1500.0,1250,1499.0
13.116894006729126,159,88,0.003663003663003663,1501.0,1500.0,1250,1499.0
13.14043402671814,159,86,0.005555555555555556,1495.0,1500.0,1279.2,1499.0
13.164072036743164,160,85,0.008333333333333333,1493.0,1500.0,1320.1600000000001,1500.0
13.187976121902466,159,88,0.005291005291005291,1491.0,1500.0,1319.4400000000001,1499.0
13.211857080459595,160,92,0.004329004329004329,1493.0,1500.0,1315.8399999999999,1500.0
13.235490083694458,160,90,0.003401360544217687,1495.0,1500.0,1316.72,1500.0
13.259151935577393,160,90,0.003246753246753247,1494.0,1500.0,1313.6800000000001,1500.0
13.28285002708435,160,86,0.008403361344537815,1496.0,1500.0,1311.5999999999999,1500.0
13.306493997573853,160,94,0.011904761904761904,1496.0,1500.0,1290.6400000000001,1500.0
13.330188989639282,158,90,0.006944444444444444,1491.0,1500.0,1301.04,1498.0
13.353823900222778,161,87,0.010526315789473684,1499.0,1500.0,1311.6800000000001,1501.0
13.37747597694397,160,86,0.007936507936507936,1498.0,1500.0,1324.0799999999999,1500.0
13.401174068450928,158,93,0.014285714285714285,1492.0,1500.0,1306.96,1498.0
13.424803972244263,161,93,0.01,1500.0,1500.0,1316.5599999999999,1501.0
13.448421001434326,160,86,0.004629629629629629,1498.0,1500.0,1328.0,1500.0
13.47222089767456,164,83,0.007936507936507936,1510.0,1500.0,1333.28,1504.0
13.495867013931274,164,93,0.008928571428571428,1514.0,1500.0,1305.76,1504.0
13.519549131393433,164,87,0.004784688995215311,1518.0,1500.0,1331.1199999999999,1504.0
13.543239116668701,164,86,0.003246753246753247,1520,1500.0,1341.04,1504.0
13.566806077957153,165,87,0.003968253968253968,1520,1500.0,1332.96,1505.0
13.590348958969116,162,89,0.004629629629629629,1520,1500.0,1316.48,1502.0
13.61389708518982,164,86,0.0035714285714285713,1520,1500.0,1339.6800000000001,1504.0
