time,x,y,size_inv,roll,pitch,thrust,yaw
0.00047016143798828125,159,66,0.008333333333333333,1497.0,1497.0,1342.1600000000001,1499.0
0.02233409881591797,157,69,0.016666666666666666,1490.0,1497.0,1339.8,1497.0
0.04392719268798828,158,67,0.008928571428571428,1490.0,1497.0,1343.52,1498.0
0.06548810005187988,158,67,0.008928571428571428,1488.0,1497.0,1344.8399999999999,1498.0
0.08703112602233887,158,67,0.008928571428571428,1486.0,1497.0,1346.1600000000001,1498.0
0.10868000984191895,159,67,0.008333333333333333,1487.0,1497.0,1347.48,1499.0
0.13022708892822266,158,67,0.008928571428571428,1483.0,1497.0,1348.8,1498.0
0.15183305740356445,160,67,0.011363636363636364,1487.0,1497.0,1350,1500.0
0.1734311580657959,158,69,0.017857142857142856,1481.0,1497.0,1348.96,1498.0
0.19503211975097656,158,67,0.009615384615384616,1480,1497.0,1350,1498.0
0.21670103073120117,158,67,0.010416666666666666,1480,1497.0,1350,1498.0
0.23853302001953125,158,67,0.010416666666666666,1480,1497.0,1349.9200000000001,1498.0
0.26040101051330566,158,66,0.011904761904761904,1480,1497.0,1350,1498.0
0.2822389602661133,159,67,0.009615384615384616,1482.0,1497.0,1350,1499.0
0.30406618118286133,158,67,0.008928571428571428,1480.0,1497.0,1350,1498.0
0.3259611129760742,159,65,0.022727272727272728,1482.0,1497.0,1350,1499.0
0.3477950096130371,159,67,0.011904761904761904,1483.0,1497.0,1350,1499.0
0.369704008102417,160,67,0.007936507936507936,1485.0,1497.0,1350,1500.0
0.3916971683502197,160,67,0.008547008547008548,1487.0,1497.0,1350,1500.0
0.4136960506439209,161,67,0.008928571428571428,1492.0,1497.0,1350,1501.0
0.43556809425354004,162,69,0.009615384615384616,1498.0,1497.0,1343.4400000000001,1502.0
0.4574751853942871,162,69,0.009615384615384616,1502.0,1497.0,1340.5599999999999,1502.0
0.4794349670410156,162,70,0.01098901098901099,1506.0,1497.0,1336.4000000000001,1502.0
0.5013580322265625,162,71,0.007936507936507936,1509.0,1497.0,1329.4400000000001,1502.0
0.5235300064086914,162,70,0.015151515151515152,1513.0,1497.0,1326.3199999999999,1502.0
0.5454471111297607,163,73,0.01098901098901099,1519.0,1497.0,1322.4000000000001,1503.0
0.5673980712890625,163,72,0.009615384615384616,1520,1497.0,1322.0,1503.0
0.5892560482025146,163,73,0.008547008547008548,1520,1497.0,1320.5599999999999,1503.0
0.6111609935760498,163,73,0.008547008547008548,1520,1497.0,1323.1199999999999,1503.0
0.633126974105835,163,73,0.01098901098901099,1520,1497.0,1322.8800000000001,1503.0
0.6549789905548096,162,73,0.011363636363636364,1520,1497.0,1328.3199999999999,1502.0
0.6769461631774902,163,76,0.013333333333333334,1520,1497.0,1323.04,1503.0
0.6988229751586914,162,74,0.009615384615384616,1520,1497.0,1328.0799999999999,1502.0
0.7207741737365723,162,75,0.009615384615384616,1520,1497.0,1326.72,1502.0
0.7426509857177734,161,77,0.01818181818181818,1520,1497.0,1322.6400000000001,1501.0
0.7644960880279541,161,76,0.008928571428571428,1520,1497.0,1319.52,1501.0
0.7863550186157227,161,76,0.007936507936507936,1520,1497.0,1324.96,1501.0
0.8083701133728027,162,76,0.009615384615384616,1520,1497.0,1323.4400000000001,1502.0
0.8304190635681152,160,77,0.010101010101010102,1517.0,1497.0,1322.0799999999999,1500.0
0.8523139953613281,160,77,0.010416666666666666,1514.0,1497.0,1327.52,1500.0
0.8743221759796143,161,78,0.007407407407407408,1515.0,1497.0,1327.52,1501.0
0.8961930274963379,161,77,0.019230769230769232,1513.0,1497.0,1327.28,1501.0
0.9181210994720459,161,79,0.009615384615384616,1512.0,1497.0,1323.28,1501.0
0.9399921894073486,160,81,0.01098901098901099,1508.0,1497.0,1317.8399999999999,1500.0
0.962007999420166,160,81,0.008928571428571428,1507.0,1497.0,1312.0799999999999,1500.0
0.9840011596679688,159,82,0.010101010101010102,1503.0,1497.0,1307.8399999999999,1499.0
1.0059301853179932,159,83,0.010101010101010102,1501.0,1497.0,1299.3599999999999,1499.0
1.0278279781341553,160,83,0.008928571428571428,1501.0,1497.0,1297.6800000000001,1500.0
1.049710988998413,160,84,0.009615384615384616,1501.0,1497.0,1297.5999999999999,1500.0
1.0717241764068604,160,84,0.007936507936507936,1501.0,1497.0,1298.72,1500.0
1.0936520099639893,160,84,0.008928571428571428,1500.0,1497.0,1301.28,1500.0
1.115807056427002,160,85,0.009523809523809525,1499.0,1497.0,1305.3599999999999,1500.0
1.137695074081421,159,85,0.007936507936507936,1495.0,1497.0,1307.9200000000001,1499.0
1.1596570014953613,159,86,0.01020408163265306,1494.0,1497.0,1307.9200000000001,1499.0
1.181657075881958,159,86,0.008547008547008548,1493.0,1497.0,1309.1199999999999,1499.0
1.2037310600280762,159,86,0.008547008547008548,1493.0,1497.0,1308.96,1499.0
1.2256441116333008,160,87,0.014285714285714285,1496.0,1497.0,1307.5999999999999,1500.0
1.2476301193237305,159,87,0.008928571428571428,1493.0,1497.0,1307.4400000000001,1499.0
1.2695491313934326,157,87,0.010416666666666666,1486.0,1497.0,1308.72,1497.0
1.2915360927581787,158,88,0.008928571428571428,1486.0,1497.0,1307.3599999999999,1498.0
1.313507080078125,158,88,0.008928571428571428,1484.0,1497.0,1307.2,1498.0
1.335529088973999,157,87,0.020833333333333332,1480,1497.0,1311.1199999999999,1497.0
1.357436180114746,158,88,0.014285714285714285,1480.0,1497.0,1311.2,1498.0
1.379345178604126,158,89,0.007936507936507936,1480,1497.0,1308.48,1498.0
1.401231050491333,158,89,0.007407407407407408,1480,1497.0,1309.76,1498.0
1.4231491088867188,158,89,0.009523809523809525,1480,1497.0,1311.04,1498.0
1.445073127746582,157,90,0.01020408163265306,1480,1497.0,1305.52,1497.0
1.4669439792633057,157,89,0.009615384615384616,1480,1497.0,1306.6400000000001,1497.0
1.4888331890106201,158,90,0.008333333333333333,1480,1497.0,1306.72,1498.0
1.5106971263885498,158,89,0.008333333333333333,1480,1497.0,1309.28,1498.0
1.532515048980713,157,89,0.008928571428571428,1480,1497.0,1310.6400000000001,1497.0
1.5544161796569824,157,89,0.007142857142857143,1480,1497.0,1316.1600000000001,1497.0
1.5762500762939453,158,89,0.006666666666666667,1480,1497.0,1317.52,1498.0
1.5980989933013916,158,88,0.009615384615384616,1480,1497.0,1322.96,1498.0
1.619969129562378,158,89,0.007936507936507936,1480,1497.0,1321.76,1498.0
1.6418631076812744,158,89,0.008928571428571428,1480,1497.0,1321.76,1498.0
1.6638669967651367,158,87,0.013888888888888888,1480,1497.0,1325.6800000000001,1498.0
1.6857249736785889,158,88,0.006493506493506494,1480,1497.0,1325.9200000000001,1498.0
1.7076301574707031,158,89,0.009615384615384616,1480,1497.0,1320.5599999999999,1498.0
1.7295200824737549,158,89,0.008928571428571428,1480,1497.0,1320.5599999999999,1498.0
1.7513911724090576,159,89,0.008333333333333333,1480,1497.0,1320.5599999999999,1499.0
1.7733790874481201,158,88,0.01282051282051282,1480,1497.0,1317.5999999999999,1498.0
1.7952601909637451,158,89,0.008928571428571428,1480,1497.0,1313.5999999999999,1498.0
1.817162036895752,158,89,0.007936507936507936,1480,1497.0,1314.96,1498.0
1.8390450477600098,158,90,0.01098901098901099,1480,1497.0,1312.3199999999999,1498.0
1.861063003540039,159,90,0.011111111111111112,1480.0,1497.0,1310.8800000000001,1499.0
1.8830740451812744,159,88,0.008928571428571428,1481.0,1497.0,1314.6400000000001,1499.0
1.905055046081543,159,87,0.007142857142857143,1482.0,1497.0,1320.0799999999999,1499.0
1.9269781112670898,159,88,0.007936507936507936,1483.0,1497.0,1320.3199999999999,1499.0
1.9489221572875977,159,88,0.01020408163265306,1484.0,1497.0,1324.5599999999999,1499.0
1.9708821773529053,160,86,0.007936507936507936,1487.0,1497.0,1334.0799999999999,1500.0
1.9927880764007568,159,86,0.009259259259259259,1486.0,1497.0,1336.96,1499.0
2.014702081680298,160,85,0.007142857142857143,1490.0,1497.0,1338.3199999999999,1500.0
2.036566972732544,161,86,0.008333333333333333,1495.0,1497.0,1338.6400000000001,1501.0
2.058474063873291,160,86,0.007936507936507936,1495.0,1497.0,1338.8,1500.0
2.080461025238037,160,86,0.007936507936507936,1496.0,1497.0,1333.3599999999999,1500.0
2.102354049682617,161,86,0.008333333333333333,1500.0,1497.0,1330.6400000000001,1501.0
2.1242880821228027,161,86,0.007407407407407408,1502.0,1497.0,1326.48,1501.0
2.146170139312744,161,85,0.006666666666666667,1504.0,1497.0,1326.4000000000001,1501.0
2.1681101322174072,160,84,0.007142857142857143,1503.0,1497.0,1327.76,1500.0
2.190211057662964,160,85,0.008928571428571428,1503.0,1497.0,1328.0,1500.0
2.212131977081299,161,84,0.006666666666666667,1507.0,1497.0,1332.0799999999999,1501.0
2.234023094177246,160,84,0.007142857142857143,1505.0,1497.0,1336.3199999999999,1500.0
2.255972146987915,160,84,0.008928571428571428,1504.0,1497.0,1336.4000000000001,1500.0
2.277930974960327,161,83,0.008333333333333333,1507.0,1497.0,1336.3199999999999,1501.0
2.2999820709228516,161,83,0.006666666666666667,1508.0,1497.0,1337.8399999999999,1501.0
2.322019100189209,161,83,0.007407407407407408,1508.0,1497.0,1336.5599999999999,1501.0
2.34405517578125,160,82,0.007936507936507936,1505.0,1497.0,1337.9200000000001,1500.0
2.365924119949341,160,83,0.006944444444444444,1504.0,1497.0,1336.8,1500.0
2.387848138809204,160,83,0.011904761904761904,1504.0,1497.0,1335.4400000000001,1500.0
2.4097321033477783,161,83,0.007407407407407408,1507.0,1497.0,1332.72,1501.0
2.431692123413086,159,82,0.008928571428571428,1501.0,1497.0,1334.0,1499.0
2.453651189804077,160,83,0.007936507936507936,1503.0,1497.0,1328.6400000000001,1500.0
2.475560188293457,160,81,0.007936507936507936,1503.0,1497.0,1332.5599999999999,1500.0
2.497547149658203,160,80,0.011904761904761904,1502.0,1497.0,1338.0799999999999,1500.0
2.5200390815734863,160,82,0.01020408163265306,1501.0,1497.0,1337.1199999999999,1500.0
2.543635129928589,160,81,0.01020408163265306,1500.0,1497.0,1338.4000000000001,1500.0
2.5672881603240967,160,79,0.007142857142857143,1500.0,1497.0,1347.9200000000001,1500.0
2.5909111499786377,160,79,0.007936507936507936,1500.0,1497.0,1348.0799999999999,1500.0
2.6147329807281494,161,78,0.01098901098901099,1503.0,1497.0,1348.0799999999999,1501.0
2.6384220123291016,160,79,0.007936507936507936,1500.0,1497.0,1349.8399999999999,1500.0
2.6620941162109375,161,79,0.007407407407407408,1504.0,1497.0,1350,1501.0
2.6856141090393066,160,79,0.008928571428571428,1502.0,1497.0,1345.9200000000001,1500.0
2.709134101867676,161,79,0.008333333333333333,1505.0,1497.0,1343.2,1501.0
2.7327420711517334,160,79,0.007936507936507936,1503.0,1497.0,1339.04,1500.0
2.7564539909362793,161,81,0.011111111111111112,1506.0,1497.0,1329.6800000000001,1501.0
2.780006170272827,160,79,0.007936507936507936,1504.0,1497.0,1329.3599999999999,1500.0
2.803518056869507,161,80,0.007407407407407408,1507.0,1497.0,1326.72,1501.0
2.8270561695098877,160,79,0.007936507936507936,1505.0,1497.0,1327.9200000000001,1500.0
2.850645065307617,161,81,0.011111111111111112,1507.0,1497.0,1324.0,1501.0
2.874130964279175,161,78,0.006666666666666667,1508.0,1497.0,1334.6400000000001,1501.0
2.8976550102233887,161,78,0.008333333333333333,1508.0,1497.0,1336.0799999999999,1501.0
2.921394109725952,160,78,0.007936507936507936,1506.0,1497.0,1340.3199999999999,1500.0
2.9452459812164307,160,77,0.007142857142857143,1505.0,1497.0,1344.4000000000001,1500.0
2.9690070152282715,161,77,0.008333333333333333,1508.0,1497.0,1350,1501.0
2.9925999641418457,160,78,0.007407407407407408,1505.0,1497.0,1347.5999999999999,1500.0
3.0162510871887207,160,77,0.00625,1505.0,1497.0,1348.8800000000001,1500.0
3.039837121963501,160,76,0.015151515151515152,1504.0,1497.0,1350,1500.0
3.063426971435547,160,80,0.0125,1504.0,1497.0,1338.4000000000001,1500.0
3.087153196334839,160,76,0.01098901098901099,1503.0,1497.0,1339.2,1500.0
3.1108171939849854,160,77,0.0078125,1502.0,1497.0,1339.4400000000001,1500.0
3.134695053100586,160,76,0.008928571428571428,1501.0,1497.0,1340.72,1500.0
3.1581761837005615,161,77,0.006944444444444444,1504.0,1497.0,1335.3599999999999,1501.0
3.1819911003112793,160,78,0.011904761904761904,1502.0,1497.0,1341.1199999999999,1500.0
3.2059099674224854,160,77,0.006944444444444444,1501.0,1497.0,1339.52,1500.0
3.2294721603393555,160,76,0.00625,1501.0,1497.0,1340.8,1500.0
3.2530581951141357,161,77,0.007407407407407408,1504.0,1497.0,1336.8,1501.0
3.276746988296509,160,77,0.007936507936507936,1502.0,1497.0,1338.1600000000001,1500.0
3.3003950119018555,161,77,0.007407407407407408,1505.0,1497.0,1336.8800000000001,1501.0
3.323939085006714,160,77,0.008333333333333333,1503.0,1497.0,1338.24,1500.0
3.3479671478271484,162,77,0.008547008547008548,1509.0,1497.0,1335.4400000000001,1502.0
3.371819019317627,160,77,0.006944444444444444,1505.0,1497.0,1336.8,1500.0
3.3954319953918457,160,75,0.005681818181818182,1504.0,1497.0,1342.0799999999999,1500.0
3.4190561771392822,160,75,0.00625,1504.0,1497.0,1343.5999999999999,1500.0
3.44281005859375,160,75,0.006666666666666667,1504.0,1497.0,1346.48,1500.0
3.4663610458374023,159,75,0.01020408163265306,1501.0,1497.0,1350,1499.0
3.4897620677948,160,75,0.00625,1502.0,1497.0,1350,1500.0
3.5132980346679688,160,76,0.0078125,1502.0,1497.0,1348.24,1500.0
3.537180185317993,159,77,0.007936507936507936,1498.0,1497.0,1341.4400000000001,1499.0
3.5609781742095947,160,76,0.008333333333333333,1500.0,1497.0,1338.48,1500.0
3.5846521854400635,159,77,0.007142857142857143,1495.0,1497.0,1331.6800000000001,1499.0
3.608297109603882,158,76,0.010416666666666666,1491.0,1497.0,1328.72,1498.0
3.632049083709717,160,78,0.007407407407407408,1495.0,1497.0,1324.8,1500.0
3.6558401584625244,160,78,0.00625,1495.0,1497.0,1326.0799999999999,1500.0
3.6795520782470703,161,78,0.006535947712418301,1498.0,1497.0,1324.5599999999999,1501.0
3.703123092651367,160,78,0.006944444444444444,1497.0,1497.0,1325.8399999999999,1500.0
3.7267181873321533,160,77,0.00625,1497.0,1497.0,1326.96,1500.0
3.750218152999878,161,78,0.006535947712418301,1500.0,1497.0,1328.48,1501.0
3.773736000061035,160,78,0.006944444444444444,1499.0,1497.0,1329.8399999999999,1500.0
3.797283172607422,160,77,0.007142857142857143,1499.0,1497.0,1335.2,1500.0
3.8209121227264404,161,78,0.006060606060606061,1503.0,1497.0,1335.3599999999999,1501.0
3.8446521759033203,161,78,0.0058823529411764705,1506.0,1497.0,1335.28,1501.0
3.868126153945923,160,78,0.006060606060606061,1504.0,1497.0,1335.28,1500.0
3.891770124435425,160,78,0.006944444444444444,1504.0,1497.0,1335.28,1500.0
3.915623188018799,160,78,0.0078125,1503.0,1497.0,1332.48,1500.0
3.939211130142212,160,77,0.006666666666666667,1503.0,1497.0,1335.1199999999999,1500.0
3.9627981185913086,160,77,0.00625,1503.0,1497.0,1337.9200000000001,1500.0
3.986274003982544,160,77,0.006666666666666667,1502.0,1497.0,1339.3599999999999,1500.0
4.009961128234863,159,80,0.014285714285714285,1499.0,1497.0,1332.8800000000001,1499.0
4.033526182174683,161,76,0.0053475935828877,1504.0,1497.0,1341.9200000000001,1501.0
4.057233095169067,160,77,0.005681818181818182,1501.0,1497.0,1339.3599999999999,1500.0
4.080806016921997,160,78,0.009523809523809525,1500.0,1497.0,1335.3599999999999,1500.0
4.104461193084717,160,77,0.00625,1500.0,1497.0,1335.2,1500.0
4.128050088882446,160,77,0.00625,1500.0,1497.0,1342.24,1500.0
4.151913166046143,160,76,0.006666666666666667,1500.0,1497.0,1340.72,1500.0
4.175779104232788,160,77,0.006666666666666667,1500.0,1497.0,1339.52,1500.0
4.1993629932403564,160,78,0.006535947712418301,1500.0,1497.0,1339.6800000000001,1500.0
4.222970008850098,159,77,0.008928571428571428,1497.0,1497.0,1340.8800000000001,1499.0
4.246570110321045,159,77,0.007142857142857143,1497.0,1497.0,1336.8,1499.0
4.270094156265259,159,78,0.0078125,1495.0,1497.0,1332.72,1499.0
4.293750047683716,159,78,0.007407407407407408,1494.0,1497.0,1331.28,1499.0
4.317361116409302,159,77,0.00625,1493.0,1497.0,1333.9200000000001,1499.0
4.341606140136719,159,77,0.006666666666666667,1492.0,1497.0,1333.9200000000001,1499.0
4.3652729988098145,159,77,0.00625,1491.0,1497.0,1333.9200000000001,1499.0
4.388843059539795,160,77,0.0058823529411764705,1493.0,1497.0,1338.0799999999999,1500.0
4.412504196166992,159,76,0.00625,1490.0,1497.0,1343.52,1499.0
4.436244010925293,160,77,0.0053475935828877,1492.0,1497.0,1340.96,1500.0
4.459830045700073,160,77,0.0053475935828877,1493.0,1497.0,1340.96,1500.0
4.483505964279175,159,77,0.00625,1491.0,1497.0,1340.96,1499.0
4.507097005844116,160,77,0.0053475935828877,1494.0,1497.0,1339.5999999999999,1500.0
4.530742168426514,159,77,0.007407407407407408,1492.0,1497.0,1335.4400000000001,1499.0
4.55451512336731,160,77,0.007407407407407408,1495.0,1497.0,1335.4400000000001,1500.0
4.578077077865601,160,78,0.006535947712418301,1496.0,1497.0,1332.8,1500.0
4.602189064025879,159,77,0.00625,1494.0,1497.0,1334.0,1499.0
4.625876188278198,160,77,0.0058823529411764705,1496.0,1497.0,1334.0,1500.0
4.6495361328125,159,78,0.007352941176470588,1494.0,1497.0,1332.72,1499.0
4.673125982284546,160,77,0.0058823529411764705,1496.0,1497.0,1333.9200000000001,1500.0
4.696784019470215,159,77,0.00625,1493.0,1497.0,1336.72,1499.0
4.720378160476685,159,78,0.005681818181818182,1493.0,1497.0,1334.0799999999999,1499.0
4.744115114212036,158,77,0.00625,1489.0,1497.0,1335.28,1498.0
4.768082141876221,158,78,0.0058823529411764705,1488.0,1497.0,1335.4400000000001,1498.0
4.792155981063843,157,79,0.006944444444444444,1483.0,1497.0,1331.3599999999999,1497.0
4.815876007080078,158,79,0.005681818181818182,1483.0,1497.0,1327.1199999999999,1498.0
4.8394691944122314,159,79,0.0058823529411764705,1485.0,1497.0,1327.04,1499.0
4.863160133361816,158,79,0.005050505050505051,1481.0,1497.0,1324.1600000000001,1498.0
4.88678503036499,158,79,0.0058823529411764705,1480.0,1497.0,1322.72,1498.0
4.91050910949707,158,80,0.006944444444444444,1480,1497.0,1322.8,1498.0
4.933999061584473,159,80,0.0053475935828877,1480.0,1497.0,1324.0799999999999,1499.0
4.95749306678772,158,79,0.00625,1480,1497.0,1326.6400000000001,1498.0
4.980961084365845,158,79,0.00625,1480,1497.0,1329.3599999999999,1498.0
5.00454306602478,159,79,0.004524886877828055,1480.0,1497.0,1330.72,1499.0
5.028030157089233,159,80,0.006172839506172839,1482.0,1497.0,1330.8800000000001,1499.0
5.051853179931641,160,80,0.00625,1486.0,1497.0,1332.24,1500.0
5.075555086135864,160,80,0.0058823529411764705,1487.0,1497.0,1330.8,1500.0
5.099169969558716,161,80,0.0053475935828877,1492.0,1497.0,1329.3599999999999,1501.0
5.122830152511597,160,80,0.007142857142857143,1492.0,1497.0,1327.9200000000001,1500.0
5.14644718170166,160,80,0.004629629629629629,1494.0,1497.0,1327.9200000000001,1500.0
5.17009711265564,161,81,0.0053475935828877,1498.0,1497.0,1325.28,1501.0
5.193731069564819,161,81,0.0058823529411764705,1501.0,1497.0,1325.2,1501.0
5.217400074005127,160,81,0.005681818181818182,1501.0,1497.0,1325.1199999999999,1500.0
5.241199016571045,161,80,0.0053475935828877,1505.0,1497.0,1327.6800000000001,1501.0
5.265144109725952,162,78,0.004901960784313725,1510.0,1497.0,1332.96,1502.0
5.288722038269043,161,78,0.005555555555555556,1509.0,1497.0,1338.6400000000001,1501.0
5.312525987625122,161,80,0.006535947712418301,1510.0,1497.0,1339.04,1501.0
5.336213111877441,161,79,0.005050505050505051,1510.0,1497.0,1344.48,1501.0
5.3598291873931885,160,78,0.00625,1508.0,1497.0,1348.5599999999999,1500.0
5.383576154708862,161,78,0.0058823529411764705,1511.0,1497.0,1345.8399999999999,1501.0
5.407224178314209,161,79,0.005050505050505051,1511.0,1497.0,1339.1199999999999,1501.0
5.430840015411377,160,79,0.005681818181818182,1508.0,1497.0,1339.2,1500.0
5.454471111297607,161,79,0.0053475935828877,1511.0,1497.0,1336.48,1501.0
5.477955102920532,161,78,0.005555555555555556,1511.0,1497.0,1334.96,1501.0
5.501741170883179,161,79,0.006535947712418301,1510.0,1497.0,1332.3199999999999,1501.0
5.525461196899414,161,78,0.0053475935828877,1510.0,1497.0,1336.3199999999999,1501.0
5.549137115478516,160,77,0.005681818181818182,1507.0,1497.0,1339.04,1500.0
5.572720050811768,160,77,0.005681818181818182,1506.0,1497.0,1341.9200000000001,1500.0
5.596238136291504,161,76,0.0058823529411764705,1509.0,1497.0,1346.0,1501.0
5.619909048080444,161,76,0.005555555555555556,1509.0,1497.0,1350,1501.0
5.6434690952301025,161,76,0.004629629629629629,1509.0,1497.0,1350,1501.0
5.666974067687988,161,77,0.007352941176470588,1510.0,1497.0,1349.28,1501.0
5.690474987030029,160,76,0.00625,1507.0,1497.0,1349.2,1500.0
5.714178085327148,160,76,0.006060606060606061,1506.0,1497.0,1346.48,1500.0
5.737771034240723,160,75,0.005555555555555556,1505.0,1497.0,1345.04,1500.0
5.761538028717041,160,75,0.0058823529411764705,1504.0,1497.0,1343.76,1500.0
5.785235166549683,160,75,0.005050505050505051,1504.0,1497.0,1346.6400000000001,1500.0
5.8087379932403564,160,75,0.005050505050505051,1504.0,1497.0,1346.72,1500.0
5.832607984542847,159,75,0.005681818181818182,1500.0,1497.0,1348.1600000000001,1499.0
5.856234073638916,160,75,0.005555555555555556,1501.0,1497.0,1346.8,1500.0
5.879889965057373,160,75,0.005555555555555556,1500.0,1497.0,1345.4400000000001,1500.0
5.903604984283447,160,75,0.005050505050505051,1499.0,1497.0,1342.72,1500.0
5.927402973175049,160,75,0.0053475935828877,1499.0,1497.0,1341.3599999999999,1500.0
5.951007127761841,160,75,0.005050505050505051,1499.0,1497.0,1340.0,1500.0
5.9747700691223145,160,75,0.005050505050505051,1499.0,1497.0,1340.0,1500.0
5.9982521533966064,160,75,0.005050505050505051,1499.0,1497.0,1340.0,1500.0
6.021883964538574,160,74,0.0053475935828877,1499.0,1497.0,1342.6400000000001,1500.0
6.045698165893555,160,74,0.005050505050505051,1499.0,1497.0,1344.0799999999999,1500.0
6.069313049316406,159,75,0.005050505050505051,1497.0,1497.0,1342.8800000000001,1499.0
6.092945098876953,160,74,0.0043859649122807015,1499.0,1497.0,1345.52,1500.0
6.116537094116211,159,75,0.0053475935828877,1496.0,1497.0,1344.3199999999999,1499.0
6.1401519775390625,160,76,0.006535947712418301,1498.0,1497.0,1338.8800000000001,1500.0
6.163801193237305,159,75,0.004629629629629629,1495.0,1497.0,1337.28,1499.0
6.187469959259033,159,76,0.005555555555555556,1494.0,1497.0,1334.6400000000001,1499.0
6.211028099060059,159,76,0.005050505050505051,1493.0,1497.0,1330.4000000000001,1499.0
6.234821081161499,159,75,0.004273504273504274,1492.0,1497.0,1331.5999999999999,1499.0
6.258462190628052,159,76,0.0053475935828877,1491.0,1497.0,1333.1199999999999,1499.0
6.282145977020264,159,76,0.0053475935828877,1490.0,1497.0,1333.04,1499.0
6.305866003036499,159,76,0.005050505050505051,1490.0,1497.0,1334.4000000000001,1499.0
6.329503059387207,160,76,0.004784688995215311,1492.0,1497.0,1337.1199999999999,1500.0
6.353129148483276,159,75,0.004629629629629629,1490.0,1497.0,1338.3199999999999,1499.0
6.376657962799072,159,76,0.005050505050505051,1489.0,1497.0,1337.1199999999999,1499.0
6.400228023529053,159,75,0.004629629629629629,1489.0,1497.0,1341.1199999999999,1499.0
6.423815011978149,159,73,0.003472222222222222,1489.0,1497.0,1347.8399999999999,1499.0
6.447448015213013,159,75,0.004901960784313725,1489.0,1497.0,1346.8800000000001,1499.0
6.47114109992981,159,76,0.005050505050505051,1489.0,1497.0,1344.24,1499.0
6.494938135147095,159,75,0.004901960784313725,1489.0,1497.0,1346.8800000000001,1499.0
6.51849102973938,159,75,0.004629629629629629,1489.0,1497.0,1345.52,1499.0
6.542176961898804,159,74,0.004629629629629629,1489.0,1497.0,1341.2,1499.0
6.565859079360962,159,75,0.004273504273504274,1488.0,1497.0,1338.6400000000001,1499.0
6.589518070220947,160,73,0.003968253968253968,1491.0,1497.0,1346.72,1500.0
6.613136053085327,160,75,0.004048582995951417,1492.0,1497.0,1342.96,1500.0
6.636697053909302,159,74,0.004629629629629629,1490.0,1497.0,1345.5999999999999,1499.0
6.660510063171387,160,75,0.0043859649122807015,1493.0,1497.0,1344.3199999999999,1500.0
6.684144973754883,159,75,0.005555555555555556,1491.0,1497.0,1344.3199999999999,1499.0
6.707834005355835,159,75,0.005050505050505051,1491.0,1497.0,1337.3599999999999,1499.0
6.731367111206055,159,75,0.004629629629629629,1491.0,1497.0,1337.3599999999999,1499.0
6.755082130432129,159,74,0.004901960784313725,1491.0,1497.0,1337.2,1499.0
6.778572082519531,160,75,0.004629629629629629,1494.0,1497.0,1337.3599999999999,1500.0
6.802311182022095,159,76,0.004273504273504274,1492.0,1497.0,1334.72,1499.0
6.826060056686401,160,77,0.004784688995215311,1494.0,1497.0,1333.3599999999999,1500.0
6.849642038345337,159,76,0.004629629629629629,1491.0,1497.0,1333.1199999999999,1499.0
6.873303174972534,160,80,0.005555555555555556,1494.0,1497.0,1319.6800000000001,1500.0
6.896829128265381,160,79,0.005263157894736842,1494.0,1497.0,1315.1199999999999,1500.0
6.920551061630249,159,78,0.004629629629629629,1492.0,1497.0,1314.8,1499.0
6.944378137588501,160,78,0.0043859649122807015,1495.0,1497.0,1316.0799999999999,1500.0
6.96819806098938,160,78,0.004048582995951417,1496.0,1497.0,1314.5599999999999,1500.0
6.992213010787964,160,78,0.004048582995951417,1497.0,1497.0,1325.5999999999999,1500.0
7.015993118286133,161,78,0.004048582995951417,1500.0,1497.0,1332.48,1501.0
7.039587020874023,161,77,0.0037593984962406013,1502.0,1497.0,1337.8399999999999,1501.0
7.063317060470581,161,77,0.0037593984962406013,1503.0,1497.0,1340.6400000000001,1501.0
7.087314128875732,161,78,0.004545454545454545,1505.0,1497.0,1342.1600000000001,1501.0
7.110944032669067,161,76,0.0035714285714285713,1506.0,1497.0,1344.72,1501.0
7.134761095046997,161,77,0.004166666666666667,1507.0,1497.0,1343.5999999999999,1501.0
7.158306121826172,161,78,0.004545454545454545,1509.0,1497.0,1339.5999999999999,1501.0
7.1820080280303955,161,77,0.0035714285714285713,1510.0,1497.0,1339.4400000000001,1501.0
7.2057061195373535,161,78,0.004048582995951417,1511.0,1497.0,1338.24,1501.0
7.229358196258545,161,77,0.0035087719298245615,1512.0,1497.0,1335.28,1501.0
7.252962112426758,161,76,0.0038461538461538464,1512.0,1497.0,1336.5599999999999,1501.0
7.27655816078186,161,76,0.0038461538461538464,1512.0,1497.0,1340.8,1501.0
7.300240993499756,161,75,0.0038461538461538464,1512.0,1497.0,1344.8800000000001,1501.0
7.323806047439575,161,75,0.004048582995951417,1512.0,1497.0,1349.2,1501.0
7.347491979598999,161,75,0.004273504273504274,1512.0,1497.0,1350,1501.0
7.3710479736328125,161,75,0.0043859649122807015,1512.0,1497.0,1350,1501.0
7.394598960876465,161,76,0.004048582995951417,1512.0,1497.0,1349.5999999999999,1501.0
7.41823410987854,161,76,0.004048582995951417,1512.0,1497.0,1345.4400000000001,1501.0
7.4419941902160645,161,77,0.004784688995215311,1512.0,1497.0,1337.28,1501.0
7.465733051300049,160,76,0.0038461538461538464,1509.0,1497.0,1334.3199999999999,1500.0
7.489300012588501,160,76,0.004166666666666667,1508.0,1497.0,1331.52,1500.0
7.512814998626709,160,76,0.0043859649122807015,1507.0,1497.0,1331.52,1500.0
7.536509037017822,160,76,0.004048582995951417,1506.0,1497.0,1332.8800000000001,1500.0
7.5601561069488525,160,76,0.004166666666666667,1505.0,1497.0,1337.04,1500.0
7.583773136138916,160,77,0.0043859649122807015,1504.0,1497.0,1335.76,1500.0
7.607365131378174,160,76,0.0037593984962406013,1503.0,1497.0,1338.3199999999999,1500.0
7.631015062332153,159,77,0.004629629629629629,1499.0,1497.0,1335.6800000000001,1499.0
7.6547510623931885,159,78,0.004273504273504274,1497.0,1497.0,1331.5999999999999,1499.0
7.67834997177124,159,78,0.004629629629629629,1495.0,1497.0,1327.3599999999999,1499.0
7.702175140380859,160,78,0.0043859649122807015,1497.0,1497.0,1327.28,1500.0
7.725866079330444,160,78,0.0043859649122807015,1497.0,1497.0,1324.4000000000001,1500.0
7.749574184417725,159,79,0.0038461538461538464,1494.0,1497.0,1321.6800000000001,1499.0
7.773115158081055,159,76,0.0030864197530864196,1493.0,1497.0,1330.8800000000001,1499.0
7.796615123748779,160,79,0.004048582995951417,1495.0,1497.0,1328.5599999999999,1500.0
7.820335149765015,160,79,0.004048582995951417,1495.0,1497.0,1328.48,1500.0
7.843958139419556,160,78,0.0043859649122807015,1495.0,1497.0,1332.4000000000001,1500.0
7.867480993270874,160,79,0.0038461538461538464,1496.0,1497.0,1333.9200000000001,1500.0
7.891024112701416,160,79,0.004048582995951417,1497.0,1497.0,1326.8800000000001,1500.0
7.9147560596466064,160,80,0.005263157894736842,1498.0,1497.0,1325.5999999999999,1500.0
7.938503980636597,160,80,0.004784688995215311,1498.0,1497.0,1325.52,1500.0
7.962330102920532,160,81,0.004784688995215311,1498.0,1497.0,1320.0,1500.0
7.985995054244995,160,79,0.0038461538461538464,1499.0,1497.0,1322.4000000000001,1500.0
8.009546041488647,160,81,0.005847953216374269,1500.0,1497.0,1321.2,1500.0
8.033161163330078,160,79,0.0037593984962406013,1500.0,1497.0,1326.4000000000001,1500.0
8.05682897567749,160,79,0.0038461538461538464,1500.0,1497.0,1329.2,1500.0
8.080494165420532,160,80,0.005263157894736842,1500.0,1497.0,1333.52,1500.0
8.104065179824829,159,79,0.005050505050505051,1497.0,1497.0,1334.72,1499.0
8.127669095993042,159,80,0.005555555555555556,1496.0,1497.0,1337.6800000000001,1499.0
8.151304006576538,159,78,0.0038461538461538464,1495.0,1497.0,1340.1600000000001,1499.0
8.175472974777222,159,80,0.005555555555555556,1494.0,1497.0,1334.96,1499.0
8.199136972427368,159,78,0.0038461538461538464,1493.0,1497.0,1338.8800000000001,1499.0
8.222684144973755,159,79,0.005847953216374269,1492.0,1497.0,1337.6800000000001,1499.0
8.246317148208618,160,77,0.0043859649122807015,1494.0,1497.0,1343.04,1500.0
8.270030975341797,159,79,0.006944444444444444,1491.0,1497.0,1337.8399999999999,1499.0
8.293617010116577,159,80,0.007936507936507936,1490.0,1497.0,1338.0,1499.0
8.317147970199585,160,80,0.00980392156862745,1492.0,1497.0,1332.4000000000001,1500.0
8.340692043304443,160,80,0.007518796992481203,1493.0,1497.0,1330.96,1500.0
8.364567041397095,160,80,0.007518796992481203,1494.0,1497.0,1322.5599999999999,1500.0
8.388347148895264,160,80,0.007142857142857143,1495.0,1497.0,1322.48,1500.0
8.412158966064453,159,79,0.009259259259259259,1493.0,1497.0,1325.1199999999999,1499.0
8.435912132263184,160,80,0.007518796992481203,1496.0,1497.0,1326.6400000000001,1500.0
8.459488153457642,165,78,0.016666666666666666,1512.0,1497.0,1333.28,1505.0
8.483055114746094,160,79,0.006802721088435374,1502.0,1497.0,1337.5999999999999,1500.0
8.506647109985352,161,78,0.008928571428571428,1506.0,1497.0,1343.04,1501.0
8.530524969100952,159,77,0.006578947368421052,1502.0,1497.0,1345.76,1499.0
8.55417013168335,159,77,0.008771929824561403,1501.0,1497.0,1350,1499.0
8.577735185623169,158,77,0.008333333333333333,1497.0,1497.0,1348.8,1498.0
8.601386070251465,158,78,0.007142857142857143,1495.0,1497.0,1347.6800000000001,1498.0
8.625231981277466,158,64,0.005555555555555556,1493.0,1497.0,1350,1498.0
8.648691177368164,158,77,0.006802721088435374,1492.0,1497.0,1350,1498.0
8.67235803604126,157,75,0.005263157894736842,1487.0,1497.0,1350,1497.0
8.695954084396362,158,63,0.007575757575757576,1482.0,1497.0,1350,1498.0
8.719413042068481,160,76,0.00980392156862745,1486.0,1497.0,1350,1500.0
8.742981195449829,158,76,0.006802721088435374,1480,1497.0,1347.5999999999999,1498.0
8.766487121582031,157,61,0.008928571428571428,1480,1497.0,1350,1497.0
8.7899169921875,157,60,0.00625,1480,1497.0,1350,1497.0
8.81328010559082,157,61,0.014285714285714285,1480,1497.0,1350,1497.0
8.836719036102295,159,75,0.010526315789473684,1480,1497.0,1350,1499.0
8.86016297340393,158,60,0.007936507936507936,1480,1497.0,1350,1498.0
8.883516073226929,159,60,0.008333333333333333,1480,1497.0,1350,1499.0
8.906907081604004,158,60,0.0078125,1480,1497.0,1350,1498.0
8.930248022079468,160,59,0.008333333333333333,1483.0,1497.0,1350,1500.0
8.953760147094727,160,61,0.015384615384615385,1483.0,1497.0,1350,1500.0
8.977241039276123,161,59,0.011363636363636364,1488.0,1497.0,1350,1501.0
9.000684022903442,161,60,0.01020408163265306,1492.0,1497.0,1350,1501.0
9.024535179138184,161,59,0.008928571428571428,1496.0,1497.0,1350,1501.0
9.048115968704224,161,58,0.010416666666666666,1500.0,1497.0,1350,1501.0
9.071684122085571,161,48,0.0125,1502.0,1497.0,1350,1501.0
9.095255136489868,160,61,0.022222222222222223,1502.0,1497.0,1350,1500.0
9.118680000305176,160,59,0.008928571428571428,1503.0,1497.0,1350,1500.0
9.142285108566284,161,59,0.007352941176470588,1508.0,1497.0,1350,1501.0
9.16582703590393,166,60,0.015873015873015872,1520,1497.0,1350,1506.0
9.18920612335205,160,60,0.008928571428571428,1512.0,1497.0,1343.6800000000001,1500.0
9.212738037109375,160,60,0.008928571428571428,1511.0,1497.0,1347.8399999999999,1500.0
9.236304998397827,160,60,0.01098901098901099,1510.0,1497.0,1345.04,1500.0
9.259762048721313,162,77,0.013333333333333334,1515.0,1497.0,1298.72,1502.0
9.283421039581299,158,60,0.01020408163265306,1504.0,1497.0,1321.8399999999999,1498.0
9.307155132293701,158,60,0.008333333333333333,1501.0,1497.0,1338.1600000000001,1498.0
9.330917119979858,161,60,0.017857142857142856,1508.0,1497.0,1336.8,1501.0
9.354645013809204,159,60,0.007352941176470588,1503.0,1497.0,1338.1600000000001,1499.0
9.378108024597168,161,62,0.020833333333333332,1507.0,1497.0,1350,1501.0
9.401710033416748,158,60,0.022727272727272728,1493.0,1497.0,1350,1498.0
9.425570964813232,158,61,0.008928571428571428,1491.0,1497.0,1350,1498.0
9.449181079864502,159,61,0.008928571428571428,1492.0,1497.0,1350,1499.0
9.47269606590271,161,62,0.007352941176470588,1497.0,1497.0,1350,1501.0
9.496159076690674,161,63,0.009523809523809525,1496.0,1497.0,1350,1501.0
9.51957106590271,162,62,0.008928571428571428,1502.0,1497.0,1350,1502.0
9.54309606552124,161,64,0.017857142857142856,1503.0,1497.0,1346.0,1501.0
9.566617965698242,161,63,0.008333333333333333,1503.0,1497.0,1345.6800000000001,1501.0
9.590129137039185,161,63,0.008928571428571428,1505.0,1497.0,1346.96,1501.0
9.613874197006226,160,64,0.011111111111111112,1502.0,1497.0,1345.6800000000001,1500.0
9.637606143951416,161,63,0.008333333333333333,1507.0,1497.0,1348.1600000000001,1501.0
9.661604166030884,162,52,0.011764705882352941,1513.0,1497.0,1350,1502.0
9.685341119766235,162,52,0.011111111111111112,1516.0,1497.0,1350,1502.0
9.708798170089722,156,75,0.018518518518518517,1499.0,1497.0,1350,1496.0
9.732433080673218,162,63,0.006944444444444444,1512.0,1497.0,1350,1502.0
9.755944967269897,163,63,0.010416666666666666,1515.0,1497.0,1350,1503.0
9.779512166976929,155,75,0.015625,1493.0,1497.0,1312.48,1495.0
9.803222179412842,162,63,0.008928571428571428,1508.0,1497.0,1296.0799999999999,1502.0
9.826781988143921,162,65,0.016666666666666666,1509.0,1497.0,1324.4000000000001,1502.0
9.850447177886963,162,63,0.007352941176470588,1511.0,1497.0,1325.4400000000001,1502.0
9.87400197982788,163,65,0.009523809523809525,1515.0,1497.0,1320.1600000000001,1503.0
9.897579193115234,163,64,0.008333333333333333,1516.0,1497.0,1350,1503.0
9.921149015426636,164,53,0.008771929824561403,1520.0,1497.0,1350,1504.0
9.944828033447266,163,65,0.008333333333333333,1520,1497.0,1350,1503.0
9.968213081359863,163,66,0.006578947368421052,1520,1497.0,1350,1503.0
9.991835117340088,162,81,0.008333333333333333,1520,1497.0,1339.2,1502.0
10.015408992767334,161,67,0.006172839506172839,1520,1497.0,1336.72,1501.0
10.038799047470093,162,55,0.010526315789473684,1520,1497.0,1334.6400000000001,1502.0
10.062498092651367,160,67,0.006172839506172839,1520,1497.0,1317.3599999999999,1500.0
10.086066961288452,162,67,0.008403361344537815,1520,1497.0,1320.0,1502.0
10.109652996063232,160,67,0.008928571428571428,1520.0,1497.0,1350,1500.0
10.133059024810791,159,65,0.008333333333333333,1514.0,1497.0,1350,1499.0
10.156690120697021,159,54,0.008403361344537815,1509.0,1497.0,1350,1499.0
10.18011999130249,159,65,0.0078125,1505.0,1497.0,1350,1499.0
10.203531980514526,156,68,0.023809523809523808,1492.0,1497.0,1350,1496.0
10.226989984512329,158,65,0.008928571428571428,1492.0,1497.0,1350,1498.0
10.250530004501343,159,54,0.007518796992481203,1492.0,1497.0,1350,1499.0
10.273900985717773,158,56,0.01,1486.0,1497.0,1350,1498.0
10.29737901687622,157,67,0.007407407407407408,1481.0,1497.0,1350,1497.0
10.320947170257568,159,69,0.014705882352941176,1482.0,1497.0,1350,1499.0
10.344680070877075,160,68,0.009523809523809525,1484.0,1497.0,1350,1500.0
10.368093967437744,160,56,0.010526315789473684,1485.0,1497.0,1350,1500.0
10.391808986663818,159,66,0.01098901098901099,1483.0,1497.0,1330.24,1499.0
10.415495157241821,158,55,0.008928571428571428,1480.0,1497.0,1350,1498.0
10.439054012298584,158,67,0.0078125,1482.0,1497.0,1350,1498.0
10.462546110153198,158,55,0.0125,1482.0,1497.0,1350,1498.0
10.48595118522644,159,56,0.010526315789473684,1484.0,1497.0,1350,1499.0
10.509407043457031,158,55,0.008403361344537815,1482.0,1497.0,1350,1498.0
10.532937049865723,160,67,0.006535947712418301,1489.0,1497.0,1350,1500.0
10.557350158691406,159,67,0.006172839506172839,1487.0,1497.0,1350,1499.0
10.581008195877075,158,65,0.01098901098901099,1483.0,1497.0,1342.24,1498.0
10.604743003845215,158,66,0.0078125,1481.0,1497.0,1326.6400000000001,1498.0
10.628313064575195,157,67,0.009523809523809525,1480,1497.0,1293.2,1497.0
10.65189003944397,159,67,0.007407407407407408,1482.0,1497.0,1309.52,1499.0
10.67556118965149,159,56,0.013888888888888888,1483.0,1497.0,1338.5599999999999,1499.0
10.699092149734497,159,69,0.013333333333333334,1484.0,1497.0,1330.8,1499.0
10.723409175872803,157,68,0.006944444444444444,1480,1497.0,1342.72,1497.0
10.747864961624146,161,69,0.007352941176470588,1489.0,1497.0,1350,1501.0
10.771743059158325,161,69,0.006172839506172839,1490.0,1497.0,1350,1501.0
10.795406103134155,161,70,0.009523809523809525,1492.0,1497.0,1315.76,1501.0
10.818957090377808,160,68,0.011904761904761904,1492.0,1497.0,1325.04,1500.0
10.84253215789795,161,70,0.011904761904761904,1497.0,1497.0,1322.48,1501.0
10.866127014160156,160,70,0.006944444444444444,1498.0,1497.0,1323.76,1500.0
10.889654159545898,159,69,0.006944444444444444,1496.0,1497.0,1327.6800000000001,1499.0
10.913299083709717,159,69,0.005555555555555556,1496.0,1497.0,1348.1600000000001,1499.0
10.936906099319458,160,68,0.008333333333333333,1499.0,1497.0,1348.0,1500.0
10.960412979125977,158,69,0.011904761904761904,1496.0,1497.0,1350,1498.0
10.983944177627563,161,68,0.007407407407407408,1502.0,1497.0,1350,1501.0
11.007444143295288,159,56,0.011111111111111112,1496.0,1497.0,1350,1499.0
11.03107500076294,160,67,0.005263157894736842,1497.0,1497.0,1350,1500.0
11.054641008377075,160,68,0.006172839506172839,1497.0,1497.0,1350,1500.0
11.078076124191284,160,68,0.005847953216374269,1496.0,1497.0,1350,1500.0
11.101665019989014,161,68,0.005555555555555556,1499.0,1497.0,1350,1501.0
11.125216007232666,161,69,0.006535947712418301,1501.0,1497.0,1336.4000000000001,1501.0
11.148745059967041,159,69,0.006944444444444444,1497.0,1497.0,1330.8,1499.0
11.172367095947266,159,69,0.0078125,1496.0,1497.0,1329.3599999999999,1499.0
11.196199178695679,157,58,0.020833333333333332,1491.0,1497.0,1350,1497.0
11.219837188720703,159,69,0.008928571428571428,1493.0,1497.0,1340.96,1499.0
11.243468046188354,160,69,0.006535947712418301,1496.0,1497.0,1350,1500.0
11.266869068145752,162,71,0.014285714285714285,1502.0,1497.0,1350,1502.0
11.290335178375244,159,68,0.0078125,1495.0,1497.0,1350,1499.0
11.31387996673584,162,69,0.007936507936507936,1503.0,1497.0,1331.8399999999999,1502.0
11.337447166442871,162,69,0.005847953216374269,1504.0,1497.0,1333.2,1502.0
11.361294031143188,161,69,0.010416666666666666,1502.0,1497.0,1333.2,1501.0
11.385581016540527,162,69,0.009259259259259259,1507.0,1497.0,1338.8,1502.0
11.409419059753418,161,68,0.006535947712418301,1507.0,1497.0,1338.6400000000001,1501.0
11.432963132858276,162,68,0.006944444444444444,1514.0,1497.0,1350,1502.0
11.456411123275757,161,67,0.009615384615384616,1514.0,1497.0,1350,1501.0
11.479917049407959,158,55,0.011904761904761904,1506.0,1497.0,1350,1498.0
11.503444194793701,160,67,0.0078125,1508.0,1497.0,1350,1500.0
11.526888132095337,161,56,0.01,1512.0,1497.0,1350,1501.0
11.550415992736816,160,66,0.007352941176470588,1508.0,1497.0,1350,1500.0
11.573912143707275,162,65,0.008333333333333333,1512.0,1497.0,1350,1502.0
11.597344160079956,161,54,0.007518796992481203,1510.0,1497.0,1350,1501.0
11.620972156524658,156,54,0.01818181818181818,1494.0,1497.0,1350,1496.0
11.644633054733276,159,64,0.008928571428571428,1498.0,1497.0,1350,1499.0
11.668138027191162,158,64,0.008928571428571428,1492.0,1497.0,1350,1498.0
11.691792964935303,158,63,0.0078125,1489.0,1497.0,1350,1498.0
11.715336084365845,160,62,0.0078125,1495.0,1497.0,1350,1500.0
11.738831996917725,159,62,0.0078125,1492.0,1497.0,1333.2,1499.0
11.762394189834595,159,64,0.014285714285714285,1490.0,1497.0,1341.6800000000001,1499.0
11.786013126373291,158,63,0.008928571428571428,1486.0,1497.0,1341.5999999999999,1498.0
11.809548139572144,158,64,0.015625,1482.0,1497.0,1336.24,1498.0
11.833115100860596,158,51,0.011111111111111112,1480,1497.0,1350,1498.0
11.856482028961182,160,63,0.007407407407407408,1487.0,1497.0,1350,1500.0
11.879908084869385,159,64,0.010416666666666666,1485.0,1497.0,1350,1499.0
11.903475999832153,161,63,0.010416666666666666,1492.0,1497.0,1350,1501.0
11.926957130432129,159,63,0.008333333333333333,1489.0,1497.0,1350,1499.0
11.950499057769775,158,64,0.010416666666666666,1485.0,1497.0,1340.1600000000001,1498.0
11.974193096160889,160,64,0.008403361344537815,1490.0,1497.0,1340.0799999999999,1500.0
11.998067140579224,159,63,0.005263157894736842,1488.0,1497.0,1342.72,1499.0
12.021726131439209,159,63,0.007407407407407408,1489.0,1497.0,1342.72,1499.0
12.04560399055481,156,62,0.0078125,1481.0,1497.0,1344.0,1496.0
12.069113969802856,156,63,0.006944444444444444,1480,1497.0,1350,1496.0
12.092591047286987,157,62,0.0078125,1480,1497.0,1350,1497.0
12.11598014831543,159,52,0.008403361344537815,1482.0,1497.0,1350,1499.0
12.139475107192993,158,51,0.007936507936507936,1480,1497.0,1350,1498.0
12.162866115570068,159,62,0.010416666666666666,1480,1497.0,1350,1499.0
12.18627405166626,158,62,0.0078125,1480,1497.0,1350,1498.0
12.20970106124878,158,64,0.008928571428571428,1480,1497.0,1350,1498.0
12.233057975769043,161,52,0.00980392156862745,1483.0,1497.0,1350,1501.0
12.256649017333984,160,52,0.01282051282051282,1482.0,1497.0,1350,1500.0
12.280063152313232,160,65,0.007407407407407408,1486.0,1497.0,1350,1500.0
12.303660154342651,160,65,0.006944444444444444,1490.0,1497.0,1345.9200000000001,1500.0
12.327314138412476,160,66,0.007352941176470588,1493.0,1497.0,1344.5599999999999,1500.0
12.35093903541565,162,66,0.009615384615384616,1500.0,1497.0,1324.4000000000001,1502.0
12.37480616569519,162,56,0.011111111111111112,1504.0,1497.0,1332.0,1502.0
12.398298025131226,161,54,0.011111111111111112,1504.0,1497.0,1350,1501.0
12.421818017959595,162,66,0.009615384615384616,1510.0,1497.0,1342.5599999999999,1502.0
12.445523977279663,164,66,0.011363636363636364,1520.0,1497.0,1345.28,1504.0
12.469078063964844,162,55,0.006578947368421052,1517.0,1497.0,1350,1502.0
12.492554187774658,161,55,0.009259259259259259,1516.0,1497.0,1350,1501.0
12.516031980514526,159,67,0.007352941176470588,1511.0,1497.0,1350,1499.0
12.539699077606201,160,69,0.008403361344537815,1513.0,1497.0,1346.8,1500.0
12.56339406967163,160,58,0.00980392156862745,1513.0,1497.0,1350,1500.0
12.586960077285767,159,57,0.011111111111111112,1508.0,1497.0,1350,1499.0
12.610321044921875,159,70,0.008928571428571428,1505.0,1497.0,1316.3199999999999,1499.0
12.633913040161133,159,70,0.010416666666666666,1503.0,1497.0,1329.6800000000001,1499.0
12.657546997070312,158,57,0.010416666666666666,1497.0,1497.0,1350,1498.0
12.681172132492065,160,68,0.0078125,1497.0,1497.0,1328.1600000000001,1500.0
12.704962968826294,160,68,0.008333333333333333,1495.0,1497.0,1315.04,1500.0
12.728440046310425,161,57,0.008403361344537815,1497.0,1497.0,1350,1501.0
12.75200605392456,161,68,0.007352941176470588,1499.0,1497.0,1350,1501.0
12.775706052780151,161,57,0.011111111111111112,1500.0,1497.0,1350,1501.0
12.799134016036987,161,68,0.0078125,1501.0,1497.0,1350,1501.0
12.822587966918945,163,57,0.008928571428571428,1509.0,1497.0,1350,1503.0
12.846096992492676,164,58,0.008403361344537815,1516.0,1497.0,1350,1504.0
12.869567155838013,164,58,0.008403361344537815,1520,1497.0,1350,1504.0
12.892912149429321,163,70,0.01020408163265306,1520,1497.0,1350,1503.0
12.916376113891602,163,58,0.008333333333333333,1520,1497.0,1350,1503.0
12.939714193344116,163,58,0.007936507936507936,1520,1497.0,1350,1503.0
12.963093996047974,162,70,0.008403361344537815,1520,1497.0,1342.72,1502.0
12.98658013343811,163,70,0.008333333333333333,1520,1497.0,1311.8399999999999,1503.0
13.009973049163818,162,59,0.008928571428571428,1520,1497.0,1350,1502.0
13.033529043197632,162,70,0.008333333333333333,1520,1497.0,1314.48,1502.0
13.057574987411499,162,58,0.00980392156862745,1520,1497.0,1330.24,1502.0
13.081072092056274,161,59,0.013333333333333334,1520,1497.0,1350,1501.0
13.1045401096344,161,60,0.008403361344537815,1520,1497.0,1350,1501.0
13.127917051315308,160,59,0.008928571428571428,1519.0,1497.0,1350,1500.0
13.151617050170898,162,60,0.00980392156862745,1520,1497.0,1350,1502.0
13.175096035003662,163,61,0.008403361344537815,1520,1497.0,1350,1503.0
13.198378086090088,162,72,0.009523809523809525,1520,1497.0,1350,1502.0
13.22189712524414,161,62,0.011111111111111112,1518.0,1497.0,1349.5999999999999,1501.0
13.245700120925903,160,61,0.008928571428571428,1514.0,1497.0,1347.9200000000001,1500.0
13.269370079040527,161,73,0.008928571428571428,1515.0,1497.0,1301.2,1501.0
13.293207168579102,162,73,0.01098901098901099,1517.0,1497.0,1288.0,1502.0
13.316867113113403,160,73,0.009523809523809525,1512.0,1497.0,1304.24,1500.0
13.340437173843384,162,73,0.008403361344537815,1517.0,1497.0,1291.1199999999999,1502.0
13.364022970199585,160,61,0.010416666666666666,1513.0,1497.0,1308.24,1500.0
13.387564182281494,160,72,0.009523809523809525,1511.0,1497.0,1314.1600000000001,1500.0
13.411234140396118,163,71,0.009615384615384616,1517.0,1497.0,1334.5599999999999,1503.0
13.435096025466919,161,60,0.00980392156862745,1512.0,1497.0,1350,1501.0
13.458609104156494,159,72,0.01020408163265306,1506.0,1497.0,1350,1499.0
13.482211112976074,160,71,0.006944444444444444,1508.0,1497.0,1350,1500.0
13.506216049194336,159,60,0.007936507936507936,1504.0,1497.0,1350,1499.0
13.529824018478394,159,70,0.008928571428571428,1501.0,1497.0,1350,1499.0
13.55330204963684,159,70,0.010416666666666666,1500.0,1497.0,1340.4000000000001,1499.0
13.576833963394165,157,71,0.014285714285714285,1491.0,1497.0,1339.28,1497.0
13.600525140762329,158,69,0.011904761904761904,1491.0,1497.0,1350,1498.0
13.624291181564331,161,69,0.011363636363636364,1498.0,1497.0,1328.8800000000001,1501.0
13.648097038269043,158,69,0.008928571428571428,1487.0,1497.0,1328.96,1498.0
13.671889066696167,160,70,0.008403361344537815,1490.0,1497.0,1341.3599999999999,1500.0
13.695558071136475,159,59,0.008403361344537815,1488.0,1497.0,1350,1499.0
13.719125986099243,158,58,0.008928571428571428,1484.0,1497.0,1350,1498.0
13.742709159851074,158,58,0.0125,1483.0,1497.0,1350,1498.0
13.766167163848877,159,57,0.009523809523809525,1485.0,1497.0,1350,1499.0
13.789674997329712,159,57,0.008928571428571428,1485.0,1497.0,1350,1499.0
13.813192129135132,159,56,0.007936507936507936,1487.0,1497.0,1350,1499.0
13.83664608001709,159,67,0.008403361344537815,1488.0,1497.0,1350,1499.0
13.860169172286987,160,66,0.008333333333333333,1489.0,1497.0,1350,1500.0
13.883651971817017,159,66,0.008928571428571428,1488.0,1497.0,1342.24,1499.0
13.907212972640991,160,55,0.010416666666666666,1490.0,1497.0,1340.6400000000001,1500.0
