time,x,y,size_inv,roll,pitch,thrust,yaw
0.001280069351196289,163,31.0,2012.5826415054094,1509.0,1503.0,1350,1503.0
0.025249958038330078,163,30.7415,2012.5826415054094,1512.0,1503.0,1350,1503.0
0.04887890815734863,163,30.7415,2012.5826415054094,1515.0,1503.0,1350,1503.0
0.07243108749389648,163,30.7415,2012.5826415054094,1518.0,1503.0,1350,1503.0
0.09596109390258789,163,30.7415,2012.5826415054094,1520,1503.0,1350,1503.0
0.1195530891418457,163,30.7415,2022.6455547129365,1520,1503.0,1350,1503.0
0.1430370807647705,163,30.7415,2022.6455547129365,1520,1503.0,1350,1503.0
0.16664791107177734,163,30.7415,2032.7084679204636,1520,1503.0,1350,1503.0
0.1902170181274414,163,30.7415,2042.7713811279907,1520,1503.0,1350,1503.0
0.21374297142028809,163,30.7415,2052.8342943355178,1520,1503.0,1350,1503.0
0.23761200904846191,164,30.7415,2052.8342943355178,1520,1503.0,1350,1504.0
0.2617480754852295,164,30.765,2052.8342943355178,1520,1503.0,1350,1504.0
0.2858119010925293,164,30.765,2052.8342943355178,1520,1503.0,1350,1504.0
0.3100578784942627,163,30.6945,2062.8972075430452,1520,1503.0,1350,1503.0
0.33418893814086914,160,30.718,2072.9601207505721,1520,1503.0,1350,1500.0
0.35828399658203125,159,31.765,2072.9601207505721,1520,1503.0,1350,1499.0
0.3824169635772705,158,33.859,2083.0230339580994,1517.0,1503.0,1350,1498.0
0.40673089027404785,157,35.953,2083.0230339580994,1509.0,1503.0,1350,1497.0
0.43111491203308105,156,38.094,2072.9601207505721,1500.0,1503.0,1350,1496.0
0.45535898208618164,155,41.141,2072.9601207505721,1490.0,1503.0,1350,1495.0
0.47962307929992676,155,43.094,2072.9601207505721,1481.0,1503.0,1342.0063599999999,1495.0
0.5039570331573486,154,43.0,2072.9601207505721,1480,1503.0,1333.1639600000001,1494.0
0.5281870365142822,155,43.953,2083.0230339580994,1480,1503.0,1327.5560400000002,1495.0
0.5524299144744873,155,43.9295,2072.9601207505721,1480,1503.0,1329.2444400000002,1495.0
0.576714038848877,156,44.953,2062.8972075430452,1480,1503.0,1336.7022400000003,1496.0
0.601064920425415,156,47.0,2052.8342943355178,1480,1503.0,1344.02864,1496.0
0.6253108978271484,157,53.0705,2033.6232782120574,1480,1503.0,1334.67428,1497.0
0.6495499610900879,157,56.1645,2014.4122620885967,1480,1503.0,1324.2569199999998,1497.0
0.6737909317016602,157,58.188,2005.2641591726629,1480,1503.0,1309.2327599999999,1497.0
0.6980369091033936,157,61.188,1986.0531430492022,1480,1503.0,1287.43868,1497.0
0.7222979068756104,157,62.141,1976.9050401332686,1480,1503.0,1269.8042000000003,1497.0
0.7468140125274658,157,64.094,1967.7569372173348,1480,1503.0,1265.2826400000001,1497.0
0.7714328765869141,157,65.0235,1948.5459210938741,1480,1503.0,1268.0179200000002,1497.0
0.795712947845459,158,65.9765,1939.3978181779407,1480,1503.0,1275.0504400000002,1498.0
0.8201420307159424,158,66.9295,1930.2497152620067,1480,1503.0,1287.7186800000002,1498.0
0.8443949222564697,158,67.906,1921.1016123460729,1480,1503.0,1298.8370399999999,1498.0
0.8686439990997314,158,69.8825,1912.7489966402204,1480,1503.0,1303.1217599999998,1498.0
0.8928918838500977,158,70.8825,1904.3963809343682,1480,1503.0,1305.53304,1498.0
0.9171950817108154,157,72.8825,1888.3872008314841,1480,1503.0,1303.7807599999999,1497.0
0.9415059089660645,157,73.8825,1880.0345851256316,1480,1503.0,1300.37688,1497.0
0.9657368659973145,157,75.8825,1864.0254050227475,1480,1503.0,1294.3311200000001,1497.0
0.9901309013366699,157,76.8825,1848.0162249198634,1480,1503.0,1290.9234800000002,1497.0
1.0143909454345703,156,78.8825,1824.9630055717105,1480,1503.0,1284.97172,1496.0
1.038619041442871,156,79.8825,1801.9097862235576,1480,1503.0,1283.0838800000001,1496.0
1.0628480911254883,156,80.8825,1785.9006061206735,1480,1503.0,1281.2599600000001,1496.0
1.0871360301971436,156,81.859,1769.8914260177894,1480,1503.0,1282.3300400000001,1496.0
1.1114189624786377,156,82.859,1762.2348616207578,1480,1503.0,1282.0438799999999,1496.0
1.1356420516967773,157,83.859,1747.5342579784574,1480,1503.0,1284.55772,1497.0
1.1600310802459717,157,84.859,1740.4902187331886,1480,1503.0,1285.71156,1497.0
1.1842780113220215,157,85.8825,1725.789615090888,1480,1503.0,1286.8033600000001,1497.0
1.2088570594787598,158,86.8825,1718.7455758456192,1480,1503.0,1286.49756,1498.0
1.2331509590148926,158,87.906,1711.7015366003502,1480,1503.0,1286.1297199999999,1498.0
1.2574729919433594,158,88.906,1711.7015366003502,1480,1503.0,1284.4300799999999,1498.0
1.2817590236663818,159,89.906,1711.7015366003502,1480,1503.0,1282.73044,1499.0
1.305974006652832,158,90.906,1704.6574973550814,1480,1503.0,1281.0965999999999,1498.0
1.330444097518921,158,90.9295,1697.6134581098127,1480,1503.0,1282.07268,1498.0
1.3546569347381592,159,90.9295,1690.5694188645436,1480,1503.0,1284.58276,1499.0
1.3788840770721436,158,90.9295,1690.5694188645436,1480,1503.0,1288.5328399999999,1498.0
1.4031400680541992,160,91.9295,1690.5694188645436,1483.0,1503.0,1291.2829199999999,1500.0
1.4275178909301758,159,91.9295,1690.5694188645436,1483.0,1503.0,1296.64104,1499.0
1.4519100189208984,159,91.9295,1690.5694188645436,1484.0,1503.0,1300.70496,1499.0
1.476262092590332,160,91.953,1690.5694188645436,1488.0,1503.0,1303.3148799999999,1500.0
1.500675916671753,160,91.953,1690.5694188645436,1490.0,1503.0,1304.5930000000001,1500.0
1.5249900817871094,160,91.9765,1690.5694188645436,1491.0,1503.0,1307.24908,1500.0
1.5493268966674805,161,92.0,1690.5694188645436,1496.0,1503.0,1308.5113200000001,1501.0
1.573632001876831,161,92.0235,1690.5694188645436,1499.0,1503.0,1309.70776,1501.0
1.5979630947113037,161,92.0235,1690.5694188645436,1501.0,1503.0,1310.9982,1501.0
1.6223170757293701,162,92.0235,1697.6134581098127,1507.0,1503.0,1312.28864,1502.0
1.6467058658599854,162,92.047,1704.6574973550814,1509.0,1503.0,1312.2228400000001,1502.0
1.6711061000823975,162,92.047,1711.7015366003502,1512.0,1503.0,1312.2510400000001,1502.0
1.695422887802124,162,91.0705,1726.4021402426508,1515.0,1503.0,1314.923,1502.0
1.7198660373687744,162,91.0705,1741.1027438849512,1517.0,1503.0,1316.3912,1502.0
1.7441520690917969,163,91.094,1755.8033475272518,1520,1503.0,1317.79736,1503.0
1.7683649063110352,163,90.094,1770.5039511695522,1520,1503.0,1321.9055599999999,1503.0
1.7925879955291748,163,90.094,1785.2045548118526,1520,1503.0,1324.7818,1503.0
1.817018985748291,163,89.094,1799.9051584541533,1520,1503.0,1327.53188,1503.0
1.8415238857269287,163,89.094,1822.9583778023061,1520,1503.0,1329.08196,1503.0
1.8657770156860352,163,89.094,1838.9675579051902,1520,1503.0,1330.69784,1503.0
1.890160083770752,163,88.094,1854.9767380080743,1520,1503.0,1332.12176,1503.0
1.9144160747528076,163,87.094,1880.1340210268918,1520,1503.0,1334.98568,1503.0
1.9386520385742188,162,87.1175,1897.6347396486781,1520,1503.0,1335.1156000000001,1502.0
1.9628829956054688,162,86.1175,1915.1354582704644,1520,1503.0,1337.91372,1502.0
1.9871690273284912,162,86.1175,1932.6361768922507,1520,1503.0,1339.4798799999999,1502.0
2.011488914489746,162,86.141,1960.1998087215638,1520,1503.0,1339.5439999999999,1502.0
2.035731077194214,162,86.141,1987.7634405508768,1520,1503.0,1336.8363199999999,1502.0
2.060105085372925,161,85.141,2015.32707238019,1520,1503.0,1338.19444,1501.0
2.084336996078491,161,84.141,2045.6602557330225,1520,1503.0,1338.19256,1501.0
2.1085798740386963,161,84.141,2075.9934390858552,1520,1503.0,1336.9906799999999,1501.0
2.1328508853912354,161,84.141,2106.3266224386875,1519.0,1503.0,1337.2146,1501.0
2.1572279930114746,161,84.141,2127.5117028755867,1517.0,1503.0,1338.7985200000001,1501.0
2.181643009185791,161,84.1645,2148.6967833124859,1516.0,1503.0,1337.4884400000001,1501.0
2.2060868740081787,161,84.1645,2182.2398273375757,1515.0,1503.0,1334.76656,1501.0
2.2306020259857178,161,84.1645,2215.7828713626659,1514.0,1503.0,1332.04468,1501.0
2.254939079284668,161,84.1645,2239.2630021802288,1513.0,1503.0,1329.2908399999999,1501.0
2.2792389392852783,161,84.141,2262.7431329977917,1512.0,1503.0,1326.5990400000001,1501.0
2.303546905517578,161,83.141,2273.8653002271635,1512.0,1503.0,1327.9448400000001,1501.0
2.32784104347229,161,83.1175,2286.2232638153546,1512.0,1503.0,1329.51268,1501.0
2.352165937423706,161,83.1175,2298.5812274035457,1512.0,1503.0,1331.05232,1501.0
2.3768539428710938,161,82.094,2298.5812274035457,1512.0,1503.0,1335.2939999999999,1501.0
2.4012858867645264,161,82.094,2298.5812274035457,1512.0,1503.0,1338.2416800000001,1501.0
2.4256339073181152,161,82.094,2298.5812274035457,1512.0,1503.0,1338.3574000000001,1501.0
2.4501349925994873,161,82.094,2286.2232638153546,1512.0,1503.0,1338.40732,1501.0
2.474457025527954,161,83.094,2286.2232638153546,1512.0,1503.0,1335.8172400000001,1501.0
2.498760938644409,161,83.094,2286.2232638153546,1512.0,1503.0,1331.5613600000001,1501.0
2.5230538845062256,161,83.094,2286.2232638153546,1512.0,1503.0,1327.33744,1501.0
2.54744291305542,161,82.094,2312.3930690609359,1512.0,1503.0,1327.1135200000001,1501.0
2.5718369483947754,161,82.0705,2312.3930690609359,1512.0,1503.0,1325.7836,1501.0
2.5962350368499756,160,82.0705,2312.3930690609359,1509.0,1503.0,1327.2254800000001,1500.0
2.620673894882202,160,82.0705,2324.751032649127,1508.0,1503.0,1330.0593200000001,1500.0
2.644960880279541,160,82.0705,2337.108996237318,1507.0,1503.0,1332.8931600000001,1500.0
2.66929292678833,160,82.094,2363.2788014828993,1506.0,1503.0,1332.8649599999999,1500.0
2.693603038787842,160,83.1175,2375.6367650710899,1505.0,1503.0,1330.0971199999999,1500.0
2.7179410457611084,160,83.141,2375.6367650710899,1504.0,1503.0,1327.13544,1500.0
2.7422780990600586,160,84.1645,2375.6367650710899,1503.0,1503.0,1321.49992,1500.0
2.766637086868286,160,84.1645,2375.6367650710899,1502.0,1503.0,1317.0925999999999,1500.0
2.791048049926758,160,84.141,2361.8249234137002,1501.0,1503.0,1314.1731199999999,1500.0
2.8153738975524902,160,84.141,2361.8249234137002,1500.0,1503.0,1314.1232,1500.0
2.8398540019989014,159,84.1175,2361.8249234137002,1497.0,1503.0,1314.2011199999999,1499.0
2.8642148971557617,159,83.094,2375.6367650710899,1496.0,1503.0,1319.8186799999999,1499.0
2.888511896133423,159,83.094,2389.4486067284802,1495.0,1503.0,1324.20804,1499.0
2.912796974182129,159,83.0705,2389.4486067284802,1494.0,1503.0,1328.56168,1499.0
2.9371800422668457,159,83.0705,2403.2604483858699,1493.0,1503.0,1331.4951599999999,1499.0
2.961540937423706,159,83.0705,2417.0722900432602,1492.0,1503.0,1334.33088,1499.0
2.9858670234680176,158,84.094,2417.0722900432602,1488.0,1503.0,1330.2067999999999,1498.0
3.010335922241211,158,84.1175,2430.88413170065,1486.0,1503.0,1327.2488800000001,1498.0
3.0346860885620117,158,84.1175,2444.6959733580397,1484.0,1503.0,1324.28532,1498.0
3.0590009689331055,158,84.1175,2458.50781501543,1482.0,1503.0,1321.32176,1498.0
3.083296060562134,157,84.094,2472.3196566728197,1480,1503.0,1318.4521999999999,1497.0
3.107546091079712,157,84.0705,2472.3196566728197,1480,1503.0,1319.8742399999999,1497.0
3.131814956665039,157,84.0705,2458.50781501543,1480,1503.0,1321.3338799999999,1497.0
3.156109094619751,157,84.047,2444.6959733580397,1480,1503.0,1322.88752,1497.0
3.1804370880126953,157,84.0235,2430.88413170065,1480,1503.0,1324.4750000000001,1497.0
3.2046849727630615,157,84.0235,2417.0722900432602,1480,1503.0,1325.96848,1497.0
3.228956937789917,158,84.0235,2417.0722900432602,1480,1503.0,1326.0042000000001,1498.0
3.2532498836517334,158,84.047,2403.2604483858699,1480,1503.0,1325.9459199999999,1498.0
3.2774980068206787,158,84.047,2377.0906431402886,1480,1503.0,1325.85004,1498.0
3.3017189502716064,158,84.047,2350.9208378947073,1480,1503.0,1325.6883600000001,1498.0
3.3259470462799072,158,84.047,2324.751032649126,1480,1503.0,1325.55864,1498.0
3.3503499031066895,159,84.047,2298.5812274035447,1480,1503.0,1325.4608799999999,1499.0
3.3746070861816406,159,84.047,2286.2232638153537,1480,1503.0,1325.4289200000001,1499.0
3.3988630771636963,159,85.047,2286.2232638153537,1480,1503.0,1322.78892,1499.0
3.423161029815674,159,85.047,2273.8653002271631,1481.0,1503.0,1321.3808799999999,1499.0
3.4475769996643066,159,85.047,2261.507336638972,1483.0,1503.0,1319.9728399999999,1499.0
3.4719200134277344,159,85.047,2249.1493730507809,1484.0,1503.0,1318.5648000000001,1499.0
3.496290922164917,159,85.0705,2236.7914094625899,1485.0,1503.0,1317.06276,1499.0
3.5207159519195557,159,86.0705,2236.7914094625899,1486.0,1503.0,1315.74892,1499.0
3.5501739978790283,159,86.0705,2236.7914094625899,1487.0,1503.0,1315.63508,1499.0
3.574617862701416,160,86.0705,2236.7914094625899,1491.0,1503.0,1315.52124,1500.0
3.598968029022217,160,87.0705,2225.669242233218,1492.0,1503.0,1312.7674,1500.0
3.623332977294922,160,87.0705,2225.669242233218,1493.0,1503.0,1311.27936,1500.0
3.647649049758911,161,87.0705,2213.311278645027,1497.0,1503.0,1311.2313200000001,1501.0
3.6719329357147217,161,87.094,2213.311278645027,1499.0,1503.0,1311.1212399999999,1501.0
3.6962900161743164,160,88.094,2202.1891114156551,1498.0,1503.0,1308.3993600000001,1500.0
3.720733880996704,162,88.094,2202.1891114156551,1505.0,1503.0,1309.6774800000001,1502.0
3.7450549602508545,161,88.094,2191.0669441862833,1505.0,1503.0,1310.92364,1501.0
3.7694039344787598,162,88.0705,2179.9447769569115,1510.0,1503.0,1310.87184,1502.0
3.793731927871704,163,87.0705,2179.9447769569115,1516.0,1503.0,1313.49764,1503.0
3.818057060241699,162,87.0705,2179.9447769569115,1516.0,1503.0,1317.72344,1502.0
3.8423829078674316,162,87.0705,2191.0669441862833,1518.0,1503.0,1320.58924,1502.0
3.8667659759521484,162,87.0705,2191.0669441862833,1520.0,1503.0,1323.4550400000001,1502.0
3.891160011291504,163,87.0705,2191.0669441862833,1520,1503.0,1326.25504,1503.0
3.915376901626587,163,87.094,2191.0669441862833,1520,1503.0,1326.16104,1503.0
3.939729928970337,163,87.094,2202.1891114156551,1520,1503.0,1324.73524,1503.0
3.9639439582824707,163,87.1175,2202.1891114156551,1520,1503.0,1323.2474,1503.0
3.9881980419158936,164,88.141,2225.6692422332185,1520,1503.0,1319.08572,1504.0
4.012434005737305,163,88.1645,2249.1493730507814,1520,1503.0,1316.1221599999999,1503.0
4.036747932434082,163,88.188,2261.5073366389724,1520,1503.0,1314.5505599999999,1503.0
4.061054944992065,164,88.188,2273.8653002271631,1520,1503.0,1313.0071599999999,1504.0
4.085287094116211,164,87.188,2300.0351054727444,1520,1503.0,1314.16956,1504.0
4.109508991241455,164,87.1645,2326.2049107183257,1520,1503.0,1317.0598,1504.0
4.1337668895721436,163,87.141,2338.5628743065167,1520,1503.0,1320.0496800000001,1503.0
4.157995939254761,163,85.141,2364.732679552098,1520,1503.0,1328.3252,1503.0
4.182214975357056,163,85.1175,2390.9024847976793,1520,1503.0,1334.2627600000001,1503.0
4.206518888473511,163,84.094,2417.0722900432606,1520,1503.0,1340.0422000000001,1503.0
4.230889081954956,163,84.047,2446.4224535652147,1520,1503.0,1343.2597599999999,1503.0
4.255151987075806,162,83.047,2460.2342952226045,1520,1503.0,1348.96316,1502.0
4.279367923736572,162,83.047,2474.0461368799943,1520,1503.0,1347.8346000000001,1502.0
4.3035969734191895,161,82.047,2487.8579785373845,1520,1503.0,1349.28024,1501.0
4.327820062637329,161,82.047,2487.8579785373845,1520,1503.0,1348.02008,1501.0
4.35204291343689,161,82.047,2487.8579785373845,1520,1503.0,1346.6602800000001,1501.0
4.376338005065918,160,82.0705,2501.6698201947743,1519.0,1503.0,1342.4703999999999,1500.0
4.400760889053345,160,82.0705,2501.6698201947743,1516.0,1503.0,1341.02872,1500.0
4.425076961517334,160,82.0705,2517.2081420593381,1513.0,1503.0,1336.819,1500.0
4.449388027191162,160,82.047,2532.746463923902,1510.0,1503.0,1334.0632800000001,1500.0
4.473664045333862,160,82.047,2532.746463923902,1507.0,1503.0,1331.34328,1500.0
4.497935056686401,160,81.0235,2532.746463923902,1505.0,1503.0,1332.7511199999999,1500.0
4.522233963012695,160,81.0,2548.2847857884658,1503.0,1503.0,1332.9928,1500.0
4.546590089797974,160,81.0,2563.8231076530296,1502.0,1503.0,1334.56628,1500.0
4.570980072021484,160,81.0,2579.3614295175935,1501.0,1503.0,1336.0739599999999,1500.0
4.595278978347778,160,81.0,2594.8997513821573,1500.0,1503.0,1337.5816399999999,1500.0
4.619613885879517,160,81.0235,2594.8997513821573,1500.0,1503.0,1336.12952,1500.0
4.6439290046691895,160,82.0235,2610.4380732467212,1500.0,1503.0,1331.9998000000001,1500.0
4.668227910995483,160,82.047,2610.4380732467212,1500.0,1503.0,1329.0080399999999,1500.0
4.692530870437622,160,82.047,2594.8997513821573,1500.0,1503.0,1326.07644,1500.0
4.716922998428345,160,82.047,2579.3614295175935,1500.0,1503.0,1323.1448399999999,1500.0
4.741645097732544,161,82.047,2579.3614295175935,1503.0,1503.0,1321.671,1501.0
4.7661988735198975,160,82.0235,2563.8231076530296,1501.0,1503.0,1323.0911599999999,1500.0
4.790834903717041,160,83.0235,2563.8231076530296,1501.0,1503.0,1321.9089200000001,1500.0
4.8152148723602295,161,83.047,2563.8231076530296,1504.0,1503.0,1321.86464,1501.0
4.8395609855651855,160,83.047,2548.2847857884658,1502.0,1503.0,1321.8485599999999,1500.0
4.8638999462127686,160,83.047,2548.2847857884658,1502.0,1503.0,1321.80052,1500.0
4.888202905654907,160,83.047,2532.746463923902,1502.0,1503.0,1320.3266799999999,1500.0
4.912493944168091,160,84.047,2532.746463923902,1502.0,1503.0,1318.9808800000001,1500.0
4.9368979930877686,160,84.047,2548.2847857884658,1502.0,1503.0,1318.9008799999999,1500.0
4.961327075958252,160,84.047,2548.2847857884658,1502.0,1503.0,1318.82088,1500.0
4.98564600944519,160,84.047,2548.2847857884658,1501.0,1503.0,1318.7408800000001,1500.0
5.010144948959351,160,84.047,2548.2847857884658,1501.0,1503.0,1318.6928399999999,1500.0
5.0344860553741455,160,84.047,2532.746463923902,1501.0,1503.0,1320.0848000000001,1500.0
5.058795928955078,160,84.0235,2532.746463923902,1500.0,1503.0,1321.50684,1500.0
5.083076000213623,160,84.0235,2548.2847857884658,1500.0,1503.0,1322.90068,1500.0
5.107479095458984,159,83.0235,2548.2847857884658,1497.0,1503.0,1326.93452,1499.0
5.131891965866089,159,84.0235,2563.8231076530296,1496.0,1503.0,1327.1283599999999,1499.0
5.156256914138794,159,84.0235,2563.8231076530296,1495.0,1503.0,1327.1622,1499.0
5.180644989013672,159,84.0235,2563.8231076530296,1494.0,1503.0,1327.13024,1499.0
5.2049689292907715,159,84.0235,2579.3614295175935,1493.0,1503.0,1327.0982799999999,1499.0
5.229302883148193,159,84.0235,2594.8997513821573,1492.0,1503.0,1324.26632,1499.0
5.253665924072266,159,84.047,2610.4380732467212,1491.0,1503.0,1324.1723199999999,1499.0
5.277982950210571,159,84.047,2625.976395111285,1490.0,1503.0,1324.10652,1499.0
5.3022780418396,158,84.047,2625.976395111285,1486.0,1503.0,1324.07268,1498.0
5.326657056808472,159,84.0705,2625.976395111285,1487.0,1503.0,1323.9767999999999,1499.0
5.351088047027588,158,84.0705,2625.976395111285,1484.0,1503.0,1325.2691199999999,1498.0
5.375396966934204,158,84.094,2610.4380732467212,1483.0,1503.0,1325.2052000000001,1498.0
5.399862051010132,158,84.094,2594.8997513821573,1482.0,1503.0,1325.16948,1498.0
5.4241859912872314,158,84.094,2579.3614295175935,1481.0,1503.0,1325.1337600000002,1498.0
5.448513984680176,158,84.094,2563.8231076530296,1480.0,1503.0,1325.1638399999999,1498.0
5.472830057144165,158,85.094,2534.472944131076,1480,1503.0,1322.5539200000001,1498.0
5.497106075286865,158,85.1175,2505.1227806091219,1480,1503.0,1321.1158,1498.0
5.5214080810546875,158,85.1175,2475.7726170871683,1480,1503.0,1319.70588,1498.0
5.545651912689209,158,85.1175,2446.4224535652147,1480,1503.0,1318.2959599999999,1498.0
5.57001805305481,158,85.1175,2417.0722900432606,1480,1503.0,1316.8540799999998,1498.0
5.59427809715271,158,85.094,2403.2604483858709,1480,1503.0,1318.27424,1498.0
5.618583917617798,158,84.0705,2389.4486067284806,1480,1503.0,1322.4020800000001,1498.0
5.642833948135376,158,84.047,2375.6367650710908,1480,1503.0,1325.36376,1498.0
5.667120933532715,158,84.047,2361.8249234137011,1480,1503.0,1328.2972400000001,1498.0
5.691417932510376,158,83.0235,2361.8249234137011,1480,1503.0,1333.9327600000001,1498.0
5.715653896331787,158,83.0235,2361.8249234137011,1480,1503.0,1336.91428,1498.0
5.740072011947632,158,83.0235,2361.8249234137011,1480,1503.0,1336.9980399999999,1498.0
5.7642998695373535,158,83.0235,2361.8249234137011,1480,1503.0,1337.0160000000001,1498.0
5.788527011871338,159,83.047,2361.8249234137011,1480,1503.0,1336.97192,1499.0
5.812777042388916,159,83.047,2349.46695982551,1480.0,1503.0,1334.09024,1499.0
5.8371570110321045,159,84.0705,2349.46695982551,1481.0,1503.0,1328.5384799999999,1499.0
5.86156702041626,160,84.0705,2349.46695982551,1485.0,1503.0,1325.60688,1500.0
5.885895013809204,160,84.094,2337.1089962373189,1487.0,1503.0,1322.6451999999999,1500.0
5.910650968551636,160,84.094,2324.7510326491279,1489.0,1503.0,1319.7775200000001,1500.0
5.934992074966431,161,84.094,2298.5812274035466,1494.0,1503.0,1318.3018,1501.0
5.9592859745025635,161,84.094,2286.2232638153555,1497.0,1503.0,1319.6918800000001,1501.0
5.9836180210113525,161,84.047,2286.2232638153555,1500.0,1503.0,1321.20604,1501.0
6.0079450607299805,162,83.0235,2273.8653002271649,1506.0,1503.0,1325.43164,1502.0
6.032252073287964,162,83.0,2273.8653002271649,1509.0,1503.0,1328.45912,1502.0
6.056600093841553,162,82.0,2273.8653002271649,1512.0,1503.0,1334.0984000000001,1502.0
6.0809619426727295,163,82.0,2261.5073366389738,1518.0,1503.0,1337.14572,1503.0
6.105246067047119,163,83.0235,2261.5073366389738,1520,1503.0,1337.3594000000001,1503.0
6.129492998123169,163,83.047,2273.8653002271649,1520,1503.0,1335.84148,1503.0
6.15377402305603,163,83.0705,2273.8653002271649,1520,1503.0,1334.2239199999999,1503.0
6.178009033203125,163,84.094,2286.2232638153555,1520,1503.0,1327.1325199999999,1503.0
6.2022318840026855,163,84.094,2298.5812274035466,1520,1503.0,1321.2693200000001,1503.0
6.226547002792358,164,84.094,2298.5812274035466,1520,1503.0,1318.33584,1504.0
6.250925064086914,164,84.094,2310.9391909917376,1520,1503.0,1316.8601200000001,1504.0
6.275132894515991,165,83.0705,2324.7510326491274,1520,1503.0,1318.1842000000001,1505.0
6.299330949783325,165,83.0705,2337.1089962373185,1520,1503.0,1322.5058799999999,1505.0
6.323580980300903,165,82.047,2363.2788014828998,1520,1503.0,1329.5296000000001,1505.0
6.3478028774261475,165,82.0235,2363.2788014828998,1520,1503.0,1333.9952000000001,1505.0
6.3720409870147705,166,82.0235,2363.2788014828998,1520,1503.0,1338.4006400000001,1506.0
6.396337032318115,166,81.0235,2389.4486067284811,1520,1503.0,1342.5483200000001,1506.0
6.420685052871704,166,81.0235,2403.2604483858713,1520,1503.0,1344.1040399999999,1506.0
6.444921016693115,166,81.0235,2417.0722900432611,1520,1503.0,1342.79396,1506.0
6.469139099121094,166,81.0235,2430.8841317006509,1520,1503.0,1341.4180799999999,1506.0
6.493352890014648,167,81.047,2444.6959733580411,1520,1503.0,1339.9801600000001,1507.0
6.517611980438232,167,81.047,2444.6959733580411,1520,1503.0,1337.1623999999999,1507.0
6.541840076446533,167,81.047,2458.5078150154309,1520,1503.0,1334.34464,1507.0
6.5661139488220215,166,82.047,2474.0461368799947,1520,1503.0,1330.2788399999999,1506.0
6.590445041656494,166,82.047,2503.3963004019488,1520,1503.0,1327.4449999999999,1506.0
6.6146790981292725,167,81.0235,2532.7464639239024,1520,1503.0,1327.3789999999999,1507.0
6.638918876647949,166,81.0,2548.2847857884663,1520,1503.0,1327.50684,1506.0
6.663125038146973,166,80.9765,2563.8231076530301,1520,1503.0,1327.6685199999999,1506.0
6.687455892562866,165,80.9765,2579.3614295175939,1520,1503.0,1330.6020000000001,1505.0
6.711786985397339,165,80.9765,2594.8997513821578,1520,1503.0,1333.53548,1505.0
6.7360570430755615,165,80.9765,2610.4380732467216,1520,1503.0,1333.5712000000001,1505.0
6.760369062423706,163,80.9765,2643.5864932244576,1520,1503.0,1333.5411199999999,1503.0
6.784600019454956,164,82.0,2659.1248150890215,1520,1503.0,1330.7431999999999,1504.0
6.808822870254517,163,82.0,2659.1248150890215,1520,1503.0,1327.81348,1503.0
6.833034992218018,163,82.0,2659.1248150890215,1520,1503.0,1324.8837599999999,1503.0
6.857295036315918,163,83.0235,2659.1248150890215,1520,1503.0,1320.6439600000001,1503.0
6.881545066833496,162,83.047,2659.1248150890215,1520,1503.0,1317.6022800000001,1502.0
6.905752897262573,161,83.047,2676.7349132021941,1520,1503.0,1317.4865600000001,1501.0
6.930279016494751,162,84.047,2676.7349132021941,1520,1503.0,1314.7308399999999,1502.0
6.95453405380249,161,83.0235,2694.3450113153663,1520,1503.0,1315.87716,1501.0
6.978743076324463,162,83.0,2694.3450113153663,1520,1503.0,1318.7231200000001,1502.0
7.002970933914185,162,82.953,2676.7349132021941,1520,1503.0,1321.7307599999999,1502.0
7.027273893356323,162,81.9295,2694.3450113153663,1520,1503.0,1325.99208,1502.0
7.051585912704468,162,81.906,2694.3450113153663,1520,1503.0,1331.88724,1502.0
7.076217889785767,161,81.906,2694.3450113153663,1520.0,1503.0,1334.8884,1501.0
7.100636959075928,161,81.906,2694.3450113153663,1518.0,1503.0,1336.4318000000001,1501.0
7.124963045120239,160,82.9295,2694.3450113153663,1514.0,1503.0,1335.1096,1500.0
7.149280071258545,161,82.9765,2676.7349132021941,1516.0,1503.0,1332.0257200000001,1501.0
7.173603057861328,161,84.0,2676.7349132021941,1515.0,1503.0,1324.8704,1501.0
7.197901010513306,161,84.0235,2659.1248150890215,1515.0,1503.0,1320.2732000000001,1501.0
7.222259044647217,161,85.047,2659.1248150890215,1514.0,1503.0,1313.03412,1501.0
7.246660947799683,161,85.047,2659.1248150890215,1513.0,1503.0,1309.9529600000001,1501.0
7.271070957183838,161,85.047,2641.5147169758493,1512.0,1503.0,1308.39536,1501.0
7.295378923416138,161,85.0235,2641.5147169758493,1511.0,1503.0,1309.79756,1501.0
7.3198230266571045,160,85.0235,2641.5147169758493,1508.0,1503.0,1311.2373600000001,1500.0
7.3441550731658936,160,84.0235,2659.1248150890215,1507.0,1503.0,1318.1829600000001,1500.0
7.368474006652832,160,84.0,2676.7349132021941,1507.0,1503.0,1322.5986399999999,1500.0
7.392749071121216,160,84.0,2676.7349132021941,1506.0,1503.0,1326.9222,1500.0
7.41710090637207,159,83.9765,2676.7349132021941,1502.0,1503.0,1329.85004,1499.0
7.441490888595581,159,84.0,2676.7349132021941,1500.0,1503.0,1332.6556800000001,1499.0
7.465784072875977,159,84.0,2676.7349132021941,1498.0,1503.0,1331.29756,1499.0
7.490248918533325,158,85.0235,2676.7349132021941,1493.0,1503.0,1327.1715999999999,1498.0
7.514565944671631,157,85.0705,2676.7349132021941,1487.0,1503.0,1324.14976,1497.0
7.538902997970581,158,86.094,2676.7349132021941,1486.0,1503.0,1318.4484399999999,1498.0
7.563220977783203,158,86.094,2676.7349132021941,1484.0,1503.0,1314.0411200000001,1498.0
7.587532043457031,157,86.094,2659.1248150890215,1480,1503.0,1310.9938,1497.0
7.6118080615997314,157,85.094,2641.5147169758493,1480,1503.0,1313.48424,1497.0
7.636151075363159,157,85.0705,2641.5147169758493,1480,1503.0,1314.9683200000002,1497.0
7.660467863082886,157,84.047,2641.5147169758493,1480,1503.0,1322.0240000000001,1497.0
7.684694051742554,158,84.0235,2641.5147169758493,1480,1503.0,1327.88156,1498.0
7.708966970443726,157,83.0,2641.5147169758493,1480,1503.0,1336.4129599999999,1497.0
7.733215093612671,158,83.0235,2641.5147169758493,1480,1503.0,1339.46216,1498.0
7.757517099380493,157,83.0235,2641.5147169758493,1480,1503.0,1342.40984,1497.0
7.781769037246704,157,83.047,2641.5147169758493,1480,1503.0,1341.03772,1497.0
7.806102991104126,157,83.047,2641.5147169758493,1480,1503.0,1339.6279999999999,1497.0
7.830525875091553,158,83.0705,2641.5147169758493,1480,1503.0,1335.29044,1498.0
7.85478401184082,158,83.0705,2641.5147169758493,1480,1503.0,1332.40688,1498.0
7.87903904914856,157,82.047,2625.9763951112855,1480,1503.0,1332.2573199999999,1497.0
7.903284072875977,159,82.047,2625.9763951112855,1480,1503.0,1332.3373200000001,1499.0
7.927522897720337,159,81.047,2610.4380732467216,1480,1503.0,1335.0892800000001,1499.0
7.9517669677734375,159,81.047,2594.8997513821578,1480,1503.0,1338.0989999999999,1499.0
7.97608208656311,159,81.047,2579.3614295175939,1480,1503.0,1341.0767599999999,1499.0
8.00041389465332,160,81.047,2563.8231076530301,1483.0,1503.0,1341.1887200000001,1500.0
8.024765968322754,160,81.047,2548.2847857884663,1486.0,1503.0,1341.26872,1500.0
8.049083948135376,160,81.047,2532.7464639239024,1489.0,1503.0,1338.54872,1500.0
8.07337498664856,160,81.0235,2503.3963004019488,1491.0,1503.0,1335.8588,1500.0
8.097653865814209,160,81.0235,2474.0461368799947,1493.0,1503.0,1333.14068,1500.0
8.121991872787476,160,81.0,2460.2342952226049,1496.0,1503.0,1331.8765599999999,1500.0
8.146399974822998,158,81.0235,2430.8841317006509,1491.0,1503.0,1330.5222000000001,1498.0
8.17082405090332,158,81.0235,2417.0722900432611,1490.0,1503.0,1330.5560399999999,1498.0
8.195136070251465,159,81.0235,2403.2604483858713,1492.0,1503.0,1330.5240799999999,1499.0
8.219490051269531,158,82.047,2389.4486067284811,1489.0,1503.0,1327.79008,1498.0
8.243910074234009,158,82.047,2375.6367650710913,1487.0,1503.0,1326.21848,1498.0
8.26855993270874,158,82.047,2361.8249234137011,1485.0,1503.0,1324.7126800000001,1498.0
8.292908906936646,157,82.047,2348.0130817563113,1480.0,1503.0,1323.20688,1497.0
8.317267894744873,156,82.047,2361.8249234137011,1480,1503.0,1321.7330400000001,1496.0
8.34159803390503,156,82.0235,2361.8249234137011,1480,1503.0,1323.18704,1496.0
8.365834951400757,157,82.0235,2361.8249234137011,1480,1503.0,1324.6448,1497.0
8.390254974365234,157,81.9765,2361.8249234137011,1480,1503.0,1326.1946800000001,1497.0
8.41453504562378,157,80.9765,2349.4669598255105,1480,1503.0,1330.32816,1497.0
8.438767910003662,158,80.9765,2337.1089962373194,1480,1503.0,1333.2616399999999,1498.0
8.463018894195557,157,80.9765,2324.7510326491283,1480,1503.0,1334.7373600000001,1497.0
8.487322092056274,158,82.0,2324.7510326491283,1480,1503.0,1333.5110399999999,1498.0
8.51163101196289,158,83.0235,2324.7510326491283,1480,1503.0,1330.6792800000001,1498.0
8.535876989364624,158,83.0705,2312.3930690609373,1480,1503.0,1326.15164,1498.0
8.560244083404541,159,84.094,2286.2232638153559,1480,1503.0,1318.9783600000001,1499.0
8.584466934204102,160,84.094,2273.8653002271649,1480,1503.0,1313.0652399999999,1500.0
8.608728885650635,160,84.094,2261.5073366389743,1482.0,1503.0,1310.01792,1500.0
8.633073091506958,162,84.0705,2249.1493730507832,1491.0,1503.0,1309.96236,1502.0
8.65745496749878,161,84.0705,2249.1493730507832,1493.0,1503.0,1311.3702000000001,1501.0
8.68184494972229,162,84.047,2238.0272058214114,1499.0,1503.0,1315.70588,1502.0
8.706275939941406,163,83.047,2238.0272058214114,1507.0,1503.0,1322.65336,1503.0
8.730751991271973,164,84.047,2214.5470750038485,1515.0,1503.0,1324.36888,1504.0
8.75507402420044,163,83.0235,2202.1891114156574,1518.0,1503.0,1328.5286799999999,1503.0
8.779391050338745,164,83.0235,2202.1891114156574,1520,1503.0,1331.39636,1504.0
8.80361795425415,164,82.0,2202.1891114156574,1520,1503.0,1335.5083199999999,1504.0
8.82784104347229,165,83.0,2214.5470750038485,1520,1503.0,1332.95208,1505.0
8.852039098739624,164,82.0,2214.5470750038485,1520,1503.0,1337.03584,1504.0
8.876306056976318,165,82.0235,2214.5470750038485,1520,1503.0,1337.0237199999999,1505.0
8.900609970092773,164,83.047,2226.9050385920391,1520,1503.0,1334.3377599999999,1504.0
8.92483901977539,164,83.047,2250.3851694096024,1520,1503.0,1330.0461599999999,1504.0
8.94908094406128,164,83.0705,2262.7431329977935,1520,1503.0,1329.8525199999999,1504.0
8.973310947418213,164,83.094,2300.0351054727466,1520,1503.0,1325.46504,1504.0
8.99752402305603,164,83.094,2326.2049107183279,1520,1503.0,1322.5635199999999,1504.0
9.02176308631897,164,83.1175,2352.3747159639092,1520,1503.0,1322.46576,1504.0
9.046061992645264,164,83.1175,2378.5445212094905,1520,1503.0,1323.7881600000001,1504.0
9.070394039154053,164,83.1175,2392.3563628668808,1520,1503.0,1323.81636,1504.0
9.09459900856018,164,83.1175,2418.5261681124621,1520,1503.0,1325.27036,1504.0
9.118794918060303,165,83.094,2460.2342952226072,1520,1503.0,1326.7544399999999,1505.0
9.143126010894775,164,82.0705,2474.046136879997,1520,1503.0,1329.5862,1504.0
9.167486906051636,164,82.047,2503.3963004019506,1520,1503.0,1331.2518,1504.0
9.191740989685059,164,81.047,2517.2081420593408,1520,1503.0,1335.4972400000001,1504.0
9.216034889221191,164,82.047,2532.7464639239047,1520,1503.0,1335.8707200000001,1504.0
9.240432977676392,163,82.0705,2548.2847857884685,1520,1503.0,1337.31636,1503.0
9.264654874801636,163,82.0705,2548.2847857884685,1520,1503.0,1335.8924400000001,1503.0
9.288856029510498,163,82.0705,2548.2847857884685,1520,1503.0,1334.40272,1503.0
9.313086032867432,163,82.047,2563.8231076530324,1520,1503.0,1330.1750400000001,1503.0
9.337377071380615,163,81.0,2579.3614295175962,1520,1503.0,1331.48324,1503.0
9.361646890640259,164,81.0,2579.3614295175962,1520,1503.0,1331.6328000000001,1504.0
9.385833024978638,164,81.0,2594.89975138216,1520,1503.0,1333.1743200000001,1504.0
9.410206079483032,163,81.0,2594.89975138216,1520,1503.0,1334.7477999999999,1503.0
9.434437036514282,164,81.0235,2610.4380732467239,1520,1503.0,1337.5534399999999,1504.0
9.459033966064453,163,81.0235,2594.89975138216,1520,1503.0,1336.0956799999999,1503.0
9.483299970626831,164,82.047,2594.89975138216,1520,1503.0,1331.90392,1504.0
9.507524967193604,163,83.047,2610.4380732467239,1520,1503.0,1326.30036,1503.0
9.531766891479492,163,83.047,2625.9763951112877,1520,1503.0,1321.8968,1503.0
9.556051969528198,163,82.0235,2643.5864932244599,1520,1503.0,1320.29304,1503.0
9.580390930175781,163,82.0,2643.5864932244599,1520,1503.0,1318.94704,1503.0
9.604647874832153,163,81.9765,2643.5864932244599,1520,1503.0,1320.5006800000001,1503.0
9.628911018371582,162,81.953,2643.5864932244599,1520,1503.0,1324.88816,1502.0
9.65313196182251,162,81.953,2643.5864932244599,1520,1503.0,1329.2474399999999,1502.0
9.677411079406738,162,81.953,2643.5864932244599,1520,1503.0,1330.7089599999999,1502.0
9.701694965362549,162,81.9765,2676.7349132021964,1520,1503.0,1332.0426399999999,1502.0
9.725950002670288,162,83.0,2676.7349132021964,1520,1503.0,1329.2447199999999,1502.0
9.750365018844604,162,84.0235,2676.7349132021964,1520,1503.0,1323.5471600000001,1502.0
9.774631977081299,162,84.0235,2676.7349132021964,1520,1503.0,1319.0778,1502.0
9.798886060714722,162,84.0235,2659.1248150890237,1520,1503.0,1316.0004000000001,1502.0
9.823138952255249,162,84.0235,2659.1248150890237,1520,1503.0,1313.0207600000001,1502.0
9.847456932067871,162,84.0,2659.1248150890237,1520,1503.0,1313.00092,1502.0
9.871731042861938,163,83.9765,2659.1248150890237,1520,1503.0,1315.9126800000001,1503.0
9.89596700668335,162,83.9765,2659.1248150890237,1520,1503.0,1318.7962399999999,1502.0
9.920356035232544,162,83.9765,2659.1248150890237,1520,1503.0,1321.6797999999999,1502.0
9.944595098495483,162,83.9765,2641.5147169758516,1520,1503.0,1324.5314000000001,1502.0
9.968833923339844,162,84.9765,2641.5147169758516,1520,1503.0,1323.2852399999999,1502.0
9.993114948272705,162,84.9765,2641.5147169758516,1520,1503.0,1321.7813200000001,1502.0
10.017452955245972,162,86.0,2641.5147169758516,1520,1503.0,1317.57536,1502.0
10.041756868362427,162,86.0235,2641.5147169758516,1520,1503.0,1314.53556,1502.0
10.066052913665771,162,86.047,2641.5147169758516,1520,1503.0,1311.46192,1502.0
10.090389013290405,162,86.0705,2625.9763951112877,1520,1503.0,1311.1864,1502.0
10.114670038223267,162,87.094,2625.9763951112877,1520,1503.0,1308.269,1502.0
10.138944864273071,161,87.1175,2610.4380732467239,1520,1503.0,1309.38356,1501.0
10.163209915161133,160,87.1175,2594.89975138216,1517.0,1503.0,1310.59212,1500.0
10.187512874603271,160,88.1175,2594.89975138216,1515.0,1503.0,1309.22648,1500.0
10.211850881576538,160,87.0705,2579.3614295175962,1513.0,1503.0,1310.53072,1500.0
10.236248970031738,159,86.047,2563.8231076530324,1508.0,1503.0,1316.1464000000001,1499.0
10.260680913925171,159,86.047,2548.2847857884685,1505.0,1503.0,1319.2077199999999,1499.0
10.285000085830688,158,86.0235,2548.2847857884685,1499.0,1503.0,1322.2991199999999,1498.0
10.309328079223633,157,86.047,2548.2847857884685,1492.0,1503.0,1328.0683200000001,1497.0
10.333658933639526,157,86.0705,2548.2847857884685,1487.0,1503.0,1330.8401200000001,1497.0
10.357980966567993,156,86.1175,2532.7464639239047,1480,1503.0,1329.25828,1496.0
10.382246017456055,156,87.141,2548.2847857884685,1480,1503.0,1324.99884,1496.0
10.406630992889404,155,87.141,2563.8231076530324,1480,1503.0,1321.9017999999999,1495.0
10.431053876876831,155,86.141,2548.2847857884685,1480,1503.0,1320.15056,1495.0
10.455302953720093,155,86.1175,2563.8231076530324,1480,1503.0,1318.75108,1495.0
10.479547023773193,154,86.094,2579.3614295175962,1480,1503.0,1318.9090000000001,1494.0
10.503781080245972,155,85.0705,2594.89975138216,1480,1503.0,1324.6065599999999,1495.0
10.5280179977417,154,84.0235,2612.5098494953322,1480,1503.0,1331.8719599999999,1494.0
10.55224895477295,154,83.0,2612.5098494953322,1480,1503.0,1337.7510400000001,1494.0
10.5765380859375,154,82.9765,2628.0481713598961,1480,1503.0,1342.3662000000002,1494.0
10.60086703300476,154,81.9765,2661.1965913376325,1480,1503.0,1349.46344,1494.0
10.625434875488281,153,81.9765,2661.1965913376325,1480,1503.0,1350,1493.0
10.649770975112915,153,81.9765,2661.1965913376325,1480,1503.0,1349.8108,1493.0
10.674036026000977,153,81.9765,2676.7349132021964,1480,1503.0,1347.01288,1493.0
10.698260068893433,153,82.0,2676.7349132021964,1480,1503.0,1344.1190799999999,1493.0
10.7224760055542,153,82.0235,2676.7349132021964,1480,1503.0,1338.4233999999999,1493.0
10.746778011322021,154,83.047,2676.7349132021964,1480,1503.0,1331.4458400000001,1494.0
10.771107912063599,153,83.047,2659.1248150890237,1480,1503.0,1327.1204,1493.0
10.795363903045654,153,83.047,2659.1248150890237,1480,1503.0,1324.1869200000001,1493.0
10.819621086120605,154,83.047,2643.5864932244599,1480,1503.0,1321.3512000000001,1494.0
10.8438880443573,153,83.047,2610.4380732467239,1480,1503.0,1319.94128,1493.0
10.868119955062866,153,83.0235,2610.4380732467239,1480,1503.0,1321.4592,1493.0
10.892356872558594,154,82.9765,2610.4380732467239,1480,1503.0,1323.0729999999999,1494.0
10.916698932647705,154,81.953,2594.89975138216,1480,1503.0,1327.3324399999999,1494.0
10.941051959991455,154,81.9295,2579.3614295175962,1480,1503.0,1330.3937599999999,1494.0
10.9653160572052,155,81.906,2563.8231076530324,1480,1503.0,1333.45696,1495.0
10.989562034606934,155,81.906,2534.4729441310783,1480,1503.0,1335.0341999999998,1495.0
11.013832092285156,155,81.906,2518.9346222665145,1480,1503.0,1336.47984,1495.0
11.038074016571045,155,82.9295,2489.5844587445608,1480,1503.0,1332.3576399999999,1495.0
11.062315940856934,155,82.953,2475.7726170871711,1480,1503.0,1329.3357999999998,1495.0
11.086625099182129,155,82.953,2475.7726170871711,1480,1503.0,1326.2763599999998,1495.0
11.110960006713867,155,83.953,2446.422453565217,1480,1503.0,1320.60888,1495.0
11.135196924209595,155,83.953,2417.0722900432634,1480,1503.0,1316.20532,1495.0
11.159446001052856,155,82.9295,2417.0722900432634,1480,1503.0,1318.7615599999999,1495.0
11.18370008468628,155,82.906,2417.0722900432634,1480,1503.0,1320.2494000000002,1495.0
11.207956075668335,156,82.906,2417.0722900432634,1480,1503.0,1321.741,1496.0
11.232254981994629,156,82.906,2430.8841317006531,1480,1503.0,1326.0326,1496.0
11.256584882736206,156,83.906,2417.0722900432634,1480,1503.0,1327.6841999999999,1496.0
11.280916929244995,156,83.9295,2417.0722900432634,1480,1503.0,1326.2160000000001,1496.0
11.305160999298096,156,83.953,2430.8841317006531,1480,1503.0,1324.6161999999999,1496.0
11.329417943954468,156,84.0,2430.8841317006531,1480,1503.0,1322.9205199999999,1496.0
11.353790998458862,157,86.0,2430.8841317006531,1480,1503.0,1314.6412399999999,1497.0
11.37821102142334,157,86.0,2430.8841317006531,1480,1503.0,1311.56196,1497.0
11.402447938919067,157,86.0,2417.0722900432634,1480,1503.0,1309.9404400000001,1497.0
11.42677092552185,157,85.9765,2403.2604483858731,1480,1503.0,1308.4787200000001,1497.0
11.451137065887451,157,84.953,2403.2604483858731,1480,1503.0,1309.8224399999999,1497.0
11.47548508644104,158,84.906,2389.4486067284834,1480,1503.0,1315.6620399999999,1498.0
11.500014066696167,158,83.906,2403.2604483858731,1480,1503.0,1322.72524,1498.0
11.524285078048706,158,83.906,2417.0722900432634,1480,1503.0,1328.55648,1498.0
11.548556089401245,158,84.906,2403.2604483858731,1480,1503.0,1331.64996,1498.0
11.572799921035767,158,84.9295,2389.4486067284834,1480,1503.0,1332.9516799999999,1498.0
11.597121953964233,158,84.953,2389.4486067284834,1480,1503.0,1331.36796,1498.0
11.6214759349823,158,85.9765,2389.4486067284834,1480,1503.0,1324.3104000000001,1498.0
11.64571499824524,159,86.0,2389.4486067284834,1480,1503.0,1318.4190000000001,1499.0
11.670070886611938,159,86.0235,2377.0906431402923,1480,1503.0,1315.32572,1499.0
11.694320917129517,159,87.0235,2363.2788014829025,1481.0,1503.0,1311.0784000000001,1499.0
11.718663930892944,159,86.0,2350.9208378947114,1482.0,1503.0,1310.86284,1499.0
11.743015050888062,160,86.0,2324.7510326491301,1486.0,1503.0,1313.6448800000001,1500.0
11.767395973205566,160,85.9765,2298.5812274035488,1488.0,1503.0,1316.55476,1500.0
11.791781902313232,160,85.9765,2286.2232638153578,1490.0,1503.0,1318.1422399999999,1500.0
11.81650996208191,161,86.0,2273.8653002271667,1495.0,1503.0,1322.4357199999999,1501.0
11.840959072113037,161,86.0,2261.5073366389761,1498.0,1503.0,1323.8596399999999,1501.0
11.865292072296143,162,87.0235,2238.0272058214127,1504.0,1503.0,1321.18956,1502.0
11.889616012573242,163,87.047,2225.6692422332217,1510.0,1503.0,1319.58788,1503.0
11.913940906524658,163,87.0705,2225.6692422332217,1514.0,1503.0,1317.9204,1503.0
11.938230991363525,164,87.0705,2213.3112786450306,1520,1503.0,1314.9869200000001,1504.0
11.962477922439575,165,88.094,2213.3112786450306,1520,1503.0,1310.7433600000002,1505.0
11.986762046813965,165,88.094,2213.3112786450306,1520,1503.0,1310.5938000000001,1505.0
12.011115074157715,166,87.0705,2213.3112786450306,1520,1503.0,1313.24404,1506.0
12.035362005233765,167,87.047,2213.3112786450306,1520,1503.0,1314.7939200000001,1507.0
12.059695959091187,166,86.047,2213.3112786450306,1520,1503.0,1318.92364,1506.0
12.083945989608765,167,86.0235,2213.3112786450306,1520,1503.0,1324.7812000000001,1507.0
12.108170986175537,167,85.0,2224.4334458744024,1520,1503.0,1331.92064,1507.0
12.132385969161987,167,85.0,2236.7914094625935,1520,1503.0,1334.9341199999999,1507.0
12.156682968139648,168,85.0,2249.1493730507846,1520,1503.0,1337.8498400000001,1508.0
12.18099308013916,167,86.0705,2261.5073366389756,1520,1503.0,1335.1394399999999,1507.0
12.205193042755127,168,86.094,2261.5073366389756,1520,1503.0,1332.1938399999999,1508.0
12.22944188117981,168,87.141,2273.8653002271667,1520,1503.0,1323.6465599999999,1508.0
12.253705978393555,168,87.1645,2273.8653002271667,1520,1503.0,1317.6856,1508.0
12.277935028076172,168,87.141,2286.2232638153573,1520,1503.0,1311.8468399999999,1508.0
12.302157878875732,166,87.1175,2298.5812274035484,1520,1503.0,1310.39932,1506.0
12.326452016830444,167,86.047,2310.9391909917395,1520,1503.0,1311.8474799999999,1507.0
12.350791931152344,167,85.0235,2323.2971545799305,1520,1503.0,1319.03664,1507.0
12.375027894973755,167,83.9765,2323.2971545799305,1520,1503.0,1327.8274799999999,1507.0
12.399266958236694,167,83.9765,2323.2971545799305,1520,1503.0,1335.29612,1507.0
12.423521995544434,166,83.9765,2323.2971545799305,1520,1503.0,1341.24308,1506.0
12.44775104522705,165,84.0,2335.6551181681216,1520,1503.0,1344.0986399999999,1505.0
12.471944093704224,166,84.047,2335.6551181681216,1520,1503.0,1342.5686000000001,1506.0
12.496219873428345,166,84.047,2361.8249234137029,1520,1503.0,1338.1314,1506.0
12.52056097984314,166,84.047,2375.6367650710927,1520,1503.0,1333.7261599999999,1506.0
12.544826030731201,166,83.0,2389.4486067284824,1520,1503.0,1332.1169600000001,1506.0
12.569032907485962,166,82.9765,2389.4486067284824,1520,1503.0,1330.8350800000001,1506.0
12.593277931213379,166,81.953,2403.2604483858727,1520,1503.0,1333.7506000000001,1506.0
12.617532014846802,165,81.953,2417.0722900432625,1520,1503.0,1336.86184,1505.0
12.641783952713013,165,81.953,2430.8841317006527,1520,1503.0,1339.97308,1505.0
12.666064023971558,165,81.953,2444.6959733580425,1520,1503.0,1340.15272,1505.0
12.69038987159729,165,81.9295,2458.5078150154322,1520,1503.0,1340.29664,1505.0
12.714622974395752,165,81.9295,2472.3196566728225,1520,1503.0,1337.4826399999999,1505.0
12.738863945007324,165,81.9295,2472.3196566728225,1520,1503.0,1334.6686399999999,1505.0
12.763103008270264,165,81.9295,2472.3196566728225,1520,1503.0,1331.85464,1505.0
12.78740406036377,165,81.9295,2472.3196566728225,1520,1503.0,1330.4645599999999,1505.0
12.811732053756714,164,82.9295,2486.1314983302123,1520,1503.0,1326.4006400000001,1504.0
12.835967063903809,164,82.9295,2486.1314983302123,1520,1503.0,1324.92868,1504.0
12.860338926315308,164,83.953,2472.3196566728225,1520,1503.0,1320.75468,1504.0
12.884569883346558,164,83.9765,2472.3196566728225,1520,1503.0,1317.74684,1504.0
12.90879201889038,164,84.9765,2472.3196566728225,1520,1503.0,1312.1271999999999,1504.0
12.933043956756592,164,84.9765,2472.3196566728225,1520,1503.0,1310.53952,1504.0
12.95732593536377,163,84.9765,2472.3196566728225,1520,1503.0,1308.9518399999999,1503.0
12.981929063796997,163,85.953,2458.5078150154322,1520,1503.0,1307.652,1503.0
13.006268978118896,163,85.9295,2444.6959733580425,1520,1503.0,1307.6518000000001,1503.0
13.030665874481201,163,85.9295,2430.8841317006527,1520,1503.0,1310.4233999999999,1503.0
13.054902076721191,162,85.906,2417.0722900432625,1520,1503.0,1311.8970400000001,1502.0
13.079144954681396,162,85.906,2403.2604483858727,1520,1503.0,1313.34248,1502.0
13.103360891342163,162,85.906,2417.0722900432625,1520,1503.0,1316.1301599999999,1502.0
13.127600908279419,162,85.906,2417.0722900432625,1520,1503.0,1318.82008,1502.0
13.151855945587158,162,85.906,2417.0722900432625,1520,1503.0,1320.1499999999999,1502.0
13.176147937774658,161,86.906,2403.2604483858727,1520,1503.0,1318.77412,1501.0
13.200514078140259,161,86.9295,2389.4486067284824,1520,1503.0,1318.5362,1501.0
13.224822044372559,161,87.953,2389.4486067284824,1520,1503.0,1314.2963999999999,1501.0
13.249118089675903,161,87.9765,2389.4486067284824,1519.0,1503.0,1311.2547199999999,1501.0
13.273453950881958,160,89.0,2389.4486067284824,1514.0,1503.0,1305.5391999999999,1500.0
13.297744035720825,160,89.0235,2389.4486067284824,1512.0,1503.0,1303.8217999999999,1500.0
13.322036027908325,160,89.047,2389.4486067284824,1510.0,1503.0,1302.13636,1500.0
13.346415996551514,159,90.047,2375.6367650710927,1505.0,1503.0,1300.7049200000001,1499.0
13.370820999145508,159,89.047,2361.8249234137029,1502.0,1503.0,1303.1792800000001,1499.0
13.395153045654297,159,89.047,2348.0130817563127,1499.0,1503.0,1307.31944,1499.0
13.419481039047241,159,89.0235,2348.0130817563127,1497.0,1503.0,1310.2274400000001,1499.0
13.44381308555603,159,88.0,2348.0130817563127,1495.0,1503.0,1315.84312,1499.0
13.46813702583313,158,87.9765,2348.0130817563127,1490.0,1503.0,1321.7006799999999,1498.0
13.492462873458862,158,85.9765,2348.0130817563127,1487.0,1503.0,1329.9780800000001,1498.0
13.516838073730469,158,85.9765,2348.0130817563127,1485.0,1503.0,1334.46352,1498.0
13.541236877441406,157,85.9765,2348.0130817563127,1480.0,1503.0,1338.8512000000001,1497.0
13.565558910369873,157,86.0,2348.0130817563127,1480,1503.0,1340.27908,1497.0
13.589940071105957,157,86.0235,2348.0130817563127,1480,1503.0,1340.2473199999999,1497.0
13.61426591873169,156,85.0235,2335.6551181681216,1480,1503.0,1338.6437599999999,1496.0
13.638513088226318,156,85.0235,2323.297154579931,1480,1503.0,1335.8402000000001,1496.0
13.662757873535156,156,85.0235,2323.297154579931,1480,1503.0,1333.0686000000001,1496.0
13.68704891204834,156,84.0235,2323.297154579931,1480,1503.0,1334.3947599999999,1496.0
13.711369037628174,156,83.0235,2310.9391909917399,1480,1503.0,1337.2586800000001,1496.0
13.735672950744629,156,83.0235,2298.5812274035488,1480,1503.0,1338.8425999999999,1496.0
13.760073900222778,156,83.047,2298.5812274035488,1480,1503.0,1340.36448,1496.0
13.784312963485718,157,83.0705,2298.5812274035488,1480,1503.0,1341.8525199999999,1497.0
13.80855393409729,155,83.0705,2298.5812274035488,1480,1503.0,1340.5368000000001,1495.0
13.832792043685913,156,83.094,2298.5812274035488,1480,1503.0,1336.32708,1496.0
13.857075929641724,155,82.094,2298.5812274035488,1480,1503.0,1336.1455599999999,1495.0
13.881401062011719,156,82.094,2298.5812274035488,1480,1503.0,1334.8298400000001,1496.0
13.905629873275757,154,82.0705,2286.2232638153578,1480,1503.0,1333.6419600000002,1494.0
13.930160999298096,154,82.0705,2273.8653002271667,1480,1503.0,1333.7858799999999,1494.0
13.954393863677979,154,82.0705,2262.7431329977949,1480,1503.0,1335.3556000000001,1494.0
13.978641033172607,154,82.0705,2251.620965768423,1480,1503.0,1334.1253200000001,1494.0
14.002903938293457,154,82.0705,2228.1408349508602,1480,1503.0,1332.8630800000001,1494.0
14.02721905708313,154,82.0705,2204.6607041332973,1480,1503.0,1331.50308,1494.0
14.051524877548218,154,83.0705,2181.1805733157344,1480,1503.0,1327.50308,1494.0
14.075784921646118,154,83.0705,2157.7004424981715,1480,1503.0,1324.67112,1494.0
14.10016393661499,153,83.0705,2146.5782752687996,1480,1503.0,1323.1991600000001,1493.0
14.124418020248413,153,83.094,2125.3931948319005,1480,1503.0,1321.66516,1493.0
14.149018049240112,153,83.094,2104.2081143950013,1480,1503.0,1320.1913199999999,1493.0
14.173261880874634,153,84.094,2073.874931042169,1480,1503.0,1318.8774800000001,1493.0
14.19750189781189,154,84.0705,2054.6639149187081,1480,1503.0,1318.8256800000001,1494.0
14.221755981445312,154,84.047,2035.4528987952476,1480,1503.0,1318.80772,1494.0
14.246119022369385,154,84.047,2016.2418826717869,1480,1503.0,1318.82736,1494.0
14.270477056503296,154,83.0,2006.1789694642598,1480,1503.0,1321.6110799999999,1494.0
14.294713973999023,154,82.9765,1996.1160562567325,1480,1503.0,1324.6404399999999,1494.0
14.318952083587646,154,82.9765,1986.0531430492053,1480,1503.0,1327.5758000000001,1494.0
14.343229055404663,155,83.9765,1966.8421269257447,1480,1503.0,1327.8053600000001,1495.0
14.36750602722168,155,83.9765,1957.6940240098113,1480,1503.0,1329.2029600000001,1495.0
14.391753911972046,156,84.0,1948.5459210938775,1480,1503.0,1327.6069199999999,1496.0
14.416075944900513,157,85.0235,1940.193305388025,1480,1503.0,1321.9112399999999,1497.0
14.44040298461914,157,85.047,1931.8406896821725,1480,1503.0,1317.4136800000001,1497.0
14.464647054672241,157,86.047,1923.48807397632,1480,1503.0,1313.1362799999999,1497.0
14.488873958587646,158,86.047,1915.1354582704676,1480,1503.0,1310.05888,1498.0
14.513114929199219,158,87.047,1889.9781752516501,1480,1503.0,1305.8312000000001,1498.0
14.537431001663208,159,87.047,1872.4774566298638,1480,1503.0,1305.70128,1499.0
14.561731100082397,159,87.047,1847.3201736110464,1480,1503.0,1305.63716,1499.0
14.585959911346436,160,87.0235,1831.3109935081623,1480,1503.0,1307.0750800000001,1500.0
14.610374927520752,160,87.0235,1815.3018134052782,1481.0,1503.0,1308.4848,1500.0
14.634706974029541,161,87.0,1799.2926333023941,1488.0,1503.0,1312.7246,1501.0
14.659027099609375,161,85.9765,1799.2926333023941,1492.0,1503.0,1318.2462800000001,1501.0
14.683348894119263,162,85.9765,1799.2926333023941,1499.0,1503.0,1322.5078000000001,1502.0
14.707653045654297,162,85.9765,1791.6360689053624,1504.0,1503.0,1325.3435199999999,1502.0
14.731997966766357,162,85.9765,1783.9795045083308,1508.0,1503.0,1328.1792399999999,1502.0
14.756381034851074,163,86.0,1791.6360689053624,1515.0,1503.0,1329.52712,1503.0
14.780832052230835,163,86.0235,1791.6360689053624,1519.0,1503.0,1327.9753599999999,1503.0
14.805126905441284,163,87.0705,1799.2926333023941,1520,1503.0,1323.6877199999999,1503.0
14.82937502861023,163,87.094,1806.9491976994257,1520,1503.0,1320.6264000000001,1503.0
14.853610038757324,163,87.1175,1814.6057620964573,1520,1503.0,1317.53124,1503.0
14.877832889556885,163,87.141,1822.2623264934889,1520,1503.0,1314.5,1503.0
14.902045965194702,163,87.141,1822.2623264934889,1520,1503.0,1312.95472,1503.0
14.926342964172363,163,87.1175,1830.6149421993414,1520,1503.0,1314.40308,1503.0
14.950677871704102,163,86.0705,1846.6241223022255,1520,1503.0,1318.6531199999999,1503.0
14.974905967712402,163,85.047,1862.6333024051096,1520,1503.0,1324.4146000000001,1503.0
14.999130010604858,163,84.0235,1880.1340210268959,1520,1503.0,1331.6837599999999,1503.0
15.023340940475464,163,84.0235,1897.6347396486822,1520,1503.0,1337.6927599999999,1503.0
15.04757308959961,163,84.0235,1905.9873553545344,1520,1503.0,1342.2120400000001,1503.0
15.071779012680054,163,84.0235,1914.3399710603869,1520,1503.0,1343.76776,1503.0
15.096081018447876,162,84.047,1922.6925867662394,1520,1503.0,1342.3636799999999,1502.0
15.120408058166504,163,84.0705,1931.0452024720919,1520,1503.0,1338.028,1503.0
15.144747972488403,162,84.094,1948.5459210938782,1520,1503.0,1333.6584800000001,1502.0
15.16913104057312,162,84.094,1957.694024009812,1520,1503.0,1329.3491200000001,1502.0
15.19340705871582,162,83.0705,1966.8421269257458,1520,1503.0,1329.16572,1502.0
15.217710018157959,162,82.047,1975.9902298416796,1520,1503.0,1331.91392,1502.0
15.241956949234009,162,82.0235,1975.9902298416796,1520,1503.0,1334.95372,1502.0
15.266222953796387,162,81.0,1975.9902298416796,1520,1503.0,1340.73316,1502.0
15.29049801826477,162,81.0,1985.1383327576136,1520,1503.0,1345.2844,1502.0
15.315067052841187,162,81.0,1994.2864356735474,1520,1503.0,1346.96984,1502.0
15.339294910430908,162,81.0,2003.4345385894812,1520,1503.0,1345.7575199999999,1502.0
15.363511085510254,163,81.0,2012.582641505415,1520,1503.0,1344.4474399999999,1503.0
15.387724876403809,163,81.0,2012.582641505415,1520,1503.0,1340.2395999999999,1503.0
15.411972999572754,162,81.0235,2012.582641505415,1520,1503.0,1335.9697200000001,1502.0
15.436279058456421,163,81.0235,2012.582641505415,1520,1503.0,1333.1200000000001,1503.0
15.460617065429688,163,82.047,2022.6455547129422,1520,1503.0,1328.9602,1503.0
15.484862089157104,163,82.0705,2022.6455547129422,1520,1503.0,1325.9985200000001,1503.0
15.509094953536987,163,82.0705,2022.6455547129422,1520,1503.0,1324.4569999999999,1503.0
15.533343076705933,163,83.0705,2032.7084679204695,1520,1503.0,1320.3412799999999,1503.0
15.557545900344849,163,82.047,2032.7084679204695,1520,1503.0,1320.1276,1503.0
15.581760883331299,162,82.0235,2032.7084679204695,1520,1503.0,1321.61356,1502.0
15.6061110496521,162,82.0,2032.7084679204695,1520,1503.0,1323.1991600000001,1502.0
15.630537986755371,163,82.0,2032.7084679204695,1520,1503.0,1324.75656,1503.0
15.654754877090454,162,82.0,2032.7084679204695,1520,1503.0,1329.0820000000001,1502.0
15.678973913192749,162,82.0235,2032.7084679204695,1520,1503.0,1330.4795999999999,1502.0
15.703206062316895,163,83.0235,2022.6455547129422,1520,1503.0,1327.80764,1503.0
15.727494955062866,161,83.0235,2022.6455547129422,1520,1503.0,1326.23792,1501.0
15.751798868179321,161,83.0,2022.6455547129422,1520,1503.0,1324.7302400000001,1501.0
15.776057958602905,161,82.9765,2003.4345385894817,1520,1503.0,1321.8964000000001,1501.0
15.80039095878601,161,81.9765,2003.4345385894817,1520.0,1503.0,1323.13212,1501.0
15.82471489906311,161,81.953,2003.4345385894817,1519.0,1503.0,1326.0618400000001,1501.0
15.84906792640686,160,81.953,1994.2864356735481,1515.0,1503.0,1328.99532,1500.0
15.87339997291565,160,81.9295,1985.1383327576143,1512.0,1503.0,1331.9250400000001,1500.0
15.897710084915161,159,80.9295,1985.1383327576143,1507.0,1503.0,1337.40076,1499.0
15.922033071517944,159,80.9295,1985.1383327576143,1504.0,1503.0,1338.8445199999999,1499.0
15.946423053741455,159,81.9295,1975.9902298416805,1500.0,1503.0,1336.2224799999999,1499.0
15.970839977264404,159,81.9295,1966.8421269257465,1498.0,1503.0,1334.80044,1499.0
15.995194911956787,158,81.953,1957.6940240098127,1493.0,1503.0,1333.28252,1498.0
16.019551992416382,158,81.953,1957.6940240098127,1490.0,1503.0,1329.02476,1498.0
16.043874979019165,158,80.953,1940.1933053880264,1487.0,1503.0,1328.7670000000001,1498.0
16.06818389892578,158,80.953,1922.6925867662401,1484.0,1503.0,1330.1412,1498.0
16.092460870742798,158,80.953,1914.3399710603876,1482.0,1503.0,1331.5154,1498.0
16.116852045059204,158,81.953,1914.3399710603876,1480.0,1503.0,1330.34736,1498.0
16.141247987747192,157,81.953,1905.1918681444542,1480,1503.0,1331.7393199999999,1497.0
16.16549801826477,157,81.953,1896.0437652285204,1480,1503.0,1330.3312800000001,1497.0
16.18986487388611,157,81.9765,1896.0437652285204,1480,1503.0,1327.5011999999999,1497.0
16.2141330242157,157,81.9765,1896.0437652285204,1480,1503.0,1324.6993199999999,1497.0
16.238431930541992,157,82.0,1896.0437652285204,1480,1503.0,1324.6034399999999,1497.0
16.26270294189453,157,82.0,1896.0437652285204,1480,1503.0,1324.53576,1497.0
16.286998987197876,156,82.0,1904.3963809343727,1480,1503.0,1325.82808,1496.0
16.311332941055298,156,81.0,1904.3963809343727,1480,1503.0,1329.8262,1496.0
16.335577964782715,156,81.0,1904.3963809343727,1480,1503.0,1332.6243200000001,1496.0
16.359948873519897,156,81.0235,1896.0437652285204,1480,1503.0,1334.0662,1496.0
16.384196996688843,156,81.0235,1887.691149522668,1480,1503.0,1335.53628,1496.0
16.40843105316162,156,81.0235,1879.3385338168155,1480,1503.0,1337.0063600000001,1496.0
16.432689905166626,156,81.0235,1870.985918110963,1480,1503.0,1335.6444799999999,1496.0
16.456966876983643,156,81.0235,1862.6333024051105,1480,1503.0,1334.2826,1496.0
16.481281995773315,156,81.0235,1854.2806866992582,1480,1503.0,1332.9545600000001,1496.0
16.505838871002197,156,81.0235,1845.9280709934058,1480,1503.0,1331.62652,1496.0
16.530399084091187,157,82.0235,1829.9188908905217,1480,1503.0,1327.6584799999998,1497.0
16.554677963256836,157,82.0235,1822.26232649349,1480,1503.0,1326.25044,1497.0
16.578906059265137,157,83.047,1814.6057620964584,1480,1503.0,1322.1403599999999,1497.0
16.603147983551025,158,83.047,1806.9491976994268,1480,1503.0,1319.2265199999999,1498.0
16.62746500968933,158,83.0705,1799.2926333023952,1480,1503.0,1316.25064,1498.0
16.651777982711792,158,83.047,1791.6360689053636,1480,1503.0,1316.165,1498.0
16.67605710029602,159,83.047,1776.9354652630632,1480,1503.0,1316.05116,1499.0
16.700376987457275,160,83.0235,1769.2789008660316,1480,1503.0,1318.8651600000001,1500.0
16.724613904953003,160,82.0,1754.5782972237309,1480.0,1503.0,1324.3530000000001,1500.0
16.748918056488037,161,82.0,1739.8776935814305,1487.0,1503.0,1328.6784399999999,1501.0
16.77324104309082,161,82.0,1732.8336543361615,1491.0,1503.0,1331.57808,1501.0
16.79756498336792,161,82.0,1725.7896150908928,1495.0,1503.0,1334.4777199999999,1501.0
16.82189393043518,162,82.0,1718.745575845624,1502.0,1503.0,1335.9195999999999,1502.0
16.846291065216064,162,82.0,1718.745575845624,1506.0,1503.0,1334.49568,1502.0
16.870687007904053,162,82.0,1718.745575845624,1510.0,1503.0,1333.0398,1502.0
16.89498209953308,162,82.0235,1718.745575845624,1514.0,1503.0,1331.55384,1502.0
16.91932487487793,162,82.0235,1718.745575845624,1517.0,1503.0,1330.09608,1502.0
16.94363498687744,162,82.047,1711.701536600355,1519.0,1503.0,1328.60824,1502.0
16.96792197227478,162,82.047,1711.701536600355,1520,1503.0,1328.5405599999999,1502.0
16.992153882980347,161,83.0705,1718.745575845624,1519.0,1503.0,1325.7708400000001,1501.0
17.016560077667236,161,83.0705,1725.7896150908928,1519.0,1503.0,1324.29512,1501.0
17.04096007347107,161,83.0705,1732.8336543361615,1519.0,1503.0,1322.8194000000001,1501.0
17.065277099609375,161,83.0705,1739.8776935814305,1518.0,1503.0,1321.40948,1501.0
17.089597940444946,160,82.0705,1747.5342579784622,1514.0,1503.0,1322.6395600000001,1500.0
17.113905906677246,160,82.0705,1755.1908223754938,1512.0,1503.0,1325.5354400000001,1500.0
17.138236045837402,160,82.0705,1755.1908223754938,1510.0,1503.0,1328.3993600000001,1500.0
17.162566900253296,161,82.047,1762.2348616207626,1511.0,1503.0,1331.3253199999999,1501.0
17.18695902824402,161,82.047,1769.2789008660316,1510.0,1503.0,1334.19112,1501.0
17.211371898651123,162,82.047,1776.3229401113003,1512.0,1503.0,1334.25692,1502.0
