time,x,y,size_inv,roll,pitch,thrust,yaw
0.0007700920104980469,151,64.0,1276.967542324154,1480,1507.0,1344.6400000000001,1491.0
0.02309894561767578,151,63.718,1276.967542324154,1480,1507.0,1346.42968,1491.0
0.04519391059875488,151,63.718,1273.2006764175931,1480,1507.0,1347.88096,1491.0
0.06721997261047363,151,63.718,1269.4338105110321,1480,1507.0,1349.33224,1491.0
0.08922910690307617,151,63.718,1265.6669446044712,1480,1507.0,1350,1491.0
0.11118507385253906,151,63.718,1261.90007869791,1480,1507.0,1350,1491.0
0.13317108154296875,151,63.718,1258.133212791349,1480,1507.0,1350,1491.0
0.15514612197875977,152,63.718,1254.3663468847881,1480,1507.0,1350,1492.0
0.17712712287902832,152,63.718,1250.5994809782271,1480,1507.0,1350,1492.0
0.19908404350280762,152,63.718,1246.8326150716662,1480,1507.0,1350,1492.0
0.22118306159973145,152,63.718,1246.8326150716662,1480,1507.0,1350,1492.0
0.24344301223754883,153,63.718,1243.065749165105,1480,1507.0,1350,1493.0
0.2657051086425781,153,63.718,1243.065749165105,1480,1507.0,1350,1493.0
0.2879490852355957,154,62.718,1243.065749165105,1480,1507.0,1350,1494.0
0.3102540969848633,155,61.577,1243.065749165105,1480,1507.0,1350,1495.0
0.3326129913330078,157,59.5065,1239.514132738919,1480,1507.0,1350,1497.0
0.35492610931396484,159,59.5065,1235.962516312733,1480,1507.0,1350,1499.0
0.3772261142730713,160,62.5535,1229.0565954840381,1480,1507.0,1350,1500.0
0.39950990676879883,161,65.6475,1222.150674655343,1480,1507.0,1350,1501.0
0.4218120574951172,162,69.7885,1212.0717631756258,1480,1507.0,1348.7808400000001,1502.0
0.4441559314727783,163,73.953,1201.9928516959087,1483.0,1507.0,1317.2528400000001,1503.0
0.4665379524230957,164,78.0,1195.0869308672138,1496.0,1507.0,1280.0381600000001,1504.0
0.48891496658325195,165,81.0,1185.0080193874967,1510.0,1507.0,1250,1505.0
0.5112369060516357,165,82.9765,1174.9291079077796,1520,1507.0,1250,1505.0
0.533505916595459,165,83.9295,1164.8501964280624,1520,1507.0,1250,1505.0
0.5558071136474609,166,85.906,1158.3229013745313,1520,1507.0,1250,1506.0
0.5781080722808838,166,87.8825,1148.7896151779266,1520,1507.0,1250,1506.0
0.6004879474639893,166,90.8355,1145.6166245269046,1520,1507.0,1250,1506.0
0.622852087020874,166,91.8355,1142.4436338758828,1520,1507.0,1250,1506.0
0.6451530456542969,166,92.812,1142.4436338758828,1520,1507.0,1250,1506.0
0.6674480438232422,165,94.7885,1139.4376427328093,1520,1507.0,1250,1505.0
0.6897361278533936,165,94.765,1136.2646520817873,1520,1507.0,1250.1339600000001,1505.0
0.7120840549468994,164,95.7415,1136.2646520817873,1520,1507.0,1255.2737999999999,1504.0
0.7344639301300049,164,95.6945,1136.2646520817873,1520,1507.0,1261.8214800000001,1504.0
0.7568199634552002,163,96.6475,1133.2586609387138,1520,1507.0,1267.23496,1503.0
0.7791590690612793,162,96.624,1133.2586609387138,1520,1507.0,1276.7002399999999,1502.0
0.8015110492706299,162,96.6005,1136.2646520817873,1520,1507.0,1283.44552,1502.0
0.8238499164581299,161,96.577,1136.2646520817873,1520,1507.0,1288.9427599999999,1501.0
0.8461790084838867,161,96.577,1136.2646520817873,1520,1507.0,1292.9202,1501.0
0.8685328960418701,159,96.577,1136.2646520817873,1520,1507.0,1298.2380000000001,1499.0
0.8909049034118652,159,97.6005,1142.4436338758828,1518.0,1507.0,1298.0999200000001,1499.0
0.913322925567627,158,97.624,1145.6166245269046,1509.0,1507.0,1299.0941600000001,1498.0
0.9356729984283447,159,97.624,1148.7896151779266,1506.0,1507.0,1298.7227600000001,1499.0
0.9580368995666504,158,97.624,1155.3169102314578,1498.0,1507.0,1298.4152799999999,1498.0
0.9804561138153076,158,97.624,1168.4018128542484,1493.0,1507.0,1296.8117199999999,1498.0
1.0028860569000244,159,96.624,1174.9291079077796,1492.0,1507.0,1300.7459200000001,1499.0
1.0252599716186523,159,96.624,1181.4564029613107,1489.0,1507.0,1303.5778800000001,1499.0
1.0477509498596191,158,95.624,1187.9836980148416,1484.0,1507.0,1309.0817999999999,1498.0
1.0703151226043701,158,94.6005,1194.5109930683727,1481.0,1507.0,1316.0877600000001,1498.0
1.092782974243164,158,93.6005,1204.5899045480899,1480.0,1507.0,1324.5055199999999,1498.0
1.1151909828186035,158,90.6005,1215.2626912833459,1480,1507.0,1335.4513199999999,1498.0
1.137773036956787,159,89.577,1218.616995685855,1482.0,1507.0,1345.4672,1499.0
1.1602110862731934,159,88.577,1225.5229165145499,1482.0,1507.0,1350,1499.0
1.1827259063720703,159,87.577,1232.8413988472969,1483.0,1507.0,1350,1499.0
1.2052509784698486,159,86.6005,1229.2897824211109,1484.0,1507.0,1350,1499.0
1.2276279926300049,159,86.624,1232.8413988472969,1484.0,1507.0,1350,1499.0
1.2499830722808838,159,85.6475,1232.8413988472969,1484.0,1507.0,1350,1499.0
1.2724289894104004,160,85.6475,1236.3930152734829,1488.0,1507.0,1350,1500.0
1.2947990894317627,160,85.671,1239.9446316996689,1490.0,1507.0,1349.6279999999999,1500.0
1.3171849250793457,160,84.6475,1236.3930152734829,1492.0,1507.0,1344.14852,1500.0
1.339669942855835,160,84.6475,1232.6261493669219,1494.0,1507.0,1341.58664,1500.0
1.3622031211853027,160,83.624,1236.1777657931079,1495.0,1507.0,1340.38456,1500.0
1.3846299648284912,160,82.624,1239.9446316996687,1496.0,1507.0,1341.9542799999999,1500.0
1.4070188999176025,160,82.6005,1236.1777657931077,1497.0,1507.0,1343.8118400000001,1500.0
1.42940092086792,161,82.6005,1239.7293822192937,1501.0,1507.0,1344.1034400000001,1501.0
1.4517741203308105,161,82.577,1243.4962481258547,1503.0,1507.0,1344.4251199999999,1501.0
1.4741590023040771,161,82.577,1250.8147304586014,1505.0,1507.0,1343.18084,1501.0
1.4965379238128662,162,82.5535,1254.5815963651626,1509.0,1507.0,1339.1985999999999,1502.0
1.518937110900879,161,82.5535,1258.3484622717235,1508.0,1507.0,1335.0904,1501.0
1.5413260459899902,161,82.53,1265.6669446044702,1509.0,1507.0,1332.4361999999999,1501.0
1.5637149810791016,161,83.5065,1265.6669446044702,1510.0,1507.0,1327.11004,1501.0
1.5861179828643799,161,83.5065,1269.4338105110314,1511.0,1507.0,1324.34764,1501.0
1.6092960834503174,161,84.483,1269.4338105110314,1512.0,1507.0,1320.3014800000001,1501.0
1.6337389945983887,161,85.483,1269.4338105110314,1513.0,1507.0,1314.81908,1501.0
1.6581149101257324,161,85.5065,1273.2006764175924,1513.0,1507.0,1310.4088400000001,1501.0
1.682508945465088,161,86.5065,1273.2006764175924,1513.0,1507.0,1306.1529599999999,1501.0
1.706942081451416,161,86.5065,1273.2006764175924,1513.0,1507.0,1303.09708,1501.0
1.7314178943634033,160,88.5065,1273.2006764175924,1509.0,1507.0,1297.52736,1500.0
1.7558588981628418,160,89.5065,1277.2029714433133,1508.0,1507.0,1294.51764,1500.0
1.7802929878234863,160,89.5065,1277.2029714433133,1507.0,1507.0,1292.8056799999999,1500.0
1.8047699928283691,160,90.5065,1280.9698373498741,1506.0,1507.0,1289.9256800000001,1500.0
1.8291499614715576,160,91.53,1284.972132375595,1505.0,1507.0,1285.5436400000001,1500.0
1.853543996810913,160,91.53,1288.974427401316,1504.0,1507.0,1286.66176,1500.0
1.8779349327087402,160,92.5065,1296.7435883335979,1503.0,1507.0,1286.64192,1500.0
1.902298927307129,160,92.5065,1300.7458833593187,1502.0,1507.0,1287.7619199999999,1500.0
1.926712989807129,160,92.483,1304.7481783850396,1501.0,1507.0,1290.3839599999999,1500.0
1.9511361122131348,160,91.483,1304.7481783850396,1500.0,1507.0,1298.4836,1500.0
1.975588083267212,160,92.4595,1308.7504734107606,1500.0,1507.0,1300.08528,1500.0
1.9999990463256836,159,91.4595,1308.7504734107606,1497.0,1507.0,1306.8729599999999,1499.0
2.024492025375366,159,91.4595,1312.7527684364816,1496.0,1507.0,1312.46064,1499.0
2.048845052719116,159,91.483,1321.0155710702281,1495.0,1507.0,1316.5604799999999,1499.0
2.073246955871582,159,91.5065,1325.2760786782537,1494.0,1507.0,1316.43452,1499.0
2.097623109817505,159,91.5535,1329.5365862862793,1493.0,1507.0,1318.94688,1499.0
2.122025966644287,159,91.577,1333.7970938943049,1492.0,1507.0,1317.32556,1499.0
2.146414041519165,158,91.6005,1329.7947988685839,1488.0,1507.0,1315.6704,1498.0
2.1708450317382812,159,91.624,1325.792503842863,1489.0,1507.0,1314.07916,1499.0
2.195298910140991,158,91.6475,1329.7947988685839,1485.0,1507.0,1313.87988,1498.0
2.21968412399292,158,90.6475,1329.7947988685839,1483.0,1507.0,1315.15236,1498.0
2.2442240715026855,158,89.6475,1325.792503842863,1482.0,1507.0,1319.2906400000002,1498.0
2.2689409255981445,158,87.6475,1325.792503842863,1481.0,1507.0,1327.5747200000001,1498.0
2.2933380603790283,158,86.6475,1321.5319962348374,1480.0,1507.0,1336.13264,1498.0
2.317711114883423,159,85.6475,1317.2714886268118,1482.0,1507.0,1346.1644000000001,1499.0
2.342092990875244,159,84.6475,1313.0109810187864,1482.0,1507.0,1350,1499.0
2.366403102874756,159,83.6475,1308.7504734107608,1482.0,1507.0,1350,1499.0
2.3908309936523438,160,82.6475,1312.7527684364818,1486.0,1507.0,1350,1500.0
2.415297031402588,160,81.6475,1312.7527684364818,1487.0,1507.0,1350,1500.0
2.4395999908447266,160,81.6475,1312.7527684364818,1489.0,1507.0,1350,1500.0
2.463987112045288,160,80.6475,1308.7504734107608,1491.0,1507.0,1350,1500.0
2.4882829189300537,161,79.6475,1308.7504734107608,1496.0,1507.0,1350,1501.0
2.5126121044158936,162,79.624,1308.7504734107608,1502.0,1507.0,1350,1502.0
2.5369350910186768,162,78.624,1308.7504734107608,1506.0,1507.0,1350,1502.0
2.5613319873809814,162,78.624,1313.0109810187864,1509.0,1507.0,1350,1502.0
2.58575701713562,162,78.624,1309.0086859930655,1512.0,1507.0,1350,1502.0
2.6100640296936035,162,78.624,1313.269193601091,1515.0,1507.0,1350,1502.0
2.6345629692077637,162,78.624,1313.269193601091,1517.0,1507.0,1347.9294400000001,1502.0
2.6589889526367188,163,78.6005,1317.2714886268118,1520,1507.0,1343.87952,1503.0
2.6832940578460693,163,79.6005,1317.2714886268118,1520,1507.0,1337.1614,1503.0
2.7075929641723633,163,78.6005,1325.5342912605586,1520,1507.0,1335.64328,1503.0
2.7319071292877197,163,79.6005,1333.7970938943049,1520,1507.0,1331.64516,1503.0
2.756204128265381,163,79.577,1333.7970938943049,1520,1507.0,1328.9410399999999,1503.0
2.7805800437927246,163,79.577,1342.6021429508912,1520,1507.0,1327.5029199999999,1503.0
2.8049750328063965,163,79.577,1347.1466843994517,1520,1507.0,1328.8648000000001,1503.0
2.8292620182037354,164,79.577,1359.954028481759,1520,1507.0,1327.42668,1504.0
2.8535449504852295,164,79.577,1364.4985699303195,1520,1507.0,1328.78856,1504.0
2.877855062484741,164,79.577,1373.3036189869058,1520,1507.0,1330.08464,1504.0
2.9021530151367188,164,79.6005,1386.9666261436773,1520,1507.0,1331.3506400000001,1504.0
2.926455020904541,164,80.6005,1395.7716752002636,1520,1507.0,1328.6448399999999,1504.0
2.9508180618286133,164,80.6005,1400.3162166488241,1520,1507.0,1328.4990399999999,1504.0
2.975205898284912,163,80.6005,1404.8607580973849,1520,1507.0,1326.99324,1503.0
2.9995100498199463,163,80.6005,1413.6658071539709,1520,1507.0,1325.5194000000001,1503.0
3.0238280296325684,163,80.6005,1413.6658071539709,1520,1507.0,1324.1113599999999,1503.0
3.048137903213501,162,80.6005,1409.1212657054105,1520,1507.0,1325.50332,1502.0
3.072451114654541,161,80.6005,1404.5767242568497,1520,1507.0,1326.89528,1501.0
3.0967600345611572,161,81.577,1404.5767242568497,1520,1507.0,1325.70928,1501.0
3.12113094329834,161,81.577,1404.5767242568497,1520,1507.0,1325.69508,1501.0
3.1455299854278564,161,81.5535,1399.7187661566643,1520,1507.0,1325.7109600000001,1501.0
3.169847011566162,160,81.5535,1404.5767242568497,1519.0,1507.0,1324.3386400000002,1500.0
3.1943631172180176,160,82.5535,1404.5767242568497,1515.0,1507.0,1320.3263200000001,1500.0
3.218769073486328,160,82.5535,1409.4346823570354,1512.0,1507.0,1320.2482,1500.0
3.243151903152466,159,83.577,1409.4346823570354,1506.0,1507.0,1317.46804,1499.0
3.26753306388855,160,83.577,1414.2926404572208,1505.0,1507.0,1315.8502800000001,1500.0
3.291943073272705,159,84.6005,1423.6951400059668,1500.0,1507.0,1311.5304800000001,1499.0
3.316344976425171,159,86.624,1428.2396814545275,1498.0,1507.0,1305.8968400000001,1499.0
3.340811014175415,159,87.6475,1428.2396814545275,1496.0,1507.0,1298.6613200000002,1499.0
3.365299940109253,159,87.671,1433.0976395547129,1494.0,1507.0,1295.45776,1499.0
3.3896799087524414,159,88.671,1433.0976395547129,1492.0,1507.0,1289.67436,1499.0
3.4142889976501465,159,88.671,1428.2396814545275,1491.0,1507.0,1287.95676,1499.0
3.4386560916900635,158,87.671,1423.6951400059668,1487.0,1507.0,1293.18496,1498.0
3.4630160331726074,158,87.6475,1418.8371819057813,1485.0,1507.0,1300.1410000000001,1498.0
3.4883430004119873,158,86.624,1418.8371819057813,1484.0,1507.0,1308.44472,1498.0
3.5129001140594482,158,85.624,1409.4346823570352,1482.0,1507.0,1320.9602399999999,1498.0
3.537332057952881,158,84.6005,1400.0321828082892,1481.0,1507.0,1333.58584,1498.0
3.5619308948516846,158,83.6005,1400.0321828082892,1480.0,1507.0,1342.0712800000001,1498.0
3.586698055267334,158,82.6005,1395.4876413597285,1480,1507.0,1350,1498.0
3.6115469932556152,158,81.6005,1386.0851418109826,1480,1507.0,1350,1498.0
3.636298894882202,158,81.624,1377.2800927543963,1480,1507.0,1350,1498.0
3.6611740589141846,158,81.6475,1368.4750436978102,1480,1507.0,1350,1498.0
3.686084032058716,157,80.671,1368.4750436978102,1480,1507.0,1350,1497.0
3.710953950881958,157,81.718,1359.6699946412241,1480,1507.0,1350,1497.0
3.7358078956604004,157,80.718,1350.8649455846378,1480,1507.0,1346.4687199999998,1497.0
3.7606279850006104,158,80.718,1346.6044379766122,1480,1507.0,1342.3333599999999,1498.0
3.7855119705200195,157,80.718,1342.3439303685868,1480,1507.0,1339.6557599999999,1497.0
3.81056809425354,158,78.6945,1337.7993889200261,1480,1507.0,1340.9459999999999,1498.0
3.835556983947754,158,78.671,1333.5388813120005,1480,1507.0,1344.1616799999999,1498.0
3.860351085662842,158,78.671,1329.2783737039749,1480,1507.0,1345.9091599999999,1498.0
3.8852920532226562,158,78.6475,1333.5388813120005,1480,1507.0,1347.6867200000002,1498.0
3.910085916519165,159,78.6475,1337.7993889200261,1480,1507.0,1349.4041200000001,1499.0
3.9352190494537354,159,79.6475,1337.7993889200261,1480,1507.0,1344.1437600000002,1499.0
3.959968090057373,159,80.6475,1337.7993889200261,1480,1507.0,1335.9536800000001,1499.0
3.9847559928894043,159,80.671,1342.0598965280517,1481.0,1507.0,1330.2615599999999,1499.0
4.009596109390259,159,81.671,1346.3204041360773,1482.0,1507.0,1321.89184,1499.0
4.034671068191528,159,83.6945,1346.3204041360773,1484.0,1507.0,1309.3800800000001,1499.0
4.059421062469482,159,84.6945,1342.0598965280517,1485.0,1507.0,1302.20848,1499.0
4.084434986114502,159,83.671,1338.0576015023307,1486.0,1507.0,1301.77088,1499.0
4.109369993209839,160,83.671,1334.0553064766098,1490.0,1507.0,1300.1708799999999,1500.0
4.134123086929321,160,84.671,1329.7947988685842,1492.0,1507.0,1298.7628399999999,1500.0
4.15912389755249,160,83.6475,1317.7651303282769,1493.0,1507.0,1306.92264,1500.0
4.1839210987091064,160,83.6475,1305.7354617879694,1494.0,1507.0,1315.2942399999999,1500.0
4.208594083786011,161,84.624,1305.7354617879694,1498.0,1507.0,1316.8620800000001,1501.0
4.233422040939331,162,83.624,1297.4726591542228,1503.0,1507.0,1322.20976,1502.0
4.258198976516724,163,82.624,1289.2098565204765,1509.0,1507.0,1330.4374400000002,1503.0
4.2830469608306885,164,82.624,1285.2075614947555,1516.0,1507.0,1331.84736,1504.0
4.307961940765381,164,82.624,1289.4680691027811,1520,1507.0,1331.8972800000001,1504.0
4.332557916641235,164,82.6005,1293.4703641285018,1520,1507.0,1336.1354000000001,1504.0
4.357299089431763,164,82.6005,1289.7034982219411,1520,1507.0,1337.5453199999999,1504.0
4.382050037384033,164,82.6005,1281.9343372896592,1520,1507.0,1334.7952399999999,1504.0
4.406683921813965,163,82.6005,1281.9343372896592,1520,1507.0,1333.43712,1503.0
4.431581974029541,163,81.6005,1285.7012031962199,1520,1507.0,1334.7190000000001,1503.0
4.456578016281128,163,82.624,1277.932042263938,1520,1507.0,1330.7049999999999,1503.0
4.481764078140259,164,81.624,1277.932042263938,1520,1507.0,1331.9192,1504.0
4.506695032119751,164,81.624,1281.934337289659,1520,1507.0,1333.2934,1504.0
4.531484127044678,164,80.624,1281.934337289659,1520,1507.0,1337.3076000000001,1504.0
4.556171894073486,164,80.624,1277.6738296816334,1520,1507.0,1337.3217999999999,1504.0
4.580899000167847,165,80.624,1277.6738296816334,1520,1507.0,1340.2337600000001,1505.0
4.60574197769165,165,80.6475,1285.4429906139153,1520,1507.0,1340.28368,1505.0
4.630489110946655,165,80.6475,1293.2121515461972,1520,1507.0,1340.3618000000001,1505.0
4.655710935592651,166,81.671,1300.9813124784791,1520,1507.0,1334.93788,1506.0
4.6809680461883545,165,81.6945,1304.9836075042001,1520,1507.0,1332.0401199999999,1505.0
4.7058470249176025,165,82.718,1312.752768436482,1520,1507.0,1325.07656,1505.0
4.730731010437012,165,82.718,1316.755063462203,1520,1507.0,1320.7670000000001,1505.0
4.755609035491943,164,82.718,1312.752768436482,1520,1507.0,1316.4574399999999,1504.0
4.780379056930542,163,83.6945,1308.9859025299211,1520,1507.0,1313.7957199999998,1503.0
4.805233955383301,163,82.671,1301.2167415976392,1520,1507.0,1315.0736399999998,1503.0
4.829817056655884,163,82.6475,1289.8959642391712,1520,1507.0,1318.0511999999999,1503.0
4.854671001434326,163,81.6475,1278.5751868807033,1520,1507.0,1323.6086,1503.0
4.879530906677246,162,81.6475,1267.2544095222352,1520,1507.0,1327.9660000000001,1502.0
4.904482126235962,162,81.6475,1255.9336321637672,1520,1507.0,1333.6656400000002,1502.0
4.929390907287598,162,81.671,1244.6128548052993,1520,1507.0,1336.4054800000001,1502.0
4.954108953475952,162,80.6475,1240.6105597795784,1520,1507.0,1340.4177999999999,1502.0
4.978867053985596,162,79.6475,1236.6082647538574,1520,1507.0,1343.0419199999999,1502.0
5.003628969192505,163,79.6475,1240.6105597795784,1520,1507.0,1344.46604,1503.0
5.028310060501099,163,79.6475,1248.3797207118603,1520,1507.0,1344.56212,1503.0
5.052994012832642,163,78.6475,1256.1488816441422,1520,1507.0,1348.75596,1503.0
5.07770299911499,163,78.624,1267.4696590026101,1520,1507.0,1348.9780000000001,1503.0
5.102500915527344,162,77.624,1278.7904363610783,1520,1507.0,1350,1502.0
5.127217054367065,162,77.6005,1290.1112137195462,1520,1507.0,1350,1502.0
5.15176796913147,161,77.6005,1301.4319910780141,1520,1507.0,1350,1501.0
5.1764960289001465,161,77.6005,1312.752768436482,1520,1507.0,1348.2511199999999,1501.0
5.201290130615234,161,77.6005,1316.755063462203,1520,1507.0,1346.973,1501.0
5.226139068603516,160,77.6005,1316.755063462203,1519.0,1507.0,1344.25488,1500.0
5.2509729862213135,160,78.624,1312.752768436482,1516.0,1507.0,1338.76892,1500.0
5.27590012550354,160,78.6475,1308.7504734107611,1513.0,1507.0,1334.44912,1500.0
5.300705909729004,160,79.6475,1308.7504734107611,1510.0,1507.0,1328.87752,1500.0
5.325675964355469,160,79.624,1304.7481783850403,1507.0,1507.0,1324.5999199999999,1500.0
5.350456953048706,159,79.6005,1300.7458833593194,1502.0,1507.0,1321.7161599999999,1499.0
5.375382900238037,159,79.577,1296.7435883335984,1499.0,1507.0,1321.7640000000001,1499.0
5.400275945663452,159,80.577,1296.7435883335984,1497.0,1507.0,1319.2094400000001,1499.0
5.425167083740234,159,80.577,1296.7435883335984,1495.0,1507.0,1320.65488,1499.0
5.449892044067383,159,80.577,1296.7435883335984,1493.0,1507.0,1322.0345199999999,1499.0
5.474906921386719,158,81.577,1300.7458833593194,1489.0,1507.0,1320.7083599999999,1498.0
5.49968409538269,158,81.577,1304.7481783850403,1487.0,1507.0,1319.12444,1498.0
5.524558067321777,158,80.577,1304.7481783850403,1485.0,1507.0,1322.94856,1498.0
5.549411058425903,157,80.6005,1304.7481783850403,1480.0,1507.0,1324.1506400000001,1497.0
5.5742199420928955,157,80.624,1308.7504734107611,1480,1507.0,1325.3508400000001,1497.0
5.598870038986206,157,80.624,1312.752768436482,1480,1507.0,1329.4112,1497.0
5.623634099960327,157,80.624,1316.755063462203,1480,1507.0,1333.50352,1497.0
5.648267030715942,157,80.6475,1316.755063462203,1480,1507.0,1333.3738000000001,1497.0
5.673175096511841,157,79.6475,1312.752768436482,1480,1507.0,1335.9780800000001,1497.0
5.698081016540527,158,79.624,1312.752768436482,1480,1507.0,1337.5101999999999,1498.0
5.722768068313599,157,78.624,1308.7504734107611,1480,1507.0,1340.29412,1497.0
5.7474939823150635,157,78.624,1304.7481783850403,1480,1507.0,1341.8780400000001,1497.0
5.772067070007324,157,78.6475,1304.7481783850403,1480,1507.0,1344.82572,1497.0
5.796747922897339,156,78.671,1300.7458833593194,1480,1507.0,1344.9076,1496.0
5.821582078933716,157,80.6945,1292.9767224270374,1480,1507.0,1339.5778800000001,1497.0
5.846338987350464,155,81.6945,1285.2075614947555,1480,1507.0,1331.2363599999999,1495.0
5.871161937713623,155,81.671,1273.8867841362876,1480,1507.0,1324.15688,1495.0
5.896188020706177,154,81.671,1262.5660067778194,1480,1507.0,1317.08304,1494.0
5.920892000198364,154,81.624,1258.7991408712587,1480,1507.0,1311.55908,1494.0
5.945827960968018,154,81.6005,1251.0299799389768,1480,1507.0,1311.7385200000001,1494.0
5.970734119415283,154,81.6005,1251.0299799389768,1480,1507.0,1316.0497600000001,1494.0
5.995549917221069,153,81.6005,1251.0299799389768,1480,1507.0,1320.2952,1493.0
6.020469903945923,154,81.6005,1251.0299799389768,1480,1507.0,1324.5086800000001,1494.0
6.045331001281738,154,82.624,1251.0299799389768,1480,1507.0,1325.8565599999999,1494.0
6.070284128189087,154,82.624,1254.7968458455375,1480,1507.0,1325.6148800000001,1494.0
6.095299959182739,155,83.624,1254.7968458455375,1480,1507.0,1321.3732,1495.0
6.120106935501099,155,83.624,1258.3484622717237,1480,1507.0,1318.36348,1495.0
6.144943952560425,155,82.6005,1265.6669446044705,1480,1507.0,1318.0558000000001,1495.0
6.169744968414307,155,81.5535,1269.4338105110314,1480,1507.0,1322.21372,1495.0
6.1946799755096436,156,80.53,1273.2006764175924,1480,1507.0,1327.84924,1496.0
6.219379901885986,157,79.5065,1273.2006764175924,1480,1507.0,1337.7585999999999,1497.0
6.244045972824097,158,79.5065,1273.2006764175924,1480,1507.0,1346.43976,1498.0
6.268702030181885,158,79.5065,1273.2006764175924,1480,1507.0,1350,1498.0
6.293406009674072,159,79.5065,1269.4338105110314,1480,1507.0,1350,1499.0
6.318176031112671,160,79.5065,1265.6669446044702,1480,1507.0,1350,1500.0
6.342772960662842,160,80.5535,1265.6669446044702,1480,1507.0,1344.0090399999999,1500.0
6.36749005317688,160,80.577,1265.6669446044702,1480,1507.0,1336.83952,1500.0
6.392115116119385,160,81.624,1261.9000786979093,1483.0,1507.0,1328.32608,1500.0
6.416919946670532,160,82.6475,1258.1332127913483,1488.0,1507.0,1319.7909199999999,1500.0
6.441936016082764,160,84.671,1254.3663468847874,1492.0,1507.0,1308.53388,1500.0
6.466705083847046,161,85.6945,1250.5994809782264,1498.0,1507.0,1301.32656,1501.0
6.491729021072388,160,85.6945,1243.2809986454795,1498.0,1507.0,1295.4132400000001,1500.0
6.5166449546813965,160,86.6945,1232.6082119102234,1500.0,1507.0,1289.79152,1500.0
6.541583061218262,160,86.671,1225.7022910815285,1501.0,1507.0,1288.29764,1500.0
6.566380023956299,159,86.6475,1218.7963702528336,1498.0,1507.0,1292.5034000000001,1499.0
6.591370105743408,160,86.6005,1211.8904494241385,1500.0,1507.0,1298.24692,1500.0
6.616460084915161,160,86.6005,1208.3388329979525,1500.0,1507.0,1303.9020800000001,1500.0
6.641345024108887,161,86.577,1204.7872165717665,1503.0,1507.0,1310.9953600000001,1501.0
6.666404962539673,161,87.5535,1197.8812957430714,1504.0,1507.0,1314.0247200000001,1501.0
6.691330909729004,161,87.5535,1190.9753749143765,1505.0,1507.0,1315.4081200000001,1501.0
6.71641993522644,161,87.5535,1184.0694540856816,1505.0,1507.0,1315.2679600000001,1501.0
6.741355895996094,161,87.5535,1177.5421590321505,1506.0,1507.0,1315.1278,1501.0
6.766240119934082,162,87.577,1174.3691683811285,1510.0,1507.0,1313.4998000000001,1502.0
6.791131019592285,163,87.6005,1171.1961777301065,1515.0,1507.0,1314.60412,1503.0
6.816072940826416,164,86.6005,1168.0231870790844,1520,1507.0,1318.4086,1504.0
6.8409459590911865,164,86.6005,1168.0231870790844,1520,1507.0,1321.077,1504.0
6.86578106880188,165,85.577,1164.6688826765755,1520,1507.0,1326.4474399999999,1505.0
6.8909571170806885,165,83.5535,1161.3145782740667,1520,1507.0,1336.0294799999999,1505.0
6.916094064712524,165,81.53,1164.6688826765755,1520,1507.0,1347.2631200000001,1505.0
6.940890073776245,166,80.53,1168.0231870790844,1520,1507.0,1350,1506.0
6.965610027313232,166,79.53,1171.3774914815936,1520,1507.0,1350,1506.0
6.99037504196167,166,79.5535,1181.4564029613107,1520,1507.0,1350,1506.0
7.015275001525879,166,79.5535,1191.5353144410278,1520,1507.0,1350,1506.0
7.039885997772217,166,79.6005,1201.614225920745,1520,1507.0,1350,1506.0
7.064570903778076,166,79.624,1208.1415209742759,1520,1507.0,1350,1506.0
7.089071035385132,166,79.624,1211.495825376785,1520,1507.0,1349.97516,1506.0
7.1138999462127686,165,79.624,1214.8501297792941,1520,1507.0,1341.6816800000001,1505.0
7.138888120651245,165,79.624,1218.204434181803,1520,1507.0,1336.1401599999999,1505.0
7.1636059284210205,164,79.6005,1218.204434181803,1520,1507.0,1333.5442399999999,1504.0
7.188313961029053,163,79.577,1218.204434181803,1520,1507.0,1332.40796,1503.0
7.212889909744263,163,80.577,1214.8501297792941,1520,1507.0,1329.9634800000001,1503.0
7.2376439571380615,162,80.577,1207.944208950599,1520,1507.0,1328.68704,1502.0
7.2622599601745605,161,80.5535,1197.8652974708818,1520,1507.0,1327.47264,1501.0
7.286899089813232,160,80.53,1187.7863859911647,1520,1507.0,1326.16236,1500.0
7.311646938323975,160,80.5065,1181.2590909376336,1520,1507.0,1324.7881600000001,1500.0
7.336442947387695,160,81.483,1171.7258047410292,1520,1507.0,1323.6078,1500.0
7.361221075057983,159,81.483,1165.198509687498,1515.0,1507.0,1323.59924,1499.0
7.3861799240112305,158,81.483,1152.8133857397725,1506.0,1507.0,1323.5248799999999,1498.0
7.41101598739624,157,81.4595,1140.4282617920469,1497.0,1507.0,1323.4787200000001,1497.0
7.435987949371338,157,82.436,1125.3338919807563,1491.0,1507.0,1320.7925599999999,1497.0
7.460869073867798,157,82.436,1116.3030724355399,1485.0,1507.0,1320.6523999999999,1497.0
7.485837936401367,157,82.436,1104.5630070267584,1480.0,1507.0,1320.51224,1497.0
7.510852098464966,156,84.4595,1095.9959322689988,1480,1507.0,1315.0619999999999,1496.0
7.535813093185425,155,84.483,1087.4288575112394,1480,1507.0,1311.94408,1495.0
7.560606956481934,155,85.483,1078.8617827534799,1480,1507.0,1308.9805200000001,1495.0
7.585472106933594,155,85.483,1078.8617827534799,1480,1507.0,1305.8889200000001,1495.0
7.610351085662842,154,85.483,1073.0039538592853,1480,1507.0,1302.7973199999999,1494.0
7.635124921798706,154,85.4595,1073.0039538592853,1480,1507.0,1305.4335599999999,1494.0
7.659855127334595,154,85.436,1073.0039538592853,1480,1507.0,1308.2013999999999,1494.0
7.684736013412476,154,86.436,1078.5650374739712,1480,1507.0,1309.7729999999999,1494.0
7.709446907043457,153,86.4595,1078.5650374739712,1480,1507.0,1312.4825599999999,1493.0
7.734177112579346,153,87.483,1081.2742833375364,1480,1507.0,1312.51828,1493.0
7.758857011795044,154,87.483,1083.9835292011014,1480,1507.0,1310.96444,1494.0
7.783541917800903,154,88.5065,1083.9835292011014,1480,1507.0,1306.6107999999999,1494.0
7.808257102966309,155,88.5065,1086.6927750646664,1480,1507.0,1304.92536,1495.0
7.832904100418091,155,89.53,1081.1316914499805,1480,1507.0,1300.6036799999999,1495.0
7.857654094696045,155,89.53,1078.4224455864155,1480,1507.0,1300.376,1495.0
7.882333993911743,156,89.5535,1073.1361121940936,1480,1507.0,1300.11824,1496.0
7.907157897949219,155,89.577,1067.8497788017717,1480,1507.0,1302.7244000000001,1495.0
7.932168006896973,155,90.577,1057.2572385833223,1480,1507.0,1301.3587600000001,1495.0
7.956873893737793,156,90.577,1049.5165361159939,1480,1507.0,1304.0269600000001,1496.0
7.981848955154419,155,90.577,1037.2017821906984,1480,1507.0,1305.3032000000001,1495.0
8.006645917892456,156,90.577,1024.8870282654029,1480,1507.0,1306.6452400000001,1496.0
8.031402111053467,155,90.577,1015.2815202036727,1480,1507.0,1306.66112,1495.0
8.056221008300781,156,89.6005,1000.8322089313262,1480,1507.0,1312.0549599999999,1496.0
8.081176996231079,157,89.6005,989.09214352254457,1480,1507.0,1314.8850400000001,1497.0
8.10620403289795,157,88.6005,977.3520781137629,1480,1507.0,1320.3551199999999,1497.0
8.131022930145264,157,88.624,968.18910023373826,1480,1507.0,1324.5312000000001,1497.0
8.155915975570679,157,87.624,959.02612235371362,1480,1507.0,1331.3435200000001,1497.0
8.180659055709839,158,87.624,948.32089553719538,1480,1507.0,1332.8616400000001,1498.0
8.205514907836914,159,87.624,939.57053622630224,1480,1507.0,1334.37976,1499.0
8.230386972427368,159,86.6005,935.39422837337611,1480,1507.0,1335.7999199999999,1499.0
8.255276918411255,160,85.624,929.26305301482478,1480,1507.0,1338.63564,1500.0
8.27991509437561,160,85.624,925.08674516189853,1480.0,1507.0,1337.49956,1500.0
8.304913997650146,161,84.624,923.0449946560235,1487.0,1507.0,1340.33152,1501.0
8.330343008041382,161,85.6475,919.04837664452339,1491.0,1507.0,1339.26144,1501.0
8.355288982391357,162,85.671,913.17834394013266,1498.0,1507.0,1337.8517200000001,1502.0
8.380047082901001,163,85.6475,907.30831123574194,1506.0,1507.0,1333.7660800000001,1503.0
8.404928922653198,163,85.6475,901.43827853135122,1512.0,1507.0,1331.01224,1503.0
8.429884910583496,164,85.6475,899.56486383846038,1520.0,1507.0,1325.4584,1504.0
8.454926013946533,164,86.6475,895.73658163994457,1520,1507.0,1320.1303600000001,1504.0
8.479607105255127,165,86.6475,891.90829944142877,1520,1507.0,1317.4600800000001,1505.0
8.504436016082764,165,87.6475,890.03488474853805,1520,1507.0,1313.4120399999999,1505.0
8.529052972793579,166,87.6475,884.4096537629639,1520,1507.0,1310.5640000000001,1506.0
8.5538809299469,166,88.671,880.58137156444809,1520,1507.0,1306.37392,1506.0
8.578778982162476,166,90.671,875.18593724892287,1520,1507.0,1299.54008,1506.0
8.60362195968628,166,90.671,873.38898846186453,1520,1507.0,1295.07428,1506.0
8.628395080566406,167,91.6475,871.59203967480607,1520,1507.0,1290.86248,1507.0
8.65322995185852,166,91.624,869.79509088774762,1520,1507.0,1287.8845200000001,1506.0
8.677972078323364,167,91.6005,869.79509088774762,1520,1507.0,1287.8062,1507.0
8.702728986740112,168,90.577,866.27307126511312,1520,1507.0,1294.6417200000001,1508.0
8.7273690700531,168,89.577,861.09363064359184,1520,1507.0,1302.88904,1508.0
8.752038955688477,169,89.577,857.57161102095745,1520,1507.0,1311.3105600000001,1509.0
8.776787996292114,169,88.5535,855.84654018538129,1520,1507.0,1322.36832,1509.0
8.801708936691284,170,87.5535,852.3245205627469,1520,1507.0,1333.38012,1510.0
8.826575994491577,170,85.577,850.66709956386001,1520,1507.0,1342.8240800000001,1510.0
8.851418018341064,170,84.577,847.28460772939729,1520,1507.0,1349.73624,1510.0
8.876255989074707,170,84.6005,842.30844185754324,1520,1507.0,1350,1510.0
8.900957107543945,169,83.6475,835.79874059121846,1520,1507.0,1350,1509.0
8.925848007202148,170,82.6945,827.49209053783522,1520,1507.0,1350,1510.0
8.950499057769775,169,82.718,821.23072231981837,1520,1507.0,1350,1509.0
8.975213050842285,169,81.7415,818.10351288795653,1520,1507.0,1350,1509.0
8.999946117401123,170,81.765,810.41910643857227,1520,1507.0,1350,1510.0
9.024814128875732,169,80.765,802.73469998918802,1520,1507.0,1350,1509.0
9.049370050430298,168,80.7415,793.67807810241368,1520,1507.0,1348.6687999999999,1508.0
9.074054956436157,168,80.7415,786.27887721452612,1520,1507.0,1347.62672,1508.0
9.098680019378662,168,79.718,777.5556087993325,1520,1507.0,1347.91248,1508.0
9.123306035995483,167,79.6945,770.42601442152989,1520,1507.0,1347.06592,1507.0
9.148068904876709,167,79.6945,764.82995543819811,1520,1507.0,1344.68724,1507.0
9.172718048095703,165,80.6945,757.95548642850167,1520,1507.0,1340.8988400000001,1505.0
9.19752311706543,164,80.6945,752.55775520607335,1520,1507.0,1338.2784799999999,1504.0
9.222230911254883,164,80.671,744.44821210310943,1520,1507.0,1334.1823999999999,1504.0
9.24690294265747,164,81.671,738.04454006195579,1520,1507.0,1327.3203599999999,1504.0
9.271667957305908,163,81.6475,731.64086802080226,1520,1507.0,1323.0803599999999,1503.0
9.296587944030762,163,82.6475,724.33714069275845,1520,1507.0,1319.0041200000001,1503.0
9.32155704498291,162,82.6475,717.03341336471465,1520,1507.0,1316.12788,1502.0
9.346251964569092,162,82.6475,709.97171988574826,1520,1507.0,1314.5778,1502.0
9.371122121810913,162,83.6475,701.86180628099794,1520,1507.0,1313.2196800000002,1502.0
9.395971059799194,162,83.6475,692.73592547741066,1520,1507.0,1312.99576,1502.0
9.420812129974365,162,83.624,682.94750243972351,1520,1507.0,1314.27388,1502.0
9.445574045181274,163,84.6005,672.23141839519667,1520,1507.0,1312.9458400000001,1503.0
9.470345973968506,162,84.6005,661.84963616193374,1520,1507.0,1312.8215600000001,1502.0
9.495049953460693,163,84.6005,650.93633592278468,1520,1507.0,1314.1372799999999,1503.0
9.51987600326538,163,84.624,640.02303568363561,1520,1507.0,1315.42292,1503.0
9.544837951660156,164,84.624,629.75112693003973,1520,1507.0,1315.31096,1504.0
9.56985092163086,164,84.6005,618.69683692002741,1520,1507.0,1317.99524,1504.0
9.594693899154663,164,83.577,607.96306283199863,1520,1507.0,1323.3533600000001,1504.0
9.619431972503662,163,83.5535,597.53603105446234,1520,1507.0,1326.18532,1503.0
9.644196033477783,164,82.5535,586.69904760020245,1520,1507.0,1331.69488,1504.0
9.668956995010376,162,81.5535,575.79616761858108,1520,1507.0,1338.6764000000001,1502.0
9.693572998046875,161,81.577,564.56364578877594,1520,1507.0,1343.0020400000001,1501.0
9.718178987503052,159,82.6005,553.62569665015951,1520,1507.0,1341.7880399999999,1499.0
9.742971897125244,157,83.6475,543.24306428733269,1515.0,1507.0,1338.97236,1497.0
9.767790079116821,156,84.671,532.29555307564715,1506.0,1507.0,1331.8790799999999,1496.0
9.792618989944458,151,88.6945,522.42688040948576,1483.0,1507.0,1312.59196,1491.0
