time,x,y,size_inv,roll,pitch,thrust,yaw
0.0007419586181640625,160,35.0,2012.5826415054094,1500.0,1512.2661218867743,1350,1500.0
0.023321866989135742,159,35.0,2012.5826415054094,1499.77,1512.2661218867743,1350,1500.0
0.045990943908691406,160,35.0,2012.5826415054094,1499.97,1512.2661218867743,1350,1500.0
0.06858587265014648,160,35.0,2012.5826415054094,1499.97,1512.2661218867743,1350,1500.0
0.09089088439941406,160,35.0,2012.5826415054094,1499.97,1512.2661218867743,1350,1500.0
0.11310696601867676,159,35.0,2012.5826415054094,1499.74,1512.2661218867743,1350,1500.0
0.13533997535705566,160,35.0,2012.5826415054094,1499.9400000000001,1512.2661218867743,1350,1500.0
0.1576519012451172,160,35.0,2012.5826415054094,1499.9400000000001,1512.2661218867743,1350,1500.0
0.17990899085998535,159,35.0,2012.5826415054094,1499.71,1512.2661218867743,1350,1500.0
0.20215392112731934,160,35.0,2012.5826415054094,1499.9100000000001,1512.2661218867743,1350,1500.0
0.2245948314666748,159,35.0,2012.5826415054094,1499.6800000000001,1512.2661218867743,1350,1500.0
0.24758291244506836,159,35.0,2012.5826415054094,1495.28,1512.2661218867743,1350,1500.0
0.2707178592681885,160,34.9765,2012.5826415054094,1495.48,1512.2661218867743,1350,1500.0
0.29369306564331055,160,34.9765,2012.5826415054094,1499.8800000000001,1512.2661218867743,1350,1500.0
0.31670093536376953,160,34.8825,2022.6455547129365,1499.8800000000001,1512.613292392434,1350,1500.0
0.33965492248535156,160,33.8825,2032.7084679204636,1502.1099999999999,1513.2623502943195,1350,1500.0
0.36275506019592285,160,31.7415,2042.7713811279907,1506.51,1514.2132955924308,1350,1500.0
0.3857588768005371,160,32.765,2033.6232782120569,1506.51,1514.8033482305086,1350,1500.0
0.4087238311767578,160,34.859,2016.1225595902706,1504.3399999999999,1514.8307925392564,1350,1500.0
0.43186402320861816,160,37.9765,1998.6218409684843,1504.3399999999999,1513.7294404968989,1350,1500.0
0.4548220634460449,160,41.0,1989.4737380525505,1502.1700000000001,1511.7874573452882,1350,1500.0
0.47777891159057617,160,41.9765,1989.4737380525505,1500.0,1509.2828658643475,1350,1500.0
0.5009129047393799,160,42.9295,1980.3256351366167,1500.0,1507.0115510077633,1350,1500.0
0.5239639282226562,160,42.8355,1980.3256351366167,1500.0,1505.8314457316078,1339.5809599999998,1500.0
0.5468790531158447,160,45.7885,1961.114619013156,1500.0,1505.340490912726,1328.9959200000001,1500.0
0.5699119567871094,160,46.765,1941.9036028896953,1500.0,1505.1239791813221,1329.2023199999999,1500.0
0.5929510593414307,160,48.765,1922.6925867662346,1500.0,1504.6330243624402,1330.9464800000001,1500.0
0.6159389019012451,160,50.7885,1914.3399710603821,1500.0,1504.2147969617401,1331.02504,1500.0
0.6389279365539551,160,53.812,1906.6834066633505,1500.0,1503.0449833013652,1322.4387199999999,1500.0
0.6620800495147705,159,55.8355,1906.6834066633505,1497.5699999999999,1502.5372635895308,1316.16716,1500.0
0.6850588321685791,159,58.8355,1890.6742265604666,1495.3399999999999,1502.3554450440765,1303.02604,1500.0
0.7080628871917725,159,60.812,1873.1735079386804,1493.1099999999999,1502.7945539840414,1292.53892,1500.0
0.7312068939208984,159,65.812,1857.1643278357963,1490.8800000000001,1502.9868132991278,1275.5933199999999,1500.0
0.7542190551757812,158,67.7885,1832.0070448169786,1486.22,1502.84258152435,1268.0234,1500.0
0.7773940563201904,158,69.765,1815.9978647140947,1486.1600000000001,1501.6829103259035,1259.25704,1500.0
0.8005900382995605,158,71.7415,1799.9886846112106,1486.0999999999999,1500.4271840468398,1254.71648,1500.0
0.8239610195159912,158,73.7415,1783.9795045083265,1486.04,1499.1648949982928,1250.0819200000001,1500.0
0.8469748497009277,157,75.7415,1776.3229401112949,1483.55,1498.4204681235087,1253.8154,1500.0
0.8700339794158936,157,77.718,1776.3229401112949,1485.6600000000001,1498.9902358377294,1256.1531600000001,1500.0
0.8932738304138184,156,79.718,1768.6663757142633,1483.1700000000001,1500.2564028864253,1258.3649599999999,1500.0
0.9162640571594238,156,83.718,1768.6663757142633,1480.8800000000001,1502.0372998779947,1253.87096,1500.0
0.9392669200897217,156,84.718,1761.0098113172317,1480,1503.9895746453858,1254.44892,1500.0
0.9627029895782471,156,86.6945,1761.0098113172317,1480.7,1505.9554224132989,1250,1500.0
0.9856829643249512,155,87.6945,1761.0098113172317,1480,1507.1665516906476,1250,1500.0
1.008599042892456,155,88.6945,1753.9657720719629,1480.3199999999999,1508.1137800747697,1250,1500.0
1.0317258834838867,155,90.6945,1753.9657720719629,1482.4300000000001,1508.6124312324091,1250.9986799999999,1500.0
1.0548899173736572,154,91.6945,1753.9657720719629,1482.1099999999999,1509.090200850784,1254.68056,1500.0
1.0778908729553223,154,92.6945,1753.9657720719629,1480,1509.3382735372477,1259.7366400000001,1500.0
1.1008429527282715,154,92.6945,1746.9217328266939,1481.9300000000001,1509.3433268697499,1266.1046799999999,1500.0
1.123872995376587,153,93.671,1739.8776935814251,1480,1509.3300044476989,1269.9747600000001,1500.0
1.1468110084533691,153,94.671,1739.8776935814251,1480,1509.348380202252,1272.53664,1500.0
1.1697709560394287,153,94.6475,1739.8776935814251,1480,1509.1370590248939,1277.8005599999999,1500.0
1.1928019523620605,152,94.624,1739.8776935814251,1480,1508.9257378475359,1283.21028,1500.0
1.215770959854126,151,94.624,1739.8776935814251,1480,1509.1370590248939,1287.2318,1500.0
1.2387268543243408,152,94.624,1746.9217328266939,1480,1509.8027207335717,1292.62752,1500.0
1.2618680000305176,152,93.624,1739.8776935814251,1480,1510.1936649116842,1300.74324,1500.0
1.2848320007324219,152,93.624,1732.8336543361561,1480,1510.3732879124384,1306.23316,1500.0
1.307816982269287,151,93.624,1732.8336543361561,1480.49,1510.5846090897965,1310.29728,1500.0
1.3308050632476807,151,92.6475,1732.8336543361561,1487.0,1510.5846090897965,1316.9393600000001,1500.0
1.3538339138031006,151,92.6475,1739.8776935814251,1486.9400000000001,1510.1936649116842,1321.0816,1500.0
1.3768649101257324,151,91.6475,1732.8336543361561,1486.8800000000001,1509.9506455577223,1323.7038400000001,1500.0
1.3999228477478027,152,90.6475,1725.7896150908873,1489.25,1509.9189473811186,1327.7980400000001,1500.0
1.4229929447174072,152,89.624,1718.7455758456185,1493.6500000000001,1509.6759280271569,1333.42624,1500.0
1.446030855178833,152,88.6005,1711.7015366003495,1495.8800000000001,1509.221587495837,1337.7940800000001,1500.0
1.4690179824829102,152,87.577,1704.6574973550807,1500.28,1508.3446046098011,1343.6357599999999,1500.0
1.4921798706054688,152,85.577,1704.6574973550807,1504.6800000000001,1507.7106410777269,1350,1500.0
1.5151538848876953,152,85.577,1711.7015366003495,1504.6800000000001,1507.5310180769725,1350,1500.0
1.5381238460540771,152,84.6005,1711.7015366003495,1502.51,1507.7423392543305,1350,1500.0
1.5612318515777588,152,84.6005,1718.7455758456185,1500.3399999999999,1508.6193221403666,1350,1500.0
1.5841748714447021,152,83.624,1718.7455758456185,1498.1700000000001,1510.0985703818731,1350,1500.0
1.6072659492492676,152,83.624,1725.7896150908873,1496.0,1511.6095167999831,1350,1500.0
1.6306049823760986,152,82.624,1732.8336543361561,1496.0,1512.6978208633773,1350,1500.0
1.653641939163208,153,81.624,1747.5342579784567,1498.4300000000001,1514.0502763984689,1350,1500.0
1.6766350269317627,154,81.624,1754.5782972237255,1503.0899999999999,1514.9456350390576,1349.1459199999999,1500.0
1.699638843536377,153,80.6005,1769.2789008660261,1505.1199999999999,1516.1051451513442,1349.3518799999999,1500.0
1.7227129936218262,154,80.6005,1776.3229401112949,1509.78,1517.018879546486,1350,1500.0
1.7454609870910645,155,79.577,1776.3229401112949,1516.6700000000001,1517.6895945876659,1350,1500.0
1.768157958984375,154,79.5535,1776.3229401112949,1516.53,1517.4782734103078,1350,1500.0
1.7908580303192139,155,78.53,1783.9795045083265,1514.6199999999999,1517.3197825272894,1350,1500.0
1.8135669231414795,156,78.5065,1783.9795045083265,1519.3399999999999,1516.244800885946,1350,1500.0
1.8363020420074463,156,77.483,1791.6360689053581,1519.46,1515.2226495389423,1350,1500.0
1.8590259552001953,156,77.4595,1791.6360689053581,1515.1800000000001,1514.37736482951,1350,1500.0
1.8817579746246338,156,76.436,1791.6360689053581,1517.47,1513.9730982293468,1350,1500.0
1.9046919345855713,157,75.4125,1799.2926333023897,1519.96,1513.5849104144174,1350,1500.0
1.9274818897247314,157,75.3655,1799.2926333023897,1515.6800000000001,1513.6032861689703,1350,1500.0
1.950232982635498,158,75.3655,1806.9491976994213,1516.0,1513.6377407087568,1350,1500.0
1.9729838371276855,158,75.342,1814.605762096453,1518.29,1513.9018921804545,1350,1500.0
1.9957070350646973,158,76.342,1830.6149421993371,1518.4100000000001,1514.683905825915,1350,1500.0
2.0184168815612793,159,76.342,1830.6149421993371,1518.73,1515.1641812290015,1346.9841200000001,1500.0
2.0433528423309326,159,76.342,1838.2715065963687,1520,1515.9086081037856,1341.3062,1500.0
2.0681710243225098,159,77.342,1838.2715065963687,1518.9100000000001,1516.3888835068722,1334.38024,1500.0
2.091035842895508,159,77.3185,1845.9280709934003,1516.8,1516.6739165178342,1328.6824800000002,1500.0
2.113853931427002,159,78.3185,1838.2715065963687,1514.6900000000001,1515.6997927111393,1324.50848,1500.0
2.1366100311279297,159,78.3185,1830.6149421993371,1510.3499999999999,1514.7256689044441,1322.92644,1500.0
2.1593329906463623,160,78.3185,1815.9143385570364,1508.4400000000001,1512.8194349480545,1321.40832,1500.0
2.182236909866333,160,79.295,1801.2137349147361,1508.5,1510.7018798143067,1320.1122399999999,1500.0
2.2051548957824707,160,79.295,1786.5131312724357,1508.5599999999999,1507.913609639379,1319.9541199999999,1500.0
2.227947950363159,160,80.2715,1763.4599119242826,1508.6199999999999,1505.3358253802387,1318.65804,1500.0
2.2507309913635254,161,80.2715,1748.7593082819822,1513.28,1502.8140036463278,1318.53376,1500.0
2.273530960083008,161,81.295,1734.0587046396818,1513.3399999999999,1500.9628969535968,1315.7074400000001,1500.0
2.2962989807128906,161,82.295,1719.3581009973811,1513.4000000000001,1499.5528083701347,1312.8435199999999,1500.0
2.3190648555755615,161,83.3185,1704.6574973550807,1513.46,1498.8134348278527,1308.5095200000001,1500.0
2.341852903366089,161,85.3655,1691.1112680372557,1513.52,1498.8263653194742,1301.37384,1500.0
2.3646390438079834,161,86.389,1677.5650387194305,1509.1800000000001,1499.0852482181881,1293.99252,1500.0
2.3873980045318604,161,88.436,1671.0628486468747,1507.01,1499.6217817005981,1285.3011200000001,1500.0
2.4101998805999756,161,89.483,1664.5606585743189,1504.8399999999999,1500.4042675901003,1277.7740000000001,1500.0
2.4330379962921143,161,90.5065,1658.0584685017632,1502.6700000000001,1501.432705886695,1271.66704,1500.0
2.455833911895752,161,91.53,1651.5562784292074,1500.5,1502.3872556597378,1268.4898000000001,1500.0
2.4786009788513184,161,92.53,1639.0335419931737,1500.5,1503.3107865308646,1266.76656,1500.0
2.501373052597046,160,93.53,1632.5313519206177,1498.0699999999999,1504.0154574535345,1267.9429600000001,1500.0
2.5241570472717285,160,93.5065,1626.0291618480617,1495.8399999999999,1504.4741759691121,1271.953,1500.0
2.546938896179199,160,93.53,1619.5269717755057,1493.6099999999999,1504.6869420775975,1277.34664,1500.0
2.5697319507598877,160,94.53,1619.5269717755057,1491.3800000000001,1504.9127125662278,1280.21036,1500.0
2.5925960540771484,160,94.5535,1619.5269717755057,1489.1500000000001,1505.4834603614856,1285.6200799999999,1500.0
2.615360975265503,159,94.577,1619.5269717755057,1488.8900000000001,1506.2492738589199,1291.0120400000001,1500.0
2.638134002685547,159,94.577,1626.0291618480617,1488.8299999999999,1507.4344786160341,1294.9424799999999,1500.0
2.6609020233154297,159,94.6005,1632.5313519206177,1488.77,1509.0098147775018,1297.4847199999999,1500.0
2.68367600440979,158,94.6005,1639.0335419931737,1486.28,1510.5851509389693,1301.4632000000001,1500.0
2.7064449787139893,158,94.624,1651.5562784292074,1483.99,1512.1875795590724,1304.0854400000001,1500.0
2.729184865951538,157,94.624,1651.5562784292074,1481.5,1513.538590163037,1305.4416800000001,1500.0
2.7519328594207764,157,93.6005,1658.0584685017632,1480,1514.5287292179744,1309.5319200000001,1500.0
2.7746448516845703,157,92.6005,1664.5606585743189,1480,1515.1287368685587,1315.0678,1500.0
2.797344923019409,156,92.6005,1671.0628486468747,1480,1515.5336788169661,1318.04368,1500.0
2.82029390335083,156,91.5535,1677.5650387194305,1480,1515.3823222813883,1323.8174799999999,1500.0
2.8430659770965576,156,90.53,1684.0672287919865,1480,1515.426031447987,1331.00496,1500.0
2.8658030033111572,156,89.5065,1684.0672287919865,1480.7,1515.2454150570827,1336.8004799999999,1500.0
2.88857102394104,156,88.483,1684.0672287919865,1482.8099999999999,1514.8697329640017,1341.2378799999999,1500.0
2.911350965499878,155,86.483,1684.0672287919865,1484.72,1514.2989851687441,1349.7270799999999,1500.0
2.9341049194335938,155,85.4595,1684.0672287919865,1486.8299999999999,1513.713788062214,1350,1500.0
2.9568169116973877,155,84.4595,1690.5694188645423,1486.77,1512.9627851088339,1350,1500.0
2.9795148372650146,155,84.4595,1697.6134581098111,1486.71,1512.6206073562655,1350,1500.0
3.002323865890503,154,83.4595,1697.6134581098111,1484.22,1512.4417971292703,1350,1500.0
3.0250189304351807,154,82.4595,1697.6134581098111,1484.1600000000001,1512.4580526044517,1350,1500.0
3.0477280616760254,154,82.4595,1697.6134581098111,1484.0999999999999,1512.6693737818098,1350,1500.0
3.0704848766326904,154,81.4595,1697.6134581098111,1484.04,1512.6856292569912,1350,1500.0
3.093242883682251,154,81.4595,1697.6134581098111,1483.98,1512.2792423774565,1350,1500.0
3.1159470081329346,154,80.436,1697.6134581098111,1488.3199999999999,1511.8728554979216,1350,1500.0
3.1386759281158447,154,80.436,1691.1112680372553,1490.49,1511.2421430608838,1350,1500.0
3.1613879203796387,153,80.436,1684.6090779646995,1490.23,1510.4163649216691,1348.91452,1500.0
3.184145927429199,153,79.436,1684.6090779646995,1490.1700000000001,1509.8149123399578,1348.9483599999999,1500.0
3.206907033920288,154,79.436,1671.0628486468747,1492.54,1508.9574360241395,1347.7822000000001,1500.0
3.229642868041992,154,79.436,1664.5606585743189,1492.54,1507.9365921827482,1345.11024,1500.0
3.252470016479492,153,79.436,1658.0584685017632,1490.1099999999999,1507.1108140435335,1343.79828,1500.0
3.275228977203369,154,79.436,1651.5562784292074,1494.71,1506.4801016064957,1342.48632,1500.0
3.298006057739258,154,79.4595,1645.0540883566514,1499.1099999999999,1505.6543234672811,1339.6723199999999,1500.0
3.320798873901367,153,80.4595,1638.5518982840956,1496.6800000000001,1505.4462533849594,1334.2465199999999,1500.0
3.34431791305542,154,80.483,1632.0497082115396,1496.8800000000001,1505.4332490048141,1331.3506400000001,1500.0
3.3693649768829346,154,81.5065,1632.0497082115396,1501.28,1505.6445701821722,1325.7809199999999,1500.0
3.3945260047912598,154,81.5065,1632.0497082115396,1499.1099999999999,1506.0509570617071,1321.4394,1500.0
3.419538974761963,154,82.53,1625.5475181389836,1496.9400000000001,1506.623149788092,1315.8216400000001,1500.0
3.4447059631347656,154,82.5535,1619.5269717755059,1501.3399999999999,1507.000638045082,1314.17004,1500.0
3.4697208404541016,154,83.5535,1613.5064254120284,1501.3399999999999,1507.3925756133444,1309.97244,1500.0
3.4948298931121826,154,84.577,1607.4858790485507,1499.1700000000001,1507.4088310885256,1307.1386,1500.0
3.5198988914489746,154,85.6005,1601.465332685073,1499.1700000000001,1507.0494044706261,1302.8309200000001,1500.0
3.5450408458709717,155,86.6005,1595.4447863215953,1501.5999999999999,1506.7044271639988,1299.9452799999999,1500.0
3.570143938064575,155,87.6005,1589.4242399581176,1501.6600000000001,1506.3450005460993,1294.3254400000001,1500.0
3.5952048301696777,155,87.577,1583.4036935946401,1503.8900000000001,1505.9711246169272,1292.73568,1500.0
3.62025785446167,155,88.5535,1571.7926398936474,1506.1199999999999,1505.5849925755153,1290.0136,1500.0
3.6453359127044678,156,88.5535,1565.7720935301697,1510.78,1505.4046342080267,1291.3291200000001,1500.0
3.6704108715057373,156,89.5535,1554.1610398291771,1510.8399999999999,1505.0169540261213,1291.4126799999999,1500.0
3.695504903793335,156,91.577,1548.5705324916621,1510.9000000000001,1504.6692674736305,1290.1222399999999,1500.0
3.720566987991333,156,92.577,1542.9800251541469,1510.96,1504.3344820919185,1287.1941999999999,1500.0
3.7456350326538086,156,93.6005,1537.389517816632,1511.02,1504.3480283212364,1284.10636,1500.0
3.776063919067383,156,94.624,1537.389517816632,1506.6800000000001,1504.5673482244772,1278.15272,1500.0
3.801265001296997,157,95.624,1537.389517816632,1506.9400000000001,1505.3027149588734,1272.2272800000001,1500.0
3.826352834701538,157,96.624,1531.799010479117,1507.0,1506.0000232394718,1269.1676400000001,1500.0
3.851409912109375,157,96.624,1531.799010479117,1507.0599999999999,1506.8773028524358,1270.13996,1500.0
3.8764588832855225,157,97.624,1537.389517816632,1507.1199999999999,1507.9345537977651,1270.0100400000001,1500.0
3.9014508724212646,157,98.624,1537.389517816632,1509.3499999999999,1508.7860310691713,1271.30592,1500.0
3.926442861557007,158,98.624,1542.9800251541469,1509.6099999999999,1509.4820492326919,1275.2418,1500.0
3.9514260292053223,158,99.624,1542.9800251541469,1509.6700000000001,1510.3206253333192,1276.58572,1500.0
3.976454019546509,158,99.6005,1542.9800251541469,1509.73,1510.991486213821,1277.83168,1500.0
4.0014379024505615,159,99.6005,1542.9800251541469,1512.22,1511.1592014339465,1280.45748,1500.0
4.026435852050781,158,99.6005,1537.389517816632,1512.0799999999999,1511.1340441509276,1284.4913200000001,1500.0
4.05140495300293,158,99.577,1531.799010479117,1509.9100000000001,1510.6057412075324,1287.2272,1500.0
4.076390027999878,159,99.577,1531.799010479117,1510.1700000000001,1509.9348803270307,1291.3748800000001,1500.0
4.101387977600098,159,99.5535,1526.208503141602,1510.23,1509.0711469433845,1295.5188000000001,1500.0
4.12640905380249,160,98.53,1520.6179958040871,1508.3199999999999,1508.2074135597384,1300.9765600000001,1500.0
4.151376962661743,159,97.5065,1515.0274884665719,1508.1800000000001,1507.5113953962177,1306.5481600000001,1500.0
4.176370859146118,161,96.483,1504.2320260217152,1515.27,1506.9712367217448,1313.5278000000001,1500.0
4.201406955718994,161,96.483,1504.2320260217152,1517.5599999999999,1506.4796576282736,1317.9192399999999,1500.0
4.2264440059661865,161,95.5065,1499.0270709143738,1519.8499999999999,1506.1439380238501,1324.8548000000001,1500.0
4.251441955566406,161,95.53,1493.8221158070321,1519.9100000000001,1505.9875002064573,1327.6907200000001,1500.0
4.276432037353516,161,95.577,1488.6171606996904,1520,1505.8426289559695,1327.5649599999999,1500.0
4.30135703086853,161,95.6005,1483.4122055923488,1515.6900000000001,1506.0216215788275,1324.5997199999999,1500.0
4.326437950134277,161,95.624,1478.2072504850071,1511.3499999999999,1506.0444655484653,1321.6006400000001,1500.0
4.351472854614258,160,94.624,1473.0022953776656,1504.5799999999999,1506.055742951198,1318.5675200000001,1500.0
4.376487970352173,160,94.6475,1462.9393821701385,1500.1800000000001,1505.887854232569,1315.7301200000002,1500.0
4.401476860046387,160,94.6475,1452.8764689626116,1493.6099999999999,1505.562660204029,1314.4444800000001,1500.0
4.426499843597412,160,93.6475,1448.018510862426,1491.3800000000001,1505.1035831635616,1317.2566000000002,1500.0
4.451539039611816,160,93.6475,1437.9555976548991,1489.1500000000001,1504.6314937353256,1318.93452,1500.0
4.47652792930603,160,92.6475,1433.0976395547136,1491.3199999999999,1504.1932365152875,1321.7804800000001,1500.0
4.501492977142334,160,91.6475,1433.0976395547136,1493.49,1504.2244662459316,1326.1002800000001,1500.0
4.526464939117432,160,91.6475,1428.239681454528,1495.6600000000001,1504.5357225613507,1329.15616,1500.0
4.551476955413818,159,90.6475,1428.239681454528,1495.4000000000001,1505.0041685210115,1332.02008,1500.0
4.576519966125488,159,90.671,1428.239681454528,1495.3399999999999,1505.9202406199036,1333.5899999999999,1500.0
4.6015260219573975,159,90.671,1423.3817233543425,1493.1099999999999,1506.8040419971301,1333.74812,1500.0
4.626528978347778,159,89.6945,1428.239681454528,1490.8800000000001,1507.5754163440381,1333.6522399999999,1500.0
4.651525974273682,159,89.718,1433.0976395547136,1488.6500000000001,1508.4821195237371,1332.3225199999999,1500.0
4.676547050476074,158,89.718,1437.9555976548991,1488.3900000000001,1509.3888227034358,1329.5809999999999,1500.0
4.7015440464019775,158,89.7415,1442.8135557550845,1488.3299999999999,1510.1393772299145,1326.8432399999999,1500.0
4.726837873458862,158,89.7415,1447.6715138552702,1488.27,1511.1814092424045,1325.49368,1500.0
4.751873016357422,158,89.718,1447.6715138552702,1488.21,1511.9101029574322,1322.83196,1500.0
4.776888847351074,157,89.718,1447.6715138552702,1485.72,1512.2015804434434,1320.20784,1500.0
4.8019020557403564,157,88.6945,1447.6715138552702,1485.6600000000001,1512.2015804434434,1321.6457600000001,1500.0
4.826882839202881,156,88.6945,1442.8135557550845,1483.1700000000001,1511.7425034029759,1321.88932,1500.0
4.851867914199829,156,87.6475,1447.6715138552702,1480.8800000000001,1511.0356704993987,1324.89696,1500.0
4.8768630027771,155,87.624,1442.8135557550845,1480,1510.28511597292,1327.9724800000001,1500.0
4.9017698764801025,155,87.6005,1437.9555976548991,1480,1509.5345614464416,1331.04988,1500.0
4.926652908325195,155,86.577,1433.0976395547136,1480,1508.7840069199628,1333.93532,1500.0
4.951534032821655,154,85.5535,1433.0976395547136,1480,1508.4925294339516,1338.2626400000001,1500.0
4.976418972015381,154,85.53,1428.239681454528,1480,1507.8877136504786,1338.4922000000001,1500.0
5.001358985900879,154,85.53,1423.3817233543425,1480,1507.4286366100112,1338.6597200000001,1500.0
5.0263378620147705,154,85.53,1423.3817233543425,1480,1507.2828978670054,1338.76144,1500.0
5.051328897476196,154,85.53,1418.5237652541568,1481.8099999999999,1507.2610370555547,1337.38932,1500.0
5.076400995254517,154,85.5535,1413.9792238055963,1486.1500000000001,1506.9585116325738,1333.0893599999999,1500.0
5.101376056671143,153,86.577,1409.1212657054107,1488.0599999999999,1506.9460533206716,1327.4736800000001,1500.0
5.126389980316162,153,86.6005,1404.5767242568502,1488.0,1506.9444078832507,1323.05612,1500.0
5.15137505531311,153,88.624,1400.0321828082895,1487.9400000000001,1506.6606874593672,1313.3566800000001,1500.0
5.176393032073975,153,89.6475,1391.2271337517034,1487.8800000000001,1506.2393820225557,1304.7753600000001,1500.0
5.201379060745239,153,89.6475,1381.8246342029572,1485.6500000000001,1505.8059855589806,1298.8800000000001,1500.0
5.226373910903931,153,89.6475,1377.2800927543965,1487.8199999999999,1505.4038524064051,1295.8824,1500.0
5.251368999481201,153,90.6475,1372.735551305836,1489.99,1504.9923167542811,1290.3106,1500.0
5.276378870010376,153,91.6475,1363.9305022492497,1492.1600000000001,1504.5701298331369,1288.9646,1500.0
5.301369905471802,153,91.6475,1359.3859608006892,1494.3299999999999,1504.4133431531613,1291.6844000000001,1500.0
5.326364994049072,152,92.6475,1355.1254531926636,1494.0699999999999,1504.5578331266956,1291.73224,1500.0
5.351399898529053,152,92.624,1346.3204041360773,1491.8399999999999,1504.5446549359219,1291.6501599999999,1500.0
5.376441955566406,153,92.624,1342.0598965280519,1492.04,1504.5604481968828,1294.30792,1500.0
5.401432037353516,153,93.6005,1337.7993889200263,1492.04,1504.8403929295412,1294.4357600000001,1500.0
5.426440000534058,153,93.6005,1337.7993889200263,1492.04,1505.1480309616516,1294.3434400000001,1500.0
5.451436996459961,153,94.6005,1333.5388813120007,1496.4400000000001,1505.2822369513044,1294.41112,1500.0
5.476469993591309,153,94.624,1325.2760786782542,1500.8399999999999,1505.5425152342675,1295.55096,1500.0
5.501463890075684,153,95.6475,1317.0132760445078,1500.8399999999999,1505.6742036512428,1292.65696,1500.0
5.5264599323272705,153,95.6475,1313.0109810187869,1500.8399999999999,1505.6964744864665,1292.36536,1500.0
5.551460027694702,154,95.671,1304.7481783850403,1503.27,1505.315352714985,1292.01172,1500.0
5.576462984085083,154,95.671,1300.7458833593194,1503.3299999999999,1504.9611496052087,1293.12628,1500.0
5.601484060287476,154,95.671,1296.7435883335984,1503.3900000000001,1504.7184943309881,1294.3386,1500.0
5.625936985015869,155,94.671,1292.7412933078774,1508.05,1504.7237231357797,1301.05672,1500.0
5.650446891784668,155,94.671,1288.7389982821564,1512.51,1504.7212055631021,1305.2467999999999,1500.0
5.674964904785156,156,93.671,1284.7367032564357,1515.0,1505.0943872976779,1312.1426799999999,1500.0
5.699357986450195,156,93.671,1276.9675423241538,1517.29,1505.329865781008,1316.47856,1500.0
5.7242350578308105,156,92.6945,1276.9675423241538,1519.5799999999999,1505.5925591110645,1323.3604399999999,1500.0
5.748673915863037,157,90.6945,1276.9675423241538,1519.9000000000001,1505.8475060636517,1330.1585600000001,1500.0
5.773072004318237,157,89.6945,1276.9675423241538,1520,1506.2225218670105,1337.19668,1500.0
5.797363042831421,157,88.718,1276.9675423241538,1517.9100000000001,1506.5897912929001,1342.7808,1500.0
5.821765899658203,158,87.718,1276.9675423241538,1518.23,1507.303141523955,1349.83312,1500.0
5.8461549282073975,158,87.7415,1280.9698373498745,1518.3499999999999,1508.0345020826257,1350,1500.0
5.870564937591553,158,84.765,1284.9721323755955,1516.24,1508.7658626412965,1350,1500.0
5.894975900650024,158,83.765,1288.9744274013165,1514.1300000000001,1509.4972231999673,1350,1500.0
5.919436931610107,159,82.7885,1292.9767224270374,1516.6199999999999,1510.228583758638,1350,1500.0
5.9439380168914795,159,80.765,1300.7458833593194,1514.51,1510.9768952138882,1350,1500.0
5.968255043029785,159,78.765,1304.7481783850403,1512.4000000000001,1511.5881869217872,1350,1500.0
5.992718935012817,160,76.7415,1308.7504734107611,1514.8900000000001,1512.0794097789146,1350,1500.0
6.017257928848267,160,71.6945,1312.752768436482,1517.1800000000001,1512.4505637852706,1350,1500.0
6.041616916656494,160,68.671,1321.0155710702286,1515.0699999999999,1512.8486364533317,1350,1500.0
6.06596302986145,160,66.6475,1325.0178660959496,1515.1300000000001,1512.8814560319913,1350,1500.0
6.090343952178955,161,63.624,1329.2783737039749,1517.6199999999999,1512.9231839447405,1350,1500.0
6.114789009094238,160,61.624,1333.5388813120005,1513.0799999999999,1512.9726582349588,1350,1500.0
6.139137029647827,161,57.624,1337.7993889200261,1511.1700000000001,1513.0298789026463,1350,1500.0
6.163470029830933,161,55.624,1342.0598965280517,1511.23,1512.8392154913213,1350,1500.0
6.187792062759399,161,53.6475,1346.3204041360773,1511.29,1512.7693044346624,1350,1500.0
6.212120056152344,160,51.624,1350.5809117441027,1504.52,1512.6916470005344,1350,1500.0
6.236438989639282,160,49.624,1354.8414193521282,1504.52,1512.606243188937,1350,1500.0
6.2608418464660645,161,47.624,1359.1019269601538,1502.55,1512.5130929998707,1350,1500.0
6.285239934921265,160,43.6005,1359.1019269601538,1497.95,1512.3930241490991,1350,1500.0
6.3095619678497314,160,42.6005,1359.1019269601538,1493.55,1512.1373936926175,1350,1500.0
6.33416485786438,160,40.577,1359.1019269601538,1495.72,1511.7539480078954,1350,1500.0
6.358504056930542,160,38.5535,1359.1019269601538,1495.72,1511.2426870949321,1350,1500.0
6.382858991622925,160,37.5535,1359.1019269601538,1493.49,1510.6036109537283,1350,1500.0
6.407179832458496,160,34.53,1359.1019269601538,1495.6600000000001,1510.0923500407653,1350,1500.0
6.431493043899536,160,33.5065,1359.1019269601538,1497.8299999999999,1509.7089043560429,1350,1500.0
6.455834865570068,160,32.5065,1359.1019269601538,1497.8299999999999,1509.4532738995615,1350,1500.0
6.480242967605591,160,32.5065,1363.6464684087146,1497.8299999999999,1509.4822453512961,1350,1500.0
6.504654884338379,160,31.5065,1363.6464684087146,1500.0,1509.6185815947529,1350,1500.0
6.528965950012207,160,31.5065,1368.191009857275,1500.0,1509.9117045181849,1350,1500.0
6.553299903869629,159,31.53,1376.9960589138614,1497.5699999999999,1510.4881511975509,1350,1500.0
6.5776238441467285,159,31.5535,1381.5406003624219,1495.3399999999999,1511.1817618361374,1350,1500.0
6.601944923400879,158,31.576999999999998,1386.0851418109826,1490.6800000000001,1511.7390362312672,1350,1500.0
6.6262829303741455,158,31.576999999999998,1390.6296832595431,1486.22,1512.4326468698537,1350,1500.0
6.650719881057739,158,31.6005,1395.1742247081038,1481.76,1512.9899212649834,1350,1500.0
6.675156831741333,157,30.6005,1395.1742247081038,1480,1512.9984422801995,1350,1500.0
6.699383020401001,157,31.576999999999998,1399.7187661566645,1480,1512.8910774884773,1350,1500.0
6.7237548828125,157,31.576999999999998,1399.7187661566645,1480,1512.6269260167796,1350,1500.0
6.748021841049194,157,31.576999999999998,1404.263307605225,1481.2,1512.2468887381438,1350,1500.0
6.772666931152344,157,31.576999999999998,1399.7187661566645,1483.3099999999999,1511.5532780995572,1350,1500.0
6.7970359325408936,157,32.5535,1395.1742247081038,1487.6500000000001,1510.9874826892114,1350,1500.0
6.821359872817993,156,33.53,1395.1742247081038,1489.5599999999999,1510.3058014719275,1350,1500.0
6.845685005187988,156,33.53,1390.6296832595431,1489.5,1509.6036698181247,1350,1500.0
6.870064973831177,156,34.5065,1386.0851418109826,1489.4400000000001,1508.6288656774086,1350,1500.0
6.894503831863403,155,35.5065,1381.5406003624219,1486.95,1507.9267340236058,1350,1500.0
6.918817043304443,154,38.5065,1377.2800927543963,1480.0599999999999,1507.3707377807586,1350,1500.0
6.943110942840576,154,39.5065,1372.7355513058358,1480,1506.8134633856289,1350,1500.0
6.967319965362549,154,41.5065,1363.9305022492495,1480,1506.245537721479,1350,1500.0
6.991549015045166,153,43.5065,1355.1254531926634,1480,1505.8224693160021,1347.25332,1500.0
7.015849828720093,152,44.53,1346.8626505589168,1480,1505.2902931838723,1338.3754000000001,1500.0
7.0403008460998535,153,46.5535,1338.5998479251703,1480,1504.6295271857548,1332.4555999999998,1500.0
7.06483006477356,152,50.5535,1325.7925038428632,1480,1503.8367629155634,1319.8759599999998,1500.0
7.08915901184082,152,52.6005,1317.5297012091166,1480,1503.2085317028163,1312.29224,1500.0
7.113456964492798,152,54.6005,1309.2668985753703,1480,1502.7243831109952,1306.15688,1500.0
7.137889862060547,151,57.624,1297.2372300350628,1480.6099999999999,1502.2218254809534,1295.9452800000001,1500.0
7.1624510288238525,151,59.624,1289.4680691027809,1480,1501.8733182369633,1285.66768,1500.0
7.186779022216797,151,63.624,1277.4384005624734,1480.4300000000001,1501.7768530540093,1277.0700799999997,1500.0
7.211235046386719,150,65.6475,1266.1176232040054,1480.1099999999999,1501.575571246947,1270.9420400000001,1500.0
7.235692977905273,150,67.6475,1254.7968458455375,1480,1501.2662828054576,1264.8422,1500.0
7.2600648403167725,150,69.6475,1247.4783635127906,1480,1501.2293462550076,1262.9362000000001,1500.0
7.284476041793823,150,72.671,1236.8055767775345,1480,1501.0753973096134,1258.2962,1500.0
7.308822870254517,150,74.671,1229.4870944447878,1480,1501.054548053997,1257.7644,1500.0
7.333158016204834,149,79.671,1218.8143077095317,1481.72,1501.1297833890076,1250,1500.0
7.357447862625122,149,82.671,1208.1415209742759,1483.8299999999999,1501.316197684456,1250,1500.0
7.381753921508789,149,84.671,1198.0626094945587,1483.77,1501.2811359579187,1250,1500.0
7.406065940856934,149,86.6945,1187.9836980148416,1483.71,1501.3509992631364,1250,1500.0
7.430454969406128,149,89.6945,1177.9047865351245,1483.6500000000001,1501.1967141077184,1250,1500.0
7.454866886138916,148,94.718,1171.3774914815933,1483.3900000000001,1501.1633362579735,1250,1500.0
7.479179859161377,148,97.718,1161.8442052849887,1483.3299999999999,1501.1311767455481,1250,1500.0
7.503489017486572,148,99.7415,1152.310919088384,1483.27,1501.198198866025,1250,1500.0
7.527803897857666,148,101.7415,1146.1319372942885,1483.21,1501.3794969892158,1250,1500.0
7.552141904830933,148,103.7415,1136.5986510976841,1483.1500000000001,1501.6448823754977,1250,1500.0
7.576462030410767,149,106.7415,1130.4196693035885,1487.75,1501.8114467789223,1250,1500.0
7.6008288860321045,149,107.7415,1124.240687509493,1492.1500000000001,1502.0444552982626,1250,1500.0
7.625226020812988,149,109.7415,1121.2346963664195,1496.55,1502.4711923686452,1250,1500.0
7.649533033370972,149,110.765,1118.228705223346,1500.95,1502.8761212679897,1250,1500.0
7.673991918563843,149,111.7885,1115.2227140802725,1505.3499999999999,1503.4605002604467,1250,1500.0
7.698309898376465,150,112.7885,1112.2167229371989,1505.6099999999999,1504.1296195746513,1250,1500.0
7.722601890563965,151,111.812,1115.2227140802725,1508.0999999999999,1505.0007128651835,1250,1500.0
7.746906995773315,151,111.812,1118.228705223346,1510.3900000000001,1505.856346772694,1250,1500.0
7.771296977996826,152,110.812,1124.4076870174415,1515.1099999999999,1506.9066186067184,1254.7210400000001,1500.0
7.79607892036438,152,109.7885,1130.586668811537,1519.6300000000001,1508.0366207772522,1269.77316,1500.0
7.820562839508057,153,107.7885,1140.1199550081415,1520,1509.4627059182569,1287.59708,1500.0
7.844943046569824,154,103.7885,1149.6532412047461,1520,1510.8090607227525,1309.4867999999999,1500.0
7.869261980056763,155,101.765,1159.1865274013508,1520,1512.1708749102695,1329.19856,1500.0
7.893720865249634,155,99.7415,1168.7198135979554,1520,1513.3577690417467,1347.6322,1500.0
7.918025970458984,156,96.7415,1178.2530997945601,1520,1514.3697431171843,1350,1500.0
7.942224979400635,157,94.7415,1187.7863859911645,1520,1515.0055388724313,1350,1500.0
7.966436862945557,157,92.765,1197.8652974708816,1520,1515.4643398483399,1350,1500.0
7.990713834762573,159,87.7415,1207.9442089505987,1520,1515.743690731136,1350,1500.0
8.01499891281128,159,84.718,1214.8501297792939,1520,1515.8293130628899,1350,1500.0
8.03920602798462,160,80.6945,1225.5229165145497,1520,1515.8654421753074,1350,1500.0
8.063413858413696,160,77.6475,1232.8413988472967,1520,1515.8200328019982,1350,1500.0
8.087621927261353,161,74.624,1240.1598811800436,1520,1515.6754417957864,1350,1500.0
8.11182689666748,162,69.6005,1251.4806585385115,1520,1515.5697483350593,1350,1500.0
8.13604998588562,162,66.577,1262.8014358969795,1520,1515.6753215312629,1350,1500.0
8.16040301322937,163,63.5535,1278.382720863473,1520,1515.9131369424802,1350,1500.0
8.184739828109741,163,61.5535,1289.7034982219409,1520,1516.3182930361486,1350,1500.0
8.208943843841553,164,58.53,1301.7331667622484,1520,1516.9507876007713,1350,1500.0
8.233170986175537,163,56.53,1313.7628353025559,1520,1517.5672929244865,1350,1500.0
8.257395029067993,164,52.5065,1330.3370452914239,1520,1518.2294059677392,1350,1500.0
8.28164792060852,164,50.483,1343.144389373731,1520,1518.6440949409496,1350,1500.0
8.305927991867065,165,47.436,1351.4071920074778,1520,1518.8265253851282,1350,1500.0
8.330234050750732,165,45.4125,1364.2145360897848,1517.45,1518.9114009458585,1350,1500.0
8.354686975479126,165,43.389,1373.0195851463709,1519.74,1518.8602608590063,1350,1500.0
8.379027843475342,165,39.342,1381.8246342029572,1517.6300000000001,1518.4184429652737,1350,1500.0
8.403348922729492,165,37.3185,1391.2271337517031,1517.6900000000001,1517.9603864892745,1350,1500.0
8.427674055099487,165,36.3185,1400.0321828082892,1513.3499999999999,1517.6076481204873,1350,1500.0
8.45203185081482,165,34.2715,1409.4346823570354,1511.1800000000001,1517.1321226766481,1350,1500.0
8.476349830627441,165,33.2715,1418.8371819057816,1506.8399999999999,1516.7712593320853,1350,1500.0
8.500728845596313,165,31.248,1423.695140005967,1504.6700000000001,1516.5046076502806,1350,1500.0
8.525158882141113,164,29.201,1428.5530981061524,1500.0699999999999,1516.2037650610257,1350,1500.0
8.549504041671753,165,28.1775,1437.9555976548986,1500.27,1515.9250290303689,1350,1500.0
8.573953866958618,164,27.154,1448.0185108624255,1497.8399999999999,1515.771222606947,1350,1500.0
8.598278045654297,164,26.1305,1458.0814240699524,1495.6099999999999,1515.6193050785237,1350,1500.0
8.622602939605713,164,25.107,1468.1443372774795,1493.3800000000001,1515.7419489320125,1350,1500.0
8.646925926208496,164,23.0835,1473.3492923848212,1495.55,1515.9894781277224,1350,1500.0
8.67130994796753,164,23.0835,1483.4122055923481,1493.3199999999999,1516.2607570298812,1350,1500.0
8.695684909820557,163,22.107,1494.2076680372047,1493.0599999999999,1516.5374964709649,1350,1500.0
8.720048904418945,163,22.107,1505.0031304820614,1493.0,1516.8163999794049,1350,1500.0
8.744436025619507,163,22.154,1515.798592926918,1492.9400000000001,1516.9611313117446,1350,1500.0
8.76875901222229,162,23.1775,1521.0035480342597,1488.28,1517.0702954508506,1350,1500.0
8.793097972869873,162,23.2245,1531.7990104791163,1485.99,1517.206780940332,1350,1500.0
8.817389011383057,161,23.2245,1537.3895178166313,1483.5,1517.1417190014902,1350,1500.0
8.841683864593506,160,23.2245,1542.9800251541462,1480,1516.8985319323083,1350,1500.0
8.865912914276123,160,23.2245,1548.5705324916612,1480,1516.4772197327864,1350,1500.0
8.894202947616577,159,23.201,1548.5705324916612,1480,1515.8746015970253,1350,1500.0
8.91855502128601,159,22.201,1554.1610398291764,1480,1515.1190156139428,1350,1500.0
8.942808866500854,159,22.154,1548.5705324916612,1480,1514.1338332777921,1350,1500.0
8.967054843902588,159,21.154,1542.9800251541462,1480,1512.9693691546106,1350,1500.0
8.991363048553467,159,21.1305,1537.3895178166313,1480,1511.6256232443986,1350,1500.0
9.015666007995605,158,21.154,1537.3895178166313,1481.8800000000001,1510.4631832704258,1350,1500.0
9.040089845657349,158,21.154,1531.7990104791163,1486.1600000000001,1509.0963042264034,1350,1500.0
9.064571857452393,157,21.1775,1521.0035480342597,1485.8399999999999,1507.8852846714285,1350,1500.0
9.088896036148071,157,21.2245,1510.208085589403,1483.55,1506.8535469034844,1350,1500.0
9.11321496963501,156,22.248,1499.4126231445464,1480,1506.0010909225709,1350,1500.0
9.137460947036743,156,22.248,1494.2076680372047,1480,1505.0176435714559,1350,1500.0
9.161715030670166,154,24.2715,1478.5542474921626,1480,1504.0207211698964,1350,1500.0
9.185972929000854,154,25.2715,1468.4913342846355,1480,1503.2270811816959,1350,1500.0
9.2102530002594,154,25.295,1453.8838796285479,1480,1502.4547796438601,1350,1500.0
9.234542846679688,153,26.342,1439.2764249724603,1480,1501.7242669929078,1350,1500.0
9.258771896362305,153,27.342,1424.6689703163727,1480,1500.8678280087131,1350,1500.0
9.283015012741089,152,29.3655,1405.8010080522595,1480,1500.1976678849362,1350,1500.0
9.307240962982178,152,30.389,1392.1380008954879,1480,1499.4209507635451,1350,1500.0
9.331477880477905,152,31.4125,1378.4749937387162,1480,1498.7869268334703,1350,1500.0
9.35570502281189,151,32.436,1360.8096915562235,1480,1498.1575169163245,1350,1500.0
9.37999701499939,150,33.4595,1343.144389373731,1480,1497.7184465598489,1350,1500.0
9.404322862625122,150,35.483,1326.5701793848627,1480,1497.4495349380743,1350,1500.0
9.428585052490234,150,38.483,1309.9959693959947,1480,1497.2012900498139,1350,1500.0
9.452820062637329,149,39.5065,1297.9663008556872,1480,1496.9941623315867,1350,1500.0
9.477046012878418,149,40.53,1282.3850158891937,1480,1496.9253082817136,1346.7039200000002,1500.0
9.501353025436401,149,42.5535,1263.4494265201913,1480,1496.8949866722262,1339.5001600000001,1500.0
9.525711059570312,149,44.577,1248.7743447592143,1480,1496.8719986255542,1332.2964000000002,1500.0
9.550137042999268,148,47.577,1230.9262723472152,1480,1496.8838523332217,1326.60888,1500.0
9.574548959732056,148,49.6005,1213.0781999352162,1480,1496.6721537662445,1320.6531600000001,1500.0
9.598889827728271,148,52.6475,1196.2264314058648,1481.0999999999999,1496.3643035433734,1310.5554,1500.0
9.623327016830444,148,54.671,1182.3806540195869,1481.04,1496.2607832557233,1303.04584,1500.0
9.647743940353394,148,57.6945,1169.2957513967963,1480.98,1496.1514184318175,1292.8962799999999,1500.0
9.672196865081787,148,59.718,1156.2108487740056,1485.3199999999999,1496.223164574282,1285.3528799999999,1500.0
9.696598052978516,148,63.718,1140.2741084000941,1487.49,1496.5139695241598,1273.9515200000001,1500.0
9.72123384475708,148,65.718,1127.8889844523685,1489.6600000000001,1496.9928705922903,1269.2098000000001,1500.0
9.745975017547607,148,67.7415,1118.8581649071518,1491.8299999999999,1497.4786204059817,1264.4398799999999,1500.0
9.77053189277649,148,70.7415,1107.1180994983704,1494.0,1497.9448183555619,1259.8919999999998,1500.0
9.795023918151855,148,72.765,1098.551024740611,1494.0,1498.4179345053465,1255.18788,1500.0
9.819427967071533,149,76.765,1089.9839499828515,1496.4300000000001,1499.0548006624731,1250.8,1500.0
9.843968868255615,149,78.7885,1084.4228663681656,1498.6600000000001,1499.7759156522857,1250,1500.0
9.868307828903198,149,80.7885,1075.855791610406,1500.8900000000001,1500.3529672903464,1250,1500.0
9.892611980438232,149,81.7885,1067.7176204669631,1503.1199999999999,1500.9996607062114,1250,1500.0
9.916929960250854,149,82.7885,1059.5794493235203,1505.3499999999999,1501.5236863945552,1250,1500.0
9.941386938095093,150,84.765,1054.2931159311984,1505.6099999999999,1501.9378776252574,1250.5128,1500.0
9.966223955154419,150,85.765,1051.5838700676334,1505.6700000000001,1502.2444996723814,1257.04252,1500.0
9.990723848342896,150,85.765,1046.2975366753114,1505.73,1502.6240347229655,1267.6202799999999,1500.0
10.015219926834106,150,86.765,1046.2975366753114,1505.79,1503.1634465801583,1274.2780399999999,1500.0
10.039674043655396,151,86.7885,1043.7204491465545,1508.28,1503.8452269434827,1282.1217999999999,1500.0
10.06444501876831,151,87.7885,1043.7204491465545,1508.3399999999999,1504.598771961493,1287.44796,1500.0
10.08915400505066,152,88.812,1043.7204491465545,1510.8299999999999,1505.3480392228764,1291.3201200000001,1500.0
10.113939046859741,152,88.8355,1043.7204491465545,1513.1199999999999,1506.1574742450666,1293.6384399999999,1500.0
10.138386011123657,153,88.8355,1046.2975366753114,1517.8399999999999,1506.8116736526956,1297.4249600000001,1500.0
10.162811040878296,153,88.8355,1048.8746242040684,1517.96,1507.4536658036093,1299.9172800000001,1500.0
10.187235832214355,155,87.8355,1054.1609575963903,1520,1508.1078495609092,1305.16156,1500.0
10.211572885513306,155,87.812,1059.7220412110762,1520,1508.8488248267433,1310.77368,1500.0
10.235901832580566,155,86.812,1065.0083746033981,1520,1509.5885637165768,1319.0634,1500.0
10.26032304763794,156,86.812,1070.569458218084,1520,1510.341746239126,1324.79312,1500.0
10.284805059432983,157,85.7885,1078.7076293615269,1520,1511.1187329122699,1333.19292,1500.0
10.309138059616089,157,84.765,1087.2747041192865,1520,1511.8374818908717,1338.9065599999999,1500.0
10.333461999893188,158,83.765,1095.841778877046,1520,1512.479578095325,1344.5742399999999,1500.0
10.357795000076294,158,82.7415,1104.4088536348054,1520,1513.0615065389718,1348.912,1500.0
10.382112979888916,158,81.718,1112.9759283925648,1520,1513.6440948343329,1350,1500.0
10.406331062316895,158,81.718,1121.5430031503242,1520,1514.0727177296831,1350,1500.0
10.430628061294556,159,80.6945,1127.4008320445187,1520,1514.3094494017769,1350,1500.0
10.454977989196777,159,79.6945,1130.4068231875922,1518.8499999999999,1514.2763355612581,1350,1500.0
10.479331016540527,160,78.671,1136.2646520817866,1517.0,1514.0763553737493,1350,1500.0
10.503784894943237,160,78.6475,1139.2706432248601,1517.1199999999999,1513.6065296736274,1350,1500.0
10.528105974197388,160,77.624,1142.2766343679336,1519.4100000000001,1512.9570043566357,1350,1500.0
10.55245304107666,160,77.577,1139.2706432248601,1517.3,1512.0957878941451,1350,1500.0
10.57679796218872,161,76.5535,1139.2706432248601,1519.79,1511.3247511659467,1350,1500.0
10.601193904876709,161,76.5065,1136.2646520817866,1517.6800000000001,1510.3555502523934,1350,1500.0
10.625601053237915,161,75.483,1136.2646520817866,1515.5699999999999,1509.4765290731325,1350,1500.0
10.650017976760864,161,76.483,1133.2586609387131,1513.46,1508.5704539735837,1350,1500.0
10.674465894699097,161,76.4595,1130.2526697956396,1513.52,1507.9302934751529,1350,1500.0
10.698816061019897,161,76.4595,1127.2466786525661,1509.1800000000001,1507.2901329767224,1348.1841199999999,1500.0
10.723259925842285,161,78.483,1124.2406875094925,1507.01,1506.9158870794097,1339.96604,1500.0
10.747680902481079,161,79.483,1121.234696366419,1504.8399999999999,1506.541641182097,1328.7023199999999,1500.0
10.772119998931885,161,80.483,1118.2287052233455,1502.6700000000001,1506.3477547533687,1320.19056,1500.0
10.7965669631958,161,81.5065,1115.3768674722246,1500.5,1506.159186616663,1310.17488,1500.0
10.821022033691406,161,82.53,1109.5190385780302,1500.5,1505.9617161215717,1300.0773199999999,1500.0
10.84552788734436,160,85.53,1106.667200826909,1498.0699999999999,1505.7823971883829,1289.0176799999999,1500.0
10.870036840438843,160,86.5535,1100.8093719327146,1495.8399999999999,1505.594175896809,1283.0479599999999,1500.0
10.894556045532227,160,88.5535,1100.8093719327146,1493.6099999999999,1505.5224945695511,1274.4664399999999,1500.0
10.91899299621582,160,89.577,1100.8093719327146,1491.3800000000001,1505.5317437730682,1268.48064,1500.0
10.943403005599976,159,90.577,1100.8093719327146,1486.72,1505.802282975945,1263.94884,1500.0
10.968138933181763,159,92.577,1100.8093719327146,1486.6600000000001,1506.1537527095966,1260.9850799999999,1500.0
10.992595911026001,158,93.577,1100.8093719327146,1484.1700000000001,1506.7665124426078,1259.28712,1500.0
11.017014026641846,158,93.5535,1100.8093719327146,1481.8800000000001,1507.2890924413266,1263.0912000000001,1500.0
11.041432857513428,157,93.5535,1106.6672008269093,1480,1507.9282124043616,1268.3409200000001,1500.0
11.065748929977417,157,94.5535,1109.5190385780302,1480,1508.4636256729607,1272.35868,1500.0
11.090097904205322,156,94.5535,1115.3768674722246,1480,1509.1027456359957,1279.09644,1500.0
11.1145339012146,155,94.53,1124.4076870174413,1480,1509.8513337764909,1287.3042800000001,1500.0
11.138864040374756,155,93.53,1127.4136781605148,1480,1510.6629899234688,1295.3381199999999,1500.0
11.163168907165527,155,93.5065,1133.5926599546103,1480,1511.3228242485472,1300.84204,1500.0
11.18778395652771,154,92.5065,1139.7716417487059,1480,1511.9969177623816,1310.3977600000001,1500.0
11.212401866912842,154,91.483,1145.9506235428012,1480,1512.504910996387,1318.73552,1500.0
11.237006902694702,153,89.483,1155.4839097394058,1480,1512.7721480133889,1329.69928,1500.0
11.261616945266724,153,89.483,1161.6628915335014,1480,1513.0293006458178,1335.4949999999999,1500.0
11.286211013793945,153,88.483,1164.8358821845234,1480,1513.1731119968138,1343.86492,1500.0
11.310911893844604,152,87.483,1174.369168381128,1480,1513.3463594885509,1349.51484,1500.0
11.335620880126953,151,86.483,1180.8964634346589,1480,1513.5068948309304,1350,1500.0
11.360198020935059,151,84.483,1184.250767837168,1480,1513.4527082620154,1350,1500.0
11.38483190536499,151,83.4595,1190.7780628906989,1480,1513.3280598292827,1350,1500.0
11.409345865249634,151,83.4595,1190.7780628906989,1480,1513.1690285835705,1350,1500.0
11.434077978134155,151,82.4595,1190.7780628906989,1480,1512.6233696198851,1350,1500.0
11.458646059036255,151,81.436,1194.1323672932081,1480.3099999999999,1511.9871659086971,1350,1500.0
11.483248949050903,151,80.436,1194.1323672932081,1484.6500000000001,1511.4206081494453,1350,1500.0
11.507859945297241,150,80.436,1197.4866716957172,1486.5599999999999,1510.7635056426914,1350,1500.0
11.532485008239746,151,80.436,1200.8409760982261,1491.0999999999999,1510.3022219875431,1350,1500.0
11.557117938995361,150,80.436,1200.8409760982261,1490.8399999999999,1510.1118425484819,1350,1500.0
11.581743001937866,150,80.436,1200.8409760982261,1488.6099999999999,1509.916023696876,1349.1422,1500.0
11.606448888778687,151,80.4595,1200.8409760982261,1488.8099999999999,1509.8208339773453,1343.5762399999999,1500.0
11.63122296333313,151,80.436,1200.8409760982261,1493.21,1509.72020484527,1339.4924799999999,1500.0
11.655972957611084,151,81.436,1204.195280500735,1493.21,1509.5340409509308,1332.7405200000001,1500.0
11.680742025375366,151,81.4125,1207.5495849032438,1497.6099999999999,1509.4485061886667,1328.6106,1500.0
11.705522060394287,151,82.4125,1211.1012013294298,1502.01,1509.5710369553701,1323.20444,1500.0
11.730329990386963,151,83.4125,1214.6528177556161,1502.01,1509.8001162148591,1317.7840800000001,1500.0
11.75517988204956,151,83.4125,1214.6528177556161,1499.8399999999999,1510.1138423325056,1313.49792,1500.0
11.780333042144775,152,84.4125,1214.6528177556161,1502.27,1510.3269393180767,1309.37176,1500.0
11.806439876556396,152,85.4125,1218.2044341818021,1502.3299999999999,1510.4613088062008,1303.7398000000001,1500.0
11.83122706413269,152,86.4125,1221.7560506079881,1502.3900000000001,1510.4891298015393,1299.46784,1500.0
11.855999946594238,152,88.436,1225.3076670341741,1504.6199999999999,1510.4104023040923,1293.82188,1500.0
11.880774974822998,152,89.436,1228.8592834603601,1506.8499999999999,1510.4382232994305,1287.9960799999999,1500.0
11.905540943145752,152,89.4595,1236.177765793107,1504.6800000000001,1510.8031787934062,1284.7482399999999,1500.0
11.930393934249878,153,90.4595,1243.496248125854,1504.9400000000001,1511.2752209038683,1281.72056,1500.0
11.955188989639282,153,92.4595,1243.496248125854,1505.0,1511.6077813510476,1276.05288,1500.0
11.980236053466797,153,92.4595,1243.496248125854,1505.0599999999999,1511.8337933054413,1277.0909999999999,1500.0
12.005239963531494,153,92.436,1250.8147304586007,1505.1199999999999,1512.0991959147436,1280.99116,1500.0
12.029943943023682,154,92.436,1258.1332127913477,1509.78,1512.1450440540634,1283.5689199999999,1500.0
12.05476188659668,154,92.4125,1261.9000786979086,1509.8399999999999,1511.955355449483,1287.6487199999999,1500.0
12.079478979110718,154,92.4125,1265.6669446044696,1509.9000000000001,1511.9852213148849,1295.9403199999999,1500.0
12.104310035705566,154,92.4125,1269.4338105110305,1509.96,1512.2346416502694,1301.4799600000001,1500.0
12.129036903381348,154,92.4125,1273.2006764175917,1510.02,1512.2645075156715,1305.5938000000001,1500.0
12.153961896896362,154,93.436,1273.2006764175917,1505.6800000000001,1512.0578680145115,1306.9736400000002,1500.0
12.1786630153656,154,93.483,1273.2006764175917,1503.51,1511.8447710289404,1308.0318,1500.0
12.203377962112427,155,95.53,1280.9698373498736,1503.77,1511.6736981411393,1301.0222799999999,1500.0
12.228107929229736,155,96.6005,1288.7389982821555,1503.8299999999999,1511.509688126913,1293.6430399999999,1500.0
12.25290584564209,155,96.624,1292.7412933078763,1503.8900000000001,1511.4423385824678,1287.5183199999999,1500.0
12.277734994888306,155,96.624,1296.7435883335972,1506.1199999999999,1511.7146123587763,1284.2876000000001,1500.0
12.30245304107666,155,96.624,1300.7458833593182,1508.3499999999999,1512.2199609630534,1281.2204400000001,1500.0
12.327185869216919,155,95.6005,1304.7481783850392,1506.1800000000001,1512.4922347393619,1286.58692,1500.0
12.351884841918945,155,94.5535,1308.7504734107602,1504.01,1512.531433687702,1296.48668,1500.0
12.37682294845581,155,92.5065,1317.0132760445067,1501.8399999999999,1512.7105572749442,1310.5999200000001,1500.0
12.401809930801392,156,91.436,1321.0155710702277,1502.0999999999999,1512.7504397271787,1323.69092,1500.0
12.426614999771118,156,89.4125,1329.2783737039742,1502.1600000000001,1512.8172408411185,1340.7754399999999,1500.0
12.451442003250122,157,88.4125,1333.5388813119998,1506.8199999999999,1512.9867839821084,1350,1500.0
12.476090908050537,157,87.4125,1337.7993889200254,1511.28,1513.2770794777643,1350,1500.0
12.500823020935059,157,88.4595,1337.7993889200254,1515.74,1513.1725033819309,1350,1500.0
12.525508880615234,157,88.5065,1342.059896528051,1515.8,1513.0948459478029,1350,1500.0
12.550298929214478,158,88.53,1346.3204041360764,1518.29,1512.7693044346624,1348.634,1500.0
12.575175046920776,158,90.5535,1350.580911744102,1516.1800000000001,1512.4360165440528,1333.34708,1500.0
12.600043058395386,159,90.577,1354.8414193521276,1516.5,1512.094982275974,1319.05024,1500.0
12.624889850616455,159,91.577,1354.8414193521276,1516.6199999999999,1511.9826598026716,1307.8571199999999,1500.0
12.649688005447388,159,92.577,1359.1019269601532,1518.9100000000001,1511.8817632361361,1296.8114800000001,1500.0
12.674551963806152,159,94.5535,1354.8414193521276,1516.8,1511.6069604954184,1284.56564,1500.0
12.699275970458984,160,95.5535,1350.580911744102,1519.29,1511.0765272982192,1279.0774000000001,1500.0
